[
  {
    "latitude": 12.5847,
    "pop": 72600,
    "longitude": -81.7006,
    "name": "San Andrés",
    "country": "CO",
    "lastUpdated": "2020-04-29T23:48:09.758Z",
    "dead": 0,
    "id": "01b09TY4vmuZwzVuiRFK",
    "infected": 6,
    "recovered": 3,
    "sick": 3,
    "invisible": false
  },
  {
    "recovered": 196,
    "latitude": 49.4482,
    "pop": 67052,
    "longitude": -2.5895,
    "name": "Guernsey",
    "country": "GG",
    "lastUpdated": "2020-04-30T00:15:10.137Z",
    "dead": 13,
    "id": "0FOJefeLxQYXQ1CnJm9o",
    "infected": 251,
    "sick": 42,
    "invisible": false
  },
  {
    "infected": 4410,
    "recovered": 1269,
    "latitude": 41.066666,
    "pop": 5827000,
    "longitude": 14.333333,
    "name": "Campania",
    "country": "IT",
    "lastUpdated": "2020-04-30T00:01:01.303Z",
    "dead": 359,
    "id": "0GJcws44NSPsDHAuxJhW",
    "sick": 2782,
    "invisible": false
  },
  {
    "lastUpdated": "2020-04-30T00:07:05.427Z",
    "dead": 1,
    "id": "0HDQbiHe462xMCUV5HiI",
    "infected": 169,
    "recovered": 0,
    "latitude": -20.2167,
    "pop": 383870,
    "longitude": -70.14222,
    "name": "Tarapacá",
    "country": "CL",
    "sick": 168,
    "invisible": false
  },
  {
    "latitude": 20.9517,
    "pop": 45990000,
    "longitude": 85.0985,
    "name": "Odisha",
    "country": "IN",
    "lastUpdated": "2020-04-30T00:11:08.208Z",
    "dead": 1,
    "id": "0VG7S6aaK4eSo59fL9JO",
    "infected": 125,
    "recovered": 39,
    "sick": 85,
    "invisible": false
  },
  {
    "lastUpdated": "2020-04-30T00:08:10.128Z",
    "dead": 27,
    "id": "0XmCRqiK2ZaehoEJvfer",
    "infected": 226,
    "recovered": 0,
    "latitude": 20.4737,
    "pop": 2990300,
    "longitude": -98.8582,
    "name": "Hidalgo",
    "country": "MX",
    "sick": 199,
    "invisible": false
  },
  {
    "lastUpdated": "2020-04-30T00:11:08.209Z",
    "dead": 0,
    "id": "0jStOpTUNRaQYJqgmRoK",
    "infected": 33,
    "recovered": 15,
    "latitude": 11.7401,
    "pop": 427246,
    "longitude": 92.6586,
    "name": "Andaman and Nicobar Islands",
    "country": "IN",
    "sick": 18,
    "invisible": false
  },
  {
    "latitude": 25.315058,
    "pop": 2639000,
    "longitude": 51.145517,
    "name": "Qatar",
    "country": "QA",
    "lastUpdated": "2020-04-30T00:10:03.877Z",
    "dead": 10,
    "id": "0m4aECS0Z2DGFEr8ldgI",
    "infected": 12564,
    "recovered": 1243,
    "sick": 11311,
    "invisible": false
  },
  {
    "pop": 90320000,
    "longitude": 87.855,
    "name": "West Bengal",
    "country": "IN",
    "lastUpdated": "2020-04-30T00:11:08.208Z",
    "dead": 22,
    "id": "0n54EMSDJcRoT1QEvw80",
    "infected": 725,
    "recovered": 119,
    "latitude": 22.9868,
    "sick": 584,
    "invisible": false
  },
  {
    "latitude": 22.9734,
    "pop": 73340000,
    "longitude": 78.6569,
    "name": "Madhya Pradesh",
    "country": "IN",
    "lastUpdated": "2020-04-30T00:11:08.207Z",
    "dead": 130,
    "id": "0s18o5DrDAHjbu5MFcrj",
    "infected": 2560,
    "recovered": 461,
    "sick": 1969,
    "invisible": false
  },
  {
    "latitude": 37.0902,
    "longitude": -95.7129,
    "name": "Unknown US state",
    "country": "US",
    "lastUpdated": "2020-04-30T00:10:03.873Z",
    "dead": 0,
    "id": "0tFoopNTs6e4tOoaltu2",
    "invisible": true,
    "infected": 0,
    "recovered": 147114,
    "sick": 0
  },
  {
    "pop": 37330000,
    "longitude": 108.472214,
    "name": "Shaanxi",
    "country": "CN",
    "lastUpdated": "2020-04-29T23:53:13.987Z",
    "dead": 3,
    "id": "0x2HLhr5z5xAtEdO4iZm",
    "infected": 306,
    "recovered": 253,
    "latitude": 35.64249,
    "sick": 50,
    "invisible": false
  },
  {
    "latitude": 41.643351,
    "pop": 2077000,
    "longitude": 21.668393,
    "name": "North Macedonia",
    "country": "MK",
    "lastUpdated": "2020-04-30T00:10:03.887Z",
    "dead": 73,
    "id": "19MvIhipqTyYv1H37Upw",
    "infected": 1442,
    "recovered": 627,
    "sick": 742,
    "invisible": false
  },
  {
    "lastUpdated": "2020-04-30T00:06:02.422Z",
    "dead": 3,
    "id": "1DOMOmCWDtva46OVSZLv",
    "infected": 258,
    "recovered": 0,
    "latitude": 53.1355,
    "pop": 521542,
    "longitude": -57.6604,
    "name": "Newfoundland and Labrador",
    "country": "CA",
    "sick": 255,
    "invisible": false
  },
  {
    "latitude": 35.801933,
    "pop": 5627000,
    "longitude": 96.779286,
    "name": "Qinghai",
    "country": "CN",
    "lastUpdated": "2020-04-29T23:53:13.993Z",
    "dead": 0,
    "id": "1Fap7rZu9SIRqf5TG9Dg",
    "infected": 18,
    "recovered": 18,
    "sick": 0,
    "invisible": false
  },
  {
    "infected": 0,
    "recovered": 11423,
    "latitude": 23.6345,
    "pop": 126200000,
    "longitude": -102.5528,
    "name": "Unknown Mexico state",
    "country": "MX",
    "lastUpdated": "2020-04-30T00:10:03.877Z",
    "dead": 0,
    "id": "1YXQMlVL3fUeDZmcVfJw",
    "invisible": true,
    "sick": 0
  },
  {
    "lastUpdated": "2020-04-30T00:01:01.304Z",
    "dead": 3003,
    "id": "1eTSQyfp8RoDPeFrIwun",
    "infected": 25861,
    "recovered": 7337,
    "latitude": 44.9,
    "pop": 4376000,
    "longitude": 8.206944,
    "name": "Piemonte",
    "country": "IT",
    "sick": 15521,
    "invisible": false
  },
  {
    "latitude": 51.993,
    "pop": 1003000,
    "longitude": 15.461,
    "name": "Lubuskie",
    "country": "PL",
    "lastUpdated": "2020-04-30T00:03:08.356Z",
    "dead": 0,
    "id": "1j1OurxLTpZYuWIWwQ9F",
    "infected": 87,
    "recovered": 0,
    "sick": 87,
    "invisible": false
  },
  {
    "lastUpdated": "2020-04-30T00:10:03.885Z",
    "dead": 107,
    "id": "1qTPB8X3tyLyIdsb5TN3",
    "infected": 3771,
    "recovered": 1114,
    "latitude": 47.4116,
    "pop": 3550000,
    "longitude": 28.3699,
    "name": "Moldova",
    "country": "MD",
    "sick": 2550,
    "invisible": false
  },
  {
    "latitude": 37.0902,
    "longitude": -95.7129,
    "name": "Federal Bureau of Prisons",
    "country": "US",
    "lastUpdated": "2020-04-30T00:09:06.858Z",
    "dead": 31,
    "id": "22PJOAThcDFKgSbyQIkD",
    "invisible": true,
    "infected": 1877,
    "recovered": 0,
    "sick": 1846
  },
  {
    "infected": 1,
    "recovered": 1,
    "latitude": 30.15336,
    "pop": 3180000,
    "longitude": 88.787865,
    "name": "Tibet",
    "country": "CN",
    "lastUpdated": "2020-04-29T23:53:13.993Z",
    "dead": 0,
    "id": "25qIBtsW2nfQj3pwBKg9",
    "sick": 0,
    "invisible": false
  },
  {
    "pop": 264000000,
    "longitude": 115.66779,
    "name": "Indonesia",
    "country": "ID",
    "lastUpdated": "2020-04-30T00:10:03.878Z",
    "dead": 784,
    "id": "2KHYUb5t3lwzVVmDjwNX",
    "infected": 9771,
    "recovered": 1391,
    "latitude": -1.572184,
    "sick": 7596,
    "invisible": false
  },
  {
    "latitude": 43.807191,
    "pop": 4191000,
    "longitude": -120.585594,
    "name": "Oregon",
    "country": "US",
    "lastUpdated": "2020-04-30T00:09:06.856Z",
    "dead": 101,
    "id": "2OrsssmGUs4XCzaZzvTv",
    "infected": 2446,
    "recovered": 0,
    "sick": 2345,
    "invisible": false
  },
  {
    "infected": 481,
    "recovered": 0,
    "latitude": -23.65,
    "pop": 425000,
    "longitude": -70.400002,
    "name": "Antofagasta",
    "country": "CL",
    "lastUpdated": "2020-04-30T00:07:05.429Z",
    "dead": 4,
    "id": "2c5HBZ1ffkCVXnMYUWnY",
    "sick": 477,
    "invisible": false
  },
  {
    "latitude": 0.035574,
    "pop": 9029000,
    "longitude": -51.070534,
    "name": "Amapá",
    "country": "BR",
    "lastUpdated": "2020-04-30T00:11:11.931Z",
    "dead": 31,
    "id": "2dzhyWsBSPpENWlNew0b",
    "infected": 1016,
    "recovered": 0,
    "sick": 985,
    "invisible": false
  },
  {
    "longitude": 126.548103,
    "name": "Jilin",
    "country": "CN",
    "lastUpdated": "2020-04-29T23:53:13.988Z",
    "dead": 1,
    "id": "2jxHvSsxdnom0nPNvOT8",
    "infected": 110,
    "recovered": 99,
    "latitude": 43.851921,
    "pop": 27460000,
    "sick": 10,
    "invisible": false
  },
  {
    "latitude": 36.1408,
    "pop": 34571,
    "longitude": -5.3536,
    "name": "Gibraltar",
    "country": "GI",
    "lastUpdated": "2020-04-30T00:10:03.897Z",
    "dead": 0,
    "id": "2p11BjSAs3wVyymgqBOe",
    "infected": 141,
    "recovered": 131,
    "sick": 10,
    "invisible": false
  },
  {
    "longitude": 1.6751,
    "name": "Centre-Val de Loire",
    "country": "FR",
    "lastUpdated": "2020-04-29T23:02:14.069Z",
    "dead": 383,
    "id": "2sLNkkHpyaHx7dD3aMDO",
    "infected": 3569,
    "recovered": 1170,
    "latitude": 47.7516,
    "pop": 2567000,
    "sick": 2016,
    "invisible": false
  },
  {
    "recovered": 1064,
    "latitude": 42.565044,
    "pop": 884640,
    "longitude": 12.643751,
    "name": "Umbria",
    "country": "IT",
    "lastUpdated": "2020-04-30T00:01:01.309Z",
    "dead": 66,
    "id": "319tiZOMczx1y0DfvOib",
    "infected": 1391,
    "sick": 261,
    "invisible": false
  },
  {
    "latitude": 2.43823,
    "pop": 1355000,
    "longitude": -76.6131592,
    "name": "Cauca",
    "country": "CO",
    "lastUpdated": "2020-04-29T23:48:09.756Z",
    "dead": 4,
    "id": "38T96Q3XNjt5FSJygPed",
    "infected": 35,
    "recovered": 12,
    "sick": 19,
    "invisible": false
  },
  {
    "lastUpdated": "2020-04-30T00:10:03.902Z",
    "dead": 3,
    "id": "3IlPjAbP5qVMn1nlgLTJ",
    "infected": 97,
    "recovered": 54,
    "latitude": -13.133896,
    "pop": 17090000,
    "longitude": 27.849332,
    "name": "Zambia",
    "country": "ZM",
    "sick": 40,
    "invisible": false
  },
  {
    "pop": 631219,
    "longitude": 19.3958,
    "name": "Montenegro",
    "country": "ME",
    "lastUpdated": "2020-04-30T00:10:03.896Z",
    "dead": 7,
    "id": "3LstMSN5XMYBkxbe5HN7",
    "infected": 322,
    "recovered": 203,
    "latitude": 42.7044,
    "sick": 112,
    "invisible": false
  },
  {
    "infected": 106,
    "recovered": 101,
    "latitude": -35.4735,
    "pop": 418440,
    "longitude": 149.0124,
    "name": "Australian Capital Territory",
    "country": "AU",
    "lastUpdated": "2020-04-30T00:06:02.423Z",
    "dead": 3,
    "id": "3OZoQsKrzxZ18EKyfGE6",
    "sick": 2,
    "invisible": false
  },
  {
    "infected": 38,
    "recovered": 29,
    "latitude": 26.2006,
    "pop": 30940000,
    "longitude": 92.9376,
    "name": "Assam",
    "country": "IN",
    "lastUpdated": "2020-04-30T00:11:08.209Z",
    "dead": 1,
    "id": "3cCbnJCsK7mKlTO08K1o",
    "sick": 8,
    "invisible": false
  },
  {
    "latitude": 40.4173,
    "pop": 11690000,
    "longitude": -82.9071,
    "name": "Ohio",
    "country": "US",
    "lastUpdated": "2020-04-30T00:09:06.850Z",
    "dead": 937,
    "id": "3fC3bAyIRUquOQOEnQNe",
    "infected": 17303,
    "recovered": 0,
    "sick": 16366,
    "invisible": false
  },
  {
    "latitude": 25,
    "pop": 3066400,
    "longitude": -107.5,
    "name": "Sinaloa",
    "country": "MX",
    "lastUpdated": "2020-04-30T00:08:10.127Z",
    "dead": 130,
    "id": "3kFCzJguabtBvXaHxgiu",
    "infected": 806,
    "recovered": 0,
    "sick": 676,
    "invisible": false
  },
  {
    "pop": 4708300,
    "longitude": -76.522224,
    "name": "Valle del Cauca",
    "country": "CO",
    "lastUpdated": "2020-04-29T23:48:09.752Z",
    "dead": 51,
    "id": "3mC2LveOpXV8P1PmQGUj",
    "infected": 877,
    "recovered": 184,
    "latitude": 3.420556,
    "sick": 642,
    "invisible": false
  },
  {
    "latitude": 21.0079,
    "pop": 4420000,
    "longitude": -10.9408,
    "name": "Mauritania",
    "country": "MR",
    "lastUpdated": "2020-04-30T00:10:03.906Z",
    "dead": 1,
    "id": "4NnFMekRK2m14IlnZZoj",
    "infected": 8,
    "recovered": 6,
    "sick": 1,
    "invisible": false
  },
  {
    "latitude": 53.7267,
    "pop": 5071000,
    "longitude": -127.6476,
    "name": "British Columbia",
    "country": "CA",
    "lastUpdated": "2020-04-30T00:06:02.421Z",
    "dead": 106,
    "id": "4hfZRUoUgI4a3vrG0GBk",
    "infected": 2053,
    "recovered": 0,
    "sick": 1947,
    "invisible": false
  },
  {
    "longitude": -43.196388,
    "name": "Rio de Janeiro",
    "country": "BR",
    "lastUpdated": "2020-04-30T00:11:11.935Z",
    "dead": 794,
    "id": "4kq0z3kh5zt3YAUWxvtE",
    "infected": 8869,
    "recovered": 0,
    "latitude": -22.908333,
    "pop": 17159960,
    "sick": 8075,
    "invisible": false
  },
  {
    "lastUpdated": "2020-04-30T00:11:11.931Z",
    "dead": 96,
    "id": "4yDbkEyqsNzZJjfrciYV",
    "infected": 2646,
    "recovered": 0,
    "latitude": -11.409874,
    "pop": 14812617,
    "longitude": -41.280857,
    "name": "Bahia",
    "country": "BR",
    "sick": 2550,
    "invisible": false
  },
  {
    "infected": 1766,
    "recovered": 1267,
    "latitude": 40.3426,
    "pop": 9898000,
    "longitude": 47.93802,
    "name": "Azerbaijan",
    "country": "AZ",
    "lastUpdated": "2020-04-30T00:10:03.886Z",
    "dead": 23,
    "id": "4zqzRm2xHn0CDVOUQJ8p",
    "sick": 476,
    "invisible": false
  },
  {
    "id": "54cfsdsRF76XVHWtZs19",
    "infected": 464,
    "recovered": 0,
    "latitude": 22.233105,
    "pop": 3672300,
    "longitude": -97.861099,
    "name": "Tamaulipas",
    "country": "MX",
    "lastUpdated": "2020-04-30T00:08:10.128Z",
    "dead": 20,
    "sick": 444,
    "invisible": false
  },
  {
    "lastUpdated": "2020-04-29T23:56:04.664Z",
    "dead": 3711,
    "id": "57ydD48mLRD2YoyteJZj",
    "infected": 26294,
    "recovered": 6316,
    "latitude": 51.0109,
    "pop": 6596000,
    "longitude": 3.7265,
    "name": "Flanders",
    "country": "BE",
    "sick": 16267,
    "invisible": false
  },
  {
    "lastUpdated": "2020-04-30T00:10:03.902Z",
    "dead": 11,
    "id": "5MHegCUO9L3LiAU7DDey",
    "infected": 80,
    "recovered": 23,
    "latitude": 25.025885,
    "pop": 395361,
    "longitude": -78.035889,
    "name": "Bahamas",
    "country": "BS",
    "sick": 46,
    "invisible": false
  },
  {
    "recovered": 2284,
    "latitude": -31.253218,
    "pop": 7544000,
    "longitude": 146.921097,
    "name": "New South Wales",
    "country": "AU",
    "lastUpdated": "2020-04-30T00:06:02.421Z",
    "dead": 41,
    "id": "5N16a2OXXRpsEFanw0TC",
    "infected": 3016,
    "sick": 691,
    "invisible": false
  },
  {
    "lastUpdated": "2020-04-30T00:10:03.904Z",
    "dead": 0,
    "id": "5N4PRxsCDzzwk7R200V1",
    "infected": 34,
    "recovered": 0,
    "latitude": 6.8769908,
    "pop": 12580000,
    "longitude": 31.3069782,
    "name": "South Sudan",
    "country": "SS",
    "sick": 34,
    "invisible": false
  },
  {
    "lastUpdated": "2020-04-30T00:09:12.683Z",
    "dead": 1218,
    "id": "5Va9A7CXR8AXdUz4HTJj",
    "infected": 11816,
    "recovered": 6599,
    "latitude": 39.484,
    "pop": 4975000,
    "longitude": -0.7533,
    "name": "C. Valenciana",
    "country": "ES",
    "sick": 3999,
    "invisible": false
  },
  {
    "infected": 18,
    "recovered": 17,
    "latitude": -20.9043045,
    "pop": 280460,
    "longitude": 165.618042,
    "name": "New Caledonia",
    "country": "NC",
    "lastUpdated": "2020-04-30T00:10:03.904Z",
    "dead": 0,
    "id": "5fg04eyDwFw3kEXnrxez",
    "sick": 1,
    "invisible": false
  },
  {
    "latitude": 28.394857,
    "pop": 29300000,
    "longitude": 84.124008,
    "name": "Nepal",
    "country": "NP",
    "lastUpdated": "2020-04-30T00:10:03.903Z",
    "dead": 0,
    "id": "5gXZIjRgAvd6xWN1LOv8",
    "infected": 57,
    "recovered": 16,
    "sick": 41,
    "invisible": false
  },
  {
    "lastUpdated": "2020-04-30T00:10:03.880Z",
    "dead": 558,
    "id": "5pwmh7aSdGRKqRbnuyc0",
    "infected": 8212,
    "recovered": 1023,
    "latitude": 12.879721,
    "pop": 104900000,
    "longitude": 121.774017,
    "name": "Philippines",
    "country": "PH",
    "sick": 6631,
    "invisible": false
  },
  {
    "lastUpdated": "2020-04-30T00:10:03.904Z",
    "dead": 4,
    "id": "5qtR9nx4BLwu1ODTniaY",
    "infected": 32,
    "recovered": 5,
    "latitude": -17.824858,
    "pop": 14802190,
    "longitude": 31.053028,
    "name": "Zimbabwe",
    "country": "ZW",
    "sick": 23,
    "invisible": false
  },
  {
    "longitude": -109.188,
    "name": "Navajo Nation",
    "country": "US",
    "lastUpdated": "2020-04-30T00:09:06.858Z",
    "dead": 60,
    "id": "5vkKgxTaKq1IH0Go357L",
    "invisible": true,
    "infected": 1873,
    "recovered": 0,
    "latitude": 36.0672,
    "pop": 356890,
    "sick": 1813
  },
  {
    "longitude": -99.177254,
    "name": "Ciudad de México",
    "country": "MX",
    "lastUpdated": "2020-04-30T00:08:10.127Z",
    "dead": 348,
    "id": "61E7TGjUwAo9xu6Y6gAH",
    "infected": 4474,
    "recovered": 0,
    "latitude": 19.432241,
    "pop": 8781300,
    "sick": 4126,
    "invisible": false
  },
  {
    "lastUpdated": "2020-04-30T00:10:03.887Z",
    "dead": 45,
    "id": "694ON7d0mRJDeM1gHBTR",
    "infected": 1375,
    "recovered": 563,
    "latitude": 55.621011,
    "pop": 2794000,
    "longitude": 23.804991,
    "name": "Lithuania",
    "country": "LT",
    "sick": 767,
    "invisible": false
  },
  {
    "recovered": 0,
    "latitude": 51.1781,
    "pop": 9175000,
    "longitude": -0.5596,
    "name": "South East",
    "country": "GB",
    "lastUpdated": "2020-04-30T00:10:30.617Z",
    "dead": 0,
    "id": "6IQAsvrmBv0HPdeTnh4x",
    "infected": 16559,
    "sick": 16559,
    "invisible": false
  },
  {
    "latitude": 22.396427,
    "pop": 7392000,
    "longitude": 114.109497,
    "name": "Hong Kong",
    "country": "HK",
    "lastUpdated": "2020-04-30T00:10:03.887Z",
    "dead": 4,
    "id": "6IcHIIH0zXpY0POmBZTv",
    "infected": 1038,
    "recovered": 830,
    "sick": 204,
    "invisible": false
  },
  {
    "lastUpdated": "2020-04-30T00:11:11.921Z",
    "dead": 17,
    "id": "6LQesrx5bHJsVUi1TXBp",
    "infected": 354,
    "recovered": 0,
    "latitude": -8.65,
    "pop": 869265,
    "longitude": -72.4,
    "name": "Acre",
    "country": "BR",
    "sick": 337,
    "invisible": false
  },
  {
    "infected": 64,
    "recovered": 33,
    "latitude": 9.3077,
    "pop": 11180000,
    "longitude": 2.3158,
    "name": "Benin",
    "country": "BJ",
    "lastUpdated": "2020-04-30T00:10:03.903Z",
    "dead": 1,
    "id": "6SlpghTyB6lpMFvx3g9U",
    "sick": 30,
    "invisible": false
  },
  {
    "infected": 75134,
    "recovered": 25333,
    "latitude": 45.6667,
    "pop": 10040000,
    "longitude": 9.5,
    "name": "Lombardia",
    "country": "IT",
    "lastUpdated": "2020-04-30T00:01:01.304Z",
    "dead": 13679,
    "id": "6ZHcvMIzVWIaRnc4R3Qp",
    "sick": 36122,
    "invisible": false
  },
  {
    "lastUpdated": "2020-04-30T00:10:03.887Z",
    "dead": 89,
    "id": "6ahNiyKDSDAftCctgLH3",
    "infected": 1418,
    "recovered": 230,
    "latitude": 46.0569,
    "pop": 2067000,
    "longitude": 14.5058,
    "name": "Slovenia",
    "country": "SI",
    "sick": 1099,
    "invisible": false
  },
  {
    "latitude": -27.3667908,
    "pop": 300000,
    "longitude": -70.331398,
    "name": "Atacama",
    "country": "CL",
    "lastUpdated": "2020-04-30T00:07:05.429Z",
    "dead": 0,
    "id": "6nyns7UGGgkU7pxrHf8i",
    "infected": 35,
    "recovered": 0,
    "sick": 35,
    "invisible": false
  },
  {
    "latitude": -0.8037,
    "pop": 2025000,
    "longitude": 11.6094,
    "name": "Gabon",
    "country": "GA",
    "lastUpdated": "2020-04-30T00:10:03.896Z",
    "dead": 3,
    "id": "6pBi38TUgYfFm0bry2uh",
    "infected": 276,
    "recovered": 67,
    "sick": 206,
    "invisible": false
  },
  {
    "latitude": 22.1498,
    "pop": 2831900,
    "longitude": -100.9792,
    "name": "San Luis Potosí",
    "country": "MX",
    "lastUpdated": "2020-04-30T00:08:10.128Z",
    "dead": 8,
    "id": "6vjIVg1gSANFZghV7xtS",
    "infected": 101,
    "recovered": 0,
    "sick": 93,
    "invisible": false
  },
  {
    "infected": 6,
    "recovered": 6,
    "latitude": 17.901672,
    "pop": 9131,
    "longitude": -62.818544,
    "name": "Saint-Barthélémy",
    "country": "FR",
    "lastUpdated": "2020-04-30T00:10:03.906Z",
    "dead": 0,
    "id": "78Ox26bNHDA2Pk2b3Uwn",
    "sick": 0,
    "invisible": false
  },
  {
    "lastUpdated": "2020-04-30T00:03:08.356Z",
    "dead": 10,
    "id": "7JDx6UJiwGSJyL1fChaJ",
    "infected": 424,
    "recovered": 0,
    "latitude": 54.367,
    "pop": 2305000,
    "longitude": 18.633,
    "name": "Pomorskie",
    "country": "PL",
    "sick": 414,
    "invisible": false
  },
  {
    "lastUpdated": "2020-04-30T00:09:12.684Z",
    "dead": 2,
    "id": "7UASdZTZ1nPzzBwSTEA9",
    "infected": 125,
    "recovered": 95,
    "latitude": 35.2923,
    "pop": 84690,
    "longitude": -2.9381,
    "name": "Melilla",
    "country": "ES",
    "sick": 28,
    "invisible": false
  },
  {
    "infected": 24,
    "recovered": 11,
    "latitude": 17.0608,
    "pop": 102012,
    "longitude": -61.7964,
    "name": "Antigua and Barbuda",
    "country": "AG",
    "lastUpdated": "2020-04-30T00:10:03.904Z",
    "dead": 3,
    "id": "7hVFcEV7nV0MrQr3LHrl",
    "sick": 10,
    "invisible": false
  },
  {
    "lastUpdated": "2020-04-30T00:00:03.258Z",
    "dead": 1901,
    "id": "7kCrrlOBE3jN6FtOVNUB",
    "infected": 42501,
    "recovered": 30540,
    "latitude": 48.7904,
    "pop": 13000000,
    "longitude": 11.4979,
    "name": "Bayern",
    "country": "DE",
    "sick": 10060,
    "invisible": false
  },
  {
    "recovered": 536,
    "latitude": 47.4979,
    "pop": 9773000,
    "longitude": 19.0402,
    "name": "Hungary",
    "country": "HU",
    "lastUpdated": "2020-04-30T00:10:03.885Z",
    "dead": 300,
    "id": "7rYC2iFB50c55Ihgbs4Q",
    "infected": 2727,
    "sick": 1891,
    "invisible": false
  },
  {
    "latitude": 10.9685,
    "pop": 2400000,
    "longitude": -74.7813,
    "name": "Barranquilla D.E.",
    "country": "CO",
    "lastUpdated": "2020-04-29T23:48:09.755Z",
    "dead": 6,
    "id": "7tqLvLyXcBDK808nJv0m",
    "infected": 141,
    "recovered": 37,
    "sick": 98,
    "invisible": false
  },
  {
    "infected": 1806,
    "recovered": 934,
    "latitude": 7.3697,
    "pop": 24050000,
    "longitude": 12.3547,
    "name": "Cameroon",
    "country": "CM",
    "lastUpdated": "2020-04-30T00:10:03.886Z",
    "dead": 61,
    "id": "8C0d7WVCjyUGtnc2gUAR",
    "sick": 811,
    "invisible": false
  },
  {
    "lastUpdated": "2020-04-29T23:56:04.663Z",
    "dead": 1149,
    "id": "8DOZWbN6bDdgaLXVlUEu",
    "infected": 4907,
    "recovered": 1807,
    "latitude": 50.8503,
    "pop": 1209000,
    "longitude": 4.3517,
    "name": "Brussels",
    "country": "BE",
    "sick": 1951,
    "invisible": false
  },
  {
    "infected": 1053,
    "recovered": 110,
    "latitude": -16.2902,
    "pop": 11050000,
    "longitude": -63.5887,
    "name": "Bolivia",
    "country": "BO",
    "lastUpdated": "2020-04-30T00:10:03.887Z",
    "dead": 55,
    "id": "8RihJrXw4NQXPxaRxr1u",
    "sick": 888,
    "invisible": false
  },
  {
    "infected": 16,
    "recovered": 8,
    "latitude": 12.9843,
    "pop": 109897,
    "longitude": -61.2872,
    "name": "St. Vincent Grenadines",
    "country": "VC",
    "lastUpdated": "2020-04-30T00:10:03.905Z",
    "dead": 0,
    "id": "8ZTySQROQejkDAad0qxQ",
    "sick": 8,
    "invisible": false
  },
  {
    "latitude": 1.352083,
    "pop": 5621000,
    "longitude": 103.819839,
    "name": "Singapore",
    "country": "SG",
    "lastUpdated": "2020-04-30T00:10:03.877Z",
    "dead": 14,
    "id": "8pA3fM4xC2c2wv1b4TnE",
    "infected": 15641,
    "recovered": 1188,
    "sick": 14439,
    "invisible": false
  },
  {
    "longitude": -1.5536,
    "name": "Pays de la Loire",
    "country": "FR",
    "lastUpdated": "2020-04-29T22:58:07.668Z",
    "dead": 336,
    "id": "98hwAoohgWEOQVa3NlM5",
    "infected": 3141,
    "recovered": 1227,
    "latitude": 47.2184,
    "pop": 3787000,
    "sick": 1578,
    "invisible": false
  },
  {
    "infected": 114,
    "recovered": 0,
    "latitude": 19.30754,
    "pop": 952300,
    "longitude": -90.19885,
    "name": "Campeche",
    "country": "MX",
    "lastUpdated": "2020-04-30T00:08:10.128Z",
    "dead": 18,
    "id": "9DAvxOObTqIvMOU93nlY",
    "sick": 96,
    "invisible": false
  },
  {
    "recovered": 32,
    "latitude": 12.8628,
    "pop": 40530000,
    "longitude": 30.2176,
    "name": "Sudan",
    "country": "SD",
    "lastUpdated": "2020-04-30T00:10:03.896Z",
    "dead": 28,
    "id": "9DPOkpIqrFy9mR4e9fuv",
    "infected": 375,
    "sick": 315,
    "invisible": false
  },
  {
    "pop": 19530000,
    "longitude": 24.966761,
    "name": "Romania",
    "country": "RO",
    "lastUpdated": "2020-04-30T00:10:03.877Z",
    "dead": 693,
    "id": "9QcETqEcM2fTv9zRvx5T",
    "infected": 11978,
    "recovered": 3569,
    "latitude": 45.943161,
    "sick": 7716,
    "invisible": false
  },
  {
    "lastUpdated": "2020-04-30T00:10:03.905Z",
    "dead": 3,
    "id": "9Y5wmCqNCC6ZrenM31uA",
    "infected": 13,
    "recovered": 7,
    "latitude": 12.136389,
    "pop": 6218000,
    "longitude": -86.251389,
    "name": "Nicaragua",
    "country": "NI",
    "sick": 3,
    "invisible": false
  },
  {
    "infected": 482,
    "recovered": 129,
    "latitude": 17.5706921,
    "pop": 18540000,
    "longitude": -3.996166,
    "name": "Mali",
    "country": "ML",
    "lastUpdated": "2020-04-30T00:10:03.895Z",
    "dead": 25,
    "id": "9dIzxqDSVqPyINkHqwGv",
    "sick": 328,
    "invisible": false
  },
  {
    "pop": 5513000,
    "longitude": 25.748152,
    "name": "Finland",
    "country": "FI",
    "lastUpdated": "2020-04-30T00:10:03.881Z",
    "dead": 206,
    "id": "9p6OCdZbUUwBLA60Gk3W",
    "infected": 4906,
    "recovered": 2800,
    "latitude": 61.92411,
    "sick": 1900,
    "invisible": false
  },
  {
    "longitude": -71.590315,
    "name": "New Hampshire",
    "country": "US",
    "lastUpdated": "2020-04-30T00:09:06.856Z",
    "dead": 66,
    "id": "A84CwQ52kA46Hr7pn6Bm",
    "infected": 2054,
    "recovered": 0,
    "latitude": 43.311643,
    "pop": 1356000,
    "sick": 1988,
    "invisible": false
  },
  {
    "id": "AEUWUHS65qvjEslew11c",
    "infected": 8247,
    "recovered": 0,
    "latitude": 41.823261,
    "pop": 1057000,
    "longitude": -71.412257,
    "name": "Rhode Island",
    "country": "US",
    "lastUpdated": "2020-04-30T00:09:06.853Z",
    "dead": 251,
    "sick": 7996,
    "invisible": false
  },
  {
    "longitude": 11.327591,
    "name": "Emilia-Romagna",
    "country": "IT",
    "lastUpdated": "2020-04-30T00:01:01.303Z",
    "dead": 3512,
    "id": "AJ9jQ0iyKsafsmf5yHAR",
    "infected": 25177,
    "recovered": 9803,
    "latitude": 44.498955,
    "pop": 4453000,
    "sick": 11862,
    "invisible": false
  },
  {
    "latitude": 49.3964,
    "pop": 990509,
    "longitude": 7.023,
    "name": "Saarland",
    "country": "DE",
    "lastUpdated": "2020-04-30T00:00:03.260Z",
    "dead": 135,
    "id": "AKjFRQGnzuuZQhv5Qwx7",
    "infected": 2526,
    "recovered": 1606,
    "sick": 785,
    "invisible": false
  },
  {
    "latitude": -35.717,
    "pop": 1125002,
    "longitude": -71.167,
    "name": "Maule",
    "country": "CL",
    "lastUpdated": "2020-04-30T00:07:05.430Z",
    "dead": 12,
    "id": "APTPgjAsjFi0nsGyJV7M",
    "infected": 384,
    "recovered": 0,
    "sick": 372,
    "invisible": false
  },
  {
    "lastUpdated": "2020-04-30T00:10:03.906Z",
    "dead": 0,
    "id": "APaZzlGCEeuoLBtzTJMe",
    "infected": 11,
    "recovered": 11,
    "latitude": 71.7069,
    "pop": 56171,
    "longitude": -42.6043,
    "name": "Greenland",
    "country": "GL",
    "sick": 0,
    "invisible": false
  },
  {
    "infected": 935,
    "recovered": 0,
    "latitude": 45.65107,
    "pop": 971395,
    "longitude": -63.582687,
    "name": "Nova Scotia",
    "country": "CA",
    "lastUpdated": "2020-04-30T00:06:02.422Z",
    "dead": 28,
    "id": "AVCpxeh0fuH2WrHWNDYH",
    "sick": 907,
    "invisible": false
  },
  {
    "latitude": 47.012918,
    "pop": 1062000,
    "longitude": -109.128641,
    "name": "Montana",
    "country": "US",
    "lastUpdated": "2020-04-30T00:09:06.857Z",
    "dead": 16,
    "id": "AcULcZBozObOhwuRKMjJ",
    "infected": 451,
    "recovered": 0,
    "sick": 435,
    "invisible": false
  },
  {
    "id": "AmBYm5J6E9Cuez1FQjiN",
    "infected": 937,
    "recovered": 936,
    "latitude": 27.285971,
    "pop": 45200000,
    "longitude": 116.01609,
    "name": "Jiangxi",
    "country": "CN",
    "lastUpdated": "2020-04-29T23:53:13.990Z",
    "dead": 1,
    "sick": 0,
    "invisible": false
  },
  {
    "infected": 9629,
    "recovered": 0,
    "latitude": 52.1307,
    "pop": 3136000,
    "longitude": -3.7837,
    "name": "Wales",
    "country": "GB",
    "lastUpdated": "2020-04-30T00:10:30.615Z",
    "dead": 886,
    "id": "AoLhHdTydeWTfmp9koEX",
    "sick": 8743,
    "invisible": false
  },
  {
    "lastUpdated": "2020-04-30T00:10:03.884Z",
    "dead": 444,
    "id": "AwN0CScPDApcLFgz6e3z",
    "infected": 3848,
    "recovered": 1702,
    "latitude": 28.033886,
    "pop": 41320000,
    "longitude": 1.659626,
    "name": "Algeria",
    "country": "DZ",
    "sick": 1702,
    "invisible": false
  },
  {
    "pop": 4076000,
    "longitude": 15.2,
    "name": "Croatia",
    "country": "HR",
    "lastUpdated": "2020-04-30T00:10:03.885Z",
    "dead": 67,
    "id": "B82Ef45M8cDu4q7VsSHF",
    "infected": 2062,
    "recovered": 1288,
    "latitude": 45.099998,
    "sick": 707,
    "invisible": false
  },
  {
    "id": "BENubqQInFUJzhpZTsLT",
    "infected": 709,
    "recovered": 403,
    "latitude": 17.6077881,
    "pop": 23716000,
    "longitude": 8.081666,
    "name": "Niger",
    "country": "NE",
    "lastUpdated": "2020-04-30T00:10:03.894Z",
    "dead": 31,
    "sick": 275,
    "invisible": false
  },
  {
    "latitude": 39.509109,
    "pop": 6043000,
    "longitude": -76.98432,
    "name": "Maryland",
    "country": "US",
    "lastUpdated": "2020-04-30T00:09:06.850Z",
    "dead": 1078,
    "id": "BF51mWl51fgEcyBpCSzb",
    "infected": 20849,
    "recovered": 0,
    "sick": 19771,
    "invisible": false
  },
  {
    "pop": 9508000,
    "longitude": 27.953388,
    "name": "Belarus",
    "country": "BY",
    "lastUpdated": "2020-04-30T00:10:03.877Z",
    "dead": 84,
    "id": "BGg6yVU5VP71B8NXU0oh",
    "infected": 13181,
    "recovered": 2072,
    "latitude": 53.709808,
    "sick": 11025,
    "invisible": false
  },
  {
    "lastUpdated": "2020-04-29T23:01:57.484Z",
    "dead": 343,
    "id": "BGtoyzb7y54LVlJ91rbf",
    "infected": 2809,
    "recovered": 1054,
    "latitude": 48.8799,
    "pop": 3319000,
    "longitude": 0.1713,
    "name": "Normandie",
    "country": "FR",
    "sick": 1412,
    "invisible": false
  },
  {
    "infected": 6056,
    "recovered": 0,
    "latitude": 50.7772,
    "pop": 5616000,
    "longitude": -3.9995,
    "name": "South West",
    "country": "GB",
    "lastUpdated": "2020-04-30T00:10:30.617Z",
    "dead": 0,
    "id": "BQqMOlPFD36ZEDTGd3WC",
    "sick": 6056,
    "invisible": false
  },
  {
    "recovered": 0,
    "latitude": 34.048927,
    "pop": 7172000,
    "longitude": -111.093735,
    "name": "Arizona",
    "country": "US",
    "lastUpdated": "2020-04-30T00:09:06.854Z",
    "dead": 304,
    "id": "BTEESCuD2ZbS1afunR2A",
    "infected": 7202,
    "sick": 6898,
    "invisible": false
  },
  {
    "latitude": 53.428543,
    "pop": 1676000,
    "longitude": 14.552812,
    "name": "Zachodniopomorskie",
    "country": "PL",
    "lastUpdated": "2020-04-30T00:03:08.356Z",
    "dead": 10,
    "id": "BZwZOAlDJ8AIiaRVLyC9",
    "infected": 380,
    "recovered": 0,
    "sick": 370,
    "invisible": false
  },
  {
    "longitude": -70.6693,
    "name": "Unknown Chile region",
    "country": "CL",
    "lastUpdated": "2020-04-30T00:07:05.440Z",
    "dead": 0,
    "id": "BbiuZcm8oURX7cZwaa5U",
    "invisible": true,
    "infected": 0,
    "recovered": 7710,
    "latitude": -33.4489,
    "sick": 0
  },
  {
    "lastUpdated": "2020-04-30T00:10:03.904Z",
    "dead": 3,
    "id": "BfT8o5DaEixC6JIZ28kY",
    "infected": 36,
    "recovered": 7,
    "latitude": -13.2543,
    "pop": 18620000,
    "longitude": 34.3015,
    "name": "Malawi",
    "country": "MW",
    "sick": 26,
    "invisible": false
  },
  {
    "latitude": -3.3730559,
    "pop": 10860000,
    "longitude": 29.9188862,
    "name": "Burundi",
    "country": "BI",
    "lastUpdated": "2020-04-30T00:10:03.906Z",
    "dead": 1,
    "id": "BnpMamidC5yYzeK8tPUL",
    "infected": 11,
    "recovered": 4,
    "sick": 6,
    "invisible": false
  },
  {
    "infected": 2427,
    "recovered": 0,
    "latitude": 52.257,
    "pop": 5385000,
    "longitude": 21.002,
    "name": "Mazowieckie",
    "country": "PL",
    "lastUpdated": "2020-04-30T00:03:08.349Z",
    "dead": 198,
    "id": "BrToMzyq8y2xdwXn75kM",
    "sick": 2229,
    "invisible": false
  },
  {
    "infected": 104,
    "recovered": 0,
    "latitude": -1.333845,
    "pop": 74751,
    "longitude": -71.347573,
    "name": "Amazonas (Colombia)",
    "country": "CO",
    "lastUpdated": "2020-04-29T23:48:09.760Z",
    "dead": 2,
    "id": "C25xSDm4iYibX5RYML14",
    "sick": 102,
    "invisible": false
  },
  {
    "lastUpdated": "2020-04-30T00:09:06.848Z",
    "dead": 23474,
    "id": "C3BCUzV80z9GfiuByIcr",
    "infected": 306158,
    "recovered": 0,
    "latitude": 40.719042,
    "pop": 19540000,
    "longitude": -73.982597,
    "name": "New York",
    "country": "US",
    "sick": 282684,
    "invisible": false
  },
  {
    "pop": 10650000,
    "longitude": 15.359413,
    "name": "Czechia",
    "country": "CZ",
    "lastUpdated": "2020-04-30T00:10:03.880Z",
    "dead": 227,
    "id": "C6S76AggdWVU8G22jFHQ",
    "infected": 7579,
    "recovered": 3108,
    "latitude": 49.731626,
    "sick": 4244,
    "invisible": false
  },
  {
    "recovered": 1455,
    "latitude": 26.0667,
    "pop": 1493000,
    "longitude": 50.557701,
    "name": "Bahrain",
    "country": "BH",
    "lastUpdated": "2020-04-30T00:10:03.885Z",
    "dead": 8,
    "id": "C7cj4nwRITs13KnaJrQ2",
    "infected": 2921,
    "sick": 1458,
    "invisible": false
  },
  {
    "infected": 33,
    "recovered": 2,
    "latitude": 10.4113,
    "pop": 1285400,
    "longitude": -74.4057,
    "name": "Magdalena",
    "country": "CO",
    "lastUpdated": "2020-04-29T23:48:09.759Z",
    "dead": 4,
    "id": "CA9LaAl3bNaeAqBuozn4",
    "sick": 27,
    "invisible": false
  },
  {
    "lastUpdated": "2020-04-30T00:08:10.127Z",
    "dead": 39,
    "id": "CCUFp4urvgXPo5unfMGy",
    "infected": 398,
    "recovered": 0,
    "latitude": 26.909979,
    "pop": 3073500,
    "longitude": -101.430756,
    "name": "Coahuila",
    "country": "MX",
    "sick": 359,
    "invisible": false
  },
  {
    "pop": 68890000,
    "longitude": 74.2179,
    "name": "Rajasthan",
    "country": "IN",
    "lastUpdated": "2020-04-30T00:11:08.207Z",
    "dead": 55,
    "id": "CKZCZTPlrcq5fbfUPA9k",
    "infected": 2438,
    "recovered": 814,
    "latitude": 27.0238,
    "sick": 1569,
    "invisible": false
  },
  {
    "lastUpdated": "2020-04-30T00:10:03.895Z",
    "dead": 9,
    "id": "Cgvmtle61ehMvCzRzYx7",
    "infected": 377,
    "recovered": 106,
    "latitude": 13.803,
    "pop": 6378000,
    "longitude": -88.9053,
    "name": "El Salvador",
    "country": "SV",
    "sick": 262,
    "invisible": false
  },
  {
    "infected": 1932,
    "recovered": 900,
    "latitude": 40.259003,
    "pop": 2973000,
    "longitude": 44.818474,
    "name": "Armenia",
    "country": "AM",
    "lastUpdated": "2020-04-30T00:10:03.886Z",
    "dead": 30,
    "id": "DCJCtZoBTWQ4mzdDNljD",
    "sick": 1002,
    "invisible": false
  },
  {
    "id": "DJJraANgQbEqz1wBBtZz",
    "infected": 37,
    "recovered": 12,
    "latitude": 5.535,
    "pop": 1278000,
    "longitude": -73.368,
    "name": "Boyacá",
    "country": "CO",
    "lastUpdated": "2020-04-29T23:48:09.759Z",
    "dead": 1,
    "sick": 24,
    "invisible": false
  },
  {
    "infected": 18106,
    "recovered": 0,
    "latitude": 53.6221,
    "pop": 7300000,
    "longitude": -2.5945,
    "name": "North West",
    "country": "GB",
    "lastUpdated": "2020-04-30T00:10:30.616Z",
    "dead": 0,
    "id": "DPwBt2aJuwF0O71vwfM9",
    "sick": 18106,
    "invisible": false
  },
  {
    "id": "DZyTD0Mu5WIcK6yTcJ91",
    "infected": 111,
    "recovered": 48,
    "latitude": 32.3213844,
    "pop": 65440,
    "longitude": -64.75737,
    "name": "Bermuda",
    "country": "BM",
    "lastUpdated": "2020-04-30T00:10:03.902Z",
    "dead": 6,
    "sick": 57,
    "invisible": false
  },
  {
    "lastUpdated": "2020-04-30T00:10:03.905Z",
    "dead": 1,
    "id": "DaMrRSIGJXIG36nW0Pnc",
    "infected": 12,
    "recovered": 5,
    "latitude": 21.694,
    "pop": 35446,
    "longitude": -71.7979,
    "name": "Turks and Caicos",
    "country": "TC",
    "sick": 6,
    "invisible": false
  },
  {
    "infected": 19795,
    "recovered": 5382,
    "latitude": 39.2796,
    "pop": 2035000,
    "longitude": -3.0977,
    "name": "Castilla La Mancha",
    "country": "ES",
    "lastUpdated": "2020-04-30T00:09:12.682Z",
    "dead": 2436,
    "id": "Dbng0NBTH41EEwBxhMzE",
    "sick": 11977,
    "invisible": false
  },
  {
    "infected": 876,
    "recovered": 0,
    "latitude": 50.023,
    "pop": 3361000,
    "longitude": 20.006,
    "name": "Malopolskie",
    "country": "PL",
    "lastUpdated": "2020-04-30T00:03:08.355Z",
    "dead": 30,
    "id": "DcQ3D0WkacXEbv6iznRB",
    "sick": 846,
    "invisible": false
  },
  {
    "lastUpdated": "2020-04-30T00:10:03.903Z",
    "dead": 0,
    "id": "DdBt8qsG6A3g92oOR3ow",
    "infected": 45,
    "recovered": 34,
    "latitude": 22.192039,
    "pop": 622567,
    "longitude": 113.551262,
    "name": "Macao",
    "country": "MO",
    "sick": 11,
    "invisible": false
  },
  {
    "infected": 12,
    "recovered": 0,
    "latitude": 25.467,
    "pop": 2651000,
    "longitude": 91.3662,
    "name": "Meghalaya",
    "country": "IN",
    "lastUpdated": "2020-04-30T00:11:08.209Z",
    "dead": 1,
    "id": "Dh0O1vmhrVfmsCsfZCUg",
    "sick": 11,
    "invisible": false
  },
  {
    "latitude": 42.962334,
    "pop": 577737,
    "longitude": -107.534868,
    "name": "Wyoming",
    "country": "US",
    "lastUpdated": "2020-04-30T00:09:06.857Z",
    "dead": 7,
    "id": "DrGzziUglmBognCGY7R2",
    "infected": 544,
    "recovered": 0,
    "sick": 537,
    "invisible": false
  },
  {
    "id": "Dtr1lap1RpJpXJdXGJiW",
    "infected": 2576,
    "recovered": 577,
    "latitude": 37.9838,
    "pop": 10740000,
    "longitude": 23.7275,
    "name": "Greece",
    "country": "GR",
    "lastUpdated": "2020-04-30T00:10:03.885Z",
    "dead": 139,
    "sick": 1860,
    "invisible": false
  },
  {
    "longitude": 121.563698,
    "name": "Taiwan",
    "country": "TW",
    "lastUpdated": "2020-04-30T00:10:03.895Z",
    "dead": 6,
    "id": "EKTfs8e7M6DXzI1HqyyX",
    "infected": 429,
    "recovered": 311,
    "latitude": 25.03841,
    "pop": 23780000,
    "sick": 112,
    "invisible": false
  },
  {
    "infected": 713,
    "recovered": 323,
    "latitude": 10.327273,
    "pop": 4906000,
    "longitude": -84.387618,
    "name": "Costa Rica",
    "country": "CR",
    "lastUpdated": "2020-04-30T00:10:03.894Z",
    "dead": 6,
    "id": "EQzJvzVHKjs8kLmK7BMu",
    "sick": 384,
    "invisible": false
  },
  {
    "lastUpdated": "2020-04-30T00:11:08.207Z",
    "dead": 197,
    "id": "ERwk9R9en4m9WbdoMbIg",
    "infected": 4082,
    "recovered": 527,
    "latitude": 22.2587,
    "pop": 62700000,
    "longitude": 71.1924,
    "name": "Gujarat",
    "country": "IN",
    "sick": 3358,
    "invisible": false
  },
  {
    "latitude": 30.7333,
    "pop": 1055000,
    "longitude": 76.7794,
    "name": "Chandigarh",
    "country": "IN",
    "lastUpdated": "2020-04-30T00:11:08.209Z",
    "dead": 0,
    "id": "Esl5UlCVB9s8pmGB5Ofr",
    "infected": 68,
    "recovered": 17,
    "sick": 51,
    "invisible": false
  },
  {
    "lastUpdated": "2020-04-30T00:03:08.356Z",
    "dead": 13,
    "id": "Esy1La2CxwH5uB8bGVWZ",
    "infected": 359,
    "recovered": 0,
    "latitude": 51.24,
    "pop": 2148000,
    "longitude": 22.653,
    "name": "Lubelskie",
    "country": "PL",
    "sick": 346,
    "invisible": false
  },
  {
    "latitude": 18.200178,
    "pop": 3195000,
    "longitude": -66.664513,
    "name": "Puerto Rico",
    "country": "PR",
    "lastUpdated": "2020-04-30T00:09:06.858Z",
    "dead": 86,
    "id": "F4rPrEVGAIMM5rfPEMv4",
    "infected": 1433,
    "recovered": 0,
    "sick": 1347,
    "invisible": false
  },
  {
    "pop": 2919000,
    "longitude": -74.058655,
    "name": "Cundinamarca",
    "country": "CO",
    "lastUpdated": "2020-04-29T23:48:09.755Z",
    "dead": 13,
    "id": "F7MED5VwEhi3JvJu6KjB",
    "infected": 219,
    "recovered": 85,
    "latitude": 4.862437,
    "sick": 121,
    "invisible": false
  },
  {
    "latitude": 33.93911,
    "pop": 35530000,
    "longitude": 67.709953,
    "name": "Afghanistan",
    "country": "AF",
    "lastUpdated": "2020-04-30T00:10:03.886Z",
    "dead": 60,
    "id": "FCDmlmnIIswd8bQiUjfN",
    "infected": 1939,
    "recovered": 252,
    "sick": 1627,
    "invisible": false
  },
  {
    "lastUpdated": "2020-04-29T23:53:13.991Z",
    "dead": 6,
    "id": "FErOU1m4Tj7jIkRam3vF",
    "infected": 579,
    "recovered": 573,
    "latitude": 29.431585,
    "pop": 30480000,
    "longitude": 106.912254,
    "name": "Chongqing",
    "country": "CN",
    "sick": 0,
    "invisible": false
  },
  {
    "id": "FZsUkhxBEgqsPb4eO0PN",
    "infected": 3740,
    "recovered": 1389,
    "latitude": 29.311661,
    "pop": 4137000,
    "longitude": 47.481766,
    "name": "Kuwait",
    "country": "KW",
    "lastUpdated": "2020-04-30T00:10:03.885Z",
    "dead": 24,
    "sick": 2327,
    "invisible": false
  },
  {
    "lastUpdated": "2020-04-30T00:11:11.935Z",
    "dead": 12,
    "id": "FboWeolpM62SZCLwdilT",
    "infected": 337,
    "recovered": 0,
    "latitude": -10.9111,
    "pop": 2278308,
    "longitude": -37.0717,
    "name": "Sergipe",
    "country": "BR",
    "sick": 325,
    "invisible": false
  },
  {
    "latitude": 11.1271,
    "pop": 67860000,
    "longitude": 78.6569,
    "name": "Tamil Nadu",
    "country": "IN",
    "lastUpdated": "2020-04-30T00:11:08.207Z",
    "dead": 27,
    "id": "FeS45oMNC27pI17F0xEV",
    "infected": 2162,
    "recovered": 1210,
    "sick": 925,
    "invisible": false
  },
  {
    "latitude": 18.947829,
    "pop": 10770000,
    "longitude": -70.430399,
    "name": "Dominican Republic",
    "country": "DO",
    "lastUpdated": "2020-04-30T00:10:03.880Z",
    "dead": 293,
    "id": "FuiVEJvWb0QMCpxJ3563",
    "infected": 6652,
    "recovered": 1228,
    "sick": 5131,
    "invisible": false
  },
  {
    "infected": 1016,
    "recovered": 409,
    "latitude": 18.1124,
    "pop": 35190000,
    "longitude": 79.0193,
    "name": "Telengana",
    "country": "IN",
    "lastUpdated": "2020-04-30T00:11:08.208Z",
    "dead": 25,
    "id": "FyC551oNwmENxbr9Yght",
    "sick": 582,
    "invisible": false
  },
  {
    "lastUpdated": "2020-04-30T00:10:03.887Z",
    "dead": 22,
    "id": "FzIDXoqWnTI3nUfhPyT2",
    "infected": 1391,
    "recovered": 484,
    "latitude": 48.669,
    "pop": 5450000,
    "longitude": 19.699,
    "name": "Slovakia",
    "country": "SK",
    "sick": 885,
    "invisible": false
  },
  {
    "lastUpdated": "2020-04-30T00:10:03.877Z",
    "dead": 343,
    "id": "GAp7Wb6IMhdgbvEtMza9",
    "infected": 15525,
    "recovered": 3425,
    "latitude": 30.37532,
    "pop": 197000000,
    "longitude": 69.345116,
    "name": "Pakistan",
    "country": "PK",
    "sick": 11757,
    "invisible": false
  },
  {
    "infected": 375,
    "recovered": 101,
    "latitude": 31.1471,
    "pop": 27980000,
    "longitude": 75.3412,
    "name": "Punjab",
    "country": "IN",
    "lastUpdated": "2020-04-30T00:11:08.208Z",
    "dead": 19,
    "id": "GGru8cG08mANO8XDDUtZ",
    "sick": 255,
    "invisible": false
  },
  {
    "pop": 9400000,
    "longitude": 53.847816,
    "name": "United Arab Emirates",
    "country": "AE",
    "lastUpdated": "2020-04-30T00:10:03.877Z",
    "dead": 98,
    "id": "GHzBIsHy2GiBc5JV2HMs",
    "infected": 11929,
    "recovered": 2329,
    "latitude": 23.424076,
    "sick": 9502,
    "invisible": false
  },
  {
    "lastUpdated": "2020-04-30T00:09:06.858Z",
    "dead": 3,
    "id": "GLViSIjDjwvptOphedAu",
    "invisible": true,
    "infected": 103,
    "recovered": 0,
    "latitude": 37.0902,
    "longitude": -95.7129,
    "name": "Grand Princess",
    "country": "US",
    "sick": 100
  },
  {
    "infected": 24090,
    "recovered": 0,
    "latitude": 51.5074,
    "pop": 10100000,
    "longitude": -0.1278,
    "name": "London",
    "country": "GB",
    "lastUpdated": "2020-04-30T00:10:30.616Z",
    "dead": 0,
    "id": "GPtoS0Yy2EnNafpmmTqY",
    "sick": 24090,
    "invisible": false
  },
  {
    "recovered": 0,
    "latitude": 36.621981,
    "pop": 39560000,
    "longitude": -119.339046,
    "name": "California",
    "country": "US",
    "lastUpdated": "2020-04-30T00:09:06.849Z",
    "dead": 1939,
    "id": "Gh46r6vuaY7fbGt3IboN",
    "infected": 48565,
    "sick": 46626,
    "invisible": false
  },
  {
    "infected": 3473,
    "recovered": 0,
    "latitude": 35.87189,
    "pop": 3943000,
    "longitude": -97.145514,
    "name": "Oklahoma",
    "country": "US",
    "lastUpdated": "2020-04-30T00:09:06.856Z",
    "dead": 214,
    "id": "GpF8ULuKOQiFDCUHN44h",
    "sick": 3259,
    "invisible": false
  },
  {
    "infected": 2507,
    "recovered": 1388,
    "latitude": 46.5,
    "pop": 520891,
    "longitude": 11.35,
    "name": "P.A. Bolzano",
    "country": "IT",
    "lastUpdated": "2020-04-30T00:01:01.303Z",
    "dead": 274,
    "id": "Gzx6GX1qhBm714BkEC6l",
    "sick": 845,
    "invisible": false
  },
  {
    "latitude": 42.83263,
    "pop": 24710000,
    "longitude": 113.750972,
    "name": "Inner Mongolia",
    "country": "CN",
    "lastUpdated": "2020-04-29T23:53:13.986Z",
    "dead": 1,
    "id": "H3JeVigVbo5CSYfZG4WI",
    "infected": 199,
    "recovered": 146,
    "sick": 52,
    "invisible": false
  },
  {
    "recovered": 0,
    "latitude": 39.74536,
    "pop": 3034000,
    "longitude": -116.724977,
    "name": "Nevada",
    "country": "US",
    "lastUpdated": "2020-04-30T00:09:06.854Z",
    "dead": 230,
    "id": "H3bDg4eV30up4WWrIDAS",
    "infected": 4898,
    "sick": 4668,
    "invisible": false
  },
  {
    "id": "HEMWNnFxeFEoeOCBOLJD",
    "infected": 7267,
    "recovered": 0,
    "latitude": -3.731862,
    "pop": 9075649,
    "longitude": -38.526669,
    "name": "Ceará",
    "country": "BR",
    "lastUpdated": "2020-04-30T00:11:11.932Z",
    "dead": 441,
    "sick": 6826,
    "invisible": false
  },
  {
    "recovered": 216,
    "latitude": 15.3173,
    "pop": 64060000,
    "longitude": 75.7139,
    "name": "Karnataka",
    "country": "IN",
    "lastUpdated": "2020-04-30T00:11:08.208Z",
    "dead": 21,
    "id": "HN5mGmxlqlSeFSNeu1K5",
    "infected": 534,
    "sick": 297,
    "invisible": false
  },
  {
    "recovered": 5,
    "latitude": 27.5142,
    "pop": 807610,
    "longitude": 90.4336,
    "name": "Bhutan",
    "country": "BT",
    "lastUpdated": "2020-04-30T00:10:03.906Z",
    "dead": 0,
    "id": "HRDpwyxpqW9RN0xLFyNu",
    "infected": 7,
    "sick": 2,
    "invisible": false
  },
  {
    "lastUpdated": "2020-04-30T00:10:03.886Z",
    "dead": 9,
    "id": "HRTA10dtrruDEwjJEGMp",
    "infected": 2002,
    "recovered": 1096,
    "latitude": 41.3775,
    "pop": 32390000,
    "longitude": 64.5853,
    "name": "Uzbekistan",
    "country": "UZ",
    "sick": 897,
    "invisible": false
  },
  {
    "lastUpdated": "2020-04-30T00:09:06.856Z",
    "dead": 112,
    "id": "HSSFomRju0doHhWgW8On",
    "infected": 3213,
    "recovered": 0,
    "latitude": 34.138916,
    "pop": 2095000,
    "longitude": -105.576255,
    "name": "New Mexico",
    "country": "US",
    "sick": 3101,
    "invisible": false
  },
  {
    "infected": 180,
    "recovered": 0,
    "latitude": -40.231,
    "pop": 412812,
    "longitude": -72.3311,
    "name": "Los Ríos",
    "country": "CL",
    "lastUpdated": "2020-04-30T00:07:05.438Z",
    "dead": 4,
    "id": "HZkACHjW7NlYjg8vEMj2",
    "sick": 176,
    "invisible": false
  },
  {
    "infected": 687,
    "recovered": 560,
    "latitude": 53.6127,
    "pop": 1635000,
    "longitude": 12.4296,
    "name": "Mecklenburg-Vorpommern",
    "country": "DE",
    "lastUpdated": "2020-04-30T00:00:03.260Z",
    "dead": 18,
    "id": "He1gSS1v50t06i3YrqvB",
    "sick": 109,
    "invisible": false
  },
  {
    "latitude": 42.25,
    "pop": 1315000,
    "longitude": 13.75,
    "name": "Abruzzo",
    "country": "IT",
    "lastUpdated": "2020-04-30T00:01:01.302Z",
    "dead": 315,
    "id": "I9EqrZfbPnkioNU4wZGz",
    "infected": 2923,
    "recovered": 632,
    "sick": 1976,
    "invisible": false
  },
  {
    "lastUpdated": "2020-04-29T23:53:13.988Z",
    "dead": 8,
    "id": "IAX0OQLVnUwU7FX0ENF1",
    "infected": 1588,
    "recovered": 1554,
    "latitude": 23.363855,
    "pop": 113460000,
    "longitude": 113.373448,
    "name": "Guangdong",
    "country": "CN",
    "sick": 26,
    "invisible": false
  },
  {
    "id": "IFuMrMvSjoiX5agYvllh",
    "infected": 1276,
    "recovered": 1254,
    "latitude": 33.875408,
    "pop": 94000000,
    "longitude": 113.484016,
    "name": "Henan",
    "country": "CN",
    "lastUpdated": "2020-04-29T23:53:13.990Z",
    "dead": 22,
    "sick": 0,
    "invisible": false
  },
  {
    "infected": 330,
    "recovered": 0,
    "latitude": 37.2,
    "pop": 451000,
    "longitude": -8.16667,
    "name": "Algarve",
    "country": "PT",
    "lastUpdated": "2020-04-30T00:04:02.125Z",
    "dead": 13,
    "id": "IHqRHC8K3OZPN8gniM7V",
    "sick": 317,
    "invisible": false
  },
  {
    "infected": 27,
    "recovered": 2,
    "latitude": 3.883,
    "pop": 333194,
    "longitude": -77.0197,
    "name": "Buenaventura D.E.",
    "country": "CO",
    "lastUpdated": "2020-04-29T23:48:09.760Z",
    "dead": 1,
    "id": "IKWjRUo0SYgHQKdWjTvq",
    "sick": 24,
    "invisible": false
  },
  {
    "infected": 6530,
    "recovered": 0,
    "latitude": 52.87,
    "pop": 4811000,
    "longitude": -0.995,
    "name": "East Midlands",
    "country": "GB",
    "lastUpdated": "2020-04-30T00:10:30.616Z",
    "dead": 0,
    "id": "INyu1R48Ppv8cfW4Nuz4",
    "sick": 6530,
    "invisible": false
  },
  {
    "id": "ISRKMzEDojyrZ9iyWwex",
    "infected": 214,
    "recovered": 0,
    "latitude": 22.017,
    "pop": 1342600,
    "longitude": -102.317,
    "name": "Aguascalientes",
    "country": "MX",
    "lastUpdated": "2020-04-30T00:08:10.129Z",
    "dead": 7,
    "sick": 207,
    "invisible": false
  },
  {
    "infected": 664,
    "recovered": 0,
    "latitude": 25.686613,
    "pop": 5321300,
    "longitude": -100.316116,
    "name": "Nuevo León",
    "country": "MX",
    "lastUpdated": "2020-04-30T00:08:10.128Z",
    "dead": 14,
    "id": "IdKbgzgKLpjBFh4UPOwu",
    "sick": 650,
    "invisible": false
  },
  {
    "infected": 398,
    "recovered": 0,
    "latitude": 28.632996,
    "pop": 3826900,
    "longitude": -106.069099,
    "name": "Chihuahua",
    "country": "MX",
    "lastUpdated": "2020-04-30T00:08:10.127Z",
    "dead": 75,
    "id": "IhhiYI6T0TX4CYVPcnmH",
    "sick": 323,
    "invisible": false
  },
  {
    "longitude": -72.57,
    "name": "Ñuble",
    "country": "CL",
    "lastUpdated": "2020-04-30T00:07:05.430Z",
    "dead": 14,
    "id": "ImnOiVx9Cb8Nw7cbRcQ7",
    "infected": 747,
    "recovered": 0,
    "latitude": -36.7,
    "pop": 480600,
    "sick": 733,
    "invisible": false
  },
  {
    "longitude": -73.0513,
    "name": "Haiti",
    "country": "HT",
    "lastUpdated": "2020-04-30T00:10:03.902Z",
    "dead": 6,
    "id": "InZ38sIqyK7FN7XAOZoX",
    "infected": 76,
    "recovered": 8,
    "latitude": 19.0558,
    "pop": 10980000,
    "sick": 62,
    "invisible": false
  },
  {
    "recovered": 0,
    "latitude": 32.528564,
    "pop": 10520000,
    "longitude": -83.280125,
    "name": "Georgia (US)",
    "country": "US",
    "lastUpdated": "2020-04-29T23:09:07.547Z",
    "dead": 1096,
    "id": "IvQkDJkTAsoIqPRAU25n",
    "infected": 25623,
    "sick": 24527,
    "invisible": false
  },
  {
    "lastUpdated": "2020-04-30T00:10:03.887Z",
    "dead": 19,
    "id": "IvVhpOoGpH6JVkGyUhXN",
    "infected": 1474,
    "recovered": 1229,
    "latitude": -42.8285,
    "pop": 4794000,
    "longitude": 172.488081,
    "name": "New Zealand",
    "country": "NZ",
    "sick": 226,
    "invisible": false
  },
  {
    "longitude": 94.7278,
    "name": "Arunachal Pradesh",
    "country": "IN",
    "lastUpdated": "2020-04-30T00:11:08.210Z",
    "dead": 0,
    "id": "IwYKiIVY18NGwdGQFGWW",
    "infected": 1,
    "recovered": 1,
    "latitude": 28.218,
    "pop": 1255000,
    "sick": 0,
    "invisible": false
  },
  {
    "pop": 31980000,
    "longitude": -66.5897,
    "name": "Venezuela",
    "country": "VE",
    "lastUpdated": "2020-04-30T00:10:03.896Z",
    "dead": 10,
    "id": "J3mZXlfEnnJx4CDZLvRG",
    "infected": 329,
    "recovered": 142,
    "latitude": 6.4238,
    "sick": 177,
    "invisible": false
  },
  {
    "lastUpdated": "2020-04-30T00:10:03.894Z",
    "dead": 15,
    "id": "JQByE4l2OA6sGOqIcWrM",
    "infected": 843,
    "recovered": 148,
    "latitude": 35.1264,
    "pop": 1170000,
    "longitude": 33.4299,
    "name": "Cyprus",
    "country": "CY",
    "sick": 680,
    "invisible": false
  },
  {
    "latitude": 25.0961,
    "pop": 99020000,
    "longitude": 85.3131,
    "name": "Bihar",
    "country": "IN",
    "lastUpdated": "2020-04-30T00:11:08.208Z",
    "dead": 2,
    "id": "JR7hOGked7CZtIs2nCV5",
    "infected": 403,
    "recovered": 64,
    "sick": 337,
    "invisible": false
  },
  {
    "longitude": -90.522713,
    "name": "Guatemala",
    "country": "GT",
    "lastUpdated": "2020-04-30T00:10:03.895Z",
    "dead": 16,
    "id": "JUWE6bG3b5oL7fKQMSvv",
    "infected": 557,
    "recovered": 62,
    "latitude": 14.628434,
    "pop": 17250000,
    "sick": 479,
    "invisible": false
  },
  {
    "id": "JcFsHSn2WvZ5LJW42ovG",
    "infected": 3769,
    "recovered": 3134,
    "latitude": 49.8153,
    "pop": 602005,
    "longitude": 6.1296,
    "name": "Luxembourg",
    "country": "LU",
    "lastUpdated": "2020-04-30T00:10:03.885Z",
    "dead": 89,
    "sick": 546,
    "invisible": false
  },
  {
    "infected": 22,
    "recovered": 3,
    "latitude": 8.8,
    "pop": 2049000,
    "longitude": -74.167,
    "name": "Bolívar",
    "country": "CO",
    "lastUpdated": "2020-04-29T23:48:09.759Z",
    "dead": 3,
    "id": "JmOyaFe25yZCIV64JbZj",
    "sick": 16,
    "invisible": false
  },
  {
    "pop": 3648100,
    "longitude": -115.783,
    "name": "Baja California",
    "country": "MX",
    "lastUpdated": "2020-04-30T00:08:10.126Z",
    "dead": 205,
    "id": "Jp9ePErcc8i1aOozEAMf",
    "infected": 1511,
    "recovered": 0,
    "latitude": 31.4,
    "sick": 1306,
    "invisible": false
  },
  {
    "lastUpdated": "2020-04-29T23:48:09.759Z",
    "dead": 3,
    "id": "Jr8syCB0lydmPDXw8Q6N",
    "infected": 26,
    "recovered": 6,
    "latitude": 8.7479801,
    "pop": 1786500,
    "longitude": -75.8814316,
    "name": "Córdoba",
    "country": "CO",
    "sick": 17,
    "invisible": false
  },
  {
    "lastUpdated": "2020-04-30T00:10:03.902Z",
    "dead": 7,
    "id": "JrBbirlBKGdWSdcDt7PF",
    "infected": 109,
    "recovered": 64,
    "latitude": 8.6195,
    "pop": 7798000,
    "longitude": 0.8248,
    "name": "Togo",
    "country": "TG",
    "sick": 38,
    "invisible": false
  },
  {
    "latitude": 42.7339,
    "pop": 7050000,
    "longitude": 25.4858,
    "name": "Bulgaria",
    "country": "BG",
    "lastUpdated": "2020-04-30T00:10:03.887Z",
    "dead": 64,
    "id": "JzZ8sbqzjutThVjkPKPL",
    "infected": 1447,
    "recovered": 243,
    "sick": 1140,
    "invisible": false
  },
  {
    "infected": 266,
    "recovered": 0,
    "latitude": 50.823,
    "pop": 1263000,
    "longitude": 20.709,
    "name": "Świętokrzyskie",
    "country": "PL",
    "lastUpdated": "2020-04-30T00:03:08.356Z",
    "dead": 8,
    "id": "KGrK7gafkeWjmU6sHQd2",
    "sick": 258,
    "invisible": false
  },
  {
    "latitude": 44.5,
    "pop": 1557000,
    "longitude": 8.833,
    "name": "Liguria",
    "country": "IT",
    "lastUpdated": "2020-04-30T00:01:01.303Z",
    "dead": 1152,
    "id": "KLXicxFogWnu0dLp4bNK",
    "infected": 7889,
    "recovered": 3161,
    "sick": 3576,
    "invisible": false
  },
  {
    "latitude": 10.4631,
    "pop": 1201000,
    "longitude": -73.2532,
    "name": "Cesar",
    "country": "CO",
    "lastUpdated": "2020-04-29T23:48:09.758Z",
    "dead": 6,
    "id": "KpOz3WmiZkrXUMlUJNlV",
    "infected": 55,
    "recovered": 29,
    "sick": 20,
    "invisible": false
  },
  {
    "latitude": 43.4167,
    "pop": 3737000,
    "longitude": 11,
    "name": "Toscana",
    "country": "IT",
    "lastUpdated": "2020-04-30T00:01:01.306Z",
    "dead": 827,
    "id": "KrLrJbpDqqiXgUPGCCW9",
    "infected": 9292,
    "recovered": 2802,
    "sick": 5663,
    "invisible": false
  },
  {
    "lastUpdated": "2020-04-30T00:10:03.894Z",
    "dead": 7,
    "id": "KsWzJO06cf0d6LJ4ZNh9",
    "infected": 649,
    "recovered": 136,
    "latitude": 7.873054,
    "pop": 21440000,
    "longitude": 80.771797,
    "name": "Sri Lanka",
    "country": "LK",
    "sick": 506,
    "invisible": false
  },
  {
    "lastUpdated": "2020-04-30T00:11:08.208Z",
    "dead": 31,
    "id": "KtQIo2DoqjELtPAlyDVO",
    "infected": 1332,
    "recovered": 287,
    "latitude": 15.9129,
    "pop": 49670000,
    "longitude": 79.74,
    "name": "Andhra Pradesh",
    "country": "IN",
    "sick": 1014,
    "invisible": false
  },
  {
    "latitude": 61.52401,
    "pop": 144500000,
    "longitude": 105.318756,
    "name": "Russia",
    "country": "RU",
    "lastUpdated": "2020-04-30T00:10:03.875Z",
    "dead": 972,
    "id": "KwOuGBKSMRlmwftxAvLX",
    "infected": 99399,
    "recovered": 10286,
    "sick": 88141,
    "invisible": false
  },
  {
    "pop": 32125,
    "longitude": -63.0501,
    "name": "Saint-Martin",
    "country": "FR",
    "lastUpdated": "2020-04-30T00:10:03.903Z",
    "dead": 3,
    "id": "LBUtrLDKJiupXjlUNTUe",
    "infected": 38,
    "recovered": 24,
    "latitude": 18.0708,
    "sick": 11,
    "invisible": false
  },
  {
    "infected": 82,
    "recovered": 55,
    "latitude": 47.166,
    "pop": 38557,
    "longitude": 9.5554,
    "name": "Liechtenstein",
    "country": "LI",
    "lastUpdated": "2020-04-30T00:10:03.902Z",
    "dead": 1,
    "id": "LTGEU2E9MFkrCcFhZYVk",
    "sick": 26,
    "invisible": false
  },
  {
    "pop": 12720000,
    "longitude": -9.6966,
    "name": "Guinea",
    "country": "GN",
    "lastUpdated": "2020-04-30T00:10:03.887Z",
    "dead": 7,
    "id": "LU2QWt5ao8IJa8evNYVV",
    "infected": 1351,
    "recovered": 313,
    "latitude": 9.9456,
    "sick": 1031,
    "invisible": false
  },
  {
    "longitude": -110.5,
    "name": "Sonora",
    "country": "MX",
    "lastUpdated": "2020-04-30T00:08:10.127Z",
    "dead": 31,
    "id": "LYCBHrA9ms6GcxpLGPCT",
    "infected": 267,
    "recovered": 0,
    "latitude": 29.6667,
    "pop": 3062000,
    "sick": 236,
    "invisible": false
  },
  {
    "latitude": 3.9193051,
    "pop": 563402,
    "longitude": -56.0277824,
    "name": "Suriname",
    "country": "SR",
    "lastUpdated": "2020-04-30T00:10:03.906Z",
    "dead": 1,
    "id": "LglKINHyQpYpFxjckbQ6",
    "infected": 10,
    "recovered": 8,
    "sick": 1,
    "invisible": false
  },
  {
    "recovered": 0,
    "latitude": 52.9399,
    "pop": 1174000,
    "longitude": -106.4509,
    "name": "Saskatchewan",
    "country": "CA",
    "lastUpdated": "2020-04-30T00:06:02.422Z",
    "dead": 6,
    "id": "LkIDKY0CMAqzbwBHyYCP",
    "infected": 383,
    "sick": 377,
    "invisible": false
  },
  {
    "latitude": 24.2155,
    "pop": 636442,
    "longitude": -12.8858,
    "name": "Western Sahara",
    "country": "EH",
    "lastUpdated": "2020-04-30T00:10:03.907Z",
    "dead": 0,
    "id": "LooNn6RuMiDhQnwa9svw",
    "infected": 6,
    "recovered": 5,
    "sick": 1,
    "invisible": false
  },
  {
    "pop": 1022000,
    "longitude": -5.951843,
    "name": "Principado de Asturias",
    "country": "ES",
    "lastUpdated": "2020-04-30T00:09:12.682Z",
    "dead": 266,
    "id": "Lsga7AvYNnY0qQ5gEfV8",
    "infected": 2797,
    "recovered": 809,
    "latitude": 43.363129,
    "sick": 1722,
    "invisible": false
  },
  {
    "infected": 3513,
    "recovered": 1797,
    "latitude": 39.4937,
    "pop": 1065000,
    "longitude": -6.0679,
    "name": "Extremadura",
    "country": "ES",
    "lastUpdated": "2020-04-30T00:09:12.684Z",
    "dead": 440,
    "id": "LuEErlF7dVKI0eJsRjFm",
    "sick": 1276,
    "invisible": false
  },
  {
    "id": "M3wdiueFtwrUHiQ2rOXA",
    "infected": 301,
    "recovered": 0,
    "latitude": 21.0186,
    "pop": 5965000,
    "longitude": -101.2591,
    "name": "Guanajuato",
    "country": "MX",
    "lastUpdated": "2020-04-30T00:08:10.128Z",
    "dead": 25,
    "sick": 276,
    "invisible": false
  },
  {
    "infected": 4539,
    "recovered": 0,
    "latitude": 37.8393,
    "pop": 4468000,
    "longitude": -84.27,
    "name": "Kentucky",
    "country": "US",
    "lastUpdated": "2020-04-30T00:09:06.855Z",
    "dead": 235,
    "id": "MC8MXFw9iXYybnF8v7e6",
    "sick": 4304,
    "invisible": false
  },
  {
    "latitude": 55.3781,
    "longitude": -3.436,
    "name": "Unknown UK region or state",
    "country": "GB",
    "lastUpdated": "2020-04-30T00:10:30.617Z",
    "dead": 23550,
    "id": "MEjlm8VYdGA28TTTnQmf",
    "invisible": true,
    "infected": 30237,
    "recovered": 0,
    "sick": 6687
  },
  {
    "infected": 14715,
    "recovered": 0,
    "latitude": 41.3006,
    "pop": 3689000,
    "longitude": -7.7441,
    "name": "Norte",
    "country": "PT",
    "lastUpdated": "2020-04-30T00:04:02.120Z",
    "dead": 556,
    "id": "MG4e9tulLJ010SZJvbYN",
    "sick": 14159,
    "invisible": false
  },
  {
    "latitude": 56.4907,
    "pop": 5450000,
    "longitude": -4.2026,
    "name": "Scotland",
    "country": "GB",
    "lastUpdated": "2020-04-30T00:10:30.615Z",
    "dead": 1332,
    "id": "MObRYyIriHG337L8FyFC",
    "infected": 11034,
    "recovered": 0,
    "sick": 9702,
    "invisible": false
  },
  {
    "id": "MOxDkmQ4wBi1CuAdVxDE",
    "infected": 17182,
    "recovered": 0,
    "latitude": 40.2672,
    "pop": 6692000,
    "longitude": -86.1349,
    "name": "Indiana",
    "country": "US",
    "lastUpdated": "2020-04-30T00:09:06.850Z",
    "dead": 1065,
    "sick": 16117,
    "invisible": false
  },
  {
    "lastUpdated": "2020-04-30T00:10:03.887Z",
    "dead": 14,
    "id": "MdQOfc1gNh2DOqwSP6UV",
    "infected": 1238,
    "recovered": 557,
    "latitude": 7.54,
    "pop": 24290000,
    "longitude": -5.5471,
    "name": "Ivory Coast",
    "country": "CI",
    "sick": 667,
    "invisible": false
  },
  {
    "latitude": 51.4332,
    "pop": 17910000,
    "longitude": 7.6616,
    "name": "Nordrhein-Westfalen",
    "country": "DE",
    "lastUpdated": "2020-04-30T00:00:03.260Z",
    "dead": 1227,
    "id": "MjpYq3zQyAvSQlVVYjD2",
    "infected": 32657,
    "recovered": 23555,
    "sick": 7875,
    "invisible": false
  },
  {
    "longitude": 105.977203,
    "name": "Ningxia",
    "country": "CN",
    "lastUpdated": "2020-04-29T23:53:13.993Z",
    "dead": 0,
    "id": "MntmjjuHljarCdt6aIeE",
    "infected": 75,
    "recovered": 75,
    "latitude": 37.330509,
    "pop": 6301000,
    "sick": 0,
    "invisible": false
  },
  {
    "latitude": -3.20166586,
    "pop": 8513497,
    "longitude": -52.203499186,
    "name": "Pará",
    "country": "BR",
    "lastUpdated": "2020-04-30T00:11:11.934Z",
    "dead": 137,
    "id": "MuEB2UgkId5crsxi9zQT",
    "infected": 2422,
    "recovered": 0,
    "sick": 2285,
    "invisible": false
  },
  {
    "latitude": 48.6616,
    "pop": 11020000,
    "longitude": 9.3501,
    "name": "Baden-Württemberg",
    "country": "DE",
    "lastUpdated": "2020-04-30T00:00:03.257Z",
    "dead": 1387,
    "id": "N3XsRBwJSsNclkEf7Zz5",
    "infected": 32564,
    "recovered": 21706,
    "sick": 9471,
    "invisible": false
  },
  {
    "infected": 1677,
    "recovered": 710,
    "latitude": 44.696652,
    "pop": 3507000,
    "longitude": 17.824332,
    "name": "Bosnia and Herzegovina",
    "country": "BA",
    "lastUpdated": "2020-04-30T00:10:03.886Z",
    "dead": 65,
    "id": "N7c13sCQF0G789XAVazJ",
    "sick": 902,
    "invisible": false
  },
  {
    "lastUpdated": "2020-04-29T23:53:13.988Z",
    "dead": 0,
    "id": "NBRIGIRrJB1Ry8prDNAC",
    "infected": 197,
    "recovered": 160,
    "latitude": 37.242565,
    "pop": 36500000,
    "longitude": 111.856857,
    "name": "Shanxi",
    "country": "CN",
    "sick": 37,
    "invisible": false
  },
  {
    "pop": 10380000,
    "longitude": -79.0193,
    "name": "North Carolina",
    "country": "US",
    "lastUpdated": "2020-04-30T00:09:06.853Z",
    "dead": 379,
    "id": "NC64Qp5kTqAfiTuR27k8",
    "infected": 10092,
    "recovered": 0,
    "latitude": 35.7596,
    "sick": 9713,
    "invisible": false
  },
  {
    "infected": 2843,
    "recovered": 2010,
    "latitude": 52.4125,
    "pop": 2504000,
    "longitude": 12.5316,
    "name": "Brandenburg",
    "country": "DE",
    "lastUpdated": "2020-04-30T00:00:03.259Z",
    "dead": 138,
    "id": "NJjo2gfBvnbK4xatrsUz",
    "sick": 695,
    "invisible": false
  },
  {
    "pop": 55144,
    "longitude": -145.6739,
    "name": "Northern Mariana Islands",
    "country": "MP",
    "lastUpdated": "2020-04-30T00:09:06.857Z",
    "dead": 2,
    "id": "NLLL6pJhJSw0lrDMD4uP",
    "infected": 14,
    "recovered": 0,
    "latitude": 15.0979,
    "sick": 12,
    "invisible": false
  },
  {
    "infected": 55,
    "recovered": 36,
    "latitude": 30.0668,
    "pop": 10080000,
    "longitude": 79.0193,
    "name": "Uttarakhand",
    "country": "IN",
    "lastUpdated": "2020-04-30T00:11:08.209Z",
    "dead": 0,
    "id": "NMeZEcGToxXfpi16PfFV",
    "sick": 19,
    "invisible": false
  },
  {
    "recovered": 4467,
    "latitude": 50.6521,
    "pop": 6243000,
    "longitude": 9.1624,
    "name": "Hessen",
    "country": "DE",
    "lastUpdated": "2020-04-30T00:00:03.259Z",
    "dead": 354,
    "id": "Nk5vPgUIXsWVfbWZf15O",
    "infected": 8139,
    "sick": 3318,
    "invisible": false
  },
  {
    "recovered": 348,
    "latitude": 56.96776,
    "pop": 1920000,
    "longitude": 25.837107,
    "name": "Latvia",
    "country": "LV",
    "lastUpdated": "2020-04-30T00:10:03.888Z",
    "dead": 15,
    "id": "NmmMKy0YqA8StHdGzB5N",
    "infected": 849,
    "sick": 486,
    "invisible": false
  },
  {
    "lastUpdated": "2020-04-30T00:11:11.935Z",
    "dead": 538,
    "id": "NyGlFL1gATK1Omv9qtcC",
    "infected": 6194,
    "recovered": 0,
    "latitude": -8.472372,
    "pop": 9496294,
    "longitude": -37.946777,
    "name": "Pernambuco",
    "country": "BR",
    "sick": 5656,
    "invisible": false
  },
  {
    "recovered": 45,
    "latitude": 6.4281,
    "pop": 4732000,
    "longitude": -9.4295,
    "name": "Liberia",
    "country": "LR",
    "lastUpdated": "2020-04-30T00:10:03.897Z",
    "dead": 16,
    "id": "O4g88K49HKEZLFXm5gxb",
    "infected": 141,
    "sick": 80,
    "invisible": false
  },
  {
    "lastUpdated": "2020-04-30T00:09:06.854Z",
    "dead": 232,
    "id": "ONU4CK8QjViFHKg2w5if",
    "infected": 5881,
    "recovered": 0,
    "latitude": 34.003307,
    "pop": 5084000,
    "longitude": -80.525613,
    "name": "South Carolina",
    "country": "US",
    "sick": 5649,
    "invisible": false
  },
  {
    "infected": 6569,
    "recovered": 0,
    "latitude": 33.51822,
    "pop": 2987000,
    "longitude": -89.582775,
    "name": "Mississippi",
    "country": "US",
    "lastUpdated": "2020-04-30T00:09:06.854Z",
    "dead": 250,
    "id": "OYa0jFzdbAgo8zUsRv6q",
    "sick": 6319,
    "invisible": false
  },
  {
    "latitude": 45.2538,
    "pop": 1338000,
    "longitude": -69.4455,
    "name": "Maine",
    "country": "US",
    "lastUpdated": "2020-04-30T00:09:06.856Z",
    "dead": 52,
    "id": "OcXNp9kNVSwrRlG3bNVN",
    "infected": 1056,
    "recovered": 0,
    "sick": 1004,
    "invisible": false
  },
  {
    "infected": 220,
    "recovered": 144,
    "latitude": -41.915264,
    "pop": 515000,
    "longitude": 146.725256,
    "name": "Tasmania",
    "country": "AU",
    "lastUpdated": "2020-04-30T00:06:02.423Z",
    "dead": 11,
    "id": "OnOseaqWdnuP18oruABW",
    "sick": 65,
    "invisible": false
  },
  {
    "pop": 3441998,
    "longitude": -56.666668,
    "name": "Mato Grosso",
    "country": "BR",
    "lastUpdated": "2020-04-30T00:11:11.933Z",
    "dead": 11,
    "id": "P0GHFGUt1pkKTk5PM8uz",
    "infected": 292,
    "recovered": 0,
    "latitude": -16.35,
    "sick": 281,
    "invisible": false
  },
  {
    "id": "P4mwRFLbrvT0t75uD8Wo",
    "infected": 73,
    "recovered": 10,
    "latitude": 19.3133,
    "pop": 61559,
    "longitude": -81.2546,
    "name": "Cayman Islands",
    "country": "KY",
    "lastUpdated": "2020-04-30T00:10:03.903Z",
    "dead": 1,
    "sick": 62,
    "invisible": false
  },
  {
    "infected": 11,
    "recovered": 2,
    "latitude": 16.7424984,
    "pop": 5900,
    "longitude": -62.1873665,
    "name": "Montserrat",
    "country": "MS",
    "lastUpdated": "2020-04-30T00:10:03.906Z",
    "dead": 1,
    "id": "PEDkeFMTOZpvHiSVxBk7",
    "sick": 8,
    "invisible": false
  },
  {
    "lastUpdated": "2020-04-30T00:10:03.896Z",
    "dead": 0,
    "id": "PEcgZGEkyhABztt1Ufgc",
    "infected": 225,
    "recovered": 98,
    "latitude": -1.9403,
    "pop": 12210000,
    "longitude": 29.8739,
    "name": "Rwanda",
    "country": "RW",
    "sick": 127,
    "invisible": false
  },
  {
    "lastUpdated": "2020-04-30T00:09:06.855Z",
    "dead": 319,
    "id": "PJvVYosLIhbcRZYnKX1R",
    "infected": 4644,
    "recovered": 0,
    "latitude": 46.7296,
    "pop": 5611000,
    "longitude": -94.6859,
    "name": "Minnesota",
    "country": "US",
    "sick": 4325,
    "invisible": false
  },
  {
    "id": "PTwQr9ijo0TBBsPH2sdJ",
    "infected": 50355,
    "recovered": 0,
    "latitude": 40.6331,
    "pop": 12740000,
    "longitude": -89.3985,
    "name": "Illinois",
    "country": "US",
    "lastUpdated": "2020-04-30T00:09:06.849Z",
    "dead": 2215,
    "sick": 48140,
    "invisible": false
  },
  {
    "infected": 17,
    "recovered": 15,
    "latitude": 13.909444,
    "pop": 178844,
    "longitude": -60.978893,
    "name": "Saint Lucia",
    "country": "LC",
    "lastUpdated": "2020-04-30T00:10:03.904Z",
    "dead": 0,
    "id": "PjLqCeFdyzdZNcZxMkK1",
    "sick": 2,
    "invisible": false
  },
  {
    "infected": 5884,
    "recovered": 2082,
    "latitude": 42.6954,
    "pop": 649900,
    "longitude": -1.6761,
    "name": "Comunidad Foral de Navarra",
    "country": "ES",
    "lastUpdated": "2020-04-30T00:09:12.684Z",
    "dead": 448,
    "id": "PmUlsNx2uFLU797wwU39",
    "sick": 3354,
    "invisible": false
  },
  {
    "latitude": 34.201507,
    "pop": 11530000,
    "longitude": 9.460554,
    "name": "Tunisia",
    "country": "TN",
    "lastUpdated": "2020-04-30T00:10:03.888Z",
    "dead": 40,
    "id": "Pr76V4raf108uSRoEXac",
    "infected": 980,
    "recovered": 294,
    "sick": 646,
    "invisible": false
  },
  {
    "infected": 91,
    "recovered": 10,
    "latitude": -26.5225,
    "pop": 1367000,
    "longitude": 31.4659,
    "name": "Eswatini",
    "country": "SZ",
    "lastUpdated": "2020-04-30T00:10:03.902Z",
    "dead": 1,
    "id": "PuQgOd9KWiMzGZXm11sR",
    "sick": 80,
    "invisible": false
  },
  {
    "id": "Q18mrGvFWTLX2BU9SqhQ",
    "infected": 1354,
    "recovered": 1287,
    "latitude": -37.009609,
    "pop": 6359000,
    "longitude": 143.94853,
    "name": "Victoria",
    "country": "AU",
    "lastUpdated": "2020-04-30T00:06:02.421Z",
    "dead": 18,
    "sick": 49,
    "invisible": false
  },
  {
    "lastUpdated": "2020-04-30T00:00:03.260Z",
    "dead": 114,
    "id": "Q39XkabIYxt15mHINzTa",
    "infected": 2654,
    "recovered": 2100,
    "latitude": 54.2194,
    "pop": 2890000,
    "longitude": 9.6961,
    "name": "Schleswig-Holstein",
    "country": "DE",
    "sick": 440,
    "invisible": false
  },
  {
    "pop": 11329605,
    "longitude": -52.031696,
    "name": "Rio Grande do Sul",
    "country": "BR",
    "lastUpdated": "2020-04-30T00:11:11.935Z",
    "dead": 50,
    "id": "QGpQNhuoVTUPHXvS7qcu",
    "infected": 1368,
    "recovered": 0,
    "latitude": -27.953491,
    "sick": 1318,
    "invisible": false
  },
  {
    "infected": 1666,
    "recovered": 236,
    "latitude": 58.595272,
    "pop": 1328000,
    "longitude": 25.013607,
    "name": "Estonia",
    "country": "EE",
    "lastUpdated": "2020-04-30T00:10:03.887Z",
    "dead": 50,
    "id": "QR9go2hQKXjty7JHUYe4",
    "sick": 1380,
    "invisible": false
  },
  {
    "latitude": -20.318,
    "pop": 3972388,
    "longitude": -40.336,
    "name": "Espírito Santo",
    "country": "BR",
    "lastUpdated": "2020-04-30T00:11:11.932Z",
    "dead": 76,
    "id": "QaWDLKH8SuwD0Qxq6c38",
    "infected": 2107,
    "recovered": 0,
    "sick": 2031,
    "invisible": false
  },
  {
    "infected": 387,
    "recovered": 0,
    "latitude": 20.3333,
    "pop": 8222700,
    "longitude": -103.6667,
    "name": "Jalisco",
    "country": "MX",
    "lastUpdated": "2020-04-30T00:08:10.129Z",
    "dead": 25,
    "id": "Qkho455pBwx88Gohs3hL",
    "sick": 362,
    "invisible": false
  },
  {
    "infected": 8,
    "recovered": 0,
    "latitude": -6.315,
    "pop": 8251000,
    "longitude": 143.9555,
    "name": "Papua New Guinea",
    "country": "PG",
    "lastUpdated": "2020-04-30T00:10:03.906Z",
    "dead": 0,
    "id": "QlZrE4nosm5WfdA2aCDg",
    "sick": 8,
    "invisible": false
  },
  {
    "latitude": 18.3358,
    "pop": 107268,
    "longitude": -64.8963,
    "name": "U.S. Virgin Islands",
    "country": "US",
    "lastUpdated": "2020-04-30T00:09:06.858Z",
    "dead": 4,
    "id": "QqhD3YDMKXojvQY3Yu41",
    "infected": 62,
    "recovered": 0,
    "sick": 58,
    "invisible": false
  },
  {
    "infected": 16,
    "recovered": 13,
    "latitude": 15.414999,
    "pop": 71937,
    "longitude": -61.3709755,
    "name": "Dominica",
    "country": "DM",
    "lastUpdated": "2020-04-30T00:10:03.905Z",
    "dead": 0,
    "id": "Qy2qW2ep5wltnYjPJBxh",
    "sick": 3,
    "invisible": false
  },
  {
    "longitude": -72.167,
    "name": "Casanare",
    "country": "CO",
    "lastUpdated": "2020-04-29T23:48:09.758Z",
    "dead": 0,
    "id": "R3IHMWqIUhOJJTlrmbUZ",
    "infected": 18,
    "recovered": 6,
    "latitude": 5.167,
    "pop": 344027,
    "sick": 12,
    "invisible": false
  },
  {
    "lastUpdated": "2020-04-29T23:52:10.519Z",
    "dead": 178,
    "id": "R8YCgephnxTufvcPWMgx",
    "infected": 6378,
    "recovered": 527,
    "latitude": 8.538,
    "pop": 4099000,
    "longitude": -80.7821,
    "name": "Panama",
    "country": "PA",
    "sick": 5673,
    "invisible": false
  },
  {
    "lastUpdated": "2020-04-30T00:10:03.894Z",
    "dead": 66,
    "id": "RA2SE0p2bVhqo0P2hzGY",
    "infected": 738,
    "recovered": 73,
    "latitude": 15.2,
    "pop": 9265000,
    "longitude": -86.2419,
    "name": "Honduras",
    "country": "HN",
    "sick": 599,
    "invisible": false
  },
  {
    "infected": 268,
    "recovered": 0,
    "latitude": -18.4745998,
    "pop": 224500,
    "longitude": -70.2979202,
    "name": "Arica y Parinacota",
    "country": "CL",
    "lastUpdated": "2020-04-30T00:07:05.425Z",
    "dead": 3,
    "id": "RBt9RiwP7WUbMnJfD0lo",
    "sick": 265,
    "invisible": false
  },
  {
    "pop": 1216000,
    "longitude": 13.8,
    "name": "Friuli Venezia Giulia",
    "country": "IT",
    "lastUpdated": "2020-04-30T00:01:01.303Z",
    "dead": 285,
    "id": "RCrDBCdBNYzgLNr0aB2H",
    "infected": 3010,
    "recovered": 1498,
    "latitude": 45.633331,
    "sick": 1227,
    "invisible": false
  },
  {
    "infected": 6843,
    "recovered": 0,
    "latitude": 41.878,
    "pop": 3156000,
    "longitude": -93.0977,
    "name": "Iowa",
    "country": "US",
    "lastUpdated": "2020-04-30T00:09:06.854Z",
    "dead": 148,
    "id": "RX0KDu1AFrlCsrRso0nb",
    "sick": 6695,
    "invisible": false
  },
  {
    "id": "RZ6PCe5TZsO15JjDObwO",
    "infected": 2543,
    "recovered": 524,
    "latitude": 4.624335,
    "pop": 7413000,
    "longitude": -74.063644,
    "name": "Bogotá D.C.",
    "country": "CO",
    "lastUpdated": "2020-04-29T23:48:09.743Z",
    "dead": 97,
    "sick": 1922,
    "invisible": false
  },
  {
    "lastUpdated": "2020-04-30T00:10:03.903Z",
    "dead": 2,
    "id": "RaJxbzlnRFTuj4B8IbpC",
    "infected": 61,
    "recovered": 18,
    "latitude": 26.3351002,
    "pop": 6846000,
    "longitude": 17.2283306,
    "name": "Libya",
    "country": "LY",
    "sick": 41,
    "invisible": false
  },
  {
    "latitude": 39.0119,
    "pop": 2912000,
    "longitude": -98.4842,
    "name": "Kansas",
    "country": "US",
    "lastUpdated": "2020-04-30T00:09:06.855Z",
    "dead": 127,
    "id": "Rf4uvBfP3GRDSHdZElRd",
    "infected": 3685,
    "recovered": 0,
    "sick": 3558,
    "invisible": false
  },
  {
    "infected": 20858,
    "recovered": 7844,
    "latitude": 48.6998,
    "pop": 5518000,
    "longitude": 6.1878,
    "name": "Grand Est",
    "country": "FR",
    "lastUpdated": "2020-04-29T22:59:08.421Z",
    "dead": 2863,
    "id": "RmEgf1xeclWt7XCF9oiR",
    "sick": 10151,
    "invisible": false
  },
  {
    "latitude": 50.4176,
    "pop": 3644000,
    "longitude": 4.451,
    "name": "Wallonia",
    "country": "BE",
    "lastUpdated": "2020-04-29T23:56:04.664Z",
    "dead": 2641,
    "id": "RryHraSohKQLAsdr1dHO",
    "infected": 15691,
    "recovered": 3160,
    "sick": 9890,
    "invisible": false
  },
  {
    "infected": 16978,
    "recovered": 0,
    "latitude": 51.2538,
    "pop": 14570000,
    "longitude": -85.3232,
    "name": "Ontario",
    "country": "CA",
    "lastUpdated": "2020-04-30T00:06:02.420Z",
    "dead": 1153,
    "id": "Rx4TuyMpfGb3S8wYJX0x",
    "sick": 15825,
    "invisible": false
  },
  {
    "longitude": -4.723611,
    "name": "Castilla y León",
    "country": "ES",
    "lastUpdated": "2020-04-30T00:09:12.682Z",
    "dead": 1736,
    "id": "S8ewN4zaYp8mjtuqqOTw",
    "infected": 19851,
    "recovered": 6448,
    "latitude": 41.652779,
    "pop": 2408000,
    "sick": 11667,
    "invisible": false
  },
  {
    "latitude": 14.652027,
    "pop": 376480,
    "longitude": -61.011715,
    "name": "Martinique",
    "country": "FR",
    "lastUpdated": "2020-04-29T22:58:38.151Z",
    "dead": 14,
    "id": "SDdefnq1bc3ZNr7SpEsW",
    "infected": 178,
    "recovered": 83,
    "sick": 81,
    "invisible": false
  },
  {
    "infected": 1671,
    "recovered": 188,
    "latitude": 7.9465,
    "pop": 28830000,
    "longitude": -1.0232,
    "name": "Ghana",
    "country": "GH",
    "lastUpdated": "2020-04-30T00:10:03.887Z",
    "dead": 16,
    "id": "SG9VWLOV3x2JsTkXmVSz",
    "sick": 1467,
    "invisible": false
  },
  {
    "lastUpdated": "2020-04-30T00:10:03.876Z",
    "dead": 1716,
    "id": "SGe9sCPayMqh6RsGFaBA",
    "infected": 29407,
    "recovered": 22600,
    "latitude": 46.818188,
    "pop": 8570000,
    "longitude": 8.227512,
    "name": "Switzerland",
    "country": "CH",
    "sick": 5091,
    "invisible": false
  },
  {
    "infected": 26610,
    "recovered": 0,
    "latitude": 46.8139,
    "pop": 8485000,
    "longitude": -71.208,
    "name": "Quebec",
    "country": "CA",
    "lastUpdated": "2020-04-30T00:06:02.419Z",
    "dead": 1762,
    "id": "SHoOE3NiJgWAlDVBzwYH",
    "sick": 24848,
    "invisible": false
  },
  {
    "lastUpdated": "2020-04-30T00:10:09.426Z",
    "dead": 22,
    "id": "SMWvuMMuKp2QK7O2tNia",
    "infected": 799,
    "recovered": 249,
    "latitude": 42.6026,
    "pop": 1831000,
    "longitude": 20.903,
    "name": "Kosovo",
    "country": "XK",
    "sick": 528,
    "invisible": false
  },
  {
    "infected": 7,
    "recovered": 7,
    "latitude": 15.2993,
    "pop": 1817000,
    "longitude": 74.124,
    "name": "Goa",
    "country": "IN",
    "lastUpdated": "2020-04-30T00:11:08.209Z",
    "dead": 0,
    "id": "SPcujsH2YlUaoAr8AiWF",
    "sick": 0,
    "invisible": false
  },
  {
    "longitude": -48.953403,
    "name": "Goiás",
    "country": "BR",
    "lastUpdated": "2020-04-30T00:11:11.932Z",
    "dead": 27,
    "id": "SV5AMF59J61Vt4cXWLgy",
    "infected": 705,
    "recovered": 0,
    "latitude": -16.328547,
    "pop": 6921161,
    "sick": 678,
    "invisible": false
  },
  {
    "infected": 1102,
    "recovered": 263,
    "latitude": 39,
    "pop": 1957000,
    "longitude": 16.5,
    "name": "Calabria",
    "country": "IT",
    "lastUpdated": "2020-04-30T00:01:01.303Z",
    "dead": 86,
    "id": "SZdF624x0v1LlyzZjKFu",
    "sick": 753,
    "invisible": false
  },
  {
    "lastUpdated": "2020-04-30T00:09:06.855Z",
    "dead": 68,
    "id": "SakhKQzKu1LRI8laqdQq",
    "infected": 3784,
    "recovered": 0,
    "latitude": 41.4925,
    "pop": 1929000,
    "longitude": -99.9018,
    "name": "Nebraska",
    "country": "US",
    "sick": 3716,
    "invisible": false
  },
  {
    "latitude": -21.1151,
    "pop": 859959,
    "longitude": 55.5364,
    "name": "La Réunion",
    "country": "FR",
    "lastUpdated": "2020-04-29T23:02:48.853Z",
    "dead": 0,
    "id": "SgHzWAAYK1j2sipovxM6",
    "infected": 420,
    "recovered": 300,
    "sick": 120,
    "invisible": false
  },
  {
    "infected": 122,
    "recovered": 119,
    "latitude": 12.565679,
    "pop": 16010000,
    "longitude": 104.990967,
    "name": "Cambodia",
    "country": "KH",
    "lastUpdated": "2020-04-30T00:10:03.898Z",
    "dead": 0,
    "id": "SioMALgUbo7peXmbco2f",
    "sick": 3,
    "invisible": false
  },
  {
    "infected": 144,
    "recovered": 0,
    "latitude": 13.4443,
    "pop": 164229,
    "longitude": 144.7937,
    "name": "Guam",
    "country": "GU",
    "lastUpdated": "2020-04-30T00:09:06.857Z",
    "dead": 5,
    "id": "SsWhuEElU7dCTTuH5fdQ",
    "sick": 139,
    "invisible": false
  },
  {
    "infected": 0,
    "recovered": 3025,
    "latitude": 51.9189,
    "longitude": 19.1344,
    "name": "Unknown Poland region",
    "country": "PL",
    "lastUpdated": "2020-04-30T00:10:03.877Z",
    "dead": 0,
    "id": "SuCr5emUaJ9RHTll1P1p",
    "invisible": true,
    "sick": 0
  },
  {
    "infected": 491,
    "recovered": 59,
    "latitude": -4.0383,
    "pop": 81340000,
    "longitude": 21.7587,
    "name": "DR Congo",
    "country": "CD",
    "lastUpdated": "2020-04-30T00:10:03.895Z",
    "dead": 30,
    "id": "T3iRf8mTUTAzbKrORTap",
    "sick": 402,
    "invisible": false
  },
  {
    "infected": 21402,
    "recovered": 2953,
    "latitude": 23.635796,
    "pop": 32940000,
    "longitude": 44.344334,
    "name": "Saudi Arabia",
    "country": "SA",
    "lastUpdated": "2020-04-30T00:10:03.876Z",
    "dead": 157,
    "id": "T7NffoeCgTUpAbOHvYwP",
    "sick": 18292,
    "invisible": false
  },
  {
    "longitude": -2.5396,
    "name": "La Rioja",
    "country": "ES",
    "lastUpdated": "2020-04-30T00:09:12.685Z",
    "dead": 330,
    "id": "TNDTapyb0k3l7Mds9q9R",
    "infected": 5173,
    "recovered": 2091,
    "latitude": 42.2871,
    "pop": 315700,
    "sick": 2752,
    "invisible": false
  },
  {
    "infected": 386,
    "recovered": 0,
    "latitude": 20.400417,
    "pop": 2207200,
    "longitude": -89.134857,
    "name": "Yucatán",
    "country": "MX",
    "lastUpdated": "2020-04-30T00:08:10.127Z",
    "dead": 32,
    "id": "TQCWbhIpJQBQxBjhCGVJ",
    "sick": 354,
    "invisible": false
  },
  {
    "lastUpdated": "2020-04-30T00:10:03.897Z",
    "dead": 1,
    "id": "TQZmzsLhJqjtCSExAkCP",
    "infected": 138,
    "recovered": 124,
    "latitude": 4.506106,
    "pop": 428697,
    "longitude": 114.650692,
    "name": "Brunei",
    "country": "BN",
    "sick": 13,
    "invisible": false
  },
  {
    "infected": 12431,
    "recovered": 4909,
    "latitude": 45.4471,
    "pop": 8027000,
    "longitude": 4.3853,
    "name": "Auvergne-Rhône-Alpes",
    "country": "FR",
    "lastUpdated": "2020-04-29T23:00:02.317Z",
    "dead": 1311,
    "id": "TT0MKODSjrxHvG19xZCa",
    "sick": 6211,
    "invisible": false
  },
  {
    "pop": 758700,
    "longitude": -7.9,
    "name": "Alentejo",
    "country": "PT",
    "lastUpdated": "2020-04-30T00:04:02.126Z",
    "dead": 1,
    "id": "TeoNTu4aw5riC04sTd73",
    "infected": 214,
    "recovered": 0,
    "latitude": 38.5667,
    "sick": 213,
    "invisible": false
  },
  {
    "pop": 5696000,
    "longitude": -105.461392,
    "name": "Colorado",
    "country": "US",
    "lastUpdated": "2020-04-30T00:09:06.853Z",
    "dead": 766,
    "id": "Th4dlpXXmSDgi1OHs36P",
    "infected": 14758,
    "recovered": 0,
    "latitude": 39.318928,
    "sick": 13992,
    "invisible": false
  },
  {
    "latitude": 12.2383,
    "pop": 19190000,
    "longitude": -1.5616,
    "name": "Burkina Faso",
    "country": "BF",
    "lastUpdated": "2020-04-30T00:10:03.894Z",
    "dead": 43,
    "id": "Tup6oDCHj6DgqZR3nQ3x",
    "infected": 641,
    "recovered": 498,
    "sick": 100,
    "invisible": false
  },
  {
    "infected": 20,
    "recovered": 13,
    "latitude": 12.104818,
    "pop": 112381,
    "longitude": -61.670761,
    "name": "Grenada",
    "country": "GD",
    "lastUpdated": "2020-04-30T00:10:03.904Z",
    "dead": 0,
    "id": "TvqURPN5xzVBXsmGP46N",
    "sick": 7,
    "invisible": false
  },
  {
    "recovered": 6366,
    "latitude": 55.675758,
    "pop": 5603000,
    "longitude": 12.56902,
    "name": "Denmark",
    "country": "DK",
    "lastUpdated": "2020-04-30T00:10:03.878Z",
    "dead": 443,
    "id": "Ty1AY3VLPJcRZgdBIERx",
    "infected": 9008,
    "sick": 2199,
    "invisible": false
  },
  {
    "infected": 9665,
    "recovered": 0,
    "latitude": 53.9062,
    "pop": 5486000,
    "longitude": -1.0334,
    "name": "Yorkshire and The Humber",
    "country": "GB",
    "lastUpdated": "2020-04-30T00:10:30.617Z",
    "dead": 0,
    "id": "U0N7cIPJXAc4T6uKV60c",
    "sick": 9665,
    "invisible": false
  },
  {
    "id": "U0tkTJ9CGsBuFJ2Gdoum",
    "infected": 787,
    "recovered": 771,
    "latitude": 36.395859,
    "pop": 100472400,
    "longitude": 118.769882,
    "name": "Shandong",
    "country": "CN",
    "lastUpdated": "2020-04-29T23:53:13.989Z",
    "dead": 7,
    "sick": 9,
    "invisible": false
  },
  {
    "infected": 563,
    "recovered": 69,
    "latitude": 43.94236,
    "pop": 33400,
    "longitude": 12.457777,
    "name": "San Marino",
    "country": "SM",
    "lastUpdated": "2020-04-30T00:10:03.895Z",
    "dead": 41,
    "id": "U12rMD5GDW58Q0lIwrB1",
    "sick": 453,
    "invisible": false
  },
  {
    "latitude": 36.204823,
    "pop": 126800000,
    "longitude": 138.25293,
    "name": "Japan",
    "country": "JP",
    "lastUpdated": "2020-04-30T00:10:03.877Z",
    "dead": 394,
    "id": "U13Gy4BpRLAZ95bPmBXd",
    "infected": 13736,
    "recovered": 1899,
    "sick": 11443,
    "invisible": false
  },
  {
    "infected": 81,
    "recovered": 52,
    "latitude": 1.3733,
    "pop": 42860000,
    "longitude": 32.2903,
    "name": "Uganda",
    "country": "UG",
    "lastUpdated": "2020-04-30T00:10:03.902Z",
    "dead": 0,
    "id": "UCZXEgnHtxUoChWLR6fQ",
    "sick": 29,
    "invisible": false
  },
  {
    "longitude": 17.8739,
    "name": "Angola",
    "country": "AO",
    "lastUpdated": "2020-04-30T00:10:03.904Z",
    "dead": 2,
    "id": "UIbrFy6kiTTF0D37Kqmp",
    "infected": 27,
    "recovered": 7,
    "latitude": -11.2027,
    "pop": 29780000,
    "sick": 18,
    "invisible": false
  },
  {
    "infected": 2003,
    "recovered": 809,
    "latitude": 48.202,
    "pop": 3329000,
    "longitude": -2.9326,
    "name": "Bretagne",
    "country": "FR",
    "lastUpdated": "2020-04-29T23:00:38.573Z",
    "dead": 210,
    "id": "URKMlJ7OTNldjpaxFbjE",
    "sick": 984,
    "invisible": false
  },
  {
    "lastUpdated": "2020-04-30T00:00:03.259Z",
    "dead": 153,
    "id": "UfFaUECHINUutv1M9tzq",
    "infected": 4682,
    "recovered": 3400,
    "latitude": 53.5511,
    "pop": 1822000,
    "longitude": 9.9937,
    "name": "Hamburg",
    "country": "DE",
    "sick": 1129,
    "invisible": false
  },
  {
    "infected": 80,
    "recovered": 0,
    "latitude": 22.774916,
    "pop": 1615000,
    "longitude": -102.586899,
    "name": "Zacatecas",
    "country": "MX",
    "lastUpdated": "2020-04-30T00:08:10.128Z",
    "dead": 8,
    "id": "UflxTAb4FnAwve7c5MbY",
    "sick": 72,
    "invisible": false
  },
  {
    "infected": 249,
    "recovered": 0,
    "latitude": -20.4427795,
    "pop": 2748023,
    "longitude": -54.646389,
    "name": "Mato Grosso do Sul",
    "country": "BR",
    "lastUpdated": "2020-04-30T00:11:11.933Z",
    "dead": 9,
    "id": "UlA1ubOUhPtf9jjKxxhF",
    "sick": 240,
    "invisible": false
  },
  {
    "infected": 27,
    "recovered": 25,
    "latitude": -19.4914,
    "pop": 211945,
    "longitude": 132.551,
    "name": "Northern Territory",
    "country": "AU",
    "lastUpdated": "2020-04-30T00:06:02.423Z",
    "dead": 0,
    "id": "UrF45V1VqMo6YBib2KlL",
    "sick": 2,
    "invisible": false
  },
  {
    "infected": 75,
    "recovered": 33,
    "latitude": 18.0424805,
    "pop": 41109,
    "longitude": -63.0548286,
    "name": "Sint Maarten",
    "country": "SX",
    "lastUpdated": "2020-04-30T00:10:03.903Z",
    "dead": 13,
    "id": "UsxgpiuFCtlR2CW1UUFm",
    "sick": 29,
    "invisible": false
  },
  {
    "id": "UzOGOMitJmaFTdh2FbvI",
    "infected": 12593,
    "recovered": 0,
    "latitude": 52.4751,
    "pop": 5908000,
    "longitude": -1.8298,
    "name": "West Midlands",
    "country": "GB",
    "lastUpdated": "2020-04-30T00:10:30.617Z",
    "dead": 0,
    "sick": 12593,
    "invisible": false
  },
  {
    "latitude": 11.943179,
    "pop": 241773,
    "longitude": 79.808206,
    "name": "Puducherry",
    "country": "IN",
    "lastUpdated": "2020-04-30T00:11:08.209Z",
    "dead": 0,
    "id": "V1qE740s3EUGyKGr6SVv",
    "infected": 8,
    "recovered": 5,
    "sick": 3,
    "invisible": false
  },
  {
    "infected": 7,
    "recovered": 0,
    "latitude": -45.5687,
    "pop": 25569,
    "longitude": -72.0597,
    "name": "Aysén",
    "country": "CL",
    "lastUpdated": "2020-04-30T00:07:05.438Z",
    "dead": 0,
    "id": "V9QxUhV4DyYK7iElEhXV",
    "sick": 7,
    "invisible": false
  },
  {
    "id": "VAG9AcMABTf8oIAfELPh",
    "infected": 1467,
    "recovered": 617,
    "latitude": 21.5218,
    "pop": 11480000,
    "longitude": -77.7812,
    "name": "Cuba",
    "country": "CU",
    "lastUpdated": "2020-04-30T00:10:03.887Z",
    "dead": 58,
    "sick": 792,
    "invisible": false
  },
  {
    "infected": 185,
    "recovered": 181,
    "latitude": 25.181129,
    "pop": 45970000,
    "longitude": 101.864143,
    "name": "Yunnan",
    "country": "CN",
    "lastUpdated": "2020-04-29T23:53:13.990Z",
    "dead": 2,
    "id": "VIf8T8PD3ZzlzAm5eBCX",
    "sick": 2,
    "invisible": false
  },
  {
    "latitude": -3.4653,
    "pop": 4080611,
    "longitude": -62.2159,
    "name": "Amazonas",
    "country": "BR",
    "lastUpdated": "2020-04-30T00:11:11.931Z",
    "dead": 380,
    "id": "VZQiSdZ7cUHgUZWgpNTP",
    "infected": 4801,
    "recovered": 0,
    "sick": 4421,
    "invisible": false
  },
  {
    "longitude": 80.9462,
    "name": "Uttar Pradesh",
    "country": "IN",
    "lastUpdated": "2020-04-30T00:11:08.207Z",
    "dead": 39,
    "id": "VcKcLdCkC6YpPfIDnRVD",
    "infected": 2134,
    "recovered": 510,
    "latitude": 26.8467,
    "pop": 204200000,
    "sick": 1585,
    "invisible": false
  },
  {
    "lastUpdated": "2020-04-30T00:06:02.427Z",
    "dead": 0,
    "id": "Vd3lLgrNsr81plzTgZkz",
    "infected": 5,
    "recovered": 0,
    "latitude": 64.8255,
    "pop": 44826,
    "longitude": -124.8457,
    "name": "Northwest Territories",
    "country": "CA",
    "sick": 5,
    "invisible": false
  },
  {
    "pop": 1188000,
    "longitude": 3.838942,
    "name": "Islas Baleares",
    "country": "ES",
    "lastUpdated": "2020-04-30T00:09:12.682Z",
    "dead": 185,
    "id": "VyW0IR9vLMdgnKz1cC7j",
    "infected": 1950,
    "recovered": 1196,
    "latitude": 39.999079,
    "sick": 569,
    "invisible": false
  },
  {
    "latitude": 43.8927,
    "pop": 5893000,
    "longitude": 3.2828,
    "name": "Occitanie",
    "country": "FR",
    "lastUpdated": "2020-04-29T23:00:59.643Z",
    "dead": 390,
    "id": "WAnbFrEjtZDTCIYBt8rz",
    "infected": 4510,
    "recovered": 2122,
    "sick": 1998,
    "invisible": false
  },
  {
    "recovered": 147,
    "latitude": 40.5,
    "pop": 567118,
    "longitude": 16.5,
    "name": "Basilicata",
    "country": "IT",
    "lastUpdated": "2020-04-30T00:01:01.302Z",
    "dead": 25,
    "id": "WD502XimGXnWzqYg7zxL",
    "infected": 366,
    "sick": 194,
    "invisible": false
  },
  {
    "latitude": 24.6637,
    "pop": 2722000,
    "longitude": 93.9063,
    "name": "Manipur",
    "country": "IN",
    "lastUpdated": "2020-04-30T00:11:08.209Z",
    "dead": 0,
    "id": "WKsJQmcpWKxnp0nCwN77",
    "infected": 2,
    "recovered": 2,
    "sick": 0,
    "invisible": false
  },
  {
    "infected": 433,
    "recovered": 0,
    "latitude": -9.933,
    "pop": 1757589,
    "longitude": -63.067,
    "name": "Rondônia",
    "country": "BR",
    "lastUpdated": "2020-04-30T00:11:11.935Z",
    "dead": 15,
    "id": "WRqKCfMIJFjrjXLMud70",
    "sick": 418,
    "invisible": false
  },
  {
    "infected": 5350,
    "recovered": 2073,
    "latitude": -30.5595,
    "pop": 56720000,
    "longitude": 22.9375,
    "name": "South Africa",
    "country": "ZA",
    "lastUpdated": "2020-04-30T00:10:03.880Z",
    "dead": 103,
    "id": "Whrue10NtwIObLvFFyBr",
    "sick": 3174,
    "invisible": false
  },
  {
    "infected": 10,
    "recovered": 8,
    "latitude": 13.443182,
    "pop": 2101000,
    "longitude": -15.3101387,
    "name": "Gambia",
    "country": "GM",
    "lastUpdated": "2020-04-30T00:10:03.906Z",
    "dead": 1,
    "id": "Wk811YwpQxsOCfz8As86",
    "sick": 1,
    "invisible": false
  },
  {
    "latitude": 19.352498,
    "pop": 17666800,
    "longitude": -99.625164,
    "name": "Estado de México",
    "country": "MX",
    "lastUpdated": "2020-04-30T00:08:10.128Z",
    "dead": 186,
    "id": "WpCXuQjYFLbozSpEhbrZ",
    "infected": 2722,
    "recovered": 0,
    "sick": 2536,
    "invisible": false
  },
  {
    "lastUpdated": "2020-04-30T00:10:03.880Z",
    "dead": 163,
    "id": "WpLayPPLIJ7VcHZdQaoM",
    "infected": 7103,
    "recovered": 150,
    "latitude": 23.685,
    "pop": 164700000,
    "longitude": 90.3563,
    "name": "Bangladesh",
    "country": "BD",
    "sick": 6790,
    "invisible": false
  },
  {
    "longitude": -99.8508,
    "name": "Querétaro",
    "country": "MX",
    "lastUpdated": "2020-04-30T00:08:10.126Z",
    "dead": 13,
    "id": "Wt97UDm6jfYef6WBrS2w",
    "infected": 129,
    "recovered": 0,
    "latitude": 20.836,
    "pop": 2100000,
    "sick": 116,
    "invisible": false
  },
  {
    "infected": 17825,
    "recovered": 8019,
    "latitude": 45.5,
    "pop": 4905000,
    "longitude": 11.75,
    "name": "Veneto",
    "country": "IT",
    "lastUpdated": "2020-04-30T00:01:01.310Z",
    "dead": 1437,
    "id": "X2iRhHF6f9pUnJcxPc3J",
    "sick": 8369,
    "invisible": false
  },
  {
    "lastUpdated": "2020-04-30T00:10:03.904Z",
    "dead": 0,
    "id": "X3GMAVINj2GDzIRVfo7n",
    "infected": 24,
    "recovered": 6,
    "latitude": -8.556856,
    "pop": 1311000,
    "longitude": 125.56031,
    "name": "Timor-Leste",
    "country": "TL",
    "sick": 18,
    "invisible": false
  },
  {
    "latitude": 34.152588,
    "pop": 274289,
    "longitude": 77.577049,
    "name": "Ladakh",
    "country": "IN",
    "lastUpdated": "2020-04-30T00:11:08.209Z",
    "dead": 0,
    "id": "X3PZqaJxtnlxcgP4tzya",
    "infected": 22,
    "recovered": 17,
    "sick": 5,
    "invisible": false
  },
  {
    "recovered": 352,
    "latitude": 25.92448,
    "pop": 38560000,
    "longitude": 118.278992,
    "name": "Fujian",
    "country": "CN",
    "lastUpdated": "2020-04-29T23:53:13.989Z",
    "dead": 1,
    "id": "XBBw0iMPrmiEu3qogkbi",
    "infected": 355,
    "sick": 2,
    "invisible": false
  },
  {
    "infected": 693,
    "recovered": 0,
    "latitude": -52.368,
    "pop": 166533,
    "longitude": -70.9863,
    "name": "Magallanes",
    "country": "CL",
    "lastUpdated": "2020-04-30T00:07:05.439Z",
    "dead": 10,
    "id": "XIYUg6ShQvWyEAJfyJzC",
    "sick": 683,
    "invisible": false
  },
  {
    "latitude": 37.794597,
    "pop": 246746,
    "longitude": -25.506134,
    "name": "Açores",
    "country": "PT",
    "lastUpdated": "2020-04-30T00:04:02.126Z",
    "dead": 12,
    "id": "XhM7BCQK50gGQ2wIUtDq",
    "infected": 125,
    "recovered": 0,
    "sick": 113,
    "invisible": false
  },
  {
    "infected": 625,
    "recovered": 394,
    "latitude": -32.5228,
    "pop": 3457000,
    "longitude": -55.7658,
    "name": "Uruguay",
    "country": "UY",
    "lastUpdated": "2020-04-30T00:10:03.895Z",
    "dead": 15,
    "id": "XrsuLstdybIqIvv0E0aJ",
    "sick": 216,
    "invisible": false
  },
  {
    "infected": 415,
    "recovered": 186,
    "latitude": 42.0396,
    "pop": 339178,
    "longitude": 9.0129,
    "name": "Corse",
    "country": "FR",
    "lastUpdated": "2020-04-29T23:01:15.867Z",
    "dead": 50,
    "id": "YGXgIObKVabP2CYEdcb9",
    "sick": 179,
    "invisible": false
  },
  {
    "infected": 104,
    "recovered": 33,
    "latitude": 2.916112,
    "pop": 1126000,
    "longitude": -75.28344,
    "name": "Huila",
    "country": "CO",
    "lastUpdated": "2020-04-29T23:48:09.754Z",
    "dead": 6,
    "id": "YI9zIOUXJqAcgc0T80yb",
    "sick": 65,
    "invisible": false
  },
  {
    "recovered": 71,
    "latitude": 31.9522,
    "pop": 5052000,
    "longitude": 35.2332,
    "name": "Palestine",
    "country": "PS",
    "lastUpdated": "2020-04-30T00:10:03.896Z",
    "dead": 2,
    "id": "YMzKw0SnXG71VT7H1jff",
    "infected": 344,
    "sick": 271,
    "invisible": false
  },
  {
    "latitude": 17.97,
    "pop": 2460900,
    "longitude": -92.5867,
    "name": "Tabasco",
    "country": "MX",
    "lastUpdated": "2020-04-30T00:08:10.125Z",
    "dead": 107,
    "id": "YP3nlz6AKyrnCWYb5mHA",
    "infected": 890,
    "recovered": 0,
    "sick": 783,
    "invisible": false
  },
  {
    "infected": 73,
    "recovered": 18,
    "latitude": 11.8037491,
    "pop": 1955000,
    "longitude": -15.1804132,
    "name": "Guinea-Bissau",
    "country": "GW",
    "lastUpdated": "2020-04-29T22:40:03.460Z",
    "dead": 1,
    "id": "YZoy8ReFucvC3IFnWZHn",
    "sick": 54,
    "invisible": false
  },
  {
    "lastUpdated": "2020-04-30T00:09:06.857Z",
    "dead": 9,
    "id": "YaCODTMD1KKRnrAlkg2u",
    "infected": 355,
    "recovered": 0,
    "latitude": 64.2008,
    "pop": 737438,
    "longitude": -149.4937,
    "name": "Alaska",
    "country": "US",
    "sick": 346,
    "invisible": false
  },
  {
    "latitude": 42.9896,
    "pop": 2178000,
    "longitude": -2.6189,
    "name": "País Vasco",
    "country": "ES",
    "lastUpdated": "2020-04-30T00:09:12.685Z",
    "dead": 1274,
    "id": "YfA7o2lZP1DhV4JB6Umh",
    "infected": 15138,
    "recovered": 10474,
    "sick": 3390,
    "invisible": false
  },
  {
    "longitude": -96.4085,
    "name": "Oaxaca",
    "country": "MX",
    "lastUpdated": "2020-04-30T00:08:10.113Z",
    "dead": 17,
    "id": "YidRsOGDERjtbaIBGCdu",
    "infected": 121,
    "recovered": 0,
    "latitude": 16.8922,
    "pop": 4091400,
    "sick": 104,
    "invisible": false
  },
  {
    "pop": 51470000,
    "longitude": 126.99778,
    "name": "South Korea",
    "country": "KR",
    "lastUpdated": "2020-04-30T00:10:03.877Z",
    "dead": 246,
    "id": "Yw9uBekNlefXBcOCNMfP",
    "infected": 10761,
    "recovered": 8922,
    "latitude": 37.568291,
    "sick": 1593,
    "invisible": false
  },