[
  {
    "longitude": 51.145517,
    "name": "Qatar",
    "country": "QA",
    "dead": 0,
    "lastUpdated": "2020-03-11T21:46:03.158Z",
    "id": "0m4aECS0Z2DGFEr8ldgI",
    "hide": false,
    "infected": 262,
    "recovered": 0,
    "latitude": 25.315058,
    "sick": 262
  },
  {
    "latitude": 35.64249,
    "longitude": 108.472214,
    "name": "Shaanxi",
    "country": "CN",
    "dead": 1,
    "lastUpdated": "2020-03-11T14:27:57.306Z",
    "id": "0x2HLhr5z5xAtEdO4iZm",
    "hide": false,
    "infected": 245,
    "recovered": 232,
    "sick": 12
  },
  {
    "hide": false,
    "infected": 7,
    "recovered": 0,
    "latitude": 41.643351,
    "longitude": 21.668393,
    "name": "North Macedonia",
    "country": "MK",
    "dead": 0,
    "lastUpdated": "2020-03-11T21:46:03.146Z",
    "id": "19MvIhipqTyYv1H37Upw",
    "sick": 7
  },
  {
    "id": "1Fap7rZu9SIRqf5TG9Dg",
    "hide": false,
    "infected": 18,
    "recovered": 18,
    "latitude": 35.801933,
    "longitude": 96.779286,
    "name": "Qinghai",
    "country": "CN",
    "dead": 0,
    "lastUpdated": "2020-03-11T14:27:28.241Z",
    "sick": 0
  },
  {
    "recovered": 0,
    "latitude": -14.235004,
    "longitude": -51.925282,
    "name": "Brazil",
    "country": "BR",
    "dead": 0,
    "lastUpdated": "2020-03-11T21:46:03.162Z",
    "id": "1f0YoV0vAcexEhpESyZc",
    "hide": false,
    "infected": 52,
    "sick": 52
  },
  {
    "recovered": 0,
    "latitude": 47.4116,
    "longitude": 28.3699,
    "name": "Moldova",
    "country": "MD",
    "dead": 0,
    "lastUpdated": "2020-03-11T21:46:03.098Z",
    "id": "1qTPB8X3tyLyIdsb5TN3",
    "hide": false,
    "infected": 3,
    "sick": 3
  },
  {
    "recovered": 1,
    "latitude": 30.15336,
    "longitude": 88.787865,
    "name": "Tibet",
    "country": "CN",
    "dead": 0,
    "lastUpdated": "2020-03-11T14:28:48.479Z",
    "id": "25qIBtsW2nfQj3pwBKg9",
    "hide": false,
    "infected": 1,
    "sick": 0
  },
  {
    "latitude": -1.572184,
    "longitude": 115.66779,
    "name": "Indonesia",
    "country": "ID",
    "dead": 1,
    "lastUpdated": "2020-03-11T21:46:03.053Z",
    "id": "2KHYUb5t3lwzVVmDjwNX",
    "hide": false,
    "infected": 34,
    "recovered": 2,
    "sick": 31
  },
  {
    "latitude": 43.807191,
    "longitude": -120.585594,
    "name": "Oregon",
    "country": "US",
    "dead": 0,
    "lastUpdated": "2020-03-11T14:17:04.240Z",
    "id": "2OrsssmGUs4XCzaZzvTv",
    "hide": false,
    "infected": 15,
    "recovered": 0,
    "sick": 15
  },
  {
    "hide": false,
    "infected": 93,
    "recovered": 91,
    "latitude": 43.851921,
    "longitude": 126.548103,
    "name": "Jilin",
    "country": "CN",
    "dead": 1,
    "lastUpdated": "2020-03-11T14:27:20.127Z",
    "id": "2jxHvSsxdnom0nPNvOT8",
    "sick": 1
  },
  {
    "hide": false,
    "infected": 1,
    "recovered": 1,
    "latitude": 36.1408,
    "longitude": -5.3536,
    "name": "Gibraltar",
    "country": "GI",
    "dead": 0,
    "lastUpdated": "2020-03-11T21:46:03.090Z",
    "id": "2p11BjSAs3wVyymgqBOe",
    "sick": 0
  },
  {
    "recovered": 0,
    "latitude": 47.7516,
    "longitude": 1.6751,
    "name": "Centre-Val de Loire",
    "country": "FR",
    "dead": 0,
    "lastUpdated": "2020-03-11T21:46:04.319Z",
    "id": "2sLNkkHpyaHx7dD3aMDO",
    "hide": false,
    "infected": 20,
    "sick": 20
  },
  {
    "longitude": -82.9071,
    "name": "Ohio",
    "country": "US",
    "dead": 0,
    "lastUpdated": "2020-03-11T14:20:34.053Z",
    "id": "3fC3bAyIRUquOQOEnQNe",
    "hide": false,
    "infected": 3,
    "recovered": 0,
    "latitude": 40.4173,
    "sick": 3
  },
  {
    "dead": 1,
    "lastUpdated": "2020-03-11T14:29:00.631Z",
    "id": "4hfZRUoUgI4a3vrG0GBk",
    "hide": false,
    "infected": 39,
    "recovered": 4,
    "latitude": 53.7267,
    "longitude": -127.6476,
    "name": "British Columbia",
    "country": "CA",
    "sick": 34
  },
  {
    "hide": false,
    "infected": 59,
    "recovered": 0,
    "latitude": 41.065877,
    "longitude": -7.920053,
    "name": "Portugal",
    "country": "PT",
    "dead": 0,
    "lastUpdated": "2020-03-11T21:46:03.196Z",
    "id": "4rQLxUCMmQLpbi6E9tbH",
    "sick": 59
  },
  {
    "dead": 0,
    "lastUpdated": "2020-03-11T21:46:03.199Z",
    "id": "4zqzRm2xHn0CDVOUQJ8p",
    "hide": false,
    "infected": 11,
    "recovered": 3,
    "latitude": 40.3426,
    "longitude": 47.93802,
    "name": "Azerbaijan",
    "country": "AZ",
    "sick": 8
  },
  {
    "longitude": 146.921097,
    "name": "New South Wales",
    "country": "AU",
    "dead": 3,
    "lastUpdated": "2020-03-11T14:30:02.216Z",
    "id": "5N16a2OXXRpsEFanw0TC",
    "hide": false,
    "infected": 55,
    "recovered": 4,
    "latitude": -31.253218,
    "sick": 48
  },
  {
    "hide": false,
    "infected": 1,
    "recovered": 1,
    "latitude": 28.394857,
    "longitude": 84.124008,
    "name": "Nepal",
    "country": "NP",
    "dead": 0,
    "lastUpdated": "2020-03-11T21:46:03.121Z",
    "id": "5gXZIjRgAvd6xWN1LOv8",
    "sick": 0
  },
  {
    "id": "5pwmh7aSdGRKqRbnuyc0",
    "hide": false,
    "infected": 49,
    "recovered": 2,
    "latitude": 12.879721,
    "longitude": 121.774017,
    "name": "Philippines",
    "country": "PH",
    "dead": 1,
    "lastUpdated": "2020-03-11T21:46:03.075Z",
    "sick": 46
  },
  {
    "latitude": 55.621011,
    "longitude": 23.804991,
    "name": "Lithuania",
    "country": "LT",
    "dead": 0,
    "lastUpdated": "2020-03-11T21:46:03.066Z",
    "id": "694ON7d0mRJDeM1gHBTR",
    "hide": false,
    "infected": 3,
    "recovered": 0,
    "sick": 3
  },
  {
    "latitude": 22.396427,
    "longitude": 114.109497,
    "name": "Hong Kong",
    "country": "HK",
    "dead": 3,
    "lastUpdated": "2020-03-11T21:46:03.057Z",
    "id": "6IcHIIH0zXpY0POmBZTv",
    "hide": false,
    "infected": 126,
    "recovered": 60,
    "sick": 63
  },
  {
    "dead": 0,
    "lastUpdated": "2020-03-11T21:46:03.178Z",
    "id": "6ahNiyKDSDAftCctgLH3",
    "hide": false,
    "infected": 57,
    "recovered": 0,
    "latitude": 46.0569,
    "longitude": 14.5058,
    "name": "Slovenia",
    "country": "SI",
    "sick": 57
  },
  {
    "hide": false,
    "infected": 1,
    "recovered": 0,
    "latitude": 17.901672,
    "longitude": -62.818544,
    "name": "Saint-Barthélemy",
    "country": "FR",
    "dead": 0,
    "lastUpdated": "2020-03-11T21:46:04.329Z",
    "id": "78Ox26bNHDA2Pk2b3Uwn",
    "sick": 1
  },
  {
    "dead": 0,
    "lastUpdated": "2020-03-11T21:46:03.100Z",
    "id": "7rYC2iFB50c55Ihgbs4Q",
    "hide": false,
    "infected": 13,
    "recovered": 0,
    "latitude": 47.4979,
    "longitude": 19.0402,
    "name": "Hungary",
    "country": "HU",
    "sick": 13
  },
  {
    "dead": 0,
    "lastUpdated": "2020-03-11T21:46:03.080Z",
    "id": "8C0d7WVCjyUGtnc2gUAR",
    "hide": false,
    "infected": 2,
    "recovered": 0,
    "latitude": 7.3697,
    "longitude": 12.3547,
    "name": "Cameroon",
    "country": "CM",
    "sick": 2
  },
  {
    "dead": 0,
    "lastUpdated": "2020-03-11T21:46:03.150Z",
    "id": "8RihJrXw4NQXPxaRxr1u",
    "hide": false,
    "infected": 2,
    "recovered": 0,
    "latitude": -16.2902,
    "longitude": -63.5887,
    "name": "Bolivia",
    "country": "BO",
    "sick": 2
  },
  {
    "id": "8pA3fM4xC2c2wv1b4TnE",
    "hide": false,
    "infected": 178,
    "recovered": 96,
    "latitude": 1.352083,
    "longitude": 103.819839,
    "name": "Singapore",
    "country": "SG",
    "dead": 0,
    "lastUpdated": "2020-03-11T21:46:03.142Z",
    "sick": 82
  },
  {
    "hide": false,
    "infected": 34,
    "recovered": 4,
    "latitude": 47.2184,
    "longitude": -1.5536,
    "name": "Pays de la Loire",
    "country": "FR",
    "dead": 0,
    "lastUpdated": "2020-03-11T21:46:04.336Z",
    "id": "98hwAoohgWEOQVa3NlM5",
    "sick": 30
  },
  {
    "longitude": 24.966761,
    "name": "Romania",
    "country": "RO",
    "dead": 0,
    "lastUpdated": "2020-03-11T21:46:03.025Z",
    "id": "9QcETqEcM2fTv9zRvx5T",
    "hide": false,
    "infected": 47,
    "recovered": 6,
    "latitude": 45.943161,
    "sick": 41
  },
  {
    "latitude": 61.92411,
    "longitude": 25.748152,
    "name": "Finland",
    "country": "FI",
    "dead": 0,
    "lastUpdated": "2020-03-11T21:46:03.186Z",
    "id": "9p6OCdZbUUwBLA60Gk3W",
    "hide": false,
    "infected": 59,
    "recovered": 1,
    "sick": 58
  },
  {
    "latitude": 43.311643,
    "longitude": -71.590315,
    "name": "New Hampshire",
    "country": "US",
    "dead": 0,
    "lastUpdated": "2020-03-11T14:17:46.554Z",
    "id": "A84CwQ52kA46Hr7pn6Bm",
    "hide": false,
    "infected": 6,
    "recovered": 0,
    "sick": 6
  },
  {
    "latitude": 41.823261,
    "longitude": -71.412257,
    "name": "Rhode Island",
    "country": "US",
    "dead": 0,
    "lastUpdated": "2020-03-11T14:17:22.820Z",
    "id": "AEUWUHS65qvjEslew11c",
    "hide": false,
    "infected": 5,
    "recovered": 0,
    "sick": 5
  },
  {
    "latitude": 27.285971,
    "longitude": 116.01609,
    "name": "Jiangxi",
    "country": "CN",
    "dead": 1,
    "lastUpdated": "2020-03-11T14:24:30.147Z",
    "id": "AmBYm5J6E9Cuez1FQjiN",
    "hide": false,
    "infected": 935,
    "recovered": 932,
    "sick": 2
  },
  {
    "latitude": 28.033886,
    "longitude": 1.659626,
    "name": "Algeria",
    "country": "DZ",
    "dead": 0,
    "lastUpdated": "2020-03-11T21:46:03.036Z",
    "id": "AwN0CScPDApcLFgz6e3z",
    "hide": false,
    "infected": 20,
    "recovered": 0,
    "sick": 20
  },
  {
    "id": "B82Ef45M8cDu4q7VsSHF",
    "hide": false,
    "infected": 19,
    "recovered": 0,
    "latitude": 45.099998,
    "longitude": 15.2,
    "name": "Croatia",
    "country": "HR",
    "dead": 0,
    "lastUpdated": "2020-03-11T21:46:03.139Z",
    "sick": 19
  },
  {
    "hide": false,
    "infected": 21,
    "recovered": 0,
    "latitude": 40.23985,
    "longitude": -100.996784,
    "name": "United States (Unknown State)",
    "country": "US",
    "dead": 0,
    "lastUpdated": "2020-03-11T14:16:53.751Z",
    "id": "BCFAwm0wjOZlbPfnttGd",
    "sick": 21
  },
  {
    "dead": 0,
    "lastUpdated": "2020-03-11T14:18:23.545Z",
    "id": "BF51mWl51fgEcyBpCSzb",
    "hide": false,
    "infected": 9,
    "recovered": 0,
    "latitude": 39.509109,
    "longitude": -76.98432,
    "name": "Maryland",
    "country": "US",
    "sick": 9
  },
  {
    "dead": 0,
    "lastUpdated": "2020-03-11T21:46:03.107Z",
    "id": "BGg6yVU5VP71B8NXU0oh",
    "hide": false,
    "infected": 9,
    "recovered": 3,
    "latitude": 53.709808,
    "longitude": 27.953388,
    "name": "Belarus",
    "country": "BY",
    "sick": 6
  },
  {
    "dead": 1,
    "lastUpdated": "2020-03-11T21:46:04.346Z",
    "id": "BGtoyzb7y54LVlJ91rbf",
    "hide": false,
    "infected": 54,
    "recovered": 0,
    "latitude": 48.8799,
    "longitude": 0.1713,
    "name": "Normandie",
    "country": "FR",
    "sick": 53
  },
  {
    "hide": false,
    "infected": 6,
    "recovered": 2,
    "latitude": 34.048927,
    "longitude": -111.093735,
    "name": "Arizona",
    "country": "US",
    "dead": 0,
    "lastUpdated": "2020-03-11T14:16:02.524Z",
    "id": "BTEESCuD2ZbS1afunR2A",
    "sick": 4
  },
  {
    "id": "C3BCUzV80z9GfiuByIcr",
    "hide": false,
    "infected": 176,
    "recovered": 0,
    "latitude": 40.719042,
    "longitude": -73.982597,
    "name": "New York",
    "country": "US",
    "dead": 0,
    "lastUpdated": "2020-03-11T14:17:13.499Z",
    "sick": 176
  },
  {
    "hide": false,
    "infected": 94,
    "recovered": 0,
    "latitude": 49.731626,
    "longitude": 15.359413,
    "name": "Czechia",
    "country": "CZ",
    "dead": 0,
    "lastUpdated": "2020-03-11T21:46:03.095Z",
    "id": "C6S76AggdWVU8G22jFHQ",
    "sick": 94
  },
  {
    "dead": 0,
    "lastUpdated": "2020-03-11T21:46:03.017Z",
    "id": "C7cj4nwRITs13KnaJrQ2",
    "hide": false,
    "infected": 195,
    "recovered": 35,
    "latitude": 26.0667,
    "longitude": 50.557701,
    "name": "Bahrain",
    "country": "BH",
    "sick": 160
  },
  {
    "dead": 0,
    "lastUpdated": "2020-03-11T21:46:05.148Z",
    "id": "CKZCZTPlrcq5fbfUPA9k",
    "hide": false,
    "infected": 3,
    "recovered": 0,
    "latitude": 27.0238,
    "longitude": 74.2179,
    "name": "Rajasthan",
    "country": "IN",
    "sick": 3
  },
  {
    "recovered": 18,
    "latitude": 52.355518,
    "longitude": -1.17432,
    "name": "United Kingdom",
    "country": "GB",
    "dead": 8,
    "lastUpdated": "2020-03-11T21:46:03.067Z",
    "id": "CrXu6i5Sqx11iwdfHfBs",
    "hide": false,
    "infected": 456,
    "sick": 430
  },
  {
    "latitude": 40.259003,
    "longitude": 44.818474,
    "name": "Armenia",
    "country": "AM",
    "dead": 0,
    "lastUpdated": "2020-03-11T21:46:03.275Z",
    "id": "DCJCtZoBTWQ4mzdDNljD",
    "hide": false,
    "infected": 1,
    "recovered": 0,
    "sick": 1
  },
  {
    "latitude": 22.192039,
    "longitude": 113.551262,
    "name": "Macao",
    "country": "MO",
    "dead": 0,
    "lastUpdated": "2020-03-11T21:46:03.163Z",
    "id": "DdBt8qsG6A3g92oOR3ow",
    "hide": false,
    "infected": 10,
    "recovered": 10,
    "sick": 0
  },
  {
    "dead": 0,
    "lastUpdated": "2020-03-11T21:46:03.083Z",
    "id": "Dtr1lap1RpJpXJdXGJiW",
    "hide": false,
    "infected": 99,
    "recovered": 0,
    "latitude": 40.6401,
    "longitude": 22.9444,
    "name": "Greece",
    "country": "GR",
    "sick": 99
  },
  {
    "recovered": 17,
    "latitude": 25.03841,
    "longitude": 121.563698,
    "name": "Taiwan",
    "country": "TW",
    "dead": 1,
    "lastUpdated": "2020-03-11T21:46:03.168Z",
    "id": "EKTfs8e7M6DXzI1HqyyX",
    "hide": false,
    "infected": 48,
    "sick": 30
  },
  {
    "longitude": -84.387618,
    "name": "Costa Rica",
    "country": "CR",
    "dead": 0,
    "lastUpdated": "2020-03-11T21:46:03.015Z",
    "id": "EQzJvzVHKjs8kLmK7BMu",
    "hide": false,
    "infected": 13,
    "recovered": 0,
    "latitude": 10.327273,
    "sick": 13
  },
  {
    "longitude": 67.709953,
    "name": "Afghanistan",
    "country": "AF",
    "dead": 0,
    "lastUpdated": "2020-03-11T21:46:03.119Z",
    "id": "FCDmlmnIIswd8bQiUjfN",
    "hide": false,
    "infected": 7,
    "recovered": 0,
    "latitude": 33.93911,
    "sick": 7
  },
  {
    "latitude": 29.431585,
    "longitude": 106.912254,
    "name": "Chongqing",
    "country": "CN",
    "dead": 6,
    "lastUpdated": "2020-03-11T14:23:17.056Z",
    "id": "FErOU1m4Tj7jIkRam3vF",
    "hide": false,
    "infected": 576,
    "recovered": 549,
    "sick": 21
  },
  {
    "recovered": 2,
    "latitude": 29.311661,
    "longitude": 47.481766,
    "name": "Kuwait",
    "country": "KW",
    "dead": 0,
    "lastUpdated": "2020-03-11T21:46:03.001Z",
    "id": "FZsUkhxBEgqsPb4eO0PN",
    "hide": false,
    "infected": 72,
    "sick": 70
  },
  {
    "latitude": 11.1271,
    "longitude": 78.6569,
    "name": "Tamil Nadu",
    "country": "IN",
    "dead": 0,
    "lastUpdated": "2020-03-11T21:46:05.109Z",
    "id": "FeS45oMNC27pI17F0xEV",
    "hide": false,
    "infected": 1,
    "recovered": 1,
    "sick": 0
  },
  {
    "recovered": 0,
    "latitude": 18.947829,
    "longitude": -70.430399,
    "name": "Dominican Republic",
    "country": "DO",
    "dead": 0,
    "lastUpdated": "2020-03-11T21:46:03.173Z",
    "id": "FuiVEJvWb0QMCpxJ3563",
    "hide": false,
    "infected": 5,
    "sick": 5
  },
  {
    "id": "FyC551oNwmENxbr9Yght",
    "hide": false,
    "infected": 1,
    "recovered": 0,
    "latitude": 18.1124,
    "longitude": 79.0193,
    "name": "Telangana",
    "country": "IN",
    "dead": 0,
    "lastUpdated": "2020-03-11T21:46:05.085Z",
    "sick": 1
  },
  {
    "recovered": 0,
    "latitude": 48.669,
    "longitude": 19.699,
    "name": "Slovakia",
    "country": "SK",
    "dead": 0,
    "lastUpdated": "2020-03-11T21:46:03.035Z",
    "id": "FzIDXoqWnTI3nUfhPyT2",
    "hide": false,
    "infected": 10,
    "sick": 10
  },
  {
    "latitude": 30.37532,
    "longitude": 69.345116,
    "name": "Pakistan",
    "country": "PK",
    "dead": 0,
    "lastUpdated": "2020-03-11T21:46:03.177Z",
    "id": "GAp7Wb6IMhdgbvEtMza9",
    "hide": false,
    "infected": 19,
    "recovered": 2,
    "sick": 17
  },
  {
    "latitude": 31.1471,
    "longitude": 75.3412,
    "name": "Punjab",
    "country": "IN",
    "dead": 0,
    "lastUpdated": "2020-03-11T21:46:05.108Z",
    "id": "GGru8cG08mANO8XDDUtZ",
    "hide": false,
    "infected": 1,
    "recovered": 0,
    "sick": 1
  },
  {
    "id": "GHzBIsHy2GiBc5JV2HMs",
    "hide": false,
    "infected": 74,
    "recovered": 17,
    "latitude": 23.424076,
    "longitude": 53.847816,
    "name": "United Arab Emirates",
    "country": "AE",
    "dead": 0,
    "lastUpdated": "2020-03-11T21:46:03.051Z",
    "sick": 57
  },
  {
    "recovered": 3,
    "latitude": 36.621981,
    "longitude": -119.339046,
    "name": "California",
    "country": "US",
    "dead": 2,
    "lastUpdated": "2020-03-11T14:16:24.707Z",
    "id": "Gh46r6vuaY7fbGt3IboN",
    "hide": false,
    "infected": 157,
    "sick": 152
  },
  {
    "hide": false,
    "infected": 2,
    "recovered": 0,
    "latitude": 35.87189,
    "longitude": -97.145514,
    "name": "Oklahoma",
    "country": "US",
    "dead": 0,
    "lastUpdated": "2020-03-11T14:22:14.291Z",
    "id": "GpF8ULuKOQiFDCUHN44h",
    "sick": 2
  },
  {
    "latitude": 42.83263,
    "longitude": 113.750972,
    "name": "Inner Mongolia",
    "country": "CN",
    "dead": 1,
    "lastUpdated": "2020-03-11T14:28:09.524Z",
    "id": "H3JeVigVbo5CSYfZG4WI",
    "hide": false,
    "infected": 75,
    "recovered": 71,
    "sick": 3
  },
  {
    "hide": false,
    "infected": 4,
    "recovered": 0,
    "latitude": 39.74536,
    "longitude": -116.724977,
    "name": "Nevada",
    "country": "US",
    "dead": 0,
    "lastUpdated": "2020-03-11T14:18:29.245Z",
    "id": "H3bDg4eV30up4WWrIDAS",
    "sick": 4
  },
  {
    "longitude": 75.7139,
    "name": "Karnataka",
    "country": "IN",
    "dead": 0,
    "lastUpdated": "2020-03-11T21:46:05.105Z",
    "id": "HN5mGmxlqlSeFSNeu1K5",
    "hide": false,
    "infected": 4,
    "recovered": 0,
    "latitude": 15.3173,
    "sick": 4
  },
  {
    "dead": 0,
    "lastUpdated": "2020-03-11T21:46:03.201Z",
    "id": "HRDpwyxpqW9RN0xLFyNu",
    "hide": false,
    "infected": 1,
    "recovered": 0,
    "latitude": 27.5142,
    "longitude": 90.4336,
    "name": "Bhutan",
    "country": "BT",
    "sick": 1
  },
  {
    "id": "I4OJ6z9Vjs1byOcbsJrd",
    "hide": false,
    "infected": 8,
    "recovered": 4,
    "latitude": 23.634501,
    "longitude": -102.552788,
    "name": "Mexico",
    "country": "MX",
    "dead": 0,
    "lastUpdated": "2020-03-11T21:46:03.198Z",
    "sick": 4
  },
  {
    "latitude": 23.363855,
    "longitude": 113.373448,
    "name": "Guangdong",
    "country": "CN",
    "dead": 8,
    "lastUpdated": "2020-03-11T14:24:57.569Z",
    "id": "IAX0OQLVnUwU7FX0ENF1",
    "hide": false,
    "infected": 1356,
    "recovered": 1282,
    "sick": 66
  },
  {
    "hide": false,
    "infected": 1273,
    "recovered": 1249,
    "latitude": 33.875408,
    "longitude": 113.484016,
    "name": "Henan",
    "country": "CN",
    "dead": 22,
    "lastUpdated": "2020-03-11T14:23:34.487Z",
    "id": "IFuMrMvSjoiX5agYvllh",
    "sick": 2
  },
  {
    "id": "IvQkDJkTAsoIqPRAU25n",
    "hide": false,
    "infected": 23,
    "recovered": 0,
    "latitude": 32.528564,
    "longitude": -83.280125,
    "name": "Georgia (US)",
    "country": "US",
    "dead": 0,
    "lastUpdated": "2020-03-11T14:17:59.089Z",
    "sick": 23
  },
  {
    "latitude": -42.8285,
    "longitude": 172.488081,
    "name": "New Zealand",
    "country": "NZ",
    "dead": 0,
    "lastUpdated": "2020-03-11T21:46:03.159Z",
    "id": "IvVhpOoGpH6JVkGyUhXN",
    "hide": false,
    "infected": 5,
    "recovered": 0,
    "sick": 5
  },
  {
    "latitude": 35.1264,
    "longitude": 33.4299,
    "name": "Cyprus",
    "country": "CY",
    "dead": 0,
    "lastUpdated": "2020-03-11T21:46:03.032Z",
    "id": "JQByE4l2OA6sGOqIcWrM",
    "hide": false,
    "infected": 6,
    "recovered": 0,
    "sick": 6
  },
  {
    "hide": false,
    "infected": 7,
    "recovered": 0,
    "latitude": 49.8153,
    "longitude": 6.1296,
    "name": "Luxembourg",
    "country": "LU",
    "dead": 0,
    "lastUpdated": "2020-03-11T21:46:03.108Z",
    "id": "JcFsHSn2WvZ5LJW42ovG",
    "sick": 7
  },
  {
    "id": "JrBbirlBKGdWSdcDt7PF",
    "hide": false,
    "infected": 1,
    "recovered": 0,
    "latitude": 8.6195,
    "longitude": 0.8248,
    "name": "Togo",
    "country": "TG",
    "dead": 0,
    "lastUpdated": "2020-03-11T21:46:03.252Z",
    "sick": 1
  },
  {
    "id": "JzZ8sbqzjutThVjkPKPL",
    "hide": false,
    "infected": 7,
    "recovered": 0,
    "latitude": 42.7339,
    "longitude": 25.4858,
    "name": "Bulgaria",
    "country": "BG",
    "dead": 1,
    "lastUpdated": "2020-03-11T21:46:03.140Z",
    "sick": 6
  },
  {
    "recovered": 1,
    "latitude": 7.873054,
    "longitude": 80.771797,
    "name": "Sri Lanka",
    "country": "LK",
    "dead": 0,
    "lastUpdated": "2020-03-11T21:46:03.086Z",
    "id": "KsWzJO06cf0d6LJ4ZNh9",
    "hide": false,
    "infected": 2,
    "sick": 1
  },
  {
    "latitude": 61.52401,
    "longitude": 105.318756,
    "name": "Russia",
    "country": "RU",
    "dead": 0,
    "lastUpdated": "2020-03-11T21:46:03.154Z",
    "id": "KwOuGBKSMRlmwftxAvLX",
    "hide": false,
    "infected": 20,
    "recovered": 3,
    "sick": 17
  },
  {
    "longitude": -63.0501,
    "name": "Saint-Martin",
    "country": "FR",
    "dead": 0,
    "lastUpdated": "2020-03-11T21:46:04.317Z",
    "id": "LBUtrLDKJiupXjlUNTUe",
    "hide": false,
    "infected": 2,
    "recovered": 0,
    "latitude": 18.0708,
    "sick": 2
  },
  {
    "latitude": 47.166,
    "longitude": 9.5554,
    "name": "Liechtenstein",
    "country": "LI",
    "dead": 0,
    "lastUpdated": "2020-03-11T21:46:03.282Z",
    "id": "LTGEU2E9MFkrCcFhZYVk",
    "hide": false,
    "infected": 1,
    "recovered": 0,
    "sick": 1
  },
  {
    "dead": 0,
    "lastUpdated": "2020-03-11T14:18:49.020Z",
    "id": "MC8MXFw9iXYybnF8v7e6",
    "hide": false,
    "infected": 8,
    "recovered": 0,
    "latitude": 37.8393,
    "longitude": -84.27,
    "name": "Kentucky",
    "country": "US",
    "sick": 8
  },
  {
    "recovered": 0,
    "latitude": 40.2672,
    "longitude": -86.1349,
    "name": "Indiana",
    "country": "US",
    "dead": 0,
    "lastUpdated": "2020-03-11T14:18:42.845Z",
    "id": "MOxDkmQ4wBi1CuAdVxDE",
    "hide": false,
    "infected": 7,
    "sick": 7
  },
  {
    "longitude": 105.977203,
    "name": "Ningxia",
    "country": "CN",
    "dead": 0,
    "lastUpdated": "2020-03-11T14:28:30.464Z",
    "id": "MntmjjuHljarCdt6aIeE",
    "hide": false,
    "infected": 75,
    "recovered": 72,
    "latitude": 37.330509,
    "sick": 3
  },
  {
    "dead": 0,
    "lastUpdated": "2020-03-11T21:46:03.189Z",
    "id": "N7c13sCQF0G789XAVazJ",
    "hide": false,
    "infected": 7,
    "recovered": 0,
    "latitude": 44.696652,
    "longitude": 17.824332,
    "name": "Bosnia and Herzegovina",
    "country": "BA",
    "sick": 7
  },
  {
    "dead": 0,
    "lastUpdated": "2020-03-11T14:28:03.581Z",
    "id": "NBRIGIRrJB1Ry8prDNAC",
    "hide": false,
    "infected": 133,
    "recovered": 131,
    "latitude": 37.242565,
    "longitude": 111.856857,
    "name": "Shanxi",
    "country": "CN",
    "sick": 2
  },
  {
    "hide": false,
    "infected": 7,
    "recovered": 0,
    "latitude": 35.7596,
    "longitude": -79.0193,
    "name": "North Carolina",
    "country": "US",
    "dead": 0,
    "lastUpdated": "2020-03-11T14:19:32.532Z",
    "id": "NC64Qp5kTqAfiTuR27k8",
    "sick": 7
  },
  {
    "latitude": 56.96776,
    "longitude": 25.837107,
    "name": "Latvia",
    "country": "LV",
    "dead": 0,
    "lastUpdated": "2020-03-11T21:46:03.210Z",
    "id": "NmmMKy0YqA8StHdGzB5N",
    "hide": false,
    "infected": 10,
    "recovered": 1,
    "sick": 9
  },
  {
    "latitude": 34.003307,
    "longitude": -80.525613,
    "name": "South Carolina",
    "country": "US",
    "dead": 0,
    "lastUpdated": "2020-03-11T14:22:19.795Z",
    "id": "ONU4CK8QjViFHKg2w5if",
    "hide": false,
    "infected": 9,
    "recovered": 0,
    "sick": 9
  },
  {
    "hide": false,
    "infected": 2,
    "recovered": 0,
    "latitude": -41.915264,
    "longitude": 146.725256,
    "name": "Tasmania",
    "country": "AU",
    "dead": 0,
    "lastUpdated": "2020-03-11T14:34:02.686Z",
    "id": "OnOseaqWdnuP18oruABW",
    "sick": 2
  },
  {
    "id": "PJvVYosLIhbcRZYnKX1R",
    "hide": false,
    "infected": 3,
    "recovered": 0,
    "latitude": 46.7296,
    "longitude": -94.6859,
    "name": "Minnesota",
    "country": "US",
    "dead": 0,
    "lastUpdated": "2020-03-11T14:18:59.623Z",
    "sick": 3
  },
  {
    "recovered": 2,
    "latitude": 40.6331,
    "longitude": -89.3985,
    "name": "Illinois",
    "country": "US",
    "dead": 0,
    "lastUpdated": "2020-03-11T14:15:46.201Z",
    "id": "PTwQr9ijo0TBBsPH2sdJ",
    "hide": false,
    "infected": 19,
    "sick": 17
  },
  {
    "id": "Pr76V4raf108uSRoEXac",
    "hide": false,
    "infected": 7,
    "recovered": 0,
    "latitude": 34.201507,
    "longitude": 9.460554,
    "name": "Tunisia",
    "country": "TN",
    "dead": 0,
    "lastUpdated": "2020-03-11T21:46:02.994Z",
    "sick": 7
  },
  {
    "hide": false,
    "infected": 1,
    "recovered": 0,
    "latitude": -19.810776,
    "longitude": 133.639248,
    "name": "Northern Australia",
    "country": "AU",
    "dead": 0,
    "lastUpdated": "2020-03-11T14:32:40.801Z",
    "id": "PxDu1tj8voGfRMpDyOWK",
    "sick": 1
  },
  {
    "hide": false,
    "infected": 18,
    "recovered": 7,
    "latitude": -37.009609,
    "longitude": 143.94853,
    "name": "Victoria",
    "country": "AU",
    "dead": 0,
    "lastUpdated": "2020-03-11T14:30:09.290Z",
    "id": "Q18mrGvFWTLX2BU9SqhQ",
    "sick": 11
  },
  {
    "recovered": 0,
    "latitude": 58.595272,
    "longitude": 25.013607,
    "name": "Estonia",
    "country": "EE",
    "dead": 0,
    "lastUpdated": "2020-03-11T21:46:03.183Z",
    "id": "QR9go2hQKXjty7JHUYe4",
    "hide": false,
    "infected": 16,
    "sick": 16
  },
  {
    "latitude": 8.538,
    "longitude": -80.7821,
    "name": "Panama",
    "country": "PA",
    "dead": 1,
    "lastUpdated": "2020-03-11T21:46:03.055Z",
    "id": "R8YCgephnxTufvcPWMgx",
    "hide": false,
    "infected": 8,
    "recovered": 0,
    "sick": 7
  },
  {
    "dead": 0,
    "lastUpdated": "2020-03-11T21:46:03.264Z",
    "id": "RA2SE0p2bVhqo0P2hzGY",
    "hide": false,
    "infected": 2,
    "recovered": 0,
    "latitude": 15.2,
    "longitude": -86.2419,
    "name": "Honduras",
    "country": "HN",
    "sick": 2
  },
  {
    "id": "RX0KDu1AFrlCsrRso0nb",
    "hide": false,
    "infected": 13,
    "recovered": 0,
    "latitude": 41.878,
    "longitude": -93.0977,
    "name": "Iowa",
    "country": "US",
    "dead": 0,
    "lastUpdated": "2020-03-11T13:54:51.490Z",
    "sick": 13
  },
  {
    "hide": false,
    "infected": 1,
    "recovered": 0,
    "latitude": 39.0119,
    "longitude": -98.4842,
    "name": "Kansas",
    "country": "US",
    "dead": 0,
    "lastUpdated": "2020-03-11T13:50:28.806Z",
    "id": "Rf4uvBfP3GRDSHdZElRd",
    "sick": 1
  },
  {
    "hide": false,
    "infected": 578,
    "recovered": 0,
    "latitude": 48.6998,
    "longitude": 6.1878,
    "name": "Grand Est",
    "country": "FR",
    "dead": 6,
    "lastUpdated": "2020-03-11T21:46:04.334Z",
    "id": "RmEgf1xeclWt7XCF9oiR",
    "sick": 572
  },
  {
    "dead": 0,
    "lastUpdated": "2020-03-11T14:29:05.328Z",
    "id": "Rx4TuyMpfGb3S8wYJX0x",
    "hide": false,
    "infected": 36,
    "recovered": 4,
    "latitude": 51.2538,
    "longitude": -85.3232,
    "name": "Ontario",
    "country": "CA",
    "sick": 32
  },
  {
    "recovered": 0,
    "latitude": 14.652027,
    "longitude": -61.011715,
    "name": "Martinique",
    "country": "FR",
    "dead": 0,
    "lastUpdated": "2020-03-11T21:46:04.312Z",
    "id": "SDdefnq1bc3ZNr7SpEsW",
    "hide": false,
    "infected": 3,
    "sick": 3
  },
  {
    "hide": false,
    "infected": 652,
    "recovered": 4,
    "latitude": 46.818188,
    "longitude": 8.227512,
    "name": "Switzerland",
    "country": "CH",
    "dead": 4,
    "lastUpdated": "2020-03-11T21:46:03.073Z",
    "id": "SGe9sCPayMqh6RsGFaBA",
    "sick": 644
  },
  {
    "hide": false,
    "infected": 4,
    "recovered": 0,
    "latitude": 46.8139,
    "longitude": -71.208,
    "name": "Quebec",
    "country": "CA",
    "dead": 0,
    "lastUpdated": "2020-03-11T14:29:12.622Z",
    "id": "SHoOE3NiJgWAlDVBzwYH",
    "sick": 4
  },
  {
    "id": "SakhKQzKu1LRI8laqdQq",
    "hide": false,
    "infected": 6,
    "recovered": 0,
    "latitude": 41.4925,
    "longitude": -99.9018,
    "name": "Nebraska",
    "country": "US",
    "dead": 0,
    "lastUpdated": "2020-03-11T14:20:22.664Z",
    "sick": 6
  },
  {
    "latitude": 12.565679,
    "longitude": 104.990967,
    "name": "Cambodia",
    "country": "KH",
    "dead": 0,
    "lastUpdated": "2020-03-11T21:46:03.103Z",
    "id": "SioMALgUbo7peXmbco2f",
    "hide": false,
    "infected": 3,
    "recovered": 1,
    "sick": 2
  },
  {
    "latitude": -4.0383,
    "longitude": 21.7587,
    "name": "DR Congo",
    "country": "CD",
    "dead": 0,
    "lastUpdated": "2020-03-11T14:07:55.630Z",
    "id": "T3iRf8mTUTAzbKrORTap",
    "hide": false,
    "infected": 1,
    "recovered": 0,
    "sick": 1
  },
  {
    "dead": 0,
    "lastUpdated": "2020-03-11T21:46:03.028Z",
    "id": "T7NffoeCgTUpAbOHvYwP",
    "hide": false,
    "infected": 21,
    "recovered": 1,
    "latitude": 23.635796,
    "longitude": 44.344334,
    "name": "Saudi Arabia",
    "country": "SA",
    "sick": 20
  },
  {
    "longitude": 114.650692,
    "name": "Brunei",
    "country": "BN",
    "dead": 0,
    "lastUpdated": "2020-03-11T21:46:03.043Z",
    "id": "TQZmzsLhJqjtCSExAkCP",
    "hide": false,
    "infected": 11,
    "recovered": 0,
    "latitude": 4.506106,
    "sick": 11
  },
  {
    "hide": false,
    "infected": 264,
    "recovered": 8,
    "latitude": 45.4471,
    "longitude": 4.3853,
    "name": "Auvergne-Rhône-Alpes",
    "country": "FR",
    "dead": 3,
    "lastUpdated": "2020-03-11T21:46:04.310Z",
    "id": "TT0MKODSjrxHvG19xZCa",
    "sick": 253
  },
  {
    "latitude": 39.318928,
    "longitude": -105.461392,
    "name": "Colorado",
    "country": "US",
    "dead": 0,
    "lastUpdated": "2020-03-11T14:18:17.362Z",
    "id": "Th4dlpXXmSDgi1OHs36P",
    "hide": false,
    "infected": 18,
    "recovered": 0,
    "sick": 18
  },
  {
    "hide": false,
    "infected": 2,
    "recovered": 0,
    "latitude": 12.2383,
    "longitude": -1.5616,
    "name": "Burkina Faso",
    "country": "BF",
    "dead": 0,
    "lastUpdated": "2020-03-11T21:46:03.048Z",
    "id": "Tup6oDCHj6DgqZR3nQ3x",
    "sick": 2
  },
  {
    "longitude": 12.56902,
    "name": "Denmark",
    "country": "DK",
    "dead": 0,
    "lastUpdated": "2020-03-11T21:46:03.105Z",
    "id": "Ty1AY3VLPJcRZgdBIERx",
    "hide": false,
    "infected": 514,
    "recovered": 1,
    "latitude": 55.675758,
    "sick": 513
  },
  {
    "id": "U0tkTJ9CGsBuFJ2Gdoum",
    "hide": false,
    "infected": 760,
    "recovered": 726,
    "latitude": 36.395859,
    "longitude": 118.769882,
    "name": "Shandong",
    "country": "CN",
    "dead": 6,
    "lastUpdated": "2020-03-11T14:27:39.143Z",
    "sick": 28
  },
  {
    "latitude": 43.94236,
    "longitude": 12.457777,
    "name": "San Marino",
    "country": "SM",
    "dead": 2,
    "lastUpdated": "2020-03-11T21:46:03.202Z",
    "id": "U12rMD5GDW58Q0lIwrB1",
    "hide": false,
    "infected": 62,
    "recovered": 0,
    "sick": 60
  },
  {
    "latitude": 36.204823,
    "longitude": 138.25293,
    "name": "Japan",
    "country": "JP",
    "dead": 15,
    "lastUpdated": "2020-03-11T21:46:03.191Z",
    "id": "U13Gy4BpRLAZ95bPmBXd",
    "hide": false,
    "infected": 639,
    "recovered": 118,
    "sick": 506
  },
  {
    "latitude": 48.202,
    "longitude": -2.9326,
    "name": "Bretagne",
    "country": "FR",
    "dead": 1,
    "lastUpdated": "2020-03-11T21:46:04.316Z",
    "id": "URKMlJ7OTNldjpaxFbjE",
    "hide": false,
    "infected": 94,
    "recovered": 0,
    "sick": 93
  },
  {
    "latitude": -19.4914,
    "longitude": 132.551,
    "name": "Northern Territory",
    "country": "AU",
    "dead": 0,
    "lastUpdated": "2020-03-11T14:36:27.707Z",
    "id": "UrF45V1VqMo6YBib2KlL",
    "hide": false,
    "infected": 1,
    "recovered": 0,
    "sick": 1
  },
  {
    "hide": false,
    "infected": 9,
    "recovered": 0,
    "latitude": 3.527606,
    "longitude": -72.998674,
    "name": "Colombia",
    "country": "CO",
    "dead": 0,
    "lastUpdated": "2020-03-11T21:46:03.212Z",
    "id": "VAAmtxtDuCY0o55zRsOh",
    "sick": 9
  },
  {
    "hide": false,
    "infected": 174,
    "recovered": 170,
    "latitude": 25.181129,
    "longitude": 101.864143,
    "name": "Yunnan",
    "country": "CN",
    "dead": 2,
    "lastUpdated": "2020-03-11T14:25:50.755Z",
    "id": "VIf8T8PD3ZzlzAm5eBCX",
    "sick": 2
  },
  {
    "recovered": 0,
    "latitude": 26.8467,
    "longitude": 80.9462,
    "name": "Uttar Pradesh",
    "country": "IN",
    "dead": 0,
    "lastUpdated": "2020-03-11T21:46:05.099Z",
    "id": "VcKcLdCkC6YpPfIDnRVD",
    "hide": false,
    "infected": 9,
    "sick": 9
  },
  {
    "latitude": 43.8927,
    "longitude": 3.2828,
    "name": "Occitanie",
    "country": "FR",
    "dead": 0,
    "lastUpdated": "2020-03-11T21:46:04.328Z",
    "id": "WAnbFrEjtZDTCIYBt8rz",
    "hide": false,
    "infected": 90,
    "recovered": 0,
    "sick": 90
  },
  {
    "latitude": -30.5595,
    "longitude": 22.9375,
    "name": "South Africa",
    "country": "ZA",
    "dead": 0,
    "lastUpdated": "2020-03-11T21:46:03.077Z",
    "id": "Whrue10NtwIObLvFFyBr",
    "hide": false,
    "infected": 13,
    "recovered": 0,
    "sick": 13
  },
  {
    "latitude": 23.685,
    "longitude": 90.3563,
    "name": "Bangladesh",
    "country": "BD",
    "dead": 0,
    "lastUpdated": "2020-03-11T21:46:03.084Z",
    "id": "WpLayPPLIJ7VcHZdQaoM",
    "hide": false,
    "infected": 3,
    "recovered": 0,
    "sick": 3
  },
  {
    "recovered": 0,
    "latitude": 34.2996,
    "longitude": 78.2932,
    "name": "Ladakh",
    "country": "IN",
    "dead": 0,
    "lastUpdated": "2020-03-11T21:46:05.144Z",
    "id": "X3PZqaJxtnlxcgP4tzya",
    "hide": false,
    "infected": 2,
    "sick": 2
  },
  {
    "longitude": 118.278992,
    "name": "Fujian",
    "country": "CN",
    "dead": 1,
    "lastUpdated": "2020-03-11T14:25:10.234Z",
    "id": "XBBw0iMPrmiEu3qogkbi",
    "hide": false,
    "infected": 296,
    "recovered": 295,
    "latitude": 25.92448,
    "sick": 0
  },
  {
    "latitude": 51.165691,
    "longitude": 10.451526,
    "name": "Germany",
    "country": "DE",
    "dead": 3,
    "lastUpdated": "2020-03-11T21:46:03.205Z",
    "id": "XWtMdKtp2HAFy68kPZLa",
    "hide": false,
    "infected": 1908,
    "recovered": 25,
    "sick": 1880
  },
  {
    "id": "XdekMZcw1lJK2MWpBlNK",
    "hide": false,
    "infected": 12462,
    "recovered": 1045,
    "latitude": 41.871941,
    "longitude": 12.56738,
    "name": "Italy",
    "country": "IT",
    "dead": 827,
    "lastUpdated": "2020-03-11T21:46:03.207Z",
    "sick": 10590
  },
  {
    "hide": false,
    "infected": 51,
    "recovered": 0,
    "latitude": 42.0396,
    "longitude": 9.0129,
    "name": "Corse",
    "country": "FR",
    "dead": 3,
    "lastUpdated": "2020-03-11T21:46:04.340Z",
    "id": "YGXgIObKVabP2CYEdcb9",
    "sick": 48
  },
  {
    "latitude": 31.9522,
    "longitude": 35.2332,
    "name": "Palestine",
    "country": "PS",
    "dead": 0,
    "lastUpdated": "2020-03-11T21:46:03.200Z",
    "id": "YMzKw0SnXG71VT7H1jff",
    "hide": false,
    "infected": 30,
    "recovered": 0,
    "sick": 30
  },
  {
    "dead": 60,
    "lastUpdated": "2020-03-11T21:46:03.122Z",
    "id": "Yw9uBekNlefXBcOCNMfP",
    "hide": false,
    "infected": 7755,
    "recovered": 288,
    "latitude": 37.568291,
    "longitude": 126.99778,
    "name": "South Korea",
    "country": "KR",
    "sick": 7407
  },
  {
    "longitude": 21.0122,
    "name": "Poland",
    "country": "PL",
    "dead": 0,
    "lastUpdated": "2020-03-11T21:46:03.019Z",
    "id": "ZAZNuCK1VweBaTLCFzCk",
    "hide": false,
    "infected": 31,
    "recovered": 0,
    "latitude": 52.2297,
    "sick": 31
  },
  {
    "latitude": 41.6032,
    "longitude": -73.0877,
    "name": "Connecticut",
    "country": "US",
    "dead": 0,
    "lastUpdated": "2020-03-11T13:47:13.104Z",
    "id": "Zqy0gftQzocR49jEJNMl",
    "hide": false,
    "infected": 2,
    "recovered": 0,
    "sick": 2
  },
  {
    "latitude": -30.000233,
    "longitude": 136.209152,
    "name": "South Australia",
    "country": "AU",
    "dead": 0,
    "lastUpdated": "2020-03-11T14:33:43.238Z",
    "id": "a9p9pAOsjg1WAjPGc2a6",
    "hide": false,
    "infected": 7,
    "recovered": 2,
    "sick": 5
  },
  {
    "hide": false,
    "infected": 1,
    "recovered": 0,
    "latitude": 37.9643,
    "longitude": -91.8318,
    "name": "Missouri",
    "country": "US",
    "dead": 0,
    "lastUpdated": "2020-03-11T14:18:47.132Z",
    "id": "aPubGfQ8ToSEuKJldKRT",
    "sick": 1
  },
  {
    "recovered": 238,
    "latitude": 23.64407,
    "longitude": 108.26651,
    "name": "Guangxi",
    "country": "CN",
    "dead": 2,
    "lastUpdated": "2020-03-11T14:25:18.460Z",
    "id": "aTa8MiBjtH3iY0SRs2HQ",
    "hide": false,
    "infected": 256,
    "sick": 16
  },
  {
    "hide": false,
    "infected": 9,
    "recovered": 0,
    "latitude": 37.4316,
    "longitude": -78.6569,
    "name": "Virginia",
    "country": "US",
    "dead": 0,
    "lastUpdated": "2020-03-11T14:22:29.636Z",
    "id": "afeZTVC1J1SMMNFxkrcc",
    "sick": 9
  },
  {
    "dead": 8,
    "lastUpdated": "2020-03-11T14:26:06.068Z",
    "id": "alj4hkxg9cjrTxOzwFKt",
    "hide": false,
    "infected": 435,
    "recovered": 326,
    "latitude": 39.904202,
    "longitude": 116.407394,
    "name": "Beijing",
    "country": "CN",
    "sick": 101
  },
  {
    "hide": false,
    "infected": 71,
    "recovered": 15,
    "latitude": 33.22319,
    "longitude": 43.679291,
    "name": "Iraq",
    "country": "IQ",
    "dead": 7,
    "lastUpdated": "2020-03-11T21:46:03.172Z",
    "id": "b7TwXX46FA0EmH1CjHET",
    "sick": 49
  },
  {
    "dead": 0,
    "lastUpdated": "2020-03-11T21:46:03.097Z",
    "id": "b9p1JhVml3GGC7iiPmKv",
    "hide": false,
    "infected": 4,
    "recovered": 1,
    "latitude": 14.457474,
    "longitude": -14.358636,
    "name": "Senegal",
    "country": "SN",
    "sick": 3
  },
  {
    "dead": 1,
    "lastUpdated": "2020-03-11T14:18:08.159Z",
    "id": "bYp4RRHv19M7lYtSzQeV",
    "hide": false,
    "infected": 15,
    "recovered": 0,
    "latitude": 39.561889,
    "longitude": -74.672169,
    "name": "New Jersey",
    "country": "US",
    "sick": 14
  },
  {
    "recovered": 26,
    "latitude": 3.139,
    "longitude": 101.6869,
    "name": "Malaysia",
    "country": "MY",
    "dead": 0,
    "lastUpdated": "2020-03-11T21:46:02.991Z",
    "id": "bdqD4kpdqGgUaX70Tm2Q",
    "hide": false,
    "infected": 149,
    "sick": 123
  },
  {
    "latitude": 60.128162,
    "longitude": 18.643501,
    "name": "Sweden",
    "country": "SE",
    "dead": 1,
    "lastUpdated": "2020-03-11T21:46:03.054Z",
    "id": "bignnyt2A8BBx8VNo32p",
    "hide": false,
    "infected": 500,
    "recovered": 1,
    "sick": 498
  },
  {
    "latitude": 40.973765,
    "longitude": 20.010162,
    "name": "Albania",
    "country": "AL",
    "dead": 1,
    "lastUpdated": "2020-03-11T21:46:03.193Z",
    "id": "cCGmFmwHOoBrEpvG3qBP",
    "hide": false,
    "infected": 15,
    "recovered": 0,
    "sick": 14
  },
  {
    "dead": 0,
    "lastUpdated": "2020-03-11T21:46:03.249Z",
    "id": "cPxONYsVo6BgvCW9HUeQ",
    "hide": false,
    "infected": 1,
    "recovered": 0,
    "latitude": 46.8625,
    "longitude": 103.8467,
    "name": "Mongolia",
    "country": "MN",
    "sick": 1
  },
  {
    "latitude": 64.963051,
    "longitude": -19.020836,
    "name": "Iceland",
    "country": "IS",
    "dead": 0,
    "lastUpdated": "2020-03-11T21:46:03.147Z",
    "id": "cPxe7nsRnOf6aOPqHElJ",
    "hide": false,
    "infected": 85,
    "recovered": 1,
    "sick": 84
  },
  {
    "hide": false,
    "infected": 97,
    "recovered": 4,
    "latitude": 31.046051,
    "longitude": 34.851612,
    "name": "Israel",
    "country": "IL",
    "dead": 0,
    "lastUpdated": "2020-03-11T21:46:03.046Z",
    "id": "cX891t0ONLNFj0MYq6La",
    "sick": 93
  },
  {
    "hide": false,
    "infected": 5,
    "recovered": 0,
    "latitude": 4.749531,
    "longitude": -53.112909,
    "name": "Guyane",
    "country": "FR",
    "dead": 0,
    "lastUpdated": "2020-03-11T21:46:04.343Z",
    "id": "cc7s6hYGQ2MovBBBgkKb",
    "sick": 5
  },
  {
    "id": "cgzd5EM8PZv5ziJtTz1w",
    "hide": false,
    "infected": 2,
    "recovered": 0,
    "latitude": 61.8926,
    "longitude": -6.9118,
    "name": "Faeroe Islands",
    "country": "FO",
    "dead": 0,
    "lastUpdated": "2020-03-11T21:46:03.214Z",
    "sick": 2
  },
  {
    "latitude": 41.2033,
    "longitude": -77.1945,
    "name": "Pennsylvania",
    "country": "US",
    "dead": 0,
    "lastUpdated": "2020-03-11T14:22:02.481Z",
    "id": "chj2FF3zb4Xxcop9RHre",
    "hide": false,
    "infected": 14,
    "recovered": 0,
    "sick": 14
  },
  {
    "dead": 0,
    "lastUpdated": "2020-03-11T21:46:04.338Z",
    "id": "cpf3Y5PQTYywIm3PrpIQ",
    "hide": false,
    "infected": 72,
    "recovered": 2,
    "latitude": 45.7087,
    "longitude": 0.6269,
    "name": "Nouvelle-Aquitaine",
    "country": "FR",
    "sick": 70
  },
  {
    "latitude": 40.463669,
    "longitude": -3.74922,
    "name": "Spain",
    "country": "ES",
    "dead": 54,
    "lastUpdated": "2020-03-11T21:46:03.161Z",
    "id": "d0ExINgPaWUBm3l4ioJL",
    "hide": false,
    "infected": 2262,
    "recovered": 183,
    "sick": 2025
  },
  {
    "hide": false,
    "infected": 1,
    "recovered": 0,
    "latitude": 42.50837,
    "longitude": 1.517155,
    "name": "Andorra",
    "country": "AD",
    "dead": 0,
    "lastUpdated": "2020-03-11T21:46:03.270Z",
    "id": "dedMXSYR2k92wkSXNZqn",
    "sick": 1
  },
  {
    "hide": false,
    "infected": 1,
    "recovered": 0,
    "latitude": 38.9637,
    "longitude": 35.2433,
    "name": "Turkey",
    "country": "TR",
    "dead": 0,
    "lastUpdated": "2020-03-11T21:46:03.166Z",
    "id": "dzIcCaUZlbIXuRw0SyDE",
    "sick": 1
  },
  {
    "hide": false,
    "infected": 246,
    "recovered": 4,
    "latitude": 47.516232,
    "longitude": 14.550072,
    "name": "Austria",
    "country": "AT",
    "dead": 0,
    "lastUpdated": "2020-03-11T21:46:03.124Z",
    "id": "e3BtI12qbqhE8jypOoZu",
    "sick": 242
  },
  {
    "id": "e7P83iImanpd9r36oXK3",
    "hide": false,
    "infected": 125,
    "recovered": 111,
    "latitude": 41.097481,
    "longitude": 122.310669,
    "name": "Liaoning",
    "country": "CN",
    "dead": 1,
    "lastUpdated": "2020-03-11T14:26:25.324Z",
    "sick": 13
  },
  {
    "hide": false,
    "infected": 344,
    "recovered": 320,
    "latitude": 31.230391,
    "longitude": 121.473701,
    "name": "Shanghai",
    "country": "CN",
    "dead": 3,
    "lastUpdated": "2020-03-11T14:25:27.251Z",
    "id": "e9pQqQa7CEblCYoDtfKo",
    "sick": 21
  },
  {
    "id": "eCKDGssww4pF7NrxOySu",
    "hide": false,
    "infected": 92,
    "recovered": 1,
    "latitude": 42.407211,
    "longitude": -71.382439,
    "name": "Massachusetts",
    "country": "US",
    "dead": 0,
    "lastUpdated": "2020-03-11T14:16:14.636Z",
    "sick": 91
  },
  {
    "recovered": 0,
    "latitude": 43.740451,
    "longitude": 7.432032,
    "name": "Monaco",
    "country": "MC",
    "dead": 0,
    "lastUpdated": "2020-03-11T21:46:03.278Z",
    "id": "eLgKPNUwYM5MNDAtF6ql",
    "hide": false,
    "infected": 1,
    "sick": 1
  },
  {
    "hide": false,
    "infected": 165,
    "recovered": 2,
    "latitude": 47.2805,
    "longitude": 4.9994,
    "name": "Bourgogne-Franche-Comté",
    "country": "FR",
    "dead": 3,
    "lastUpdated": "2020-03-11T21:46:04.326Z",
    "id": "ejrjMKfHexGnK52FS9Aa",
    "sick": 160
  },
  {
    "dead": 3,
    "lastUpdated": "2020-03-11T14:25:33.741Z",
    "id": "eyK5bxFkwdoAouIBvLFM",
    "hide": false,
    "infected": 539,
    "recovered": 485,
    "latitude": 30.14208,
    "longitude": 102.960701,
    "name": "Sichuan",
    "country": "CN",
    "sick": 51
  },
  {
    "longitude": 55.975414,
    "name": "Oman",
    "country": "OM",
    "dead": 0,
    "lastUpdated": "2020-03-11T21:46:03.049Z",
    "id": "f9kmlhYtc3WA3kjbWszW",
    "hide": false,
    "infected": 18,
    "recovered": 9,
    "latitude": 21.473534,
    "sick": 9
  },
  {
    "hide": false,
    "infected": 1,
    "recovered": 0,
    "latitude": 31.295929,
    "longitude": 36.691952,
    "name": "Jordan",
    "country": "JO",
    "dead": 0,
    "lastUpdated": "2020-03-11T21:46:03.254Z",
    "id": "fK06AziL8wyrcoz7rsmJ",
    "sick": 1
  },
  {
    "latitude": 27.716933,
    "longitude": -81.555239,
    "name": "Florida",
    "country": "US",
    "dead": 2,
    "lastUpdated": "2020-03-11T14:17:29.764Z",
    "id": "fNganaGVPifA4QahEQPS",
    "hide": false,
    "infected": 28,
    "recovered": 0,
    "sick": 26
  },
  {
    "id": "fNnE9CD0SttEVrCUo1Ym",
    "hide": false,
    "infected": 706,
    "recovered": 325,
    "latitude": 35.452016,
    "longitude": 139.664285,
    "name": "Diamond Princess (Cruise)",
    "country": "ZZ",
    "dead": 7,
    "lastUpdated": "2020-03-11T14:15:32.071Z",
    "sick": 374
  },
  {
    "hide": false,
    "infected": 67773,
    "recovered": 49134,
    "latitude": 31.160629,
    "longitude": 112.255402,
    "name": "Hubei",
    "country": "CN",
    "dead": 3046,
    "lastUpdated": "2020-03-11T14:23:44.240Z",
    "id": "fiJ14DCxw15e3SMemh8R",
    "sick": 15593
  },
  {
    "hide": false,
    "infected": 1,
    "recovered": 0,
    "latitude": 50.4501,
    "longitude": 30.5234,
    "name": "Ukraine",
    "country": "UA",
    "dead": 0,
    "lastUpdated": "2020-03-11T21:46:03.078Z",
    "id": "flbZ2kaR5kBuV8XZ2Nsu",
    "sick": 1
  },
  {
    "recovered": 0,
    "latitude": 52.132633,
    "longitude": 5.291266,
    "name": "Netherlands",
    "country": "NL",
    "dead": 5,
    "lastUpdated": "2020-03-11T21:46:03.174Z",
    "id": "g0lRMtEJbucWIGqSPn0I",
    "hide": false,
    "infected": 503,
    "sick": 498
  },
  {
    "hide": false,
    "infected": 5,
    "recovered": 0,
    "latitude": 43.9695,
    "longitude": -99.9018,
    "name": "South Dakota",
    "country": "US",
    "dead": 1,
    "lastUpdated": "2020-03-11T14:22:38.094Z",
    "id": "gYDsNgvuvtbg8t77w6FS",
    "sick": 4
  },
  {
    "longitude": 14.432846,
    "name": "Malta",
    "country": "MT",
    "dead": 0,
    "lastUpdated": "2020-03-11T21:46:03.101Z",
    "id": "h9UqxYZ5xC4JZrmdDz0q",
    "hide": false,
    "infected": 6,
    "recovered": 0,
    "latitude": 35.894231,
    "sick": 6
  },
  {
    "recovered": 0,
    "latitude": 28.7041,
    "longitude": 77.1025,
    "name": "Delhi",
    "country": "IN",
    "dead": 0,
    "lastUpdated": "2020-03-11T21:46:05.095Z",
    "id": "hqwsh1rmvkWI3LFUVuMk",
    "hide": false,
    "infected": 5,
    "sick": 5
  },
  {
    "id": "iGkTscdD0XyHFSP23Qrp",
    "hide": false,
    "infected": 125,
    "recovered": 88,
    "latitude": 35.751835,
    "longitude": 104.28611,
    "name": "Gansu",
    "country": "CN",
    "dead": 2,
    "lastUpdated": "2020-03-11T14:25:58.990Z",
    "sick": 35
  },
  {
    "recovered": 3,
    "latitude": 10.8505,
    "longitude": 76.2711,
    "name": "Kerala",
    "country": "IN",
    "dead": 0,
    "lastUpdated": "2020-03-11T21:46:05.091Z",
    "id": "idymmgoqLHImnBdyC7r7",
    "hide": false,
    "infected": 17,
    "sick": 14
  },
  {
    "latitude": 39.343357,
    "longitude": 117.361649,
    "name": "Tianjin",
    "country": "CN",
    "dead": 3,
    "lastUpdated": "2020-03-11T14:26:51.013Z",
    "id": "jMlHjIOb7eMPSxFBrmG1",
    "hide": false,
    "infected": 136,
    "recovered": 131,
    "sick": 2
  },
  {
    "dead": 0,
    "lastUpdated": "2020-03-11T13:48:30.391Z",
    "id": "jPC0eOG50FWknCDe3K6P",
    "hide": false,
    "infected": 1,
    "recovered": 0,
    "latitude": 44.5588,
    "longitude": -72.5778,
    "name": "Vermont",
    "country": "US",
    "sick": 1
  },
  {
    "id": "jpVXEDCyfyq26gPoCtHL",
    "hide": false,
    "infected": 43,
    "recovered": 0,
    "latitude": 53.3498,
    "longitude": -6.2603,
    "name": "Ireland",
    "country": "IE",
    "dead": 1,
    "lastUpdated": "2020-03-11T21:46:03.118Z",
    "sick": 42
  },
  {
    "dead": 3,
    "lastUpdated": "2020-03-11T14:28:40.626Z",
    "id": "lhPjpn6CzqTRDN0RW8uE",
    "hide": false,
    "infected": 76,
    "recovered": 73,
    "latitude": 42.524635,
    "longitude": 87.539589,
    "name": "Xinjiang",
    "country": "CN",
    "sick": 0
  },
  {
    "longitude": 73.2207,
    "name": "Maldives",
    "country": "MV",
    "dead": 0,
    "lastUpdated": "2020-03-11T21:46:03.039Z",
    "id": "m45gI2UbWMuTrOnTtp9k",
    "hide": false,
    "infected": 8,
    "recovered": 0,
    "latitude": 3.2028,
    "sick": 8
  },
  {
    "latitude": 41.9029,
    "longitude": 12.4534,
    "name": "Vatican City",
    "country": "VA",
    "dead": 0,
    "lastUpdated": "2020-03-11T21:46:03.088Z",
    "id": "mF7rVMdVnazAuw8G22xs",
    "hide": false,
    "infected": 1,
    "recovered": 0,
    "sick": 1
  },
  {
    "hide": false,
    "infected": 7,
    "recovered": 0,
    "latitude": 19.7515,
    "longitude": 75.7139,
    "name": "Maharashtra",
    "country": "IN",
    "dead": 0,
    "lastUpdated": "2020-03-11T21:46:05.089Z",
    "id": "mJtdLs4ub6CkcAOeMWUm",
    "sick": 7
  },
  {
    "latitude": -33.4489,
    "longitude": -70.6693,
    "name": "Chile",
    "country": "CL",
    "dead": 0,
    "lastUpdated": "2020-03-11T21:46:03.069Z",
    "id": "mSACWVbCy5QE7ciLA93J",
    "hide": false,
    "infected": 23,
    "recovered": 0,
    "sick": 23
  },
  {
    "latitude": 35.693323,
    "longitude": -86.605748,
    "name": "Tennessee",
    "country": "US",
    "dead": 0,
    "lastUpdated": "2020-03-11T14:18:36.243Z",
    "id": "nLhJXE2apq8yNNj363ai",
    "hide": false,
    "infected": 7,
    "recovered": 0,
    "sick": 7
  },
  {
    "hide": false,
    "infected": 6,
    "recovered": 0,
    "latitude": 31.893778,
    "longitude": -6.196132,
    "name": "Morocco",
    "country": "MA",
    "dead": 1,
    "lastUpdated": "2020-03-11T21:46:03.093Z",
    "id": "oJ5vSDE9vgXC2PG8LElp",
    "sick": 5
  },
  {
    "dead": 15,
    "lastUpdated": "2020-03-11T21:46:04.320Z",
    "id": "ofWLu9EuQoK2nHjwU1mA",
    "hide": false,
    "infected": 263,
    "recovered": 0,
    "latitude": 50.4801,
    "longitude": 2.7937,
    "name": "Hauts-de-France",
    "country": "FR",
    "sick": 248
  },
  {
    "dead": 0,
    "lastUpdated": "2020-03-11T14:30:14.560Z",
    "id": "oxz2l1rJipCsfMfy8Mmk",
    "hide": false,
    "infected": 18,
    "recovered": 8,
    "latitude": -20.917574,
    "longitude": 142.702789,
    "name": "Queensland",
    "country": "AU",
    "sick": 10
  },
  {
    "recovered": 436,
    "latitude": 47.121647,
    "longitude": 128.738235,
    "name": "Heilongjiang",
    "country": "CN",
    "dead": 13,
    "lastUpdated": "2020-03-11T14:26:43.560Z",
    "id": "p1aZboN4BtRJe7hPl8cw",
    "hide": false,
    "infected": 482,
    "sick": 33
  },
  {
    "hide": false,
    "infected": 990,
    "recovered": 984,
    "latitude": 32.026379,
    "longitude": 117.252747,
    "name": "Anhui",
    "country": "CN",
    "dead": 6,
    "lastUpdated": "2020-03-11T14:23:56.359Z",
    "id": "pFhBwPnGGpQ6DLppJ6YS",
    "sick": 0
  },
  {
    "hide": false,
    "infected": 2,
    "recovered": 0,
    "latitude": 38.9072,
    "longitude": -77.0369,
    "name": "Washington, D.C",
    "country": "US",
    "dead": 0,
    "lastUpdated": "2020-03-11T14:22:34.211Z",
    "id": "q5cfvHprVTraL1yXnhDx",
    "sick": 2
  },
  {
    "hide": false,
    "infected": 6,
    "recovered": 0,
    "latitude": -26.190439,
    "longitude": 123.325947,
    "name": "Western Australia",
    "country": "AU",
    "dead": 1,
    "lastUpdated": "2020-03-11T14:33:53.213Z",
    "id": "qnQ0dkxAxnDP01YpdZgk",
    "sick": 5
  },
  {
    "longitude": 4.469936,
    "name": "Belgium",
    "country": "BE",
    "dead": 3,
    "lastUpdated": "2020-03-11T21:46:03.063Z",
    "id": "qpAxVz0garcS0gNZxtOw",
    "hide": false,
    "infected": 314,
    "recovered": 1,
    "latitude": 50.503887,
    "sick": 310
  },
  {
    "recovered": 0,
    "latitude": 31,
    "longitude": -100,
    "name": "Texas",
    "country": "US",
    "dead": 0,
    "lastUpdated": "2020-03-11T14:16:46.681Z",
    "id": "qsrWiq0qCmIG66hpWojP",
    "hide": false,
    "infected": 14,
    "sick": 14
  },
  {
    "latitude": 43.9352,
    "longitude": 6.0679,
    "name": "Provence-Alpes-Côte d'Azur",
    "country": "FR",
    "dead": 1,
    "lastUpdated": "2020-03-11T21:46:04.300Z",
    "id": "qyX9xXEuKg3co8yKe3Fl",
    "hide": false,
    "infected": 111,
    "recovered": 1,
    "sick": 109
  },
  {
    "latitude": 30.9843,
    "longitude": -91.9623,
    "name": "Louisiana",
    "country": "US",
    "dead": 0,
    "lastUpdated": "2020-03-11T13:52:30.077Z",
    "id": "qzuktS0qQVU4PEookjss",
    "hide": false,
    "infected": 6,
    "recovered": 0,
    "sick": 6
  },
  {
    "hide": false,
    "infected": 38,
    "recovered": 16,
    "latitude": 14.058324,
    "longitude": 108.277199,
    "name": "Vietnam",
    "country": "VN",
    "dead": 0,
    "lastUpdated": "2020-03-11T21:46:03.110Z",
    "id": "rKnSEyG03ak4YmGzonlg",
    "sick": 22
  },
  {
    "recovered": 1193,
    "latitude": 29.159849,
    "longitude": 120.326447,
    "name": "Zhejiang",
    "country": "CN",
    "dead": 1,
    "lastUpdated": "2020-03-11T14:25:41.232Z",
    "id": "rgBVJ4hPofqjjchnroiY",
    "hide": false,
    "infected": 1215,
    "sick": 21
  },
  {
    "longitude": 8.468946,
    "name": "Norway",
    "country": "NO",
    "dead": 0,
    "lastUpdated": "2020-03-11T21:46:03.181Z",
    "id": "rxSafpWsyKhfkV0HTtb4",
    "hide": false,
    "infected": 629,
    "recovered": 1,
    "latitude": 60.472023,
    "sick": 628
  },
  {
    "latitude": 53.9333,
    "longitude": -116.5765,
    "name": "Alberta",
    "country": "CA",
    "dead": 0,
    "lastUpdated": "2020-03-11T14:29:17.000Z",
    "id": "sBFMOzZJdrdXdyLZpweO",
    "hide": false,
    "infected": 14,
    "recovered": 0,
    "sick": 14
  },
  {
    "hide": false,
    "infected": 168,
    "recovered": 159,
    "latitude": 19.566395,
    "longitude": 109.949684,
    "name": "Hainan",
    "country": "CN",
    "dead": 8,
    "lastUpdated": "2020-03-11T14:26:15.805Z",
    "id": "sKNhMvgXeyivpNFg02RA",
    "sick": 1
  },
  {
    "hide": false,
    "infected": 13,
    "recovered": 0,
    "latitude": -10.33755,
    "longitude": -75.630295,
    "name": "Peru",
    "country": "PE",
    "dead": 0,
    "lastUpdated": "2020-03-11T21:46:03.204Z",
    "id": "sLL1jETcJYjT6g5bfcEG",
    "sick": 13
  },
  {
    "recovered": 307,
    "latitude": 37.89566,
    "longitude": 114.904221,
    "name": "Hebei",
    "country": "CN",
    "dead": 6,
    "lastUpdated": "2020-03-11T14:27:13.541Z",
    "id": "sgsBhTwHxF1VVnqXbXXp",
    "hide": false,
    "infected": 318,
    "sick": 5
  },
  {
    "latitude": 42.3154,
    "longitude": 43.3569,
    "name": "Georgia",
    "country": "GE",
    "dead": 0,
    "lastUpdated": "2020-03-11T21:46:03.059Z",
    "id": "sjW9OwjFqrOvjVHRXWoR",
    "hide": false,
    "infected": 24,
    "recovered": 0,
    "sick": 24
  },
  {
    "recovered": 0,
    "latitude": -23.4425,
    "longitude": -58.4438,
    "name": "Paraguay",
    "country": "PY",
    "dead": 0,
    "lastUpdated": "2020-03-11T21:46:03.037Z",
    "id": "t2fq7L9UcXfhuXfQNVRj",
    "hide": false,
    "infected": 5,
    "sick": 5
  },
  {
    "dead": 0,
    "lastUpdated": "2020-03-11T14:22:09.372Z",
    "id": "tSmr8vNsiDhhpXMSBsms",
    "hide": false,
    "infected": 2,
    "recovered": 0,
    "latitude": 39.147061,
    "longitude": -111.596466,
    "name": "Utah",
    "country": "US",
    "sick": 2
  },
  {
    "hide": false,
    "infected": 1018,
    "recovered": 995,
    "latitude": 27.3818,
    "longitude": 111.510681,
    "name": "Hunan",
    "country": "CN",
    "dead": 4,
    "lastUpdated": "2020-03-11T14:24:02.835Z",
    "id": "tdNRDDrgvBQqqwzdFGh4",
    "sick": 19
  },
  {
    "id": "tyY4QSHWG9sXqSO9jm0Y",
    "hide": false,
    "infected": 146,
    "recovered": 133,
    "latitude": 26.842964,
    "longitude": 107.290283,
    "name": "Guizhou",
    "country": "CN",
    "dead": 2,
    "lastUpdated": "2020-03-11T14:28:18.632Z",
    "sick": 11
  },
  {
    "latitude": 29.0588,
    "longitude": 76.0856,
    "name": "Haryana",
    "country": "IN",
    "dead": 0,
    "lastUpdated": "2020-03-11T21:46:05.104Z",
    "id": "ubUuY89n0cXVgahI4Ytp",
    "hide": false,
    "infected": 14,
    "recovered": 0,
    "sick": 14
  },
  {
    "latitude": 32.93708,
    "longitude": 119.151932,
    "name": "Jiangsu",
    "country": "CN",
    "dead": 0,
    "lastUpdated": "2020-03-11T14:27:49.266Z",
    "id": "uvxN28EpGmRq3K9REtBP",
    "hide": false,
    "infected": 631,
    "recovered": 627,
    "sick": 4
  },
  {
    "latitude": 33.7782,
    "longitude": 76.5762,
    "name": "Jammu and Kashmir",
    "country": "IN",
    "dead": 0,
    "lastUpdated": "2020-03-11T21:46:05.119Z",
    "id": "v5wfBhxjYTpTMaKko6AW",
    "hide": false,
    "infected": 1,
    "recovered": 0,
    "sick": 1
  },
  {
    "recovered": 27,
    "latitude": 26.820553,
    "longitude": 30.802498,
    "name": "Egypt",
    "country": "EG",
    "dead": 1,
    "lastUpdated": "2020-03-11T21:46:03.013Z",
    "id": "v8JcH4FHH7BDpJlNNHjv",
    "hide": false,
    "infected": 60,
    "sick": 32
  },
  {
    "recovered": 1,
    "latitude": 47.288374,
    "longitude": -119.928431,
    "name": "Washington",
    "country": "US",
    "dead": 23,
    "lastUpdated": "2020-03-11T14:17:38.440Z",
    "id": "vCUVQn7RK8pkw5y2rvYN",
    "hide": false,
    "infected": 279,
    "sick": 255
  },
  {
    "hide": false,
    "infected": 1,
    "recovered": 0,
    "latitude": 18.1096,
    "longitude": -77.2975,
    "name": "Jamaica",
    "country": "JM",
    "dead": 0,
    "lastUpdated": "2020-03-11T21:46:02.986Z",
    "id": "vMGALmMJbagxGIbLyFfS",
    "sick": 1
  },
  {
    "hide": false,
    "infected": 492,
    "recovered": 5,
    "latitude": 48.8499,
    "longitude": 2.637,
    "name": "Île-de-France",
    "country": "FR",
    "dead": 4,
    "lastUpdated": "2020-03-11T21:46:04.395Z",
    "id": "vSwFXxTSLgzsG25zOJUy",
    "sick": 483
  },
  {
    "id": "vkkXVaqUswO5JsMZx0mX",
    "hide": false,
    "infected": 9000,
    "recovered": 2959,
    "latitude": 32.42791,
    "longitude": 53.688046,
    "name": "Iran",
    "country": "IR",
    "dead": 354,
    "lastUpdated": "2020-03-11T21:46:02.980Z",
    "sick": 5687
  },
  {
    "latitude": -34.6037,
    "longitude": -58.3816,
    "name": "Argentina",
    "country": "AR",
    "dead": 1,
    "lastUpdated": "2020-03-11T21:46:03.021Z",
    "id": "wEl0cjiA6OcZiI9kaSsF",
    "hide": false,
    "infected": 19,
    "recovered": 0,
    "sick": 18
  },
  {
    "id": "wgRwpPMGBaKLAl1xo1C7",
    "hide": false,
    "infected": 2,
    "recovered": 0,
    "latitude": 44.3148,
    "longitude": -85.6024,
    "name": "Michigan",
    "country": "US",
    "dead": 0,
    "lastUpdated": "2020-03-11T13:56:09.233Z",
    "sick": 2
  },
  {
    "dead": 0,
    "lastUpdated": "2020-03-11T14:22:24.459Z",
    "id": "wi47s9vKxiMqxfgurj3B",
    "hide": false,
    "infected": 2,
    "recovered": 0,
    "latitude": 21.287261,
    "longitude": -157.838954,
    "name": "Hawaii",
    "country": "US",
    "sick": 2
  },
  {
    "hide": false,
    "infected": 61,
    "recovered": 1,
    "latitude": 34.08267,
    "longitude": 35.918113,
    "name": "Lebanon",
    "country": "LB",
    "dead": 2,
    "lastUpdated": "2020-03-11T21:46:03.170Z",
    "id": "xFgM48q8JxVPfvQLQDNb",
    "sick": 58
  },
  {
    "dead": 0,
    "lastUpdated": "2020-03-11T21:46:03.144Z",
    "id": "xHWPTTpNHEwWv6MqfxP5",
    "hide": false,
    "infected": 2,
    "recovered": 0,
    "latitude": 9.081999,
    "longitude": 8.675277,
    "name": "Nigeria",
    "country": "NG",
    "sick": 2
  },
  {
    "hide": false,
    "infected": 3,
    "recovered": 1,
    "latitude": 44.5,
    "longitude": -89.5,
    "name": "Wisconsin",
    "country": "US",
    "dead": 0,
    "lastUpdated": "2020-03-11T14:16:34.157Z",
    "id": "xSHgaJlyPxHFWB6hhyng",
    "sick": 2
  },
  {
    "latitude": -1.831239,
    "longitude": -78.183403,
    "name": "Ecuador",
    "country": "EC",
    "dead": 0,
    "lastUpdated": "2020-03-11T21:46:03.005Z",
    "id": "zC03Urt1iJJb2Tf6p0jd",
    "hide": false,
    "infected": 17,
    "recovered": 0,
    "sick": 17
  },
  {
    "dead": 1,
    "lastUpdated": "2020-03-11T21:46:03.185Z",
    "id": "zvdC0u72Bk5YKNaazZFZ",
    "hide": false,
    "infected": 59,
    "recovered": 34,
    "latitude": 15.870032,
    "longitude": 100.992538,
    "name": "Thailand",
    "country": "TH",
    "sick": 24
  },
  {
    "hide": false,
    "infected": 12,
    "recovered": 0,
    "latitude": 44.0165,
    "longitude": 21.0059,
    "name": "Serbia",
    "country": "RS",
    "dead": 0,
    "lastUpdated": "2020-03-11T21:46:03.114Z",
    "id": "zyxFwuiyCJHhRyNEg60C",
    "sick": 12
  }
]