[
  {
    "latitude": 12.5847,
    "dead": 0,
    "lastUpdated": "2020-07-13T05:45:07.588Z",
    "recovered": 21,
    "infected": 29,
    "id": "01b09TY4vmuZwzVuiRFK",
    "pop": 72600,
    "country": "CO",
    "longitude": -81.7006,
    "name": "San Andrés",
    "sick": 8,
    "invisible": false
  },
  {
    "alwaysShow": false,
    "latitude": 49.4482,
    "dead": 13,
    "lastUpdated": "2020-07-13T05:18:03.576Z",
    "recovered": 238,
    "infected": 252,
    "id": "0FOJefeLxQYXQ1CnJm9o",
    "pop": 63196,
    "country": "GG",
    "longitude": -2.5895,
    "name": "Guernsey",
    "sick": 1,
    "invisible": false
  },
  {
    "state": "72",
    "id": "0GJcws44NSPsDHAuxJhW",
    "pop": 5827000,
    "country": "IT",
    "longitude": 14.333333,
    "name": "Campania",
    "latitude": 41.066666,
    "dead": 432,
    "lastUpdated": "2020-07-13T05:31:02.350Z",
    "recovered": 4094,
    "infected": 4772,
    "sick": 246,
    "invisible": false
  },
  {
    "name": "Tarapacá",
    "latitude": -20.2167,
    "dead": 111,
    "lastUpdated": "2020-07-13T05:21:05.124Z",
    "recovered": 0,
    "infected": 7147,
    "id": "0HDQbiHe462xMCUV5HiI",
    "pop": 383870,
    "country": "CL",
    "longitude": -70.14222,
    "sick": 7036,
    "invisible": false
  },
  {
    "recovered": 8750,
    "infected": 13737,
    "id": "0VG7S6aaK4eSo59fL9JO",
    "pop": 45990000,
    "country": "IN",
    "longitude": 85.0985,
    "name": "Odisha",
    "latitude": 20.9517,
    "dead": 91,
    "lastUpdated": "2020-07-13T05:41:01.788Z",
    "sick": 4896,
    "invisible": false
  },
  {
    "lastUpdated": "2020-07-13T05:32:02.468Z",
    "recovered": 0,
    "infected": 4812,
    "id": "0XmCRqiK2ZaehoEJvfer",
    "pop": 2990300,
    "country": "MX",
    "longitude": -98.8582,
    "name": "Hidalgo",
    "latitude": 20.4737,
    "dead": 782,
    "sick": 4030,
    "invisible": false
  },
  {
    "lastUpdated": "2020-07-13T05:41:01.790Z",
    "recovered": 100,
    "infected": 163,
    "id": "0jStOpTUNRaQYJqgmRoK",
    "pop": 427246,
    "country": "IN",
    "longitude": 92.6586,
    "name": "Andaman and Nicobar Islands",
    "latitude": 11.7401,
    "dead": 0,
    "sick": 63,
    "invisible": false
  },
  {
    "recovered": 99743,
    "infected": 103598,
    "id": "0m4aECS0Z2DGFEr8ldgI",
    "pop": 2639000,
    "country": "QA",
    "longitude": 51.145517,
    "name": "Qatar",
    "latitude": 25.315058,
    "dead": 147,
    "lastUpdated": "2020-07-13T05:46:03.045Z",
    "sick": 3708,
    "invisible": false
  },
  {
    "country": "IN",
    "longitude": 87.855,
    "name": "West Bengal",
    "latitude": 22.9868,
    "dead": 932,
    "lastUpdated": "2020-07-13T05:41:01.788Z",
    "recovered": 18581,
    "infected": 30013,
    "id": "0n54EMSDJcRoT1QEvw80",
    "pop": 90320000,
    "sick": 10500,
    "invisible": false
  },
  {
    "recovered": 12876,
    "infected": 17632,
    "id": "0s18o5DrDAHjbu5MFcrj",
    "pop": 73340000,
    "country": "IN",
    "longitude": 78.6569,
    "name": "Madhya Pradesh",
    "latitude": 22.9734,
    "dead": 653,
    "lastUpdated": "2020-07-13T05:41:01.788Z",
    "sick": 4103,
    "invisible": false
  },
  {
    "id": "0tFoopNTs6e4tOoaltu2",
    "country": "US",
    "longitude": -95.7129,
    "invisible": true,
    "name": "Unknown US state",
    "latitude": 37.0902,
    "dead": 0,
    "lastUpdated": "2020-07-13T05:46:03.042Z",
    "recovered": 1517084,
    "infected": 0,
    "sick": 0
  },
  {
    "name": "Shaanxi",
    "latitude": 35.64249,
    "dead": 3,
    "lastUpdated": "2020-07-13T05:08:04.683Z",
    "recovered": 314,
    "infected": 321,
    "id": "0x2HLhr5z5xAtEdO4iZm",
    "pop": 37330000,
    "country": "CN",
    "longitude": 108.472214,
    "sick": 4,
    "invisible": false
  },
  {
    "lastUpdated": "2020-07-13T05:46:03.049Z",
    "recovered": 4203,
    "infected": 8111,
    "id": "19MvIhipqTyYv1H37Upw",
    "pop": 2077000,
    "country": "MK",
    "longitude": 21.668393,
    "name": "North Macedonia",
    "latitude": 41.643351,
    "dead": 382,
    "sick": 3526,
    "invisible": false
  },
  {
    "latitude": 53.1355,
    "dead": 3,
    "lastUpdated": "2020-07-13T05:37:02.469Z",
    "recovered": 258,
    "infected": 262,
    "state": "NL",
    "id": "1DOMOmCWDtva46OVSZLv",
    "pop": 521542,
    "country": "CA",
    "longitude": -57.6604,
    "name": "Newfoundland and Labrador",
    "sick": 1,
    "invisible": false
  },
  {
    "latitude": 35.801933,
    "dead": 0,
    "lastUpdated": "2020-07-13T05:08:04.766Z",
    "recovered": 18,
    "infected": 18,
    "id": "1Fap7rZu9SIRqf5TG9Dg",
    "pop": 5627000,
    "country": "CN",
    "longitude": 96.779286,
    "name": "Qinghai",
    "sick": 0,
    "invisible": false
  },
  {
    "id": "1YXQMlVL3fUeDZmcVfJw",
    "pop": 126200000,
    "country": "MX",
    "longitude": -102.5528,
    "invisible": true,
    "name": "Unknown Mexico state",
    "latitude": 23.6345,
    "dead": 0,
    "lastUpdated": "2020-07-13T05:46:03.043Z",
    "recovered": 184764,
    "infected": 0,
    "sick": 0
  },
  {
    "recovered": 2649,
    "infected": 4656,
    "id": "1at5nIap9H51v32otlQl",
    "pop": 1960000,
    "country": "RU",
    "longitude": 73.3167,
    "name": "Omsk Oblast",
    "latitude": 55.0555,
    "dead": 40,
    "lastUpdated": "2020-07-13T05:30:07.722Z",
    "sick": 1967,
    "invisible": false
  },
  {
    "longitude": 8.206944,
    "name": "Piemonte",
    "latitude": 44.9,
    "dead": 4111,
    "lastUpdated": "2020-07-13T05:31:02.351Z",
    "recovered": 26329,
    "infected": 31498,
    "state": "21",
    "id": "1eTSQyfp8RoDPeFrIwun",
    "pop": 4376000,
    "country": "IT",
    "sick": 1058,
    "invisible": false
  },
  {
    "lastUpdated": "2020-07-13T05:33:01.675Z",
    "recovered": 0,
    "infected": 234,
    "id": "1j1OurxLTpZYuWIWwQ9F",
    "pop": 1003000,
    "country": "PL",
    "longitude": 15.461,
    "name": "Lubuskie",
    "latitude": 51.993,
    "dead": 0,
    "sick": 234,
    "invisible": false
  },
  {
    "country": "MD",
    "longitude": 28.3699,
    "name": "Moldova",
    "latitude": 47.4116,
    "dead": 642,
    "lastUpdated": "2020-07-13T05:46:03.048Z",
    "recovered": 12667,
    "infected": 19382,
    "id": "1qTPB8X3tyLyIdsb5TN3",
    "pop": 3550000,
    "sick": 6073,
    "invisible": false
  },
  {
    "name": "Federal Bureau of Prisons",
    "latitude": 37.0902,
    "dead": 95,
    "lastUpdated": "2020-07-13T05:47:02.273Z",
    "recovered": 0,
    "infected": 9030,
    "id": "22PJOAThcDFKgSbyQIkD",
    "country": "US",
    "longitude": -95.7129,
    "invisible": true,
    "sick": 8935
  },
  {
    "longitude": 88.787865,
    "name": "Tibet",
    "latitude": 30.15336,
    "dead": 0,
    "lastUpdated": "2020-07-13T05:08:04.766Z",
    "recovered": 1,
    "infected": 1,
    "id": "25qIBtsW2nfQj3pwBKg9",
    "pop": 3180000,
    "country": "CN",
    "sick": 0,
    "invisible": false
  },
  {
    "country": "ID",
    "longitude": 115.66779,
    "name": "Indonesia",
    "latitude": -1.572184,
    "dead": 3606,
    "lastUpdated": "2020-07-13T05:46:03.045Z",
    "recovered": 35638,
    "infected": 75699,
    "id": "2KHYUb5t3lwzVVmDjwNX",
    "pop": 264000000,
    "sick": 36455,
    "invisible": false
  },
  {
    "latitude": 43.807191,
    "dead": 234,
    "lastUpdated": "2020-07-13T05:47:02.272Z",
    "recovered": 0,
    "infected": 12170,
    "state": "OR",
    "id": "2OrsssmGUs4XCzaZzvTv",
    "pop": 4191000,
    "country": "US",
    "longitude": -120.585594,
    "name": "Oregon",
    "sick": 11936,
    "invisible": false
  },
  {
    "country": "CL",
    "longitude": -70.400002,
    "name": "Antofagasta",
    "latitude": -23.65,
    "dead": 224,
    "lastUpdated": "2020-07-13T05:21:05.125Z",
    "recovered": 0,
    "infected": 11799,
    "id": "2c5HBZ1ffkCVXnMYUWnY",
    "pop": 425000,
    "sick": 11575,
    "invisible": false
  },
  {
    "recovered": 0,
    "infected": 31364,
    "state": "AP",
    "id": "2dzhyWsBSPpENWlNew0b",
    "pop": 9029000,
    "country": "BR",
    "longitude": -51.070534,
    "name": "Amapá",
    "latitude": 0.035574,
    "dead": 474,
    "lastUpdated": "2020-07-13T05:27:01.915Z",
    "sick": 30890,
    "invisible": false
  },
  {
    "id": "2jxHvSsxdnom0nPNvOT8",
    "pop": 27460000,
    "country": "CN",
    "longitude": 126.548103,
    "name": "Jilin",
    "latitude": 43.851921,
    "dead": 2,
    "lastUpdated": "2020-07-13T05:08:04.766Z",
    "recovered": 153,
    "infected": 155,
    "sick": 0,
    "invisible": false
  },
  {
    "latitude": 36.1408,
    "dead": 0,
    "lastUpdated": "2020-07-13T05:46:03.068Z",
    "recovered": 176,
    "infected": 180,
    "id": "2p11BjSAs3wVyymgqBOe",
    "pop": 34571,
    "country": "GI",
    "longitude": -5.3536,
    "name": "Gibraltar",
    "sick": 4,
    "invisible": false
  },
  {
    "name": "Centre-Val de Loire",
    "latitude": 47.7516,
    "dead": 553,
    "lastUpdated": "2020-07-12T22:45:30.410Z",
    "recovered": 1994,
    "infected": 4550,
    "id": "2sLNkkHpyaHx7dD3aMDO",
    "pop": 2567000,
    "country": "FR",
    "longitude": 1.6751,
    "sick": 2003,
    "invisible": false
  },
  {
    "latitude": 42.565044,
    "dead": 80,
    "lastUpdated": "2020-07-13T05:31:02.352Z",
    "recovered": 1361,
    "infected": 1450,
    "state": "55",
    "id": "319tiZOMczx1y0DfvOib",
    "pop": 884640,
    "country": "IT",
    "longitude": 12.643751,
    "name": "Umbria",
    "sick": 9,
    "invisible": false
  },
  {
    "latitude": 2.43823,
    "dead": 28,
    "lastUpdated": "2020-07-13T05:45:07.587Z",
    "recovered": 225,
    "infected": 771,
    "id": "38T96Q3XNjt5FSJygPed",
    "pop": 1355000,
    "country": "CO",
    "longitude": -76.6131592,
    "name": "Cauca",
    "sick": 518,
    "invisible": false
  },
  {
    "country": "ZM",
    "longitude": 27.849332,
    "name": "Zambia",
    "latitude": -13.133896,
    "dead": 42,
    "lastUpdated": "2020-07-13T05:46:03.056Z",
    "recovered": 1412,
    "infected": 1895,
    "id": "3IlPjAbP5qVMn1nlgLTJ",
    "pop": 17090000,
    "sick": 441,
    "invisible": false
  },
  {
    "latitude": 42.7044,
    "dead": 23,
    "lastUpdated": "2020-07-13T05:46:03.057Z",
    "recovered": 325,
    "infected": 1221,
    "id": "3LstMSN5XMYBkxbe5HN7",
    "pop": 631219,
    "country": "ME",
    "longitude": 19.3958,
    "name": "Montenegro",
    "sick": 873,
    "invisible": false
  },
  {
    "lastUpdated": "2020-07-13T05:13:21.673Z",
    "recovered": 105,
    "infected": 113,
    "state": "ACT",
    "id": "3OZoQsKrzxZ18EKyfGE6",
    "pop": 418440,
    "country": "AU",
    "longitude": 149.0124,
    "name": "Australian Capital Territory",
    "latitude": -35.4735,
    "dead": 3,
    "sick": 5,
    "invisible": false
  },
  {
    "country": "RU",
    "longitude": 38.8389,
    "name": "Yaroslavl Oblast",
    "latitude": 57.8992,
    "dead": 22,
    "lastUpdated": "2020-07-13T05:30:07.721Z",
    "recovered": 4333,
    "infected": 5267,
    "id": "3PfzjWjvOkfgxc672BHQ",
    "pop": 608000,
    "sick": 912,
    "invisible": false
  },
  {
    "latitude": 51.8873,
    "dead": 32,
    "lastUpdated": "2020-07-13T05:30:07.721Z",
    "recovered": 2034,
    "infected": 5404,
    "id": "3PpqgIUJAtzxo1j7z56i",
    "pop": 321000,
    "country": "RU",
    "longitude": 95.626,
    "name": "Tuva",
    "sick": 3338,
    "invisible": false
  },
  {
    "recovered": 10895,
    "infected": 16807,
    "id": "3cCbnJCsK7mKlTO08K1o",
    "pop": 30940000,
    "country": "IN",
    "longitude": 92.9376,
    "name": "Assam",
    "latitude": 26.2006,
    "dead": 41,
    "lastUpdated": "2020-07-13T05:41:01.788Z",
    "sick": 5871,
    "invisible": false
  },
  {
    "recovered": 0,
    "infected": 65628,
    "state": "OH",
    "id": "3fC3bAyIRUquOQOEnQNe",
    "pop": 11690000,
    "country": "US",
    "longitude": -82.9071,
    "name": "Ohio",
    "latitude": 40.4173,
    "dead": 3063,
    "lastUpdated": "2020-07-13T05:47:02.265Z",
    "sick": 62565,
    "invisible": false
  },
  {
    "longitude": -107.5,
    "name": "Sinaloa",
    "latitude": 25,
    "dead": 1637,
    "lastUpdated": "2020-07-13T05:32:02.466Z",
    "recovered": 0,
    "infected": 10103,
    "id": "3kFCzJguabtBvXaHxgiu",
    "pop": 3066400,
    "country": "MX",
    "sick": 8466,
    "invisible": false
  },
  {
    "latitude": 3.420556,
    "dead": 447,
    "lastUpdated": "2020-07-13T05:45:07.585Z",
    "recovered": 5576,
    "infected": 12710,
    "id": "3mC2LveOpXV8P1PmQGUj",
    "pop": 4708300,
    "country": "CO",
    "longitude": -76.522224,
    "name": "Valle del Cauca",
    "sick": 6687,
    "invisible": false
  },
  {
    "latitude": 21.0079,
    "dead": 147,
    "lastUpdated": "2020-07-13T05:46:03.052Z",
    "recovered": 2363,
    "infected": 5355,
    "id": "4NnFMekRK2m14IlnZZoj",
    "pop": 4420000,
    "country": "MR",
    "longitude": -10.9408,
    "name": "Mauritania",
    "sick": 2845,
    "invisible": false
  },
  {
    "recovered": 2679,
    "infected": 3053,
    "state": "BC",
    "id": "4hfZRUoUgI4a3vrG0GBk",
    "pop": 5071000,
    "country": "CA",
    "longitude": -127.6476,
    "name": "British Columbia",
    "latitude": 53.7267,
    "dead": 187,
    "lastUpdated": "2020-07-13T05:37:02.468Z",
    "sick": 187,
    "invisible": false
  },
  {
    "latitude": -22.908333,
    "dead": 11415,
    "lastUpdated": "2020-07-13T05:27:01.912Z",
    "recovered": 0,
    "infected": 129684,
    "state": "RJ",
    "id": "4kq0z3kh5zt3YAUWxvtE",
    "pop": 17159960,
    "country": "BR",
    "longitude": -43.196388,
    "name": "Rio de Janeiro",
    "sick": 118269,
    "invisible": false
  },
  {
    "name": "Bahia",
    "latitude": -11.409874,
    "dead": 2483,
    "lastUpdated": "2020-07-13T05:27:01.912Z",
    "recovered": 0,
    "infected": 105763,
    "state": "BA",
    "id": "4yDbkEyqsNzZJjfrciYV",
    "pop": 14812617,
    "country": "BR",
    "longitude": -41.280857,
    "sick": 103280,
    "invisible": false
  },
  {
    "name": "Azerbaijan",
    "latitude": 40.3426,
    "dead": 306,
    "lastUpdated": "2020-07-13T05:46:03.048Z",
    "recovered": 15093,
    "infected": 24041,
    "id": "4zqzRm2xHn0CDVOUQJ8p",
    "pop": 9898000,
    "country": "AZ",
    "longitude": 47.93802,
    "sick": 8642,
    "invisible": false
  },
  {
    "name": "Tamaulipas",
    "latitude": 22.233105,
    "dead": 691,
    "lastUpdated": "2020-07-13T05:32:02.467Z",
    "recovered": 0,
    "infected": 10217,
    "id": "54cfsdsRF76XVHWtZs19",
    "pop": 3672300,
    "country": "MX",
    "longitude": -97.861099,
    "sick": 9526,
    "invisible": false
  },
  {
    "latitude": 51.0109,
    "dead": 4905,
    "lastUpdated": "2020-07-13T05:37:12.643Z",
    "recovered": 9449,
    "infected": 35225,
    "state": "VLG",
    "id": "57ydD48mLRD2YoyteJZj",
    "pop": 6596000,
    "country": "BE",
    "longitude": 3.7265,
    "name": "Flanders",
    "sick": 20871,
    "invisible": false
  },
  {
    "longitude": -78.035889,
    "name": "Bahamas",
    "latitude": 25.025885,
    "dead": 11,
    "lastUpdated": "2020-07-13T05:46:03.068Z",
    "recovered": 89,
    "infected": 111,
    "id": "5MHegCUO9L3LiAU7DDey",
    "pop": 395361,
    "country": "BS",
    "sick": 11,
    "invisible": false
  },
  {
    "latitude": -31.253218,
    "dead": 49,
    "lastUpdated": "2020-07-13T05:13:21.674Z",
    "recovered": 2988,
    "infected": 3478,
    "state": "NSW",
    "id": "5N16a2OXXRpsEFanw0TC",
    "pop": 7544000,
    "country": "AU",
    "longitude": 146.921097,
    "name": "New South Wales",
    "sick": 441,
    "invisible": false
  },
  {
    "latitude": 6.8769908,
    "dead": 38,
    "lastUpdated": "2020-07-13T05:46:03.056Z",
    "recovered": 333,
    "infected": 2021,
    "id": "5N4PRxsCDzzwk7R200V1",
    "pop": 12580000,
    "country": "SS",
    "longitude": 31.3069782,
    "name": "South Sudan",
    "sick": 1650,
    "invisible": false
  },
  {
    "name": "C. Valenciana",
    "latitude": 39.484,
    "dead": 1432,
    "lastUpdated": "2020-07-12T22:42:56.159Z",
    "recovered": 9970,
    "infected": 15550,
    "state": "VC",
    "id": "5Va9A7CXR8AXdUz4HTJj",
    "pop": 4975000,
    "country": "ES",
    "longitude": -0.7533,
    "sick": 4148,
    "invisible": false
  },
  {
    "name": "New Caledonia",
    "latitude": -20.9043045,
    "dead": 0,
    "lastUpdated": "2020-07-13T05:46:03.069Z",
    "recovered": 21,
    "infected": 21,
    "id": "5fg04eyDwFw3kEXnrxez",
    "pop": 280460,
    "country": "NC",
    "longitude": 165.618042,
    "sick": 0,
    "invisible": false
  },
  {
    "latitude": 28.394857,
    "dead": 38,
    "lastUpdated": "2020-07-13T05:46:03.048Z",
    "recovered": 8589,
    "infected": 16801,
    "id": "5gXZIjRgAvd6xWN1LOv8",
    "pop": 29300000,
    "country": "NP",
    "longitude": 84.124008,
    "name": "Nepal",
    "sick": 8174,
    "invisible": false
  },
  {
    "latitude": 12.879721,
    "dead": 1534,
    "lastUpdated": "2020-07-13T05:46:03.046Z",
    "recovered": 16046,
    "infected": 56259,
    "id": "5pwmh7aSdGRKqRbnuyc0",
    "pop": 104900000,
    "country": "PH",
    "longitude": 121.774017,
    "name": "Philippines",
    "sick": 38679,
    "invisible": false
  },
  {
    "latitude": -17.824858,
    "dead": 18,
    "lastUpdated": "2020-07-13T05:46:03.063Z",
    "recovered": 328,
    "infected": 985,
    "id": "5qtR9nx4BLwu1ODTniaY",
    "pop": 14802190,
    "country": "ZW",
    "longitude": 31.053028,
    "name": "Zimbabwe",
    "sick": 639,
    "invisible": false
  },
  {
    "country": "US",
    "lastUpdated": "2020-07-13T05:47:02.273Z",
    "state": "NA",
    "id": "5vkKgxTaKq1IH0Go357L",
    "longitude": -109.188,
    "invisible": false,
    "name": "Navajo Nation",
    "dead": 396,
    "latitude": 36.0672,
    "infected": 8142,
    "recovered": 0,
    "pop": 356890,
    "sick": 7746
  },
  {
    "name": "Ciudad de México",
    "latitude": 19.432241,
    "dead": 7657,
    "lastUpdated": "2020-07-13T05:32:02.466Z",
    "recovered": 0,
    "infected": 57674,
    "id": "61E7TGjUwAo9xu6Y6gAH",
    "pop": 8781300,
    "country": "MX",
    "longitude": -99.177254,
    "sick": 50017,
    "invisible": false
  },
  {
    "latitude": 54.3873,
    "dead": 51,
    "lastUpdated": "2020-07-13T05:30:07.720Z",
    "recovered": 4653,
    "infected": 6608,
    "id": "63KYOuWe41mvqWQrJbr2",
    "pop": 1012000,
    "country": "RU",
    "longitude": 35.1889,
    "name": "Kaluga Oblast",
    "sick": 1904,
    "invisible": false
  },
  {
    "name": "Lithuania",
    "latitude": 55.621011,
    "dead": 79,
    "lastUpdated": "2020-07-13T05:46:03.056Z",
    "recovered": 1571,
    "infected": 1869,
    "id": "694ON7d0mRJDeM1gHBTR",
    "pop": 2794000,
    "country": "LT",
    "longitude": 23.804991,
    "sick": 219,
    "invisible": false
  },
  {
    "name": "South East",
    "latitude": 51.1781,
    "dead": 0,
    "lastUpdated": "2020-07-13T05:43:18.087Z",
    "recovered": 0,
    "infected": 34247,
    "state": "EN",
    "id": "6IQAsvrmBv0HPdeTnh4x",
    "pop": 9175000,
    "country": "GB",
    "longitude": -0.5596,
    "sick": 34247,
    "invisible": false
  },
  {
    "name": "Hong Kong",
    "latitude": 22.396427,
    "dead": 7,
    "lastUpdated": "2020-07-13T05:46:03.057Z",
    "recovered": 1214,
    "infected": 1470,
    "id": "6IcHIIH0zXpY0POmBZTv",
    "pop": 7392000,
    "country": "HK",
    "longitude": 114.109497,
    "sick": 249,
    "invisible": false
  },
  {
    "name": "Acre",
    "latitude": -8.65,
    "dead": 426,
    "lastUpdated": "2020-07-13T05:27:01.915Z",
    "recovered": 0,
    "infected": 16190,
    "state": "AC",
    "id": "6LQesrx5bHJsVUi1TXBp",
    "pop": 869265,
    "country": "BR",
    "longitude": -72.4,
    "sick": 15764,
    "invisible": false
  },
  {
    "longitude": 2.3158,
    "name": "Benin",
    "latitude": 9.3077,
    "dead": 26,
    "lastUpdated": "2020-07-13T05:46:03.057Z",
    "recovered": 557,
    "infected": 1378,
    "id": "6SlpghTyB6lpMFvx3g9U",
    "pop": 11180000,
    "country": "BJ",
    "sick": 795,
    "invisible": false
  },
  {
    "latitude": 45.6667,
    "dead": 16748,
    "lastUpdated": "2020-07-13T05:31:02.351Z",
    "recovered": 70297,
    "infected": 95049,
    "state": "25",
    "id": "6ZHcvMIzVWIaRnc4R3Qp",
    "pop": 10040000,
    "country": "IT",
    "longitude": 9.5,
    "name": "Lombardia",
    "sick": 8004,
    "invisible": false
  },
  {
    "name": "Slovenia",
    "latitude": 46.0569,
    "dead": 111,
    "lastUpdated": "2020-07-13T05:46:03.056Z",
    "recovered": 1469,
    "infected": 1841,
    "id": "6ahNiyKDSDAftCctgLH3",
    "pop": 2067000,
    "country": "SI",
    "longitude": 14.5058,
    "sick": 261,
    "invisible": false
  },
  {
    "country": "CL",
    "longitude": -70.331398,
    "name": "Atacama",
    "latitude": -27.3667908,
    "dead": 9,
    "lastUpdated": "2020-07-13T05:21:05.125Z",
    "recovered": 0,
    "infected": 1576,
    "id": "6nyns7UGGgkU7pxrHf8i",
    "pop": 300000,
    "sick": 1567,
    "invisible": false
  },
  {
    "latitude": -0.8037,
    "dead": 46,
    "lastUpdated": "2020-07-13T05:46:03.050Z",
    "recovered": 3004,
    "infected": 5942,
    "id": "6pBi38TUgYfFm0bry2uh",
    "pop": 2025000,
    "country": "GA",
    "longitude": 11.6094,
    "name": "Gabon",
    "sick": 2892,
    "invisible": false
  },
  {
    "latitude": 22.1498,
    "dead": 282,
    "lastUpdated": "2020-07-13T05:32:02.467Z",
    "recovered": 0,
    "infected": 4493,
    "id": "6vjIVg1gSANFZghV7xtS",
    "pop": 2831900,
    "country": "MX",
    "longitude": -100.9792,
    "name": "San Luis Potosí",
    "sick": 4211,
    "invisible": false
  },
  {
    "latitude": 17.901672,
    "dead": 0,
    "lastUpdated": "2020-07-13T05:46:03.072Z",
    "recovered": 6,
    "infected": 6,
    "id": "78Ox26bNHDA2Pk2b3Uwn",
    "pop": 9131,
    "country": "FR",
    "longitude": -62.818544,
    "name": "Saint-Barthélémy",
    "alwaysShow": true,
    "sick": 0,
    "invisible": false
  },
  {
    "lastUpdated": "2020-07-13T05:33:01.672Z",
    "recovered": 0,
    "infected": 711,
    "id": "7JDx6UJiwGSJyL1fChaJ",
    "pop": 2305000,
    "country": "PL",
    "longitude": 18.633,
    "name": "Pomorskie",
    "latitude": 54.367,
    "dead": 38,
    "sick": 673,
    "invisible": false
  },
  {
    "state": "ML",
    "id": "7UASdZTZ1nPzzBwSTEA9",
    "pop": 84690,
    "country": "ES",
    "longitude": -2.9381,
    "name": "Melilla",
    "latitude": 35.2923,
    "dead": 2,
    "lastUpdated": "2020-07-12T22:43:59.367Z",
    "recovered": 125,
    "infected": 139,
    "sick": 12,
    "invisible": false
  },
  {
    "id": "7hVFcEV7nV0MrQr3LHrl",
    "pop": 102012,
    "country": "AG",
    "longitude": -61.7964,
    "name": "Antigua and Barbuda",
    "latitude": 17.0608,
    "dead": 3,
    "lastUpdated": "2020-07-13T05:46:03.068Z",
    "recovered": 57,
    "infected": 74,
    "sick": 14,
    "invisible": false
  },
  {
    "lastUpdated": "2020-07-13T05:30:24.856Z",
    "recovered": 45791,
    "infected": 49552,
    "state": "BY",
    "id": "7kCrrlOBE3jN6FtOVNUB",
    "pop": 13000000,
    "country": "DE",
    "longitude": 11.4979,
    "name": "Bayern",
    "latitude": 48.7904,
    "dead": 2655,
    "sick": 1106,
    "invisible": false
  },
  {
    "longitude": 19.0402,
    "name": "Hungary",
    "latitude": 47.4979,
    "dead": 595,
    "lastUpdated": "2020-07-13T05:46:03.054Z",
    "recovered": 3036,
    "infected": 4234,
    "id": "7rYC2iFB50c55Ihgbs4Q",
    "pop": 9773000,
    "country": "HU",
    "sick": 603,
    "invisible": false
  },
  {
    "recovered": 8213,
    "infected": 18748,
    "id": "7tqLvLyXcBDK808nJv0m",
    "pop": 1206000,
    "country": "CO",
    "longitude": -74.7813,
    "name": "Barranquilla D.E.",
    "latitude": 10.9685,
    "dead": 1122,
    "lastUpdated": "2020-07-13T05:45:07.587Z",
    "sick": 9413,
    "invisible": false
  },
  {
    "country": "CM",
    "longitude": 12.3547,
    "name": "Cameroon",
    "latitude": 7.3697,
    "dead": 359,
    "lastUpdated": "2020-07-13T05:46:03.048Z",
    "recovered": 11928,
    "infected": 15173,
    "id": "8C0d7WVCjyUGtnc2gUAR",
    "pop": 24050000,
    "sick": 2886,
    "invisible": false
  },
  {
    "country": "BE",
    "longitude": 4.3517,
    "name": "Brussels",
    "latitude": 50.8503,
    "dead": 1487,
    "lastUpdated": "2020-07-13T05:37:12.649Z",
    "recovered": 2823,
    "infected": 6517,
    "state": "BRU",
    "id": "8DOZWbN6bDdgaLXVlUEu",
    "pop": 1209000,
    "sick": 2207,
    "invisible": false
  },
  {
    "latitude": -16.2902,
    "dead": 1807,
    "lastUpdated": "2020-07-13T05:46:03.046Z",
    "recovered": 14843,
    "infected": 48187,
    "id": "8RihJrXw4NQXPxaRxr1u",
    "pop": 11050000,
    "country": "BO",
    "longitude": -63.5887,
    "name": "Bolivia",
    "sick": 31537,
    "invisible": false
  },
  {
    "recovered": 29,
    "infected": 35,
    "id": "8ZTySQROQejkDAad0qxQ",
    "pop": 109897,
    "country": "VC",
    "longitude": -61.2872,
    "name": "St. Vincent Grenadines",
    "latitude": 12.9843,
    "dead": 0,
    "lastUpdated": "2020-07-13T05:46:03.069Z",
    "sick": 6,
    "invisible": false
  },
  {
    "lastUpdated": "2020-07-13T05:46:03.046Z",
    "recovered": 42285,
    "infected": 45961,
    "id": "8pA3fM4xC2c2wv1b4TnE",
    "pop": 5621000,
    "country": "SG",
    "longitude": 103.819839,
    "name": "Singapore",
    "latitude": 1.352083,
    "dead": 26,
    "sick": 3650,
    "invisible": false
  },
  {
    "name": "Pays de la Loire",
    "latitude": 47.2184,
    "dead": 470,
    "lastUpdated": "2020-07-12T22:46:11.660Z",
    "recovered": 2114,
    "infected": 4241,
    "id": "98hwAoohgWEOQVa3NlM5",
    "pop": 3787000,
    "country": "FR",
    "longitude": -1.5536,
    "sick": 1657,
    "invisible": false
  },
  {
    "country": "MX",
    "longitude": -90.19885,
    "name": "Campeche",
    "latitude": 19.30754,
    "dead": 289,
    "lastUpdated": "2020-07-13T05:32:02.467Z",
    "recovered": 0,
    "infected": 3057,
    "id": "9DAvxOObTqIvMOU93nlY",
    "pop": 952300,
    "sick": 2768,
    "invisible": false
  },
  {
    "lastUpdated": "2020-07-13T05:46:03.049Z",
    "recovered": 5341,
    "infected": 10250,
    "id": "9DPOkpIqrFy9mR4e9fuv",
    "pop": 40530000,
    "country": "SD",
    "longitude": 30.2176,
    "name": "Sudan",
    "latitude": 12.8628,
    "dead": 650,
    "sick": 4259,
    "invisible": false
  },
  {
    "latitude": 58.5501,
    "dead": 23,
    "lastUpdated": "2020-07-13T05:30:07.762Z",
    "recovered": 1197,
    "infected": 1844,
    "id": "9JFYfvpcejMIgYlHpngA",
    "pop": 643000,
    "country": "RU",
    "longitude": 43.9541,
    "name": "Kostroma Oblast",
    "sick": 624,
    "invisible": false
  },
  {
    "recovered": 21545,
    "infected": 32535,
    "id": "9QcETqEcM2fTv9zRvx5T",
    "pop": 19530000,
    "country": "RO",
    "longitude": 24.966761,
    "name": "Romania",
    "latitude": 45.943161,
    "dead": 1884,
    "lastUpdated": "2020-07-13T05:46:03.047Z",
    "sick": 9106,
    "invisible": false
  },
  {
    "name": "Nicaragua",
    "latitude": 12.136389,
    "dead": 91,
    "lastUpdated": "2020-07-13T05:46:03.054Z",
    "recovered": 1993,
    "infected": 2846,
    "id": "9Y5wmCqNCC6ZrenM31uA",
    "pop": 6218000,
    "country": "NI",
    "longitude": -86.251389,
    "sick": 762,
    "invisible": false
  },
  {
    "name": "Mali",
    "latitude": 17.5706921,
    "dead": 121,
    "lastUpdated": "2020-07-13T05:46:03.055Z",
    "recovered": 1694,
    "infected": 2411,
    "id": "9dIzxqDSVqPyINkHqwGv",
    "pop": 18540000,
    "country": "ML",
    "longitude": -3.996166,
    "sick": 596,
    "invisible": false
  },
  {
    "id": "9p6OCdZbUUwBLA60Gk3W",
    "pop": 5513000,
    "country": "FI",
    "longitude": 25.748152,
    "name": "Finland",
    "latitude": 61.92411,
    "dead": 329,
    "lastUpdated": "2020-07-13T05:46:03.049Z",
    "recovered": 6800,
    "infected": 7294,
    "sick": 165,
    "invisible": false
  },
  {
    "country": "RU",
    "longitude": 95.1104,
    "name": "Krasnoyarsk Krai",
    "latitude": 64.248,
    "dead": 232,
    "lastUpdated": "2020-07-13T05:30:07.718Z",
    "recovered": 6692,
    "infected": 10500,
    "id": "A6Us0fpQVCc85SoIqzg3",
    "pop": 2876000,
    "sick": 3576,
    "invisible": false
  },
  {
    "latitude": 43.311643,
    "dead": 391,
    "lastUpdated": "2020-07-13T05:47:02.272Z",
    "recovered": 0,
    "infected": 6054,
    "state": "NH",
    "id": "A84CwQ52kA46Hr7pn6Bm",
    "pop": 1356000,
    "country": "US",
    "longitude": -71.590315,
    "name": "New Hampshire",
    "sick": 5663,
    "invisible": false
  },
  {
    "latitude": 41.823261,
    "dead": 976,
    "lastUpdated": "2020-07-13T05:47:02.272Z",
    "recovered": 0,
    "infected": 17312,
    "state": "RI",
    "id": "AEUWUHS65qvjEslew11c",
    "pop": 1057000,
    "country": "US",
    "longitude": -71.412257,
    "name": "Rhode Island",
    "sick": 16336,
    "invisible": false
  },
  {
    "latitude": 44.498955,
    "dead": 4269,
    "lastUpdated": "2020-07-13T05:31:02.350Z",
    "recovered": 23491,
    "infected": 28940,
    "state": "45",
    "id": "AJ9jQ0iyKsafsmf5yHAR",
    "pop": 4453000,
    "country": "IT",
    "longitude": 11.327591,
    "name": "Emilia-Romagna",
    "sick": 1180,
    "invisible": false
  },
  {
    "name": "Saarland",
    "latitude": 49.3964,
    "dead": 178,
    "lastUpdated": "2020-07-13T05:30:24.858Z",
    "recovered": 2618,
    "infected": 2840,
    "state": "SL",
    "id": "AKjFRQGnzuuZQhv5Qwx7",
    "pop": 990509,
    "country": "DE",
    "longitude": 7.023,
    "sick": 44,
    "invisible": false
  },
  {
    "lastUpdated": "2020-07-13T05:30:07.718Z",
    "recovered": 4938,
    "infected": 8768,
    "id": "AOapJ3gElQApd8Gnt8EL",
    "pop": 3493000,
    "country": "RU",
    "longitude": 60.8789,
    "name": "Chelyabinsk Oblast",
    "latitude": 54.4319,
    "dead": 88,
    "sick": 3742,
    "invisible": false
  },
  {
    "lastUpdated": "2020-07-13T05:21:05.125Z",
    "recovered": 0,
    "infected": 7053,
    "id": "APTPgjAsjFi0nsGyJV7M",
    "pop": 1125002,
    "country": "CL",
    "longitude": -71.167,
    "name": "Maule",
    "latitude": -35.717,
    "dead": 94,
    "sick": 6959,
    "invisible": false
  },
  {
    "latitude": 71.7069,
    "dead": 0,
    "lastUpdated": "2020-07-13T05:46:03.069Z",
    "recovered": 13,
    "infected": 13,
    "id": "APaZzlGCEeuoLBtzTJMe",
    "pop": 56171,
    "country": "GL",
    "longitude": -42.6043,
    "name": "Greenland",
    "sick": 0,
    "invisible": false
  },
  {
    "lastUpdated": "2020-07-13T05:30:07.760Z",
    "recovered": 2513,
    "infected": 3378,
    "id": "ATxF6ZoDJ2ibdE6ZRYIX",
    "pop": 984000,
    "country": "RU",
    "longitude": 112.4061,
    "name": "Buryatia",
    "latitude": 54.8331,
    "dead": 25,
    "sick": 840,
    "invisible": false
  },
  {
    "latitude": 45.65107,
    "dead": 63,
    "lastUpdated": "2020-07-13T05:37:02.469Z",
    "recovered": 1000,
    "infected": 1066,
    "state": "NS",
    "id": "AVCpxeh0fuH2WrHWNDYH",
    "pop": 971395,
    "country": "CA",
    "longitude": -63.582687,
    "name": "Nova Scotia",
    "sick": 3,
    "invisible": false
  },
  {
    "latitude": 47.012918,
    "dead": 29,
    "lastUpdated": "2020-07-13T05:47:02.273Z",
    "recovered": 0,
    "infected": 1758,
    "state": "MT",
    "id": "AcULcZBozObOhwuRKMjJ",
    "pop": 1062000,
    "country": "US",
    "longitude": -109.128641,
    "name": "Montana",
    "sick": 1729,
    "invisible": false
  },
  {
    "longitude": 71.2761,
    "name": "Tajikistan",
    "latitude": 38.861,
    "dead": 55,
    "lastUpdated": "2020-07-13T05:46:03.050Z",
    "recovered": 5228,
    "infected": 6552,
    "id": "AiIGs3ybYZZhm1ytVopr",
    "pop": 9275000,
    "country": "TJ",
    "sick": 1269,
    "invisible": false
  },
  {
    "lastUpdated": "2020-07-13T05:08:04.765Z",
    "recovered": 931,
    "infected": 932,
    "id": "AmBYm5J6E9Cuez1FQjiN",
    "pop": 45200000,
    "country": "CN",
    "longitude": 116.01609,
    "name": "Jiangxi",
    "latitude": 27.285971,
    "dead": 1,
    "sick": 0,
    "invisible": false
  },
  {
    "latitude": 52.1307,
    "dead": 1541,
    "lastUpdated": "2020-07-13T05:43:18.085Z",
    "recovered": 0,
    "infected": 15962,
    "state": "WA",
    "id": "AoLhHdTydeWTfmp9koEX",
    "pop": 3136000,
    "country": "GB",
    "longitude": -3.7837,
    "name": "Wales",
    "sick": 14421,
    "invisible": false
  },
  {
    "longitude": 90.3982,
    "name": "Khakassia",
    "latitude": 53.0452,
    "dead": 19,
    "lastUpdated": "2020-07-13T05:30:07.761Z",
    "recovered": 1738,
    "infected": 2329,
    "id": "Avls64fLKoEsBFH0Ol0b",
    "pop": 537000,
    "country": "RU",
    "sick": 572,
    "invisible": false
  },
  {
    "latitude": 28.033886,
    "dead": 1011,
    "lastUpdated": "2020-07-13T05:46:03.048Z",
    "recovered": 13743,
    "infected": 19195,
    "id": "AwN0CScPDApcLFgz6e3z",
    "pop": 41320000,
    "country": "DZ",
    "longitude": 1.659626,
    "name": "Algeria",
    "sick": 4441,
    "invisible": false
  },
  {
    "recovered": 2486,
    "infected": 3722,
    "id": "B82Ef45M8cDu4q7VsSHF",
    "pop": 4076000,
    "country": "HR",
    "longitude": 15.2,
    "name": "Croatia",
    "latitude": 45.099998,
    "dead": 119,
    "lastUpdated": "2020-07-13T05:46:03.054Z",
    "sick": 1117,
    "invisible": false
  },
  {
    "latitude": 17.6077881,
    "dead": 68,
    "lastUpdated": "2020-07-13T05:46:03.058Z",
    "recovered": 992,
    "infected": 1099,
    "id": "BENubqQInFUJzhpZTsLT",
    "pop": 23716000,
    "country": "NE",
    "longitude": 8.081666,
    "name": "Niger",
    "sick": 39,
    "invisible": false
  },
  {
    "latitude": 39.509109,
    "dead": 3319,
    "lastUpdated": "2020-07-13T05:47:02.265Z",
    "recovered": 0,
    "infected": 73109,
    "state": "MD",
    "id": "BF51mWl51fgEcyBpCSzb",
    "pop": 6043000,
    "country": "US",
    "longitude": -76.98432,
    "name": "Maryland",
    "sick": 69790,
    "invisible": false
  },
  {
    "recovered": 55380,
    "infected": 64932,
    "id": "BGg6yVU5VP71B8NXU0oh",
    "pop": 9508000,
    "country": "BY",
    "longitude": 27.953388,
    "name": "Belarus",
    "latitude": 53.709808,
    "dead": 464,
    "lastUpdated": "2020-07-13T05:46:03.045Z",
    "sick": 9088,
    "invisible": false
  },
  {
    "id": "BGtoyzb7y54LVlJ91rbf",
    "pop": 3319000,
    "country": "FR",
    "longitude": 0.1713,
    "name": "Normandie",
    "latitude": 48.8799,
    "dead": 435,
    "lastUpdated": "2020-07-12T22:45:55.773Z",
    "recovered": 1696,
    "infected": 3656,
    "sick": 1525,
    "invisible": false
  },
  {
    "lastUpdated": "2020-07-13T05:43:18.087Z",
    "recovered": 0,
    "infected": 12859,
    "state": "EN",
    "id": "BQqMOlPFD36ZEDTGd3WC",
    "pop": 5616000,
    "country": "GB",
    "longitude": -3.9995,
    "name": "South West",
    "latitude": 50.7772,
    "dead": 0,
    "sick": 12859,
    "invisible": false
  },
  {
    "recovered": 0,
    "infected": 122467,
    "state": "AZ",
    "id": "BTEESCuD2ZbS1afunR2A",
    "pop": 7172000,
    "country": "US",
    "longitude": -111.093735,
    "name": "Arizona",
    "latitude": 34.048927,
    "dead": 2237,
    "lastUpdated": "2020-07-13T05:47:02.265Z",
    "sick": 120230,
    "invisible": false
  },
  {
    "name": "Smolensk Oblast",
    "latitude": 54.9883,
    "dead": 76,
    "lastUpdated": "2020-07-13T05:30:07.721Z",
    "recovered": 2971,
    "infected": 5069,
    "id": "BUb7oDHcBM4lQ5cufNoG",
    "pop": 949000,
    "country": "RU",
    "longitude": 32.6677,
    "sick": 2022,
    "invisible": false
  },
  {
    "latitude": 58.4199,
    "dead": 44,
    "lastUpdated": "2020-07-13T05:30:07.760Z",
    "recovered": 3344,
    "infected": 3779,
    "id": "BWojXmuKU3szKlS7CE4k",
    "pop": 1283000,
    "country": "RU",
    "longitude": 50.2097,
    "name": "Kirov Oblast",
    "sick": 391,
    "invisible": false
  },
  {
    "recovered": 0,
    "infected": 635,
    "id": "BZwZOAlDJ8AIiaRVLyC9",
    "pop": 1676000,
    "country": "PL",
    "longitude": 14.552812,
    "name": "Zachodniopomorskie",
    "latitude": 53.428543,
    "dead": 23,
    "lastUpdated": "2020-07-13T05:33:01.672Z",
    "sick": 612,
    "invisible": false
  },
  {
    "name": "Unknown Chile region",
    "latitude": -33.4489,
    "dead": 0,
    "lastUpdated": "2020-07-13T05:46:03.043Z",
    "recovered": 283902,
    "infected": 0,
    "id": "BbiuZcm8oURX7cZwaa5U",
    "country": "CL",
    "longitude": -70.6693,
    "invisible": true,
    "sick": 0
  },
  {
    "country": "MW",
    "longitude": 34.3015,
    "name": "Malawi",
    "latitude": -13.2543,
    "dead": 38,
    "lastUpdated": "2020-07-13T05:46:03.055Z",
    "recovered": 557,
    "infected": 2364,
    "id": "BfT8o5DaEixC6JIZ28kY",
    "pop": 18620000,
    "sick": 1769,
    "invisible": false
  },
  {
    "latitude": -3.3730559,
    "dead": 1,
    "lastUpdated": "2020-07-13T05:46:03.067Z",
    "recovered": 118,
    "infected": 191,
    "id": "BnpMamidC5yYzeK8tPUL",
    "pop": 10860000,
    "country": "BI",
    "longitude": 29.9188862,
    "name": "Burundi",
    "sick": 72,
    "invisible": false
  },
  {
    "longitude": 21.002,
    "name": "Mazowieckie",
    "latitude": 52.257,
    "dead": 352,
    "lastUpdated": "2020-07-13T05:33:01.668Z",
    "recovered": 0,
    "infected": 5377,
    "id": "BrToMzyq8y2xdwXn75kM",
    "pop": 5385000,
    "country": "PL",
    "sick": 5025,
    "invisible": false
  },
  {
    "latitude": -1.333845,
    "dead": 100,
    "lastUpdated": "2020-07-13T05:45:07.589Z",
    "recovered": 2186,
    "infected": 2418,
    "id": "C25xSDm4iYibX5RYML14",
    "pop": 74751,
    "country": "CO",
    "longitude": -71.347573,
    "name": "Amazonas (Colombia)",
    "sick": 132,
    "invisible": false
  },
  {
    "name": "New York",
    "latitude": 40.719042,
    "dead": 32403,
    "lastUpdated": "2020-07-13T05:47:02.258Z",
    "recovered": 0,
    "infected": 427638,
    "state": "NY",
    "id": "C3BCUzV80z9GfiuByIcr",
    "pop": 19540000,
    "country": "US",
    "longitude": -73.982597,
    "sick": 395235,
    "invisible": false
  },
  {
    "id": "C5YXFiytAc1w9swtVGLz",
    "pop": 42800,
    "country": "CO",
    "longitude": -67.92389,
    "name": "Guainía",
    "latitude": 3.86528,
    "dead": 1,
    "lastUpdated": "2020-07-13T05:45:07.589Z",
    "recovered": 11,
    "infected": 14,
    "sick": 2,
    "invisible": false
  },
  {
    "name": "Czechia",
    "latitude": 49.731626,
    "dead": 352,
    "lastUpdated": "2020-07-13T05:46:03.048Z",
    "recovered": 8247,
    "infected": 13174,
    "id": "C6S76AggdWVU8G22jFHQ",
    "pop": 10650000,
    "country": "CZ",
    "longitude": 15.359413,
    "sick": 4575,
    "invisible": false
  },
  {
    "longitude": 50.557701,
    "name": "Bahrain",
    "latitude": 26.0667,
    "dead": 108,
    "lastUpdated": "2020-07-13T05:46:03.047Z",
    "recovered": 28425,
    "infected": 32941,
    "id": "C7cj4nwRITs13KnaJrQ2",
    "pop": 1493000,
    "country": "BH",
    "sick": 4408,
    "invisible": false
  },
  {
    "lastUpdated": "2020-07-13T05:45:07.588Z",
    "recovered": 507,
    "infected": 1188,
    "id": "CA9LaAl3bNaeAqBuozn4",
    "pop": 1285400,
    "country": "CO",
    "longitude": -74.4057,
    "name": "Magdalena",
    "latitude": 10.4113,
    "dead": 128,
    "sick": 553,
    "invisible": false
  },
  {
    "country": "MX",
    "longitude": -101.430756,
    "name": "Coahuila",
    "latitude": 26.909979,
    "dead": 360,
    "lastUpdated": "2020-07-13T05:32:02.467Z",
    "recovered": 0,
    "infected": 7107,
    "id": "CCUFp4urvgXPo5unfMGy",
    "pop": 3073500,
    "sick": 6747,
    "invisible": false
  },
  {
    "name": "Rajasthan",
    "latitude": 27.0238,
    "dead": 510,
    "lastUpdated": "2020-07-13T05:41:01.788Z",
    "recovered": 18103,
    "infected": 24392,
    "id": "CKZCZTPlrcq5fbfUPA9k",
    "pop": 68890000,
    "country": "IN",
    "longitude": 74.2179,
    "sick": 5779,
    "invisible": false
  },
  {
    "lastUpdated": "2020-07-13T05:30:07.762Z",
    "recovered": 548,
    "infected": 1053,
    "id": "CX8z9U1iABNBhc1VK2Dy",
    "pop": 218000,
    "country": "RU",
    "longitude": 86.2199,
    "name": "Altai",
    "latitude": 50.6182,
    "dead": 1,
    "sick": 504,
    "invisible": false
  },
  {
    "name": "El Salvador",
    "latitude": 13.803,
    "dead": 260,
    "lastUpdated": "2020-07-13T05:46:03.049Z",
    "recovered": 5634,
    "infected": 9674,
    "id": "Cgvmtle61ehMvCzRzYx7",
    "pop": 6378000,
    "country": "SV",
    "longitude": -88.9053,
    "sick": 3780,
    "invisible": false
  },
  {
    "lastUpdated": "2020-07-13T05:30:07.762Z",
    "recovered": 597,
    "infected": 1038,
    "id": "D4WkbqyUXY1pazbOxfKx",
    "pop": 144000,
    "country": "RU",
    "longitude": 153.915,
    "name": "Magadan Oblast",
    "latitude": 62.6643,
    "dead": 4,
    "sick": 437,
    "invisible": false
  },
  {
    "recovered": 1673,
    "infected": 2974,
    "id": "DAp3PFow4BuCMYWWTo3i",
    "pop": 1078000,
    "country": "RU",
    "longitude": 82.6765,
    "name": "Tomsk Oblast",
    "latitude": 58.897,
    "dead": 23,
    "lastUpdated": "2020-07-13T05:30:07.761Z",
    "sick": 1278,
    "invisible": false
  },
  {
    "name": "Armenia",
    "latitude": 40.259003,
    "dead": 565,
    "lastUpdated": "2020-07-13T05:46:03.047Z",
    "recovered": 19633,
    "infected": 31969,
    "id": "DCJCtZoBTWQ4mzdDNljD",
    "pop": 2973000,
    "country": "AM",
    "longitude": 44.818474,
    "sick": 11771,
    "invisible": false
  },
  {
    "id": "DJJraANgQbEqz1wBBtZz",
    "pop": 1278000,
    "country": "CO",
    "longitude": -73.368,
    "name": "Boyacá",
    "latitude": 5.535,
    "dead": 14,
    "lastUpdated": "2020-07-13T05:45:07.588Z",
    "recovered": 278,
    "infected": 492,
    "sick": 200,
    "invisible": false
  },
  {
    "lastUpdated": "2020-07-13T05:30:07.760Z",
    "recovered": 2741,
    "infected": 3829,
    "id": "DKwy7USk22oXUQGEvO42",
    "pop": 834000,
    "country": "RU",
    "longitude": 44.0684,
    "name": "Mordovia",
    "latitude": 54.2369,
    "dead": 29,
    "sick": 1059,
    "invisible": false
  },
  {
    "name": "North West",
    "latitude": 53.6221,
    "dead": 0,
    "lastUpdated": "2020-07-13T05:43:18.087Z",
    "recovered": 0,
    "infected": 43463,
    "state": "EN",
    "id": "DPwBt2aJuwF0O71vwfM9",
    "pop": 7300000,
    "country": "GB",
    "longitude": -2.5945,
    "sick": 43463,
    "invisible": false
  },
  {
    "lastUpdated": "2020-07-13T05:46:03.068Z",
    "recovered": 137,
    "infected": 150,
    "id": "DZyTD0Mu5WIcK6yTcJ91",
    "pop": 65440,
    "country": "BM",
    "longitude": -64.75737,
    "name": "Bermuda",
    "latitude": 32.3213844,
    "dead": 9,
    "sick": 4,
    "invisible": false
  },
  {
    "id": "DaMrRSIGJXIG36nW0Pnc",
    "pop": 35446,
    "country": "TC",
    "longitude": -71.7979,
    "name": "Turks and Caicos",
    "latitude": 21.694,
    "dead": 2,
    "lastUpdated": "2020-07-13T05:46:03.068Z",
    "recovered": 11,
    "infected": 71,
    "sick": 58,
    "invisible": false
  },
  {
    "name": "Castilla La Mancha",
    "latitude": 39.2796,
    "dead": 3029,
    "lastUpdated": "2020-07-12T22:43:12.341Z",
    "recovered": 6392,
    "infected": 26977,
    "state": "CM",
    "id": "Dbng0NBTH41EEwBxhMzE",
    "pop": 2035000,
    "country": "ES",
    "longitude": -3.0977,
    "sick": 17556,
    "invisible": false
  },
  {
    "lastUpdated": "2020-07-13T05:33:01.669Z",
    "recovered": 0,
    "infected": 2048,
    "id": "DcQ3D0WkacXEbv6iznRB",
    "pop": 3361000,
    "country": "PL",
    "longitude": 20.006,
    "name": "Malopolskie",
    "latitude": 50.023,
    "dead": 45,
    "sick": 2003,
    "invisible": false
  },
  {
    "longitude": 113.551262,
    "name": "Macao",
    "latitude": 22.192039,
    "dead": 0,
    "lastUpdated": "2020-07-13T05:46:03.069Z",
    "recovered": 45,
    "infected": 46,
    "id": "DdBt8qsG6A3g92oOR3ow",
    "pop": 622567,
    "country": "MO",
    "sick": 1,
    "invisible": false
  },
  {
    "recovered": 45,
    "infected": 295,
    "id": "Dh0O1vmhrVfmsCsfZCUg",
    "pop": 2651000,
    "country": "IN",
    "longitude": 91.3662,
    "name": "Meghalaya",
    "latitude": 25.467,
    "dead": 2,
    "lastUpdated": "2020-07-13T05:41:01.790Z",
    "sick": 248,
    "invisible": false
  },
  {
    "latitude": 47.6853,
    "dead": 163,
    "lastUpdated": "2020-07-13T05:30:07.717Z",
    "recovered": 8073,
    "infected": 10726,
    "id": "DqzAhNFTJFQVm88ma21P",
    "pop": 4220000,
    "country": "RU",
    "longitude": 41.8259,
    "name": "Rostov Oblast",
    "sick": 2490,
    "invisible": false
  },
  {
    "country": "US",
    "longitude": -107.534868,
    "name": "Wyoming",
    "latitude": 42.962334,
    "dead": 21,
    "lastUpdated": "2020-07-13T05:47:02.272Z",
    "recovered": 0,
    "infected": 1862,
    "state": "WY",
    "id": "DrGzziUglmBognCGY7R2",
    "pop": 577737,
    "sick": 1841,
    "invisible": false
  },
  {
    "latitude": 37.9838,
    "dead": 193,
    "lastUpdated": "2020-07-13T05:46:03.054Z",
    "recovered": 1374,
    "infected": 3803,
    "id": "Dtr1lap1RpJpXJdXGJiW",
    "pop": 10740000,
    "country": "GR",
    "longitude": 23.7275,
    "name": "Greece",
    "sick": 2236,
    "invisible": false
  },
  {
    "latitude": 58.8232,
    "dead": 96,
    "lastUpdated": "2020-07-13T05:30:07.722Z",
    "recovered": 3340,
    "infected": 4403,
    "id": "E8vIyXLVNtcY9dxLHICp",
    "pop": 2623000,
    "country": "RU",
    "longitude": 56.5872,
    "name": "Perm Krai",
    "sick": 967,
    "invisible": false
  },
  {
    "latitude": 56.9634,
    "dead": 19,
    "lastUpdated": "2020-07-13T05:30:07.760Z",
    "recovered": 2478,
    "infected": 4035,
    "id": "EHKZ6ivhrJUs3XqNDBOw",
    "pop": 3692000,
    "country": "RU",
    "longitude": 66.9483,
    "name": "Tyumen Oblast",
    "sick": 1538,
    "invisible": false
  },
  {
    "longitude": 121.563698,
    "name": "Taiwan",
    "latitude": 25.03841,
    "dead": 7,
    "lastUpdated": "2020-07-13T05:46:03.066Z",
    "recovered": 438,
    "infected": 451,
    "id": "EKTfs8e7M6DXzI1HqyyX",
    "pop": 23780000,
    "country": "TW",
    "sick": 6,
    "invisible": false
  },
  {
    "name": "Costa Rica",
    "latitude": 10.327273,
    "dead": 30,
    "lastUpdated": "2020-07-13T05:46:03.049Z",
    "recovered": 2239,
    "infected": 7596,
    "id": "EQzJvzVHKjs8kLmK7BMu",
    "pop": 4906000,
    "country": "CR",
    "longitude": -84.387618,
    "sick": 5327,
    "invisible": false
  },
  {
    "latitude": 22.2587,
    "dead": 2046,
    "lastUpdated": "2020-07-13T05:41:01.788Z",
    "recovered": 29198,
    "infected": 41906,
    "id": "ERwk9R9en4m9WbdoMbIg",
    "pop": 62700000,
    "country": "IN",
    "longitude": 71.1924,
    "name": "Gujarat",
    "sick": 10662,
    "invisible": false
  },
  {
    "lastUpdated": "2020-07-13T05:30:07.719Z",
    "recovered": 4536,
    "infected": 6988,
    "id": "EVMBsgCJedjHy91mDYEC",
    "pop": 1155000,
    "country": "RU",
    "longitude": 42.5884,
    "name": "Arkhangelsk Oblast",
    "latitude": 63.2853,
    "dead": 104,
    "sick": 2348,
    "invisible": false
  },
  {
    "id": "Esl5UlCVB9s8pmGB5Ofr",
    "pop": 1055000,
    "country": "IN",
    "longitude": 76.7794,
    "name": "Chandigarh",
    "latitude": 30.7333,
    "dead": 8,
    "lastUpdated": "2020-07-13T05:41:01.789Z",
    "recovered": 417,
    "infected": 559,
    "sick": 134,
    "invisible": false
  },
  {
    "latitude": 51.24,
    "dead": 20,
    "lastUpdated": "2020-07-13T05:33:01.671Z",
    "recovered": 0,
    "infected": 814,
    "id": "Esy1La2CxwH5uB8bGVWZ",
    "pop": 2148000,
    "country": "PL",
    "longitude": 22.653,
    "name": "Lubelskie",
    "sick": 794,
    "invisible": false
  },
  {
    "name": "Puerto Rico",
    "alwaysShow": true,
    "dead": 167,
    "latitude": 18.200178,
    "infected": 9654,
    "recovered": 0,
    "pop": 3195000,
    "country": "US",
    "lastUpdated": "2020-07-13T05:47:02.273Z",
    "state": "PR",
    "id": "F4rPrEVGAIMM5rfPEMv4",
    "longitude": -66.664513,
    "sick": 9487,
    "invisible": false
  },
  {
    "longitude": -74.058655,
    "name": "Cundinamarca",
    "latitude": 4.862437,
    "dead": 95,
    "lastUpdated": "2020-07-13T05:45:07.587Z",
    "recovered": 2028,
    "infected": 4197,
    "id": "F7MED5VwEhi3JvJu6KjB",
    "pop": 2919000,
    "country": "CO",
    "sick": 2074,
    "invisible": false
  },
  {
    "name": "Comoros",
    "latitude": -11.6455,
    "dead": 7,
    "lastUpdated": "2020-07-13T05:46:03.067Z",
    "recovered": 296,
    "infected": 317,
    "id": "F8LnLqvuWoWh8awBqiw1",
    "pop": 832322,
    "country": "KM",
    "longitude": 43.3333,
    "sick": 14,
    "invisible": false
  },
  {
    "id": "FCDmlmnIIswd8bQiUjfN",
    "pop": 35530000,
    "country": "AF",
    "longitude": 67.709953,
    "name": "Afghanistan",
    "latitude": 33.93911,
    "dead": 1010,
    "lastUpdated": "2020-07-13T05:46:03.047Z",
    "recovered": 21216,
    "infected": 34451,
    "sick": 12225,
    "invisible": false
  },
  {
    "recovered": 575,
    "infected": 582,
    "id": "FErOU1m4Tj7jIkRam3vF",
    "pop": 30480000,
    "country": "CN",
    "longitude": 106.912254,
    "name": "Chongqing",
    "latitude": 29.431585,
    "dead": 6,
    "lastUpdated": "2020-07-13T05:08:04.764Z",
    "sick": 1,
    "invisible": false
  },
  {
    "country": "KW",
    "longitude": 47.481766,
    "name": "Kuwait",
    "latitude": 29.311661,
    "dead": 390,
    "lastUpdated": "2020-07-13T05:46:03.046Z",
    "recovered": 44610,
    "infected": 54894,
    "id": "FZsUkhxBEgqsPb4eO0PN",
    "pop": 4137000,
    "sick": 9894,
    "invisible": false
  },
  {
    "longitude": -37.0717,
    "name": "Sergipe",
    "latitude": -10.9111,
    "dead": 984,
    "lastUpdated": "2020-07-13T05:27:01.915Z",
    "recovered": 0,
    "infected": 37631,
    "state": "SE",
    "id": "FboWeolpM62SZCLwdilT",
    "pop": 2278308,
    "country": "BR",
    "sick": 36647,
    "invisible": false
  },
  {
    "country": "IN",
    "longitude": 78.6569,
    "name": "Tamil Nadu",
    "latitude": 11.1271,
    "dead": 1966,
    "lastUpdated": "2020-07-13T05:41:01.787Z",
    "recovered": 89532,
    "infected": 138470,
    "id": "FeS45oMNC27pI17F0xEV",
    "pop": 67860000,
    "sick": 46972,
    "invisible": false
  },
  {
    "recovered": 21459,
    "infected": 44532,
    "id": "FuiVEJvWb0QMCpxJ3563",
    "pop": 10770000,
    "country": "DO",
    "longitude": -70.430399,
    "name": "Dominican Republic",
    "latitude": 18.947829,
    "dead": 897,
    "lastUpdated": "2020-07-13T05:46:03.047Z",
    "sick": 22176,
    "invisible": false
  },
  {
    "recovered": 22482,
    "infected": 34671,
    "id": "FyC551oNwmENxbr9Yght",
    "pop": 35190000,
    "country": "IN",
    "longitude": 79.0193,
    "name": "Telengana",
    "latitude": 18.1124,
    "dead": 356,
    "lastUpdated": "2020-07-13T05:41:01.788Z",
    "sick": 11833,
    "invisible": false
  },
  {
    "latitude": 48.669,
    "dead": 28,
    "lastUpdated": "2020-07-13T05:46:03.056Z",
    "recovered": 1493,
    "infected": 1901,
    "id": "FzIDXoqWnTI3nUfhPyT2",
    "pop": 5450000,
    "country": "SK",
    "longitude": 19.699,
    "name": "Slovakia",
    "sick": 380,
    "invisible": false
  },
  {
    "recovered": 161917,
    "infected": 251625,
    "id": "GAp7Wb6IMhdgbvEtMza9",
    "pop": 197000000,
    "country": "PK",
    "longitude": 69.345116,
    "name": "Pakistan",
    "latitude": 30.37532,
    "dead": 5266,
    "lastUpdated": "2020-07-13T05:46:03.044Z",
    "sick": 84442,
    "invisible": false
  },
  {
    "longitude": 75.3412,
    "name": "Punjab",
    "latitude": 31.1471,
    "dead": 199,
    "lastUpdated": "2020-07-13T05:41:01.789Z",
    "recovered": 5392,
    "infected": 7821,
    "id": "GGru8cG08mANO8XDDUtZ",
    "pop": 27980000,
    "country": "IN",
    "sick": 2230,
    "invisible": false
  },
  {
    "longitude": 53.847816,
    "name": "United Arab Emirates",
    "latitude": 23.424076,
    "dead": 333,
    "lastUpdated": "2020-07-13T05:46:03.046Z",
    "recovered": 45140,
    "infected": 54854,
    "id": "GHzBIsHy2GiBc5JV2HMs",
    "pop": 9400000,
    "country": "AE",
    "sick": 9381,
    "invisible": false
  },
  {
    "latitude": 37.0902,
    "dead": 3,
    "lastUpdated": "2020-07-13T05:47:02.273Z",
    "recovered": 0,
    "infected": 103,
    "id": "GLViSIjDjwvptOphedAu",
    "country": "US",
    "longitude": -95.7129,
    "invisible": true,
    "name": "Grand Princess",
    "sick": 100
  },
  {
    "name": "London",
    "latitude": 51.5074,
    "dead": 0,
    "lastUpdated": "2020-07-13T05:43:18.086Z",
    "recovered": 0,
    "infected": 34152,
    "state": "EN",
    "id": "GPtoS0Yy2EnNafpmmTqY",
    "pop": 10100000,
    "country": "GB",
    "longitude": -0.1278,
    "sick": 34152,
    "invisible": false
  },
  {
    "longitude": -119.339046,
    "name": "California",
    "latitude": 36.621981,
    "dead": 7051,
    "lastUpdated": "2020-07-13T05:47:02.258Z",
    "recovered": 0,
    "infected": 327687,
    "state": "CA",
    "id": "Gh46r6vuaY7fbGt3IboN",
    "pop": 39560000,
    "country": "US",
    "sick": 320636,
    "invisible": false
  },
  {
    "name": "Dadra and Nagar Haveli",
    "latitude": 20.4283,
    "dead": 1,
    "lastUpdated": "2020-07-13T05:41:01.789Z",
    "recovered": 268,
    "infected": 499,
    "id": "GljWeVnun6o9DeW6rlEm",
    "pop": 343709,
    "country": "IN",
    "longitude": 72.8397,
    "sick": 230,
    "invisible": false
  },
  {
    "latitude": 35.87189,
    "dead": 422,
    "lastUpdated": "2020-07-13T05:47:02.269Z",
    "recovered": 0,
    "infected": 20235,
    "state": "OK",
    "id": "GpF8ULuKOQiFDCUHN44h",
    "pop": 3943000,
    "country": "US",
    "longitude": -97.145514,
    "name": "Oklahoma",
    "sick": 19813,
    "invisible": false
  },
  {
    "id": "Gr09a1wn3BnMqjQbgEun",
    "pop": 256627,
    "country": "CO",
    "longitude": -71.557,
    "name": "Arauca",
    "latitude": 6.492,
    "dead": 0,
    "lastUpdated": "2020-07-13T05:45:07.589Z",
    "recovered": 26,
    "infected": 141,
    "sick": 115,
    "invisible": false
  },
  {
    "lastUpdated": "2020-07-13T05:30:07.721Z",
    "recovered": 3438,
    "infected": 5501,
    "id": "GsecjBfopdgTOnyRgtCA",
    "pop": 1014000,
    "country": "RU",
    "longitude": 41.483,
    "name": "Ivanovo Oblast",
    "latitude": 57.1057,
    "dead": 58,
    "sick": 2005,
    "invisible": false
  },
  {
    "latitude": 46.5,
    "dead": 292,
    "lastUpdated": "2020-07-13T05:31:02.351Z",
    "recovered": 2286,
    "infected": 2666,
    "state": "BA",
    "id": "Gzx6GX1qhBm714BkEC6l",
    "pop": 520891,
    "country": "IT",
    "longitude": 11.35,
    "name": "P.A. Bolzano",
    "sick": 88,
    "invisible": false
  },
  {
    "latitude": 42.83263,
    "dead": 1,
    "lastUpdated": "2020-07-13T05:08:04.682Z",
    "recovered": 237,
    "infected": 249,
    "id": "H3JeVigVbo5CSYfZG4WI",
    "pop": 24710000,
    "country": "CN",
    "longitude": 113.750972,
    "name": "Inner Mongolia",
    "sick": 11,
    "invisible": false
  },
  {
    "name": "Nevada",
    "latitude": 39.74536,
    "dead": 593,
    "lastUpdated": "2020-07-13T05:47:02.267Z",
    "recovered": 0,
    "infected": 27683,
    "state": "NV",
    "id": "H3bDg4eV30up4WWrIDAS",
    "pop": 3034000,
    "country": "US",
    "longitude": -116.724977,
    "sick": 27090,
    "invisible": false
  },
  {
    "lastUpdated": "2020-07-13T05:27:01.911Z",
    "recovered": 0,
    "infected": 136785,
    "state": "CE",
    "id": "HEMWNnFxeFEoeOCBOLJD",
    "pop": 9075649,
    "country": "BR",
    "longitude": -38.526669,
    "name": "Ceará",
    "latitude": -3.731862,
    "dead": 6868,
    "sick": 129917,
    "invisible": false
  },
  {
    "recovered": 15411,
    "infected": 38843,
    "id": "HN5mGmxlqlSeFSNeu1K5",
    "pop": 64060000,
    "country": "IN",
    "longitude": 75.7139,
    "name": "Karnataka",
    "latitude": 15.3173,
    "dead": 686,
    "lastUpdated": "2020-07-13T05:41:01.788Z",
    "sick": 22746,
    "invisible": false
  },
  {
    "lastUpdated": "2020-07-13T05:46:03.068Z",
    "recovered": 76,
    "infected": 84,
    "id": "HRDpwyxpqW9RN0xLFyNu",
    "pop": 807610,
    "country": "BT",
    "longitude": 90.4336,
    "name": "Bhutan",
    "latitude": 27.5142,
    "dead": 0,
    "sick": 8,
    "invisible": false
  },
  {
    "lastUpdated": "2020-07-13T05:46:03.048Z",
    "recovered": 7852,
    "infected": 13193,
    "id": "HRTA10dtrruDEwjJEGMp",
    "pop": 32390000,
    "country": "UZ",
    "longitude": 64.5853,
    "name": "Uzbekistan",
    "latitude": 41.3775,
    "dead": 61,
    "sick": 5280,
    "invisible": false
  },
  {
    "longitude": -105.576255,
    "name": "New Mexico",
    "latitude": 34.138916,
    "dead": 545,
    "lastUpdated": "2020-07-13T05:47:02.272Z",
    "recovered": 0,
    "infected": 15028,
    "state": "NM",
    "id": "HSSFomRju0doHhWgW8On",
    "pop": 2095000,
    "country": "US",
    "sick": 14483,
    "invisible": false
  },
  {
    "country": "CL",
    "longitude": -72.3311,
    "name": "Los Ríos",
    "latitude": -40.231,
    "dead": 11,
    "lastUpdated": "2020-07-13T05:21:05.126Z",
    "recovered": 0,
    "infected": 766,
    "id": "HZkACHjW7NlYjg8vEMj2",
    "pop": 412812,
    "sick": 755,
    "invisible": false
  },
  {
    "country": "DE",
    "longitude": 12.4296,
    "name": "Mecklenburg-Vorpommern",
    "latitude": 53.6127,
    "dead": 21,
    "lastUpdated": "2020-07-13T05:30:24.857Z",
    "recovered": 782,
    "infected": 809,
    "state": "MV",
    "id": "He1gSS1v50t06i3YrqvB",
    "pop": 1635000,
    "sick": 6,
    "invisible": false
  },
  {
    "state": "65",
    "id": "I9EqrZfbPnkioNU4wZGz",
    "pop": 1315000,
    "country": "IT",
    "longitude": 13.75,
    "name": "Abruzzo",
    "latitude": 42.25,
    "dead": 465,
    "lastUpdated": "2020-07-13T05:31:02.350Z",
    "recovered": 2713,
    "infected": 3328,
    "sick": 150,
    "invisible": false
  },
  {
    "id": "IAX0OQLVnUwU7FX0ENF1",
    "pop": 113460000,
    "country": "CN",
    "longitude": 113.373448,
    "name": "Guangdong",
    "latitude": 23.363855,
    "dead": 8,
    "lastUpdated": "2020-07-13T05:08:04.683Z",
    "recovered": 1634,
    "infected": 1650,
    "sick": 8,
    "invisible": false
  },
  {
    "latitude": 33.875408,
    "dead": 22,
    "lastUpdated": "2020-07-13T05:08:04.764Z",
    "recovered": 1254,
    "infected": 1276,
    "id": "IFuMrMvSjoiX5agYvllh",
    "pop": 94000000,
    "country": "CN",
    "longitude": 113.484016,
    "name": "Henan",
    "sick": 0,
    "invisible": false
  },
  {
    "longitude": -8.16667,
    "name": "Algarve",
    "latitude": 37.2,
    "dead": 15,
    "lastUpdated": "2020-07-13T05:23:01.681Z",
    "recovered": 0,
    "infected": 704,
    "id": "IHqRHC8K3OZPN8gniM7V",
    "pop": 451000,
    "country": "PT",
    "sick": 689,
    "invisible": false
  },
  {
    "latitude": 3.883,
    "dead": 113,
    "lastUpdated": "2020-07-13T05:45:07.588Z",
    "recovered": 1088,
    "infected": 1712,
    "id": "IKWjRUo0SYgHQKdWjTvq",
    "pop": 333194,
    "country": "CO",
    "longitude": -77.0197,
    "name": "Buenaventura D.E.",
    "sick": 511,
    "invisible": false
  },
  {
    "name": "East Midlands",
    "latitude": 52.87,
    "dead": 0,
    "lastUpdated": "2020-07-13T05:43:18.086Z",
    "recovered": 0,
    "infected": 21930,
    "state": "EN",
    "id": "INyu1R48Ppv8cfW4Nuz4",
    "pop": 4811000,
    "country": "GB",
    "longitude": -0.995,
    "sick": 21930,
    "invisible": false
  },
  {
    "id": "ISRKMzEDojyrZ9iyWwex",
    "pop": 1342600,
    "country": "MX",
    "longitude": -102.317,
    "name": "Aguascalientes",
    "latitude": 22.017,
    "dead": 204,
    "lastUpdated": "2020-07-13T05:32:02.468Z",
    "recovered": 0,
    "infected": 3718,
    "sick": 3514,
    "invisible": false
  },
  {
    "recovered": 0,
    "infected": 19357,
    "id": "IdKbgzgKLpjBFh4UPOwu",
    "pop": 5321300,
    "country": "MX",
    "longitude": -100.316116,
    "name": "Nuevo León",
    "latitude": 25.686613,
    "dead": 613,
    "lastUpdated": "2020-07-13T05:32:02.468Z",
    "sick": 18744,
    "invisible": false
  },
  {
    "name": "Chihuahua",
    "latitude": 28.632996,
    "dead": 742,
    "lastUpdated": "2020-07-13T05:32:02.466Z",
    "recovered": 0,
    "infected": 5570,
    "id": "IhhiYI6T0TX4CYVPcnmH",
    "pop": 3826900,
    "country": "MX",
    "longitude": -106.069099,
    "sick": 4828,
    "invisible": false
  },
  {
    "latitude": -36.7,
    "dead": 40,
    "lastUpdated": "2020-07-13T05:21:05.126Z",
    "recovered": 0,
    "infected": 2965,
    "id": "ImnOiVx9Cb8Nw7cbRcQ7",
    "pop": 480600,
    "country": "CL",
    "longitude": -72.57,
    "name": "Ñuble",
    "sick": 2925,
    "invisible": false
  },
  {
    "country": "HT",
    "longitude": -73.0513,
    "name": "Haiti",
    "latitude": 19.0558,
    "dead": 139,
    "lastUpdated": "2020-07-13T05:46:03.049Z",
    "recovered": 2924,
    "infected": 6727,
    "id": "InZ38sIqyK7FN7XAOZoX",
    "pop": 10980000,
    "sick": 3664,
    "invisible": false
  },
  {
    "latitude": 32.528564,
    "dead": 3001,
    "lastUpdated": "2020-07-13T05:47:02.265Z",
    "recovered": 0,
    "infected": 116926,
    "state": "GA",
    "id": "IvQkDJkTAsoIqPRAU25n",
    "pop": 10520000,
    "country": "US",
    "longitude": -83.280125,
    "name": "Georgia (US)",
    "sick": 113925,
    "invisible": false
  },
  {
    "country": "NZ",
    "longitude": 172.488081,
    "name": "New Zealand",
    "latitude": -42.8285,
    "dead": 22,
    "lastUpdated": "2020-07-13T05:46:03.057Z",
    "recovered": 1497,
    "infected": 1544,
    "id": "IvVhpOoGpH6JVkGyUhXN",
    "pop": 4794000,
    "sick": 25,
    "invisible": false
  },
  {
    "country": "IN",
    "longitude": 94.7278,
    "name": "Arunachal Pradesh",
    "latitude": 28.218,
    "dead": 2,
    "lastUpdated": "2020-07-13T05:41:01.790Z",
    "recovered": 138,
    "infected": 360,
    "id": "IwYKiIVY18NGwdGQFGWW",
    "pop": 1255000,
    "sick": 220,
    "invisible": false
  },
  {
    "recovered": 2671,
    "infected": 9465,
    "id": "J3mZXlfEnnJx4CDZLvRG",
    "pop": 28870000,
    "country": "VE",
    "longitude": -66.5897,
    "name": "Venezuela",
    "latitude": 6.4238,
    "dead": 89,
    "lastUpdated": "2020-07-13T05:46:03.049Z",
    "sick": 6705,
    "invisible": false
  },
  {
    "id": "JEMCwkwXK39jd1lZ7VgJ",
    "pop": 107932,
    "country": "CO",
    "longitude": -72.633,
    "name": "Guaviare",
    "latitude": 2.567,
    "dead": 0,
    "lastUpdated": "2020-07-13T05:45:07.589Z",
    "recovered": 35,
    "infected": 42,
    "sick": 7,
    "invisible": false
  },
  {
    "name": "Adygea",
    "latitude": 44.8229,
    "dead": 14,
    "lastUpdated": "2020-07-13T05:30:07.762Z",
    "recovered": 1734,
    "infected": 2242,
    "id": "JOJVBvOnsLDJPVeYJaI2",
    "pop": 453000,
    "country": "RU",
    "longitude": 40.1754,
    "sick": 494,
    "invisible": false
  },
  {
    "latitude": 35.1264,
    "dead": 19,
    "lastUpdated": "2020-07-13T05:46:03.058Z",
    "recovered": 839,
    "infected": 1021,
    "id": "JQByE4l2OA6sGOqIcWrM",
    "pop": 1170000,
    "country": "CY",
    "longitude": 33.4299,
    "name": "Cyprus",
    "sick": 163,
    "invisible": false
  },
  {
    "latitude": 25.0961,
    "dead": 125,
    "lastUpdated": "2020-07-13T05:41:01.788Z",
    "recovered": 11953,
    "infected": 16305,
    "id": "JR7hOGked7CZtIs2nCV5",
    "pop": 99020000,
    "country": "IN",
    "longitude": 85.3131,
    "name": "Bihar",
    "sick": 4227,
    "invisible": false
  },
  {
    "recovered": 4214,
    "infected": 29355,
    "id": "JUWE6bG3b5oL7fKQMSvv",
    "pop": 17250000,
    "country": "GT",
    "longitude": -90.522713,
    "name": "Guatemala",
    "latitude": 14.628434,
    "dead": 1219,
    "lastUpdated": "2020-07-13T05:46:03.047Z",
    "sick": 23922,
    "invisible": false
  },
  {
    "longitude": 6.1296,
    "name": "Luxembourg",
    "latitude": 49.8153,
    "dead": 111,
    "lastUpdated": "2020-07-13T05:46:03.053Z",
    "recovered": 4086,
    "infected": 4925,
    "id": "JcFsHSn2WvZ5LJW42ovG",
    "pop": 602005,
    "country": "LU",
    "sick": 728,
    "invisible": false
  },
  {
    "id": "JmOyaFe25yZCIV64JbZj",
    "pop": 2049000,
    "country": "CO",
    "longitude": -74.167,
    "name": "Bolívar",
    "latitude": 8.8,
    "dead": 61,
    "lastUpdated": "2020-07-13T05:45:07.588Z",
    "recovered": 601,
    "infected": 1349,
    "sick": 687,
    "invisible": false
  },
  {
    "recovered": 0,
    "infected": 10881,
    "id": "Jp9ePErcc8i1aOozEAMf",
    "pop": 3648100,
    "country": "MX",
    "longitude": -115.783,
    "name": "Baja California",
    "latitude": 31.4,
    "dead": 2191,
    "lastUpdated": "2020-07-13T05:32:02.466Z",
    "sick": 8690,
    "invisible": false
  },
  {
    "recovered": 360,
    "infected": 1595,
    "id": "Jr8syCB0lydmPDXw8Q6N",
    "pop": 1786500,
    "country": "CO",
    "longitude": -75.8814316,
    "name": "Córdoba",
    "latitude": 8.7479801,
    "dead": 172,
    "lastUpdated": "2020-07-13T05:45:07.588Z",
    "sick": 1063,
    "invisible": false
  },
  {
    "recovered": 513,
    "infected": 720,
    "id": "JrBbirlBKGdWSdcDt7PF",
    "pop": 7798000,
    "country": "TG",
    "longitude": 0.8248,
    "name": "Togo",
    "latitude": 8.6195,
    "dead": 15,
    "lastUpdated": "2020-07-13T05:46:03.065Z",
    "sick": 192,
    "invisible": false
  },
  {
    "id": "JzZ8sbqzjutThVjkPKPL",
    "pop": 7050000,
    "country": "BG",
    "longitude": 25.4858,
    "name": "Bulgaria",
    "latitude": 42.7339,
    "dead": 268,
    "lastUpdated": "2020-07-13T05:46:03.049Z",
    "recovered": 3319,
    "infected": 7252,
    "sick": 3665,
    "invisible": false
  },
  {
    "recovered": 0,
    "infected": 858,
    "id": "KGrK7gafkeWjmU6sHQd2",
    "pop": 1263000,
    "country": "PL",
    "longitude": 20.709,
    "name": "Świętokrzyskie",
    "latitude": 50.823,
    "dead": 41,
    "lastUpdated": "2020-07-13T05:33:01.671Z",
    "sick": 817,
    "invisible": false
  },
  {
    "latitude": 59.0077,
    "dead": 157,
    "lastUpdated": "2020-07-13T05:30:07.717Z",
    "recovered": 9896,
    "infected": 15909,
    "id": "KLBR5QHW6DePaGcFxlqH",
    "pop": 4325000,
    "country": "RU",
    "longitude": 61.9316,
    "name": "Sverdlovsk Oblast",
    "sick": 5856,
    "invisible": false
  },
  {
    "state": "42",
    "id": "KLXicxFogWnu0dLp4bNK",
    "pop": 1557000,
    "country": "IT",
    "longitude": 8.833,
    "name": "Liguria",
    "latitude": 44.5,
    "dead": 1559,
    "lastUpdated": "2020-07-13T05:31:02.350Z",
    "recovered": 8233,
    "infected": 10031,
    "sick": 239,
    "invisible": false
  },
  {
    "latitude": 56.4385,
    "dead": 26,
    "lastUpdated": "2020-07-13T05:30:07.761Z",
    "recovered": 2892,
    "infected": 3296,
    "id": "KUnAVGJH6fLwFetE8A2x",
    "pop": 682000,
    "country": "RU",
    "longitude": 47.9608,
    "name": "Mari El Republic",
    "sick": 378,
    "invisible": false
  },
  {
    "id": "KpOz3WmiZkrXUMlUJNlV",
    "pop": 1201000,
    "country": "CO",
    "longitude": -73.2532,
    "name": "Cesar",
    "latitude": 10.4631,
    "dead": 34,
    "lastUpdated": "2020-07-13T05:45:07.588Z",
    "recovered": 840,
    "infected": 1505,
    "sick": 631,
    "invisible": false
  },
  {
    "longitude": 11,
    "name": "Toscana",
    "latitude": 43.4167,
    "dead": 1122,
    "lastUpdated": "2020-07-13T05:31:02.351Z",
    "recovered": 8869,
    "infected": 10322,
    "state": "52",
    "id": "KrLrJbpDqqiXgUPGCCW9",
    "pop": 3737000,
    "country": "IT",
    "sick": 331,
    "invisible": false
  },
  {
    "latitude": 7.873054,
    "dead": 11,
    "lastUpdated": "2020-07-13T05:46:03.055Z",
    "recovered": 1981,
    "infected": 2617,
    "id": "KsWzJO06cf0d6LJ4ZNh9",
    "pop": 21440000,
    "country": "LK",
    "longitude": 80.771797,
    "name": "Sri Lanka",
    "sick": 625,
    "invisible": false
  },
  {
    "latitude": 15.9129,
    "dead": 328,
    "lastUpdated": "2020-07-13T05:41:01.788Z",
    "recovered": 15412,
    "infected": 29168,
    "id": "KtQIo2DoqjELtPAlyDVO",
    "pop": 49670000,
    "country": "IN",
    "longitude": 79.74,
    "name": "Andhra Pradesh",
    "sick": 13428,
    "invisible": false
  },
  {
    "latitude": 18.0708,
    "dead": 3,
    "lastUpdated": "2020-07-13T05:46:03.069Z",
    "recovered": 37,
    "infected": 43,
    "id": "LBUtrLDKJiupXjlUNTUe",
    "pop": 32125,
    "country": "FR",
    "longitude": -63.0501,
    "name": "Saint-Martin",
    "alwaysShow": true,
    "sick": 3,
    "invisible": false
  },
  {
    "latitude": 52.7856,
    "dead": 75,
    "lastUpdated": "2020-07-13T05:30:07.721Z",
    "recovered": 3596,
    "infected": 5020,
    "id": "LD8TNScpLrLRvgpQAn9T",
    "pop": 747000,
    "country": "RU",
    "longitude": 36.9242,
    "name": "Oryol Oblast",
    "sick": 1349,
    "invisible": false
  },
  {
    "longitude": 9.5554,
    "name": "Liechtenstein",
    "latitude": 47.166,
    "dead": 1,
    "lastUpdated": "2020-07-13T05:46:03.068Z",
    "recovered": 81,
    "infected": 84,
    "id": "LTGEU2E9MFkrCcFhZYVk",
    "pop": 38557,
    "country": "LI",
    "sick": 2,
    "invisible": false
  },
  {
    "id": "LU2QWt5ao8IJa8evNYVV",
    "pop": 12720000,
    "country": "GN",
    "longitude": -9.6966,
    "name": "Guinea",
    "latitude": 9.9456,
    "dead": 37,
    "lastUpdated": "2020-07-13T05:46:03.050Z",
    "recovered": 4862,
    "infected": 6141,
    "sick": 1242,
    "invisible": false
  },
  {
    "longitude": -110.5,
    "name": "Sonora",
    "latitude": 29.6667,
    "dead": 1232,
    "lastUpdated": "2020-07-13T05:32:02.466Z",
    "recovered": 0,
    "infected": 12412,
    "id": "LYCBHrA9ms6GcxpLGPCT",
    "pop": 3062000,
    "country": "MX",
    "sick": 11180,
    "invisible": false
  },
  {
    "latitude": 3.9193051,
    "dead": 18,
    "lastUpdated": "2020-07-13T05:46:03.065Z",
    "recovered": 495,
    "infected": 741,
    "id": "LglKINHyQpYpFxjckbQ6",
    "pop": 563402,
    "country": "SR",
    "longitude": -56.0277824,
    "name": "Suriname",
    "sick": 228,
    "invisible": false
  },
  {
    "country": "CA",
    "longitude": -106.4509,
    "name": "Saskatchewan",
    "latitude": 52.9399,
    "dead": 15,
    "lastUpdated": "2020-07-13T05:37:02.469Z",
    "recovered": 757,
    "infected": 815,
    "state": "SK",
    "id": "LkIDKY0CMAqzbwBHyYCP",
    "pop": 1174000,
    "sick": 43,
    "invisible": false
  },
  {
    "latitude": 24.2155,
    "dead": 1,
    "lastUpdated": "2020-07-13T05:46:03.070Z",
    "recovered": 8,
    "infected": 10,
    "id": "LooNn6RuMiDhQnwa9svw",
    "pop": 636442,
    "country": "EH",
    "longitude": -12.8858,
    "name": "Western Sahara",
    "sick": 1,
    "invisible": false
  },
  {
    "recovered": 1063,
    "infected": 3422,
    "state": "AS",
    "id": "Lsga7AvYNnY0qQ5gEfV8",
    "pop": 1022000,
    "country": "ES",
    "longitude": -5.951843,
    "name": "Principado de Asturias",
    "latitude": 43.363129,
    "dead": 334,
    "lastUpdated": "2020-07-12T22:44:08.891Z",
    "sick": 2025,
    "invisible": false
  },
  {
    "country": "ES",
    "longitude": -6.0679,
    "name": "Extremadura",
    "latitude": 39.4937,
    "dead": 519,
    "lastUpdated": "2020-07-12T22:43:39.895Z",
    "recovered": 2652,
    "infected": 4107,
    "state": "EX",
    "id": "LuEErlF7dVKI0eJsRjFm",
    "pop": 1065000,
    "sick": 936,
    "invisible": false
  },
  {
    "country": "MX",
    "longitude": -101.2591,
    "name": "Guanajuato",
    "latitude": 21.0186,
    "dead": 796,
    "lastUpdated": "2020-07-13T05:32:02.467Z",
    "recovered": 0,
    "infected": 13855,
    "id": "M3wdiueFtwrUHiQ2rOXA",
    "pop": 5965000,
    "sick": 13059,
    "invisible": false
  },
  {
    "recovered": 0,
    "infected": 19389,
    "state": "KY",
    "id": "MC8MXFw9iXYybnF8v7e6",
    "pop": 4468000,
    "country": "US",
    "longitude": -84.27,
    "name": "Kentucky",
    "latitude": 37.8393,
    "dead": 625,
    "lastUpdated": "2020-07-13T05:47:02.271Z",
    "sick": 18764,
    "invisible": false
  },
  {
    "name": "Unknown UK region or state",
    "latitude": 55.3781,
    "dead": 40244,
    "lastUpdated": "2020-07-13T05:43:18.087Z",
    "recovered": 0,
    "infected": 8246,
    "id": "MEjlm8VYdGA28TTTnQmf",
    "country": "GB",
    "longitude": -3.436,
    "invisible": true,
    "sick": 0
  },
  {
    "country": "PT",
    "longitude": -7.7441,
    "name": "Norte",
    "latitude": 41.3006,
    "dead": 822,
    "lastUpdated": "2020-07-13T05:23:01.680Z",
    "recovered": 0,
    "infected": 18109,
    "id": "MG4e9tulLJ010SZJvbYN",
    "pop": 3689000,
    "sick": 17287,
    "invisible": false
  },
  {
    "latitude": 56.4907,
    "dead": 2490,
    "lastUpdated": "2020-07-13T05:43:18.086Z",
    "recovered": 0,
    "infected": 18359,
    "state": "SC",
    "id": "MObRYyIriHG337L8FyFC",
    "pop": 5450000,
    "country": "GB",
    "longitude": -4.2026,
    "name": "Scotland",
    "sick": 15869,
    "invisible": false
  },
  {
    "name": "Indiana",
    "latitude": 40.2672,
    "dead": 2760,
    "lastUpdated": "2020-07-13T05:47:02.266Z",
    "recovered": 0,
    "infected": 51612,
    "state": "IN",
    "id": "MOxDkmQ4wBi1CuAdVxDE",
    "pop": 6692000,
    "country": "US",
    "longitude": -86.1349,
    "sick": 48852,
    "invisible": false
  },
  {
    "latitude": 7.54,
    "dead": 84,
    "lastUpdated": "2020-07-13T05:46:03.048Z",
    "recovered": 6654,
    "infected": 12766,
    "id": "MdQOfc1gNh2DOqwSP6UV",
    "pop": 24290000,
    "country": "CI",
    "longitude": -5.5471,
    "name": "Ivory Coast",
    "sick": 6028,
    "invisible": false
  },
  {
    "longitude": 7.6616,
    "name": "Nordrhein-Westfalen",
    "latitude": 51.4332,
    "dead": 1720,
    "lastUpdated": "2020-07-13T05:30:24.858Z",
    "recovered": 41338,
    "infected": 45013,
    "state": "NW",
    "id": "MjpYq3zQyAvSQlVVYjD2",
    "pop": 17910000,
    "country": "DE",
    "sick": 1955,
    "invisible": false
  },
  {
    "recovered": 75,
    "infected": 75,
    "id": "MntmjjuHljarCdt6aIeE",
    "pop": 6301000,
    "country": "CN",
    "longitude": 105.977203,
    "name": "Ningxia",
    "latitude": 37.330509,
    "dead": 0,
    "lastUpdated": "2020-07-13T05:08:04.766Z",
    "sick": 0,
    "invisible": false
  },
  {
    "latitude": -3.20166586,
    "dead": 5289,
    "lastUpdated": "2020-07-13T05:27:01.912Z",
    "recovered": 0,
    "infected": 125714,
    "state": "PA",
    "id": "MuEB2UgkId5crsxi9zQT",
    "pop": 8513497,
    "country": "BR",
    "longitude": -52.203499186,
    "name": "Pará",
    "sick": 120425,
    "invisible": false
  },
  {
    "latitude": 52.5265,
    "dead": 19,
    "lastUpdated": "2020-07-13T05:30:07.760Z",
    "recovered": 2847,
    "infected": 4190,
    "id": "N0KGfqgROVOjAxWcd8wi",
    "pop": 1150000,
    "country": "RU",
    "longitude": 39.2032,
    "name": "Lipetsk Oblast",
    "sick": 1324,
    "invisible": false
  },
  {
    "latitude": 48.6616,
    "dead": 1893,
    "lastUpdated": "2020-07-13T05:30:24.855Z",
    "recovered": 33732,
    "infected": 36426,
    "state": "BW",
    "id": "N3XsRBwJSsNclkEf7Zz5",
    "pop": 11020000,
    "country": "DE",
    "longitude": 9.3501,
    "name": "Baden-Württemberg",
    "sick": 801,
    "invisible": false
  },
  {
    "recovered": 3115,
    "infected": 6877,
    "id": "N7c13sCQF0G789XAVazJ",
    "pop": 3507000,
    "country": "BA",
    "longitude": 17.824332,
    "name": "Bosnia and Herzegovina",
    "latitude": 44.696652,
    "dead": 221,
    "lastUpdated": "2020-07-13T05:46:03.049Z",
    "sick": 3541,
    "invisible": false
  },
  {
    "recovered": 198,
    "infected": 200,
    "id": "NBRIGIRrJB1Ry8prDNAC",
    "pop": 36500000,
    "country": "CN",
    "longitude": 111.856857,
    "name": "Shanxi",
    "latitude": 37.242565,
    "dead": 0,
    "lastUpdated": "2020-07-13T05:08:04.683Z",
    "sick": 2,
    "invisible": false
  },
  {
    "lastUpdated": "2020-07-13T05:47:02.265Z",
    "recovered": 0,
    "infected": 85730,
    "state": "NC",
    "id": "NC64Qp5kTqAfiTuR27k8",
    "pop": 10380000,
    "country": "US",
    "longitude": -79.0193,
    "name": "North Carolina",
    "latitude": 35.7596,
    "dead": 1533,
    "sick": 84197,
    "invisible": false
  },
  {
    "latitude": 52.4125,
    "dead": 177,
    "lastUpdated": "2020-07-13T05:30:24.856Z",
    "recovered": 3245,
    "infected": 3550,
    "state": "BB",
    "id": "NJjo2gfBvnbK4xatrsUz",
    "pop": 2504000,
    "country": "DE",
    "longitude": 12.5316,
    "name": "Brandenburg",
    "sick": 128,
    "invisible": false
  },
  {
    "longitude": 145.6739,
    "name": "Northern Mariana Islands",
    "alwaysShow": true,
    "dead": 2,
    "latitude": 15.0979,
    "infected": 33,
    "recovered": 0,
    "pop": 55144,
    "country": "US",
    "lastUpdated": "2020-07-13T05:47:02.273Z",
    "state": "MP",
    "id": "NLLL6pJhJSw0lrDMD4uP",
    "sick": 31,
    "invisible": false
  },
  {
    "id": "NMeZEcGToxXfpi16PfFV",
    "pop": 10080000,
    "country": "IN",
    "longitude": 79.0193,
    "name": "Uttarakhand",
    "latitude": 30.0668,
    "dead": 47,
    "lastUpdated": "2020-07-13T05:41:01.789Z",
    "recovered": 2786,
    "infected": 3537,
    "sick": 704,
    "invisible": false
  },
  {
    "latitude": 50.6521,
    "dead": 521,
    "lastUpdated": "2020-07-13T05:30:24.857Z",
    "recovered": 10288,
    "infected": 11203,
    "state": "HE",
    "id": "Nk5vPgUIXsWVfbWZf15O",
    "pop": 6243000,
    "country": "DE",
    "longitude": 9.1624,
    "name": "Hessen",
    "sick": 394,
    "invisible": false
  },
  {
    "longitude": 25.837107,
    "name": "Latvia",
    "latitude": 56.96776,
    "dead": 30,
    "lastUpdated": "2020-07-13T05:46:03.057Z",
    "recovered": 1019,
    "infected": 1173,
    "id": "NmmMKy0YqA8StHdGzB5N",
    "pop": 1920000,
    "country": "LV",
    "sick": 124,
    "invisible": false
  },
  {
    "lastUpdated": "2020-07-13T05:27:01.912Z",
    "recovered": 0,
    "infected": 72470,
    "state": "PE",
    "id": "NyGlFL1gATK1Omv9qtcC",
    "pop": 9496294,
    "country": "BR",
    "longitude": -37.946777,
    "name": "Pernambuco",
    "latitude": -8.472372,
    "dead": 5595,
    "sick": 66875,
    "invisible": false
  },
  {
    "lastUpdated": "2020-07-13T05:46:03.058Z",
    "recovered": 423,
    "infected": 1010,
    "id": "O4g88K49HKEZLFXm5gxb",
    "pop": 4732000,
    "country": "LR",
    "longitude": -9.4295,
    "name": "Liberia",
    "latitude": 6.4281,
    "dead": 51,
    "sick": 536,
    "invisible": false
  },
  {
    "recovered": 3834,
    "infected": 5821,
    "id": "O5fNOGWKosps6JTrzkpn",
    "pop": 2350000,
    "country": "RU",
    "longitude": 82.6759,
    "name": "Altai Krai",
    "latitude": 51.7936,
    "dead": 51,
    "lastUpdated": "2020-07-13T05:30:07.720Z",
    "sick": 1936,
    "invisible": false
  },
  {
    "longitude": 116.9677,
    "name": "Zabaykalsky Krai",
    "latitude": 53.0929,
    "dead": 45,
    "lastUpdated": "2020-07-13T05:30:07.760Z",
    "recovered": 2707,
    "infected": 3638,
    "id": "O6PDzAxKENYbLsLjPx2K",
    "pop": 1072000,
    "country": "RU",
    "sick": 886,
    "invisible": false
  },
  {
    "latitude": 34.003307,
    "dead": 961,
    "lastUpdated": "2020-07-13T05:47:02.266Z",
    "recovered": 0,
    "infected": 56648,
    "state": "SC",
    "id": "ONU4CK8QjViFHKg2w5if",
    "pop": 5084000,
    "country": "US",
    "longitude": -80.525613,
    "name": "South Carolina",
    "sick": 55687,
    "invisible": false
  },
  {
    "state": "MS",
    "id": "OYa0jFzdbAgo8zUsRv6q",
    "pop": 2987000,
    "country": "US",
    "longitude": -89.582775,
    "name": "Mississippi",
    "latitude": 33.51822,
    "dead": 1249,
    "lastUpdated": "2020-07-13T05:47:02.267Z",
    "recovered": 0,
    "infected": 36287,
    "sick": 35038,
    "invisible": false
  },
  {
    "latitude": 45.2538,
    "dead": 114,
    "lastUpdated": "2020-07-13T05:47:02.272Z",
    "recovered": 0,
    "infected": 3539,
    "state": "ME",
    "id": "OcXNp9kNVSwrRlG3bNVN",
    "pop": 1338000,
    "country": "US",
    "longitude": -69.4455,
    "name": "Maine",
    "sick": 3425,
    "invisible": false
  },
  {
    "longitude": 44.8203,
    "name": "Ingushetia",
    "latitude": 43.4052,
    "dead": 71,
    "lastUpdated": "2020-07-13T05:30:07.761Z",
    "recovered": 2524,
    "infected": 3302,
    "id": "OlKS5SPydHY2TedStFuf",
    "pop": 488000,
    "country": "RU",
    "sick": 707,
    "invisible": false
  },
  {
    "recovered": 215,
    "infected": 228,
    "state": "TAS",
    "id": "OnOseaqWdnuP18oruABW",
    "pop": 515000,
    "country": "AU",
    "longitude": 146.725256,
    "name": "Tasmania",
    "latitude": -41.915264,
    "dead": 13,
    "lastUpdated": "2020-07-13T05:13:21.676Z",
    "sick": 0,
    "invisible": false
  },
  {
    "lastUpdated": "2020-07-13T05:27:01.915Z",
    "recovered": 0,
    "infected": 28411,
    "state": "MT",
    "id": "P0GHFGUt1pkKTk5PM8uz",
    "pop": 3441998,
    "country": "BR",
    "longitude": -56.666668,
    "name": "Mato Grosso",
    "latitude": -16.35,
    "dead": 1047,
    "sick": 27364,
    "invisible": false
  },
  {
    "latitude": 56.1553,
    "dead": 90,
    "lastUpdated": "2020-07-13T05:30:07.721Z",
    "recovered": 3820,
    "infected": 4917,
    "id": "P2I90oqdFSoVk03AaGo4",
    "pop": 1378000,
    "country": "RU",
    "longitude": 40.5927,
    "name": "Vladimir Oblast",
    "sick": 1007,
    "invisible": false
  },
  {
    "country": "KY",
    "longitude": -81.2546,
    "name": "Cayman Islands",
    "latitude": 19.3133,
    "dead": 1,
    "lastUpdated": "2020-07-13T05:46:03.067Z",
    "recovered": 197,
    "infected": 201,
    "id": "P4mwRFLbrvT0t75uD8Wo",
    "pop": 61559,
    "sick": 3,
    "invisible": false
  },
  {
    "longitude": -62.1873665,
    "name": "Montserrat",
    "latitude": 16.7424984,
    "dead": 1,
    "lastUpdated": "2020-07-13T05:46:03.069Z",
    "recovered": 10,
    "infected": 12,
    "id": "PEDkeFMTOZpvHiSVxBk7",
    "pop": 5900,
    "country": "MS",
    "sick": 1,
    "invisible": false
  },
  {
    "id": "PEcgZGEkyhABztt1Ufgc",
    "pop": 12210000,
    "country": "RW",
    "longitude": 29.8739,
    "name": "Rwanda",
    "latitude": -1.9403,
    "dead": 4,
    "lastUpdated": "2020-07-13T05:46:03.057Z",
    "recovered": 684,
    "infected": 1337,
    "sick": 649,
    "invisible": false
  },
  {
    "lastUpdated": "2020-07-13T05:30:07.720Z",
    "recovered": 3994,
    "infected": 5921,
    "id": "PHlHdeqYd6KgxsJGfEz0",
    "pop": 4063000,
    "country": "RU",
    "longitude": 56.1645,
    "name": "Bashkortostan",
    "latitude": 54.2312,
    "dead": 19,
    "sick": 1908,
    "invisible": false
  },
  {
    "latitude": 46.7296,
    "dead": 1540,
    "lastUpdated": "2020-07-13T05:47:02.266Z",
    "recovered": 0,
    "infected": 42281,
    "state": "MN",
    "id": "PJvVYosLIhbcRZYnKX1R",
    "pop": 5611000,
    "country": "US",
    "longitude": -94.6859,
    "name": "Minnesota",
    "sick": 40741,
    "invisible": false
  },
  {
    "lastUpdated": "2020-07-13T05:47:02.264Z",
    "recovered": 0,
    "infected": 155048,
    "state": "IL",
    "id": "PTwQr9ijo0TBBsPH2sdJ",
    "pop": 12740000,
    "country": "US",
    "longitude": -89.3985,
    "name": "Illinois",
    "latitude": 40.6331,
    "dead": 7388,
    "sick": 147660,
    "invisible": false
  },
  {
    "lastUpdated": "2020-07-13T05:46:03.069Z",
    "recovered": 19,
    "infected": 22,
    "id": "PjLqCeFdyzdZNcZxMkK1",
    "pop": 178844,
    "country": "LC",
    "longitude": -60.978893,
    "name": "Saint Lucia",
    "latitude": 13.909444,
    "dead": 0,
    "sick": 3,
    "invisible": false
  },
  {
    "lastUpdated": "2020-07-12T22:43:31.041Z",
    "recovered": 3905,
    "infected": 8680,
    "state": "NC",
    "id": "PmUlsNx2uFLU797wwU39",
    "pop": 649900,
    "country": "ES",
    "longitude": -1.6761,
    "name": "Comunidad Foral de Navarra",
    "latitude": 42.6954,
    "dead": 528,
    "sick": 4247,
    "invisible": false
  },
  {
    "country": "TN",
    "longitude": 9.460554,
    "name": "Tunisia",
    "latitude": 34.201507,
    "dead": 50,
    "lastUpdated": "2020-07-13T05:46:03.057Z",
    "recovered": 1076,
    "infected": 1263,
    "id": "Pr76V4raf108uSRoEXac",
    "pop": 11530000,
    "sick": 137,
    "invisible": false
  },
  {
    "recovered": 668,
    "infected": 1351,
    "id": "PuQgOd9KWiMzGZXm11sR",
    "pop": 1367000,
    "country": "SZ",
    "longitude": 31.4659,
    "name": "Eswatini",
    "latitude": -26.5225,
    "dead": 20,
    "lastUpdated": "2020-07-13T05:46:03.057Z",
    "sick": 663,
    "invisible": false
  },
  {
    "recovered": 2329,
    "infected": 3799,
    "state": "VIC",
    "id": "Q18mrGvFWTLX2BU9SqhQ",
    "pop": 6359000,
    "country": "AU",
    "longitude": 143.94853,
    "name": "Victoria",
    "latitude": -37.009609,
    "dead": 24,
    "lastUpdated": "2020-07-13T05:13:21.676Z",
    "sick": 1446,
    "invisible": false
  },
  {
    "country": "DE",
    "longitude": 9.6961,
    "name": "Schleswig-Holstein",
    "latitude": 54.2194,
    "dead": 159,
    "lastUpdated": "2020-07-13T05:30:24.858Z",
    "recovered": 3020,
    "infected": 3213,
    "state": "SH",
    "id": "Q39XkabIYxt15mHINzTa",
    "pop": 2890000,
    "sick": 34,
    "invisible": false
  },
  {
    "latitude": -27.953491,
    "dead": 962,
    "lastUpdated": "2020-07-13T05:27:01.914Z",
    "recovered": 0,
    "infected": 39240,
    "state": "RS",
    "id": "QGpQNhuoVTUPHXvS7qcu",
    "pop": 11329605,
    "country": "BR",
    "longitude": -52.031696,
    "name": "Rio Grande do Sul",
    "sick": 38278,
    "invisible": false
  },
  {
    "id": "QGyuno7Bc4kwuvGFgMiO",
    "pop": 1231000,
    "country": "RU",
    "longitude": 46.9284,
    "name": "Chuvashia",
    "latitude": 55.5596,
    "dead": 46,
    "lastUpdated": "2020-07-13T05:30:07.720Z",
    "recovered": 3184,
    "infected": 5830,
    "sick": 2600,
    "invisible": false
  },
  {
    "country": "EE",
    "longitude": 25.013607,
    "name": "Estonia",
    "latitude": 58.595272,
    "dead": 69,
    "lastUpdated": "2020-07-13T05:46:03.056Z",
    "recovered": 1895,
    "infected": 2014,
    "id": "QR9go2hQKXjty7JHUYe4",
    "pop": 1328000,
    "sick": 50,
    "invisible": false
  },
  {
    "id": "QTafh5fpbS8abcuyEjaL",
    "pop": 840000,
    "country": "RU",
    "longitude": 54.8313,
    "name": "Komi Republic",
    "latitude": 63.8631,
    "dead": 36,
    "lastUpdated": "2020-07-13T05:30:07.722Z",
    "recovered": 2312,
    "infected": 4249,
    "sick": 1901,
    "invisible": false
  },
  {
    "longitude": -40.336,
    "name": "Espírito Santo",
    "latitude": -20.318,
    "dead": 2003,
    "lastUpdated": "2020-07-13T05:27:01.912Z",
    "recovered": 0,
    "infected": 62799,
    "state": "ES",
    "id": "QaWDLKH8SuwD0Qxq6c38",
    "pop": 3972388,
    "country": "BR",
    "sick": 60796,
    "invisible": false
  },
  {
    "latitude": 67.8443,
    "dead": 29,
    "lastUpdated": "2020-07-13T05:30:07.719Z",
    "recovered": 3971,
    "infected": 7049,
    "id": "Qh73PKA4KWeuPoqZfWXz",
    "pop": 795000,
    "country": "RU",
    "longitude": 35.0884,
    "name": "Murmansk Oblast",
    "sick": 3049,
    "invisible": false
  },
  {
    "latitude": 20.3333,
    "dead": 1019,
    "lastUpdated": "2020-07-13T05:32:02.468Z",
    "recovered": 0,
    "infected": 18968,
    "id": "Qkho455pBwx88Gohs3hL",
    "pop": 8222700,
    "country": "MX",
    "longitude": -103.6667,
    "name": "Jalisco",
    "sick": 17949,
    "invisible": false
  },
  {
    "recovered": 8,
    "infected": 11,
    "id": "QlZrE4nosm5WfdA2aCDg",
    "pop": 8251000,
    "country": "PG",
    "longitude": 143.9555,
    "name": "Papua New Guinea",
    "latitude": -6.315,
    "dead": 0,
    "lastUpdated": "2020-07-13T05:46:03.070Z",
    "sick": 3,
    "invisible": false
  },
  {
    "lastUpdated": "2020-07-13T05:47:02.273Z",
    "state": "VI",
    "id": "QqhD3YDMKXojvQY3Yu41",
    "longitude": -64.8963,
    "name": "U.S. Virgin Islands",
    "alwaysShow": true,
    "dead": 6,
    "latitude": 18.3358,
    "infected": 181,
    "recovered": 0,
    "pop": 107268,
    "country": "US",
    "sick": 175,
    "invisible": false
  },
  {
    "latitude": 15.414999,
    "dead": 0,
    "lastUpdated": "2020-07-13T05:46:03.069Z",
    "recovered": 18,
    "infected": 18,
    "id": "Qy2qW2ep5wltnYjPJBxh",
    "pop": 71937,
    "country": "DM",
    "longitude": -61.3709755,
    "name": "Dominica",
    "sick": 0,
    "invisible": false
  },
  {
    "longitude": -72.167,
    "name": "Casanare",
    "latitude": 5.167,
    "dead": 1,
    "lastUpdated": "2020-07-13T05:45:07.588Z",
    "recovered": 58,
    "infected": 118,
    "id": "R3IHMWqIUhOJJTlrmbUZ",
    "pop": 344027,
    "country": "CO",
    "sick": 59,
    "invisible": false
  },
  {
    "country": "PA",
    "longitude": -80.7821,
    "name": "Panama",
    "latitude": 8.538,
    "dead": 909,
    "lastUpdated": "2020-07-13T05:46:03.046Z",
    "recovered": 23039,
    "infected": 45633,
    "id": "R8YCgephnxTufvcPWMgx",
    "pop": 4099000,
    "sick": 21685,
    "invisible": false
  },
  {
    "latitude": 15.2,
    "dead": 774,
    "lastUpdated": "2020-07-13T05:46:03.047Z",
    "recovered": 2957,
    "infected": 28090,
    "id": "RA2SE0p2bVhqo0P2hzGY",
    "pop": 9265000,
    "country": "HN",
    "longitude": -86.2419,
    "name": "Honduras",
    "sick": 24359,
    "invisible": false
  },
  {
    "recovered": 0,
    "infected": 2467,
    "id": "RBt9RiwP7WUbMnJfD0lo",
    "pop": 224500,
    "country": "CL",
    "longitude": -70.2979202,
    "name": "Arica y Parinacota",
    "latitude": -18.4745998,
    "dead": 28,
    "lastUpdated": "2020-07-13T05:21:05.124Z",
    "sick": 2439,
    "invisible": false
  },
  {
    "latitude": 45.633331,
    "dead": 345,
    "lastUpdated": "2020-07-13T05:31:02.350Z",
    "recovered": 2911,
    "infected": 3335,
    "state": "36",
    "id": "RCrDBCdBNYzgLNr0aB2H",
    "pop": 1216000,
    "country": "IT",
    "longitude": 13.8,
    "name": "Friuli Venezia Giulia",
    "sick": 79,
    "invisible": false
  },
  {
    "longitude": -93.0977,
    "name": "Iowa",
    "latitude": 41.878,
    "dead": 750,
    "lastUpdated": "2020-07-13T05:47:02.267Z",
    "recovered": 0,
    "infected": 35363,
    "state": "IA",
    "id": "RX0KDu1AFrlCsrRso0nb",
    "pop": 3156000,
    "country": "US",
    "sick": 34613,
    "invisible": false
  },
  {
    "longitude": -74.063644,
    "name": "Bogotá D.C.",
    "latitude": 4.624335,
    "dead": 1123,
    "lastUpdated": "2020-07-13T05:45:07.584Z",
    "recovered": 17866,
    "infected": 49644,
    "id": "RZ6PCe5TZsO15JjDObwO",
    "pop": 7413000,
    "country": "CO",
    "sick": 30655,
    "invisible": false
  },
  {
    "longitude": 17.2283306,
    "name": "Libya",
    "latitude": 26.3351002,
    "dead": 39,
    "lastUpdated": "2020-07-13T05:46:03.057Z",
    "recovered": 341,
    "infected": 1433,
    "id": "RaJxbzlnRFTuj4B8IbpC",
    "pop": 6846000,
    "country": "LY",
    "sick": 1053,
    "invisible": false
  },
  {
    "recovered": 0,
    "infected": 19161,
    "state": "KS",
    "id": "Rf4uvBfP3GRDSHdZElRd",
    "pop": 2912000,
    "country": "US",
    "longitude": -98.4842,
    "name": "Kansas",
    "latitude": 39.0119,
    "dead": 296,
    "lastUpdated": "2020-07-13T05:47:02.271Z",
    "sick": 18865,
    "invisible": false
  },
  {
    "latitude": 48.6998,
    "dead": 3585,
    "lastUpdated": "2020-07-12T22:45:39.710Z",
    "recovered": 12397,
    "infected": 26360,
    "id": "RmEgf1xeclWt7XCF9oiR",
    "pop": 5518000,
    "country": "FR",
    "longitude": 6.1878,
    "name": "Grand Est",
    "sick": 10378,
    "invisible": false
  },
  {
    "lastUpdated": "2020-07-13T05:37:12.649Z",
    "recovered": 4924,
    "infected": 19512,
    "state": "WAL",
    "id": "RryHraSohKQLAsdr1dHO",
    "pop": 3644000,
    "country": "BE",
    "longitude": 4.451,
    "name": "Wallonia",
    "latitude": 50.4176,
    "dead": 3390,
    "sick": 11198,
    "invisible": false
  },
  {
    "name": "Ontario",
    "latitude": 51.2538,
    "dead": 2719,
    "lastUpdated": "2020-07-13T05:37:02.467Z",
    "recovered": 32534,
    "infected": 36723,
    "state": "ON",
    "id": "Rx4TuyMpfGb3S8wYJX0x",
    "pop": 14570000,
    "country": "CA",
    "longitude": -85.3232,
    "sick": 1470,
    "invisible": false
  },
  {
    "latitude": 41.652779,
    "dead": 2791,
    "lastUpdated": "2020-07-12T22:43:17.185Z",
    "recovered": 8716,
    "infected": 26078,
    "state": "CL",
    "id": "S8ewN4zaYp8mjtuqqOTw",
    "pop": 2408000,
    "country": "ES",
    "longitude": -4.723611,
    "name": "Castilla y León",
    "sick": 14571,
    "invisible": false
  },
  {
    "name": "Martinique",
    "alwaysShow": true,
    "latitude": 14.652027,
    "dead": 15,
    "lastUpdated": "2020-07-13T05:46:03.067Z",
    "recovered": 98,
    "infected": 255,
    "id": "SDdefnq1bc3ZNr7SpEsW",
    "pop": 376480,
    "country": "FR",
    "longitude": -61.011715,
    "sick": 142,
    "invisible": false
  },
  {
    "latitude": 7.9465,
    "dead": 139,
    "lastUpdated": "2020-07-13T05:46:03.047Z",
    "recovered": 20187,
    "infected": 24518,
    "id": "SG9VWLOV3x2JsTkXmVSz",
    "pop": 28830000,
    "country": "GH",
    "longitude": -1.0232,
    "name": "Ghana",
    "sick": 4192,
    "invisible": false
  },
  {
    "lastUpdated": "2020-07-13T05:46:03.047Z",
    "recovered": 29600,
    "infected": 32883,
    "id": "SGe9sCPayMqh6RsGFaBA",
    "pop": 8570000,
    "country": "CH",
    "longitude": 8.227512,
    "name": "Switzerland",
    "latitude": 46.818188,
    "dead": 1968,
    "sick": 1315,
    "invisible": false
  },
  {
    "latitude": 66.7613,
    "dead": 35,
    "lastUpdated": "2020-07-13T05:30:07.722Z",
    "recovered": 4115,
    "infected": 4799,
    "id": "SGhKBmmh5hss7hrNR8hK",
    "pop": 964000,
    "country": "RU",
    "longitude": 124.1238,
    "name": "Yakutia",
    "sick": 649,
    "invisible": false
  },
  {
    "name": "Quebec",
    "latitude": 46.8139,
    "dead": 5627,
    "lastUpdated": "2020-07-13T05:37:02.468Z",
    "recovered": 25862,
    "infected": 56521,
    "state": "QC",
    "id": "SHoOE3NiJgWAlDVBzwYH",
    "pop": 8485000,
    "country": "CA",
    "longitude": -71.208,
    "sick": 25032,
    "invisible": false
  },
  {
    "latitude": 42.6026,
    "dead": 102,
    "lastUpdated": "2020-07-13T05:25:01.840Z",
    "recovered": 2267,
    "infected": 4931,
    "id": "SMWvuMMuKp2QK7O2tNia",
    "pop": 1831000,
    "country": "XK",
    "longitude": 20.903,
    "name": "Kosovo",
    "sick": 2562,
    "invisible": false
  },
  {
    "longitude": 135,
    "name": "Primorsky Krai",
    "latitude": 45.0526,
    "dead": 59,
    "lastUpdated": "2020-07-13T05:30:07.721Z",
    "recovered": 3677,
    "infected": 5064,
    "id": "SNWCQwRwqYfxX8HZndTA",
    "pop": 1913000,
    "country": "RU",
    "sick": 1328,
    "invisible": false
  },
  {
    "latitude": 15.2993,
    "dead": 14,
    "lastUpdated": "2020-07-13T05:41:01.789Z",
    "recovered": 1487,
    "infected": 2453,
    "id": "SPcujsH2YlUaoAr8AiWF",
    "pop": 1817000,
    "country": "IN",
    "longitude": 74.124,
    "name": "Goa",
    "sick": 952,
    "invisible": false
  },
  {
    "lastUpdated": "2020-07-13T05:27:01.915Z",
    "recovered": 0,
    "infected": 36244,
    "state": "GO",
    "id": "SV5AMF59J61Vt4cXWLgy",
    "pop": 6921161,
    "country": "BR",
    "longitude": -48.953403,
    "name": "Goiás",
    "latitude": -16.328547,
    "dead": 849,
    "sick": 35395,
    "invisible": false
  },
  {
    "latitude": 6.181,
    "dead": 0,
    "lastUpdated": "2020-07-13T05:45:07.589Z",
    "recovered": 1,
    "infected": 1,
    "id": "SYFarIS62W0EW9bOaJmN",
    "pop": 75500,
    "country": "CO",
    "longitude": -68.436,
    "name": "Vichada",
    "sick": 0,
    "invisible": false
  },
  {
    "latitude": 39,
    "dead": 97,
    "lastUpdated": "2020-07-13T05:31:02.350Z",
    "recovered": 1062,
    "infected": 1216,
    "state": "78",
    "id": "SZdF624x0v1LlyzZjKFu",
    "pop": 1957000,
    "country": "IT",
    "longitude": 16.5,
    "name": "Calabria",
    "sick": 57,
    "invisible": false
  },
  {
    "lastUpdated": "2020-07-13T05:47:02.267Z",
    "recovered": 0,
    "infected": 21172,
    "state": "NE",
    "id": "SakhKQzKu1LRI8laqdQq",
    "pop": 1929000,
    "country": "US",
    "longitude": -99.9018,
    "name": "Nebraska",
    "latitude": 41.4925,
    "dead": 285,
    "sick": 20887,
    "invisible": false
  },
  {
    "country": "FR",
    "longitude": 55.5364,
    "name": "La Réunion",
    "alwaysShow": true,
    "latitude": -21.1151,
    "dead": 3,
    "lastUpdated": "2020-07-13T05:46:03.066Z",
    "recovered": 472,
    "infected": 593,
    "id": "SgHzWAAYK1j2sipovxM6",
    "pop": 859959,
    "sick": 118,
    "invisible": false
  },
  {
    "latitude": 12.565679,
    "dead": 0,
    "lastUpdated": "2020-07-13T05:46:03.068Z",
    "recovered": 133,
    "infected": 156,
    "id": "SioMALgUbo7peXmbco2f",
    "pop": 16010000,
    "country": "KH",
    "longitude": 104.990967,
    "name": "Cambodia",
    "sick": 23,
    "invisible": false
  },
  {
    "state": "GU",
    "id": "SsWhuEElU7dCTTuH5fdQ",
    "longitude": 144.7937,
    "name": "Guam",
    "alwaysShow": true,
    "dead": 5,
    "latitude": 13.4443,
    "infected": 310,
    "recovered": 0,
    "pop": 164229,
    "country": "US",
    "lastUpdated": "2020-07-13T05:47:02.273Z",
    "sick": 305,
    "invisible": false
  },
  {
    "name": "Unknown Poland region",
    "latitude": 51.9189,
    "dead": 0,
    "lastUpdated": "2020-07-13T05:46:03.047Z",
    "recovered": 27148,
    "infected": 0,
    "id": "SuCr5emUaJ9RHTll1P1p",
    "country": "PL",
    "longitude": 19.1344,
    "invisible": true,
    "sick": 0
  },
  {
    "latitude": 57.067,
    "dead": 19,
    "lastUpdated": "2020-07-13T05:30:07.762Z",
    "recovered": 1360,
    "infected": 1747,
    "id": "Sx03z01BJCAbrYkWhEaD",
    "pop": 1513000,
    "country": "RU",
    "longitude": 53.0278,
    "name": "Udmurtia",
    "sick": 368,
    "invisible": false
  },
  {
    "id": "T3iRf8mTUTAzbKrORTap",
    "pop": 84070000,
    "country": "CD",
    "longitude": 21.7587,
    "name": "DR Congo",
    "latitude": -4.0383,
    "dead": 189,
    "lastUpdated": "2020-07-13T05:46:03.049Z",
    "recovered": 3615,
    "infected": 8033,
    "sick": 4229,
    "invisible": false
  },
  {
    "latitude": 23.635796,
    "dead": 2223,
    "lastUpdated": "2020-07-13T05:46:03.044Z",
    "recovered": 167138,
    "infected": 232259,
    "id": "T7NffoeCgTUpAbOHvYwP",
    "pop": 32940000,
    "country": "SA",
    "longitude": 44.344334,
    "name": "Saudi Arabia",
    "sick": 62898,
    "invisible": false
  },
  {
    "name": "La Rioja",
    "latitude": 42.2871,
    "dead": 366,
    "lastUpdated": "2020-07-12T22:43:54.845Z",
    "recovered": 3107,
    "infected": 5476,
    "state": "RI",
    "id": "TNDTapyb0k3l7Mds9q9R",
    "pop": 315700,
    "country": "ES",
    "longitude": -2.5396,
    "sick": 2003,
    "invisible": false
  },
  {
    "recovered": 0,
    "infected": 6216,
    "id": "TQCWbhIpJQBQxBjhCGVJ",
    "pop": 2207200,
    "country": "MX",
    "longitude": -89.134857,
    "name": "Yucatán",
    "latitude": 20.400417,
    "dead": 641,
    "lastUpdated": "2020-07-13T05:32:02.467Z",
    "sick": 5575,
    "invisible": false
  },
  {
    "id": "TQZmzsLhJqjtCSExAkCP",
    "pop": 428697,
    "country": "BN",
    "longitude": 114.650692,
    "name": "Brunei",
    "latitude": 4.506106,
    "dead": 3,
    "lastUpdated": "2020-07-13T05:46:03.068Z",
    "recovered": 138,
    "infected": 141,
    "sick": 0,
    "invisible": false
  },
  {
    "latitude": 45.4471,
    "dead": 1747,
    "lastUpdated": "2020-07-12T22:45:15.062Z",
    "recovered": 7806,
    "infected": 15596,
    "state": "",
    "id": "TT0MKODSjrxHvG19xZCa",
    "pop": 8027000,
    "country": "FR",
    "longitude": 4.3853,
    "name": "Auvergne-Rhône-Alpes",
    "sick": 6043,
    "invisible": false
  },
  {
    "recovered": 0,
    "infected": 572,
    "id": "TeoNTu4aw5riC04sTd73",
    "pop": 758700,
    "country": "PT",
    "longitude": -7.9,
    "name": "Alentejo",
    "latitude": 38.5667,
    "dead": 18,
    "lastUpdated": "2020-07-13T05:23:01.681Z",
    "sick": 554,
    "invisible": false
  },