[
  {
    "infected": 2,
    "recovered": 0,
    "latitude": 12.5847,
    "pop": 72600,
    "longitude": -81.7006,
    "name": "San Andrés",
    "country": "CO",
    "lastUpdated": "2020-04-09T14:19:08.346Z",
    "dead": 0,
    "id": "01b09TY4vmuZwzVuiRFK",
    "sick": 2,
    "invisible": false
  },
  {
    "latitude": 41.066666,
    "pop": 5827000,
    "longitude": 14.333333,
    "name": "Campania",
    "country": "IT",
    "lastUpdated": "2020-04-09T14:49:01.123Z",
    "dead": 221,
    "id": "0GJcws44NSPsDHAuxJhW",
    "infected": 3268,
    "recovered": 188,
    "sick": 2859,
    "invisible": false
  },
  {
    "latitude": -20.2167,
    "pop": 383870,
    "longitude": -70.14222,
    "name": "Tarapacá",
    "country": "CL",
    "lastUpdated": "2020-04-09T14:52:06.324Z",
    "dead": 0,
    "id": "0HDQbiHe462xMCUV5HiI",
    "infected": 29,
    "recovered": 0,
    "sick": 29,
    "invisible": false
  },
  {
    "recovered": 2,
    "latitude": 20.9517,
    "pop": 45990000,
    "longitude": 85.0985,
    "name": "Odisha",
    "country": "IN",
    "lastUpdated": "2020-04-09T14:40:01.140Z",
    "dead": 1,
    "id": "0VG7S6aaK4eSo59fL9JO",
    "infected": 44,
    "sick": 41,
    "invisible": false
  },
  {
    "infected": 11,
    "recovered": 0,
    "latitude": 11.7401,
    "pop": 427246,
    "longitude": 92.6586,
    "name": "Andaman and Nicobar Islands",
    "country": "IN",
    "lastUpdated": "2020-04-09T14:52:03.925Z",
    "dead": 0,
    "id": "0jStOpTUNRaQYJqgmRoK",
    "sick": 11,
    "invisible": false
  },
  {
    "latitude": 25.315058,
    "pop": 2639000,
    "longitude": 51.145517,
    "name": "Qatar",
    "country": "QA",
    "lastUpdated": "2020-04-09T14:45:02.892Z",
    "dead": 6,
    "id": "0m4aECS0Z2DGFEr8ldgI",
    "infected": 2376,
    "recovered": 206,
    "sick": 2164,
    "invisible": false
  },
  {
    "infected": 103,
    "recovered": 16,
    "latitude": 22.9868,
    "pop": 90320000,
    "longitude": 87.855,
    "name": "West Bengal",
    "country": "IN",
    "lastUpdated": "2020-04-09T14:52:03.930Z",
    "dead": 5,
    "id": "0n54EMSDJcRoT1QEvw80",
    "sick": 82,
    "invisible": false
  },
  {
    "id": "0s18o5DrDAHjbu5MFcrj",
    "infected": 447,
    "recovered": 25,
    "latitude": 22.9734,
    "pop": 73340000,
    "longitude": 78.6569,
    "name": "Madhya Pradesh",
    "country": "IN",
    "lastUpdated": "2020-04-09T14:10:13.222Z",
    "dead": 26,
    "sick": 396,
    "invisible": false
  },
  {
    "latitude": 37.0902,
    "longitude": -95.7129,
    "name": "Unknown US state",
    "country": "US",
    "lastUpdated": "2020-04-09T14:45:02.888Z",
    "dead": 0,
    "id": "0tFoopNTs6e4tOoaltu2",
    "invisible": true,
    "infected": 0,
    "recovered": 22941,
    "sick": 0
  },
  {
    "latitude": 35.64249,
    "pop": 37330000,
    "longitude": 108.472214,
    "name": "Shaanxi",
    "country": "CN",
    "lastUpdated": "2020-04-09T14:29:05.820Z",
    "dead": 3,
    "id": "0x2HLhr5z5xAtEdO4iZm",
    "infected": 256,
    "recovered": 246,
    "sick": 7,
    "invisible": false
  },
  {
    "latitude": 41.643351,
    "pop": 2077000,
    "longitude": 21.668393,
    "name": "North Macedonia",
    "country": "MK",
    "lastUpdated": "2020-04-09T14:45:02.894Z",
    "dead": 30,
    "id": "19MvIhipqTyYv1H37Upw",
    "infected": 663,
    "recovered": 37,
    "sick": 596,
    "invisible": false
  },
  {
    "latitude": 53.1355,
    "pop": 521542,
    "longitude": -57.6604,
    "name": "Newfoundland and Labrador",
    "country": "CA",
    "lastUpdated": "2020-04-09T14:45:01.335Z",
    "dead": 2,
    "id": "1DOMOmCWDtva46OVSZLv",
    "infected": 232,
    "recovered": 0,
    "sick": 230,
    "invisible": false
  },
  {
    "infected": 18,
    "recovered": 18,
    "latitude": 35.801933,
    "pop": 5627000,
    "longitude": 96.779286,
    "name": "Qinghai",
    "country": "CN",
    "lastUpdated": "2020-04-09T14:29:05.822Z",
    "dead": 0,
    "id": "1Fap7rZu9SIRqf5TG9Dg",
    "sick": 0,
    "invisible": false
  },
  {
    "recovered": 1516,
    "latitude": 44.9,
    "pop": 4376000,
    "longitude": 8.206944,
    "name": "Piemonte",
    "country": "IT",
    "lastUpdated": "2020-04-09T14:49:01.124Z",
    "dead": 1378,
    "id": "1eTSQyfp8RoDPeFrIwun",
    "infected": 13883,
    "sick": 10989,
    "invisible": false
  },
  {
    "lastUpdated": "2020-04-09T14:45:02.889Z",
    "dead": 823,
    "id": "1f0YoV0vAcexEhpESyZc",
    "infected": 16238,
    "recovered": 173,
    "latitude": -14.235004,
    "pop": 209300000,
    "longitude": -51.925282,
    "name": "Brazil",
    "country": "BR",
    "sick": 15242,
    "invisible": false
  },
  {
    "infected": 1174,
    "recovered": 50,
    "latitude": 47.4116,
    "pop": 3550000,
    "longitude": 28.3699,
    "name": "Moldova",
    "country": "MD",
    "lastUpdated": "2020-04-09T14:45:02.893Z",
    "dead": 28,
    "id": "1qTPB8X3tyLyIdsb5TN3",
    "sick": 1096,
    "invisible": false
  },
  {
    "id": "25qIBtsW2nfQj3pwBKg9",
    "infected": 1,
    "recovered": 1,
    "latitude": 30.15336,
    "pop": 3180000,
    "longitude": 88.787865,
    "name": "Tibet",
    "country": "CN",
    "lastUpdated": "2020-04-09T14:29:05.823Z",
    "dead": 0,
    "sick": 0,
    "invisible": false
  },
  {
    "pop": 264000000,
    "longitude": 115.66779,
    "name": "Indonesia",
    "country": "ID",
    "lastUpdated": "2020-04-09T14:45:02.891Z",
    "dead": 280,
    "id": "2KHYUb5t3lwzVVmDjwNX",
    "infected": 3293,
    "recovered": 252,
    "latitude": -1.572184,
    "sick": 2761,
    "invisible": false
  },
  {
    "infected": 1239,
    "recovered": 0,
    "latitude": 43.807191,
    "pop": 4191000,
    "longitude": -120.585594,
    "name": "Oregon",
    "country": "US",
    "lastUpdated": "2020-04-09T14:42:19.714Z",
    "dead": 38,
    "id": "2OrsssmGUs4XCzaZzvTv",
    "sick": 1201,
    "invisible": false
  },
  {
    "pop": 425000,
    "longitude": -70.400002,
    "name": "Antofagasta",
    "country": "CL",
    "lastUpdated": "2020-04-09T14:52:06.324Z",
    "dead": 1,
    "id": "2c5HBZ1ffkCVXnMYUWnY",
    "infected": 92,
    "recovered": 0,
    "latitude": -23.65,
    "sick": 91,
    "invisible": false
  },
  {
    "recovered": 93,
    "latitude": 43.851921,
    "pop": 27460000,
    "longitude": 126.548103,
    "name": "Jilin",
    "country": "CN",
    "lastUpdated": "2020-04-09T14:29:05.820Z",
    "dead": 1,
    "id": "2jxHvSsxdnom0nPNvOT8",
    "infected": 98,
    "sick": 4,
    "invisible": false
  },
  {
    "infected": 120,
    "recovered": 60,
    "latitude": 36.1408,
    "pop": 34571,
    "longitude": -5.3536,
    "name": "Gibraltar",
    "country": "GI",
    "lastUpdated": "2020-04-09T14:45:02.899Z",
    "dead": 0,
    "id": "2p11BjSAs3wVyymgqBOe",
    "sick": 60,
    "invisible": false
  },
  {
    "infected": 1966,
    "recovered": 435,
    "latitude": 47.7516,
    "pop": 2567000,
    "longitude": 1.6751,
    "name": "Centre-Val de Loire",
    "country": "FR",
    "lastUpdated": "2020-04-08T20:25:25.563Z",
    "dead": 153,
    "id": "2sLNkkHpyaHx7dD3aMDO",
    "sick": 1378,
    "invisible": false
  },
  {
    "latitude": 42.565044,
    "pop": 884640,
    "longitude": 12.643751,
    "name": "Umbria",
    "country": "IT",
    "lastUpdated": "2020-04-09T14:49:01.125Z",
    "dead": 50,
    "id": "319tiZOMczx1y0DfvOib",
    "infected": 1289,
    "recovered": 416,
    "sick": 823,
    "invisible": false
  },
  {
    "infected": 14,
    "recovered": 0,
    "latitude": 2.43823,
    "pop": 1355000,
    "longitude": -76.6131592,
    "name": "Cauca",
    "country": "CO",
    "lastUpdated": "2020-04-09T14:19:08.346Z",
    "dead": 2,
    "id": "38T96Q3XNjt5FSJygPed",
    "sick": 12,
    "invisible": false
  },
  {
    "latitude": -13.133896,
    "pop": 17090000,
    "longitude": 27.849332,
    "name": "Zambia",
    "country": "ZM",
    "lastUpdated": "2020-04-09T14:45:02.902Z",
    "dead": 1,
    "id": "3IlPjAbP5qVMn1nlgLTJ",
    "infected": 39,
    "recovered": 7,
    "sick": 31,
    "invisible": false
  },
  {
    "infected": 252,
    "recovered": 4,
    "latitude": 42.7044,
    "pop": 631219,
    "longitude": 19.3958,
    "name": "Montenegro",
    "country": "ME",
    "lastUpdated": "2020-04-09T14:45:02.897Z",
    "dead": 2,
    "id": "3LstMSN5XMYBkxbe5HN7",
    "sick": 246,
    "invisible": false
  },
  {
    "infected": 100,
    "recovered": 47,
    "latitude": -35.4735,
    "pop": 418440,
    "longitude": 149.0124,
    "name": "Australian Capital Territory",
    "country": "AU",
    "lastUpdated": "2020-04-09T14:45:01.335Z",
    "dead": 2,
    "id": "3OZoQsKrzxZ18EKyfGE6",
    "sick": 51,
    "invisible": false
  },
  {
    "infected": 28,
    "recovered": 0,
    "latitude": 26.2006,
    "pop": 30940000,
    "longitude": 92.9376,
    "name": "Assam",
    "country": "IN",
    "lastUpdated": "2020-04-09T14:52:03.926Z",
    "dead": 0,
    "id": "3cCbnJCsK7mKlTO08K1o",
    "sick": 28,
    "invisible": false
  },
  {
    "recovered": 0,
    "latitude": 40.4173,
    "pop": 11690000,
    "longitude": -82.9071,
    "name": "Ohio",
    "country": "US",
    "lastUpdated": "2020-04-09T14:42:19.693Z",
    "dead": 193,
    "id": "3fC3bAyIRUquOQOEnQNe",
    "infected": 5148,
    "sick": 4955,
    "invisible": false
  },
  {
    "latitude": 3.420556,
    "pop": 4708300,
    "longitude": -76.522224,
    "name": "Valle del Cauca",
    "country": "CO",
    "lastUpdated": "2020-04-09T14:19:08.344Z",
    "dead": 5,
    "id": "3mC2LveOpXV8P1PmQGUj",
    "infected": 313,
    "recovered": 8,
    "sick": 300,
    "invisible": false
  },
  {
    "infected": 7,
    "recovered": 2,
    "latitude": 21.0079,
    "pop": 4420000,
    "longitude": -10.9408,
    "name": "Mauritania",
    "country": "MR",
    "lastUpdated": "2020-04-09T14:45:02.906Z",
    "dead": 1,
    "id": "4NnFMekRK2m14IlnZZoj",
    "sick": 4,
    "invisible": false
  },
  {
    "infected": 1336,
    "recovered": 0,
    "latitude": 53.7267,
    "pop": 5071000,
    "longitude": -127.6476,
    "name": "British Columbia",
    "country": "CA",
    "lastUpdated": "2020-04-09T14:45:01.329Z",
    "dead": 48,
    "id": "4hfZRUoUgI4a3vrG0GBk",
    "sick": 1288,
    "invisible": false
  },
  {
    "latitude": 41.065877,
    "pop": 10290000,
    "longitude": -7.920053,
    "name": "Portugal",
    "country": "PT",
    "lastUpdated": "2020-04-09T14:45:02.889Z",
    "dead": 409,
    "id": "4rQLxUCMmQLpbi6E9tbH",
    "infected": 13956,
    "recovered": 205,
    "sick": 13342,
    "invisible": false
  },
  {
    "infected": 926,
    "recovered": 101,
    "latitude": 40.3426,
    "pop": 9898000,
    "longitude": 47.93802,
    "name": "Azerbaijan",
    "country": "AZ",
    "lastUpdated": "2020-04-09T14:45:02.894Z",
    "dead": 9,
    "id": "4zqzRm2xHn0CDVOUQJ8p",
    "sick": 816,
    "invisible": false
  },
  {
    "lastUpdated": "2020-04-09T14:45:02.902Z",
    "dead": 7,
    "id": "5MHegCUO9L3LiAU7DDey",
    "infected": 40,
    "recovered": 5,
    "latitude": 25.025885,
    "pop": 395361,
    "longitude": -78.035889,
    "name": "Bahamas",
    "country": "BS",
    "sick": 28,
    "invisible": false
  },
  {
    "lastUpdated": "2020-04-09T14:45:01.326Z",
    "dead": 21,
    "id": "5N16a2OXXRpsEFanw0TC",
    "infected": 2773,
    "recovered": 4,
    "latitude": -31.253218,
    "pop": 7544000,
    "longitude": 146.921097,
    "name": "New South Wales",
    "country": "AU",
    "sick": 2748,
    "invisible": false
  },
  {
    "recovered": 0,
    "latitude": 6.8769908,
    "pop": 12580000,
    "longitude": 31.3069782,
    "name": "South Sudan",
    "country": "SS",
    "lastUpdated": "2020-04-09T14:45:02.907Z",
    "dead": 0,
    "id": "5N4PRxsCDzzwk7R200V1",
    "infected": 3,
    "sick": 3,
    "invisible": false
  },
  {
    "pop": 4975000,
    "longitude": -0.7533,
    "name": "C. Valenciana",
    "country": "ES",
    "lastUpdated": "2020-04-09T14:43:02.735Z",
    "dead": 767,
    "id": "5Va9A7CXR8AXdUz4HTJj",
    "infected": 7964,
    "recovered": 1772,
    "latitude": 39.484,
    "sick": 5425,
    "invisible": false
  },
  {
    "pop": 280460,
    "longitude": 165.618042,
    "name": "New Caledonia",
    "country": "NC",
    "lastUpdated": "2020-04-09T14:45:02.903Z",
    "dead": 0,
    "id": "5fg04eyDwFw3kEXnrxez",
    "infected": 18,
    "recovered": 1,
    "latitude": -20.9043045,
    "sick": 17,
    "invisible": false
  },
  {
    "id": "5gXZIjRgAvd6xWN1LOv8",
    "infected": 9,
    "recovered": 1,
    "latitude": 28.394857,
    "pop": 29300000,
    "longitude": 84.124008,
    "name": "Nepal",
    "country": "NP",
    "lastUpdated": "2020-04-09T14:45:02.904Z",
    "dead": 0,
    "sick": 8,
    "invisible": false
  },
  {
    "lastUpdated": "2020-04-09T14:45:02.891Z",
    "dead": 203,
    "id": "5pwmh7aSdGRKqRbnuyc0",
    "infected": 4076,
    "recovered": 124,
    "latitude": 12.879721,
    "pop": 104900000,
    "longitude": 121.774017,
    "name": "Philippines",
    "country": "PH",
    "sick": 3749,
    "invisible": false
  },
  {
    "latitude": -17.824858,
    "pop": 14802190,
    "longitude": 31.053028,
    "name": "Zimbabwe",
    "country": "ZW",
    "lastUpdated": "2020-04-09T14:45:02.904Z",
    "dead": 3,
    "id": "5qtR9nx4BLwu1ODTniaY",
    "infected": 11,
    "recovered": 0,
    "sick": 8,
    "invisible": false
  },
  {
    "lastUpdated": "2020-04-09T14:45:02.894Z",
    "dead": 16,
    "id": "694ON7d0mRJDeM1gHBTR",
    "infected": 955,
    "recovered": 8,
    "latitude": 55.621011,
    "pop": 2794000,
    "longitude": 23.804991,
    "name": "Lithuania",
    "country": "LT",
    "sick": 931,
    "invisible": false
  },
  {
    "id": "6IcHIIH0zXpY0POmBZTv",
    "infected": 974,
    "recovered": 293,
    "latitude": 22.396427,
    "pop": 7392000,
    "longitude": 114.109497,
    "name": "Hong Kong",
    "country": "HK",
    "lastUpdated": "2020-04-09T14:45:02.894Z",
    "dead": 4,
    "sick": 677,
    "invisible": false
  },
  {
    "infected": 26,
    "recovered": 5,
    "latitude": 9.3077,
    "pop": 11180000,
    "longitude": 2.3158,
    "name": "Benin",
    "country": "BJ",
    "lastUpdated": "2020-04-09T14:45:02.902Z",
    "dead": 1,
    "id": "6SlpghTyB6lpMFvx3g9U",
    "sick": 20,
    "invisible": false
  },
  {
    "recovered": 15147,
    "latitude": 45.6667,
    "pop": 10040000,
    "longitude": 9.5,
    "name": "Lombardia",
    "country": "IT",
    "lastUpdated": "2020-04-09T14:49:01.123Z",
    "dead": 9722,
    "id": "6ZHcvMIzVWIaRnc4R3Qp",
    "infected": 53414,
    "sick": 28545,
    "invisible": false
  },
  {
    "infected": 1124,
    "recovered": 128,
    "latitude": 46.0569,
    "pop": 2067000,
    "longitude": 14.5058,
    "name": "Slovenia",
    "country": "SI",
    "lastUpdated": "2020-04-09T14:45:02.893Z",
    "dead": 43,
    "id": "6ahNiyKDSDAftCctgLH3",
    "sick": 953,
    "invisible": false
  },
  {
    "longitude": -69.859741,
    "name": "Atacama",
    "country": "CL",
    "lastUpdated": "2020-04-09T14:52:06.324Z",
    "dead": 0,
    "id": "6nyns7UGGgkU7pxrHf8i",
    "infected": 10,
    "recovered": 0,
    "latitude": -23.369543,
    "pop": 300000,
    "sick": 10,
    "invisible": false
  },
  {
    "infected": 34,
    "recovered": 1,
    "latitude": -0.8037,
    "pop": 2025000,
    "longitude": 11.6094,
    "name": "Gabon",
    "country": "GA",
    "lastUpdated": "2020-04-09T14:45:02.902Z",
    "dead": 1,
    "id": "6pBi38TUgYfFm0bry2uh",
    "sick": 32,
    "invisible": false
  },
  {
    "longitude": -62.818544,
    "name": "Saint-Barthélémy",
    "country": "FR",
    "lastUpdated": "2020-04-08T20:32:46.666Z",
    "dead": 0,
    "id": "78Ox26bNHDA2Pk2b3Uwn",
    "infected": 6,
    "recovered": 4,
    "latitude": 17.901672,
    "pop": 9131,
    "sick": 2,
    "invisible": false
  },
  {
    "latitude": 35.2923,
    "pop": 84690,
    "longitude": -2.9381,
    "name": "Melilla",
    "country": "ES",
    "lastUpdated": "2020-04-09T14:43:02.736Z",
    "dead": 2,
    "id": "7UASdZTZ1nPzzBwSTEA9",
    "infected": 93,
    "recovered": 16,
    "sick": 75,
    "invisible": false
  },
  {
    "lastUpdated": "2020-04-09T14:45:02.903Z",
    "dead": 2,
    "id": "7hVFcEV7nV0MrQr3LHrl",
    "infected": 19,
    "recovered": 0,
    "latitude": 17.0608,
    "pop": 102012,
    "longitude": -61.7964,
    "name": "Antigua and Barbuda",
    "country": "AG",
    "sick": 17,
    "invisible": false
  },
  {
    "infected": 30157,
    "recovered": 5362,
    "latitude": 48.7904,
    "pop": 13000000,
    "longitude": 11.4979,
    "name": "Bayern",
    "country": "DE",
    "lastUpdated": "2020-04-09T14:46:03.487Z",
    "dead": 692,
    "id": "7kCrrlOBE3jN6FtOVNUB",
    "sick": 24103,
    "invisible": false
  },
  {
    "infected": 980,
    "recovered": 96,
    "latitude": 47.4979,
    "pop": 9773000,
    "longitude": 19.0402,
    "name": "Hungary",
    "country": "HU",
    "lastUpdated": "2020-04-09T14:45:02.893Z",
    "dead": 66,
    "id": "7rYC2iFB50c55Ihgbs4Q",
    "sick": 818,
    "invisible": false
  },
  {
    "pop": 2400000,
    "longitude": -74.7813,
    "name": "Barranquilla D.E.",
    "country": "CO",
    "lastUpdated": "2020-04-09T14:19:08.345Z",
    "dead": 2,
    "id": "7tqLvLyXcBDK808nJv0m",
    "infected": 49,
    "recovered": 5,
    "latitude": 10.9685,
    "sick": 42,
    "invisible": false
  },
  {
    "latitude": 7.3697,
    "pop": 24050000,
    "longitude": 12.3547,
    "name": "Cameroon",
    "country": "CM",
    "lastUpdated": "2020-04-09T14:45:02.894Z",
    "dead": 10,
    "id": "8C0d7WVCjyUGtnc2gUAR",
    "infected": 730,
    "recovered": 60,
    "sick": 660,
    "invisible": false
  },
  {
    "infected": 264,
    "recovered": 2,
    "latitude": -16.2902,
    "pop": 11050000,
    "longitude": -63.5887,
    "name": "Bolivia",
    "country": "BO",
    "lastUpdated": "2020-04-09T14:45:02.897Z",
    "dead": 18,
    "id": "8RihJrXw4NQXPxaRxr1u",
    "sick": 244,
    "invisible": false
  },
  {
    "infected": 8,
    "recovered": 1,
    "latitude": 12.9843,
    "pop": 109897,
    "longitude": -61.2872,
    "name": "St. Vincent Grenadines",
    "country": "VC",
    "lastUpdated": "2020-04-09T14:45:02.906Z",
    "dead": 0,
    "id": "8ZTySQROQejkDAad0qxQ",
    "sick": 7,
    "invisible": false
  },
  {
    "latitude": 1.352083,
    "pop": 5621000,
    "longitude": 103.819839,
    "name": "Singapore",
    "country": "SG",
    "lastUpdated": "2020-04-09T14:45:02.892Z",
    "dead": 6,
    "id": "8pA3fM4xC2c2wv1b4TnE",
    "infected": 1910,
    "recovered": 406,
    "sick": 1498,
    "invisible": false
  },
  {
    "infected": 1963,
    "recovered": 570,
    "latitude": 47.2184,
    "pop": 3787000,
    "longitude": -1.5536,
    "name": "Pays de la Loire",
    "country": "FR",
    "lastUpdated": "2020-04-08T20:32:05.142Z",
    "dead": 153,
    "id": "98hwAoohgWEOQVa3NlM5",
    "sick": 1240,
    "invisible": false
  },
  {
    "infected": 14,
    "recovered": 2,
    "latitude": 12.8628,
    "pop": 40530000,
    "longitude": 30.2176,
    "name": "Sudan",
    "country": "SD",
    "lastUpdated": "2020-04-09T14:45:02.903Z",
    "dead": 2,
    "id": "9DPOkpIqrFy9mR4e9fuv",
    "sick": 10,
    "invisible": false
  },
  {
    "infected": 5202,
    "recovered": 647,
    "latitude": 45.943161,
    "pop": 19530000,
    "longitude": 24.966761,
    "name": "Romania",
    "country": "RO",
    "lastUpdated": "2020-04-09T14:45:02.891Z",
    "dead": 229,
    "id": "9QcETqEcM2fTv9zRvx5T",
    "sick": 4326,
    "invisible": false
  },
  {
    "latitude": 12.136389,
    "pop": 6218000,
    "longitude": -86.251389,
    "name": "Nicaragua",
    "country": "NI",
    "lastUpdated": "2020-04-09T14:45:02.906Z",
    "dead": 1,
    "id": "9Y5wmCqNCC6ZrenM31uA",
    "infected": 6,
    "recovered": 0,
    "sick": 5,
    "invisible": false
  },
  {
    "infected": 59,
    "recovered": 16,
    "latitude": 17.5706921,
    "pop": 18540000,
    "longitude": -3.996166,
    "name": "Mali",
    "country": "ML",
    "lastUpdated": "2020-04-09T14:45:02.901Z",
    "dead": 7,
    "id": "9dIzxqDSVqPyINkHqwGv",
    "sick": 36,
    "invisible": false
  },
  {
    "longitude": 25.748152,
    "name": "Finland",
    "country": "FI",
    "lastUpdated": "2020-04-09T14:45:02.892Z",
    "dead": 42,
    "id": "9p6OCdZbUUwBLA60Gk3W",
    "infected": 2605,
    "recovered": 300,
    "latitude": 61.92411,
    "pop": 5513000,
    "sick": 2263,
    "invisible": false
  },
  {
    "id": "A84CwQ52kA46Hr7pn6Bm",
    "infected": 788,
    "recovered": 0,
    "latitude": 43.311643,
    "pop": 1356000,
    "longitude": -71.590315,
    "name": "New Hampshire",
    "country": "US",
    "lastUpdated": "2020-04-09T14:42:19.714Z",
    "dead": 18,
    "sick": 770,
    "invisible": false
  },
  {
    "latitude": 41.823261,
    "pop": 1057000,
    "longitude": -71.412257,
    "name": "Rhode Island",
    "country": "US",
    "lastUpdated": "2020-04-09T14:42:19.714Z",
    "dead": 35,
    "id": "AEUWUHS65qvjEslew11c",
    "infected": 1450,
    "recovered": 0,
    "sick": 1415,
    "invisible": false
  },
  {
    "recovered": 2890,
    "latitude": 44.498955,
    "pop": 4453000,
    "longitude": 11.327591,
    "name": "Emilia-Romagna",
    "country": "IT",
    "lastUpdated": "2020-04-09T14:49:01.123Z",
    "dead": 2234,
    "id": "AJ9jQ0iyKsafsmf5yHAR",
    "infected": 18234,
    "sick": 13110,
    "invisible": false
  },
  {
    "infected": 1842,
    "recovered": 303,
    "latitude": 49.3964,
    "pop": 990509,
    "longitude": 7.023,
    "name": "Saarland",
    "country": "DE",
    "lastUpdated": "2020-04-09T14:46:03.488Z",
    "dead": 35,
    "id": "AKjFRQGnzuuZQhv5Qwx7",
    "sick": 1504,
    "invisible": false
  },
  {
    "infected": 128,
    "recovered": 0,
    "latitude": -35.717,
    "pop": 1125002,
    "longitude": -71.167,
    "name": "Maule",
    "country": "CL",
    "lastUpdated": "2020-04-09T14:52:06.324Z",
    "dead": 2,
    "id": "APTPgjAsjFi0nsGyJV7M",
    "sick": 126,
    "invisible": false
  },
  {
    "latitude": 71.7069,
    "pop": 56171,
    "longitude": -42.6043,
    "name": "Greenland",
    "country": "GL",
    "lastUpdated": "2020-04-09T14:45:02.904Z",
    "dead": 0,
    "id": "APaZzlGCEeuoLBtzTJMe",
    "infected": 11,
    "recovered": 11,
    "sick": 0,
    "invisible": false
  },
  {
    "latitude": 45.65107,
    "pop": 971395,
    "longitude": -63.582687,
    "name": "Nova Scotia",
    "country": "CA",
    "lastUpdated": "2020-04-09T14:45:01.333Z",
    "dead": 1,
    "id": "AVCpxeh0fuH2WrHWNDYH",
    "infected": 342,
    "recovered": 0,
    "sick": 341,
    "invisible": false
  },
  {
    "latitude": 47.012918,
    "pop": 1062000,
    "longitude": -109.128641,
    "name": "Montana",
    "country": "US",
    "lastUpdated": "2020-04-09T14:42:19.715Z",
    "dead": 6,
    "id": "AcULcZBozObOhwuRKMjJ",
    "infected": 332,
    "recovered": 0,
    "sick": 326,
    "invisible": false
  },
  {
    "infected": 937,
    "recovered": 935,
    "latitude": 27.285971,
    "pop": 45200000,
    "longitude": 116.01609,
    "name": "Jiangxi",
    "country": "CN",
    "lastUpdated": "2020-04-09T14:29:05.821Z",
    "dead": 1,
    "id": "AmBYm5J6E9Cuez1FQjiN",
    "sick": 1,
    "invisible": false
  },
  {
    "infected": 1572,
    "recovered": 237,
    "latitude": 28.033886,
    "pop": 41320000,
    "longitude": 1.659626,
    "name": "Algeria",
    "country": "DZ",
    "lastUpdated": "2020-04-09T14:45:02.892Z",
    "dead": 205,
    "id": "AwN0CScPDApcLFgz6e3z",
    "sick": 1130,
    "invisible": false
  },
  {
    "infected": 1407,
    "recovered": 219,
    "latitude": 45.099998,
    "pop": 4076000,
    "longitude": 15.2,
    "name": "Croatia",
    "country": "HR",
    "lastUpdated": "2020-04-09T14:45:02.893Z",
    "dead": 20,
    "id": "B82Ef45M8cDu4q7VsSHF",
    "sick": 1168,
    "invisible": false
  },
  {
    "infected": 342,
    "recovered": 28,
    "latitude": 17.6077881,
    "pop": 23716000,
    "longitude": 8.081666,
    "name": "Niger",
    "country": "NE",
    "lastUpdated": "2020-04-09T14:45:02.896Z",
    "dead": 11,
    "id": "BENubqQInFUJzhpZTsLT",
    "sick": 303,
    "invisible": false
  },
  {
    "infected": 5529,
    "recovered": 0,
    "latitude": 39.509109,
    "pop": 6043000,
    "longitude": -76.98432,
    "name": "Maryland",
    "country": "US",
    "lastUpdated": "2020-04-09T14:42:19.693Z",
    "dead": 124,
    "id": "BF51mWl51fgEcyBpCSzb",
    "sick": 5405,
    "invisible": false
  },
  {
    "latitude": 53.709808,
    "pop": 9508000,
    "longitude": 27.953388,
    "name": "Belarus",
    "country": "BY",
    "lastUpdated": "2020-04-09T14:45:02.892Z",
    "dead": 16,
    "id": "BGg6yVU5VP71B8NXU0oh",
    "infected": 1486,
    "recovered": 139,
    "sick": 1331,
    "invisible": false
  },
  {
    "lastUpdated": "2020-04-08T20:30:52.635Z",
    "dead": 165,
    "id": "BGtoyzb7y54LVlJ91rbf",
    "infected": 1791,
    "recovered": 453,
    "latitude": 48.8799,
    "pop": 3319000,
    "longitude": 0.1713,
    "name": "Normandie",
    "country": "FR",
    "sick": 1173,
    "invisible": false
  },
  {
    "infected": 2726,
    "recovered": 0,
    "latitude": 34.048927,
    "pop": 7172000,
    "longitude": -111.093735,
    "name": "Arizona",
    "country": "US",
    "lastUpdated": "2020-04-09T14:42:19.713Z",
    "dead": 80,
    "id": "BTEESCuD2ZbS1afunR2A",
    "sick": 2646,
    "invisible": false
  },
  {
    "infected": 0,
    "recovered": 1274,
    "latitude": 1,
    "longitude": 1,
    "name": "Chile Casos recuperados",
    "country": "CL",
    "dead": 0,
    "lastUpdated": "2020-04-09T14:52:06.325Z",
    "id": "BbiuZcm8oURX7cZwaa5U",
    "sick": 0,
    "invisible": false
  },
  {
    "lastUpdated": "2020-04-09T14:45:02.905Z",
    "dead": 1,
    "id": "BfT8o5DaEixC6JIZ28kY",
    "infected": 8,
    "recovered": 0,
    "latitude": -13.2543,
    "pop": 18620000,
    "longitude": 34.3015,
    "name": "Malawi",
    "country": "MW",
    "sick": 7,
    "invisible": false
  },
  {
    "lastUpdated": "2020-04-09T14:45:02.907Z",
    "dead": 0,
    "id": "BnpMamidC5yYzeK8tPUL",
    "infected": 3,
    "recovered": 0,
    "latitude": -3.3730559,
    "pop": 10860000,
    "longitude": 29.9188862,
    "name": "Burundi",
    "country": "BI",
    "sick": 3,
    "invisible": false
  },
  {
    "pop": 19540000,
    "longitude": -73.982597,
    "name": "New York",
    "country": "US",
    "lastUpdated": "2020-04-09T13:12:16.169Z",
    "dead": 6269,
    "id": "C3BCUzV80z9GfiuByIcr",
    "infected": 151079,
    "recovered": 0,
    "latitude": 40.719042,
    "sick": 144810,
    "invisible": false
  },
  {
    "longitude": 15.359413,
    "name": "Czechia",
    "country": "CZ",
    "lastUpdated": "2020-04-09T14:45:02.890Z",
    "dead": 104,
    "id": "C6S76AggdWVU8G22jFHQ",
    "infected": 5335,
    "recovered": 243,
    "latitude": 49.731626,
    "pop": 10650000,
    "sick": 4988,
    "invisible": false
  },
  {
    "latitude": 26.0667,
    "pop": 1493000,
    "longitude": 50.557701,
    "name": "Bahrain",
    "country": "BH",
    "lastUpdated": "2020-04-09T14:45:02.894Z",
    "dead": 5,
    "id": "C7cj4nwRITs13KnaJrQ2",
    "infected": 855,
    "recovered": 495,
    "sick": 355,
    "invisible": false
  },
  {
    "recovered": 45,
    "latitude": 27.0238,
    "pop": 68890000,
    "longitude": 74.2179,
    "name": "Rajasthan",
    "country": "IN",
    "lastUpdated": "2020-04-09T14:40:01.138Z",
    "dead": 3,
    "id": "CKZCZTPlrcq5fbfUPA9k",
    "infected": 430,
    "sick": 382,
    "invisible": false
  },
  {
    "latitude": 13.803,
    "pop": 6378000,
    "longitude": -88.9053,
    "name": "El Salvador",
    "country": "SV",
    "lastUpdated": "2020-04-09T14:45:02.899Z",
    "dead": 5,
    "id": "Cgvmtle61ehMvCzRzYx7",
    "infected": 103,
    "recovered": 10,
    "sick": 88,
    "invisible": false
  },
  {
    "latitude": 52.355518,
    "pop": 66440000,
    "longitude": -1.17432,
    "name": "United Kingdom",
    "country": "GB",
    "lastUpdated": "2020-04-09T14:45:02.888Z",
    "dead": 7097,
    "id": "CrXu6i5Sqx11iwdfHfBs",
    "infected": 60733,
    "recovered": 135,
    "sick": 53501,
    "invisible": false
  },
  {
    "latitude": 40.259003,
    "pop": 2973000,
    "longitude": 44.818474,
    "name": "Armenia",
    "country": "AM",
    "lastUpdated": "2020-04-09T14:45:02.894Z",
    "dead": 10,
    "id": "DCJCtZoBTWQ4mzdDNljD",
    "infected": 921,
    "recovered": 138,
    "sick": 773,
    "invisible": false
  },
  {
    "recovered": 0,
    "latitude": 5.535,
    "pop": 1278000,
    "longitude": -73.368,
    "name": "Boyacá",
    "country": "CO",
    "lastUpdated": "2020-04-09T14:19:08.346Z",
    "dead": 1,
    "id": "DJJraANgQbEqz1wBBtZz",
    "infected": 19,
    "sick": 18,
    "invisible": false
  },
  {
    "latitude": 32.3213844,
    "pop": 65440,
    "longitude": -64.75737,
    "name": "Bermuda",
    "country": "BM",
    "lastUpdated": "2020-04-09T14:45:02.902Z",
    "dead": 3,
    "id": "DZyTD0Mu5WIcK6yTcJ91",
    "infected": 39,
    "recovered": 23,
    "sick": 13,
    "invisible": false
  },
  {
    "infected": 8,
    "recovered": 0,
    "latitude": 21.694,
    "pop": 35446,
    "longitude": -71.7979,
    "name": "Turks and Caicos",
    "country": "TC",
    "lastUpdated": "2020-04-09T14:45:02.905Z",
    "dead": 1,
    "id": "DaMrRSIGJXIG36nW0Pnc",
    "sick": 7,
    "invisible": false
  },
  {
    "infected": 12489,
    "recovered": 1766,
    "latitude": 39.2796,
    "pop": 2035000,
    "longitude": -3.0977,
    "name": "Castilla La Mancha",
    "country": "ES",
    "lastUpdated": "2020-04-09T14:43:02.735Z",
    "dead": 1322,
    "id": "Dbng0NBTH41EEwBxhMzE",
    "sick": 9401,
    "invisible": false
  },
  {
    "lastUpdated": "2020-04-09T14:45:02.902Z",
    "dead": 0,
    "id": "DdBt8qsG6A3g92oOR3ow",
    "infected": 45,
    "recovered": 10,
    "latitude": 22.192039,
    "pop": 622567,
    "longitude": 113.551262,
    "name": "Macao",
    "country": "MO",
    "sick": 35,
    "invisible": false
  },
  {
    "infected": 230,
    "recovered": 0,
    "latitude": 42.962334,
    "pop": 577737,
    "longitude": -107.534868,
    "name": "Wyoming",
    "country": "US",
    "lastUpdated": "2020-04-09T14:42:19.715Z",
    "dead": 0,
    "id": "DrGzziUglmBognCGY7R2",
    "sick": 230,
    "invisible": false
  },
  {
    "lastUpdated": "2020-04-09T14:45:02.892Z",
    "dead": 83,
    "id": "Dtr1lap1RpJpXJdXGJiW",
    "infected": 1884,
    "recovered": 269,
    "latitude": 37.9838,
    "pop": 10740000,
    "longitude": 23.7275,
    "name": "Greece",
    "country": "GR",
    "sick": 1532,
    "invisible": false
  },
  {
    "pop": 23780000,
    "longitude": 121.563698,
    "name": "Taiwan",
    "country": "TW",
    "lastUpdated": "2020-04-09T14:45:02.896Z",
    "dead": 5,
    "id": "EKTfs8e7M6DXzI1HqyyX",
    "infected": 380,
    "recovered": 80,
    "latitude": 25.03841,
    "sick": 295,
    "invisible": false
  },
  {
    "id": "EQzJvzVHKjs8kLmK7BMu",
    "infected": 502,
    "recovered": 29,
    "latitude": 10.327273,
    "pop": 4906000,
    "longitude": -84.387618,
    "name": "Costa Rica",
    "country": "CR",
    "lastUpdated": "2020-04-09T14:45:02.895Z",
    "dead": 3,
    "sick": 470,
    "invisible": false
  },
  {
    "latitude": 22.2587,
    "pop": 62700000,
    "longitude": 71.1924,
    "name": "Gujarat",
    "country": "IN",
    "lastUpdated": "2020-04-09T14:40:01.139Z",
    "dead": 17,
    "id": "ERwk9R9en4m9WbdoMbIg",
    "infected": 241,
    "recovered": 26,
    "sick": 198,
    "invisible": false
  },
  {
    "infected": 18,
    "recovered": 7,
    "latitude": 30.7333,
    "pop": 1055000,
    "longitude": 76.7794,
    "name": "Chandigarh",
    "country": "IN",
    "lastUpdated": "2020-04-09T14:52:03.926Z",
    "dead": 0,
    "id": "Esl5UlCVB9s8pmGB5Ofr",
    "sick": 11,
    "invisible": false
  },
  {
    "latitude": 18.200178,
    "pop": 3195000,
    "longitude": -66.664513,
    "name": "Puerto Rico",
    "country": "PR",
    "lastUpdated": "2020-04-09T14:42:19.714Z",
    "dead": 33,
    "id": "F4rPrEVGAIMM5rfPEMv4",
    "infected": 683,
    "recovered": 0,
    "sick": 650,
    "invisible": false
  },
  {
    "latitude": 4.862437,
    "pop": 2919000,
    "longitude": -74.058655,
    "name": "Cundinamarca",
    "country": "CO",
    "lastUpdated": "2020-04-09T14:19:08.345Z",
    "dead": 3,
    "id": "F7MED5VwEhi3JvJu6KjB",
    "infected": 64,
    "recovered": 4,
    "sick": 57,
    "invisible": false
  },
  {
    "infected": 484,
    "recovered": 32,
    "latitude": 33.93911,
    "pop": 35530000,
    "longitude": 67.709953,
    "name": "Afghanistan",
    "country": "AF",
    "lastUpdated": "2020-04-09T14:45:02.895Z",
    "dead": 15,
    "id": "FCDmlmnIIswd8bQiUjfN",
    "sick": 437,
    "invisible": false
  },
  {
    "longitude": 106.912254,
    "name": "Chongqing",
    "country": "CN",
    "lastUpdated": "2020-04-09T14:29:05.820Z",
    "dead": 6,
    "id": "FErOU1m4Tj7jIkRam3vF",
    "infected": 579,
    "recovered": 570,
    "latitude": 29.431585,
    "pop": 30480000,
    "sick": 3,
    "invisible": false
  },
  {
    "latitude": 29.311661,
    "pop": 4137000,
    "longitude": 47.481766,
    "name": "Kuwait",
    "country": "KW",
    "lastUpdated": "2020-04-09T14:45:02.894Z",
    "dead": 1,
    "id": "FZsUkhxBEgqsPb4eO0PN",
    "infected": 910,
    "recovered": 111,
    "sick": 798,
    "invisible": false
  },
  {
    "id": "FeS45oMNC27pI17F0xEV",
    "infected": 834,
    "recovered": 27,
    "latitude": 11.1271,
    "pop": 67860000,
    "longitude": 78.6569,
    "name": "Tamil Nadu",
    "country": "IN",
    "lastUpdated": "2020-04-09T14:40:01.138Z",
    "dead": 8,
    "sick": 799,
    "invisible": false
  },
  {
    "lastUpdated": "2020-04-09T14:45:02.892Z",
    "dead": 108,
    "id": "FuiVEJvWb0QMCpxJ3563",
    "infected": 2111,
    "recovered": 50,
    "latitude": 18.947829,
    "pop": 10770000,
    "longitude": -70.430399,
    "name": "Dominican Republic",
    "country": "DO",
    "sick": 1953,
    "invisible": false
  },
  {
    "recovered": 45,
    "latitude": 18.1124,
    "pop": 35190000,
    "longitude": 79.0193,
    "name": "Telengana",
    "country": "IN",
    "lastUpdated": "2020-04-09T14:40:01.138Z",
    "dead": 11,
    "id": "FyC551oNwmENxbr9Yght",
    "infected": 471,
    "sick": 415,
    "invisible": false
  },
  {
    "lastUpdated": "2020-04-09T14:45:02.894Z",
    "dead": 2,
    "id": "FzIDXoqWnTI3nUfhPyT2",
    "infected": 701,
    "recovered": 23,
    "latitude": 48.669,
    "pop": 5450000,
    "longitude": 19.699,
    "name": "Slovakia",
    "country": "SK",
    "sick": 676,
    "invisible": false
  },
  {
    "longitude": 69.345116,
    "name": "Pakistan",
    "country": "PK",
    "lastUpdated": "2020-04-09T14:45:02.891Z",
    "dead": 63,
    "id": "GAp7Wb6IMhdgbvEtMza9",
    "infected": 4462,
    "recovered": 572,
    "latitude": 30.37532,
    "pop": 197000000,
    "sick": 3827,
    "invisible": false
  },
  {
    "pop": 27980000,
    "longitude": 75.3412,
    "name": "Punjab",
    "country": "IN",
    "lastUpdated": "2020-04-09T14:40:01.140Z",
    "dead": 10,
    "id": "GGru8cG08mANO8XDDUtZ",
    "infected": 130,
    "recovered": 18,
    "latitude": 31.1471,
    "sick": 102,
    "invisible": false
  },
  {
    "infected": 2659,
    "recovered": 239,
    "latitude": 23.424076,
    "pop": 9400000,
    "longitude": 53.847816,
    "name": "United Arab Emirates",
    "country": "AE",
    "lastUpdated": "2020-04-09T14:45:02.891Z",
    "dead": 12,
    "id": "GHzBIsHy2GiBc5JV2HMs",
    "sick": 2408,
    "invisible": false
  },
  {
    "lastUpdated": "2020-04-09T14:42:19.690Z",
    "dead": 507,
    "id": "Gh46r6vuaY7fbGt3IboN",
    "infected": 19063,
    "recovered": 0,
    "latitude": 36.621981,
    "pop": 39560000,
    "longitude": -119.339046,
    "name": "California",
    "country": "US",
    "sick": 18556,
    "invisible": false
  },
  {
    "infected": 1,
    "recovered": 0,
    "latitude": 20.4283,
    "pop": 343709,
    "longitude": 72.8397,
    "name": "Dadra and Nagar Haveli",
    "country": "IN",
    "lastUpdated": "2020-04-09T14:40:01.142Z",
    "dead": 0,
    "id": "GljWeVnun6o9DeW6rlEm",
    "sick": 1,
    "invisible": false
  },
  {
    "recovered": 0,
    "latitude": 35.87189,
    "pop": 3943000,
    "longitude": -97.145514,
    "name": "Oklahoma",
    "country": "US",
    "lastUpdated": "2020-04-09T14:42:19.713Z",
    "dead": 79,
    "id": "GpF8ULuKOQiFDCUHN44h",
    "infected": 1526,
    "sick": 1447,
    "invisible": false
  },
  {
    "latitude": 46.5,
    "pop": 520891,
    "longitude": 11.35,
    "name": "P.A. Bolzano",
    "country": "IT",
    "lastUpdated": "2020-04-09T14:49:01.123Z",
    "dead": 183,
    "id": "Gzx6GX1qhBm714BkEC6l",
    "infected": 1835,
    "recovered": 371,
    "sick": 1281,
    "invisible": false
  },
  {
    "infected": 126,
    "recovered": 79,
    "latitude": 42.83263,
    "pop": 24710000,
    "longitude": 113.750972,
    "name": "Inner Mongolia",
    "country": "CN",
    "lastUpdated": "2020-04-09T14:29:05.819Z",
    "dead": 1,
    "id": "H3JeVigVbo5CSYfZG4WI",
    "sick": 46,
    "invisible": false
  },
  {
    "lastUpdated": "2020-04-09T14:42:19.713Z",
    "dead": 80,
    "id": "H3bDg4eV30up4WWrIDAS",
    "infected": 2318,
    "recovered": 0,
    "latitude": 39.74536,
    "pop": 3034000,
    "longitude": -116.724977,
    "name": "Nevada",
    "country": "US",
    "sick": 2238,
    "invisible": false
  },
  {
    "infected": 197,
    "recovered": 30,
    "latitude": 15.3173,
    "pop": 64060000,
    "longitude": 75.7139,
    "name": "Karnataka",
    "country": "IN",
    "lastUpdated": "2020-04-09T14:40:01.139Z",
    "dead": 6,
    "id": "HN5mGmxlqlSeFSNeu1K5",
    "sick": 161,
    "invisible": false
  },
  {
    "longitude": 90.4336,
    "name": "Bhutan",
    "country": "BT",
    "lastUpdated": "2020-04-09T14:45:02.906Z",
    "dead": 0,
    "id": "HRDpwyxpqW9RN0xLFyNu",
    "infected": 5,
    "recovered": 2,
    "latitude": 27.5142,
    "pop": 807610,
    "sick": 3,
    "invisible": false
  },
  {
    "infected": 582,
    "recovered": 38,
    "latitude": 41.3775,
    "pop": 32390000,
    "longitude": 64.5853,
    "name": "Uzbekistan",
    "country": "UZ",
    "lastUpdated": "2020-04-09T14:45:02.895Z",
    "dead": 3,
    "id": "HRTA10dtrruDEwjJEGMp",
    "sick": 541,
    "invisible": false
  },
  {
    "lastUpdated": "2020-04-09T14:42:19.714Z",
    "dead": 16,
    "id": "HSSFomRju0doHhWgW8On",
    "infected": 865,
    "recovered": 0,
    "latitude": 34.138916,
    "pop": 2095000,
    "longitude": -105.576255,
    "name": "New Mexico",
    "country": "US",
    "sick": 849,
    "invisible": false
  },
  {
    "lastUpdated": "2020-04-09T14:52:06.325Z",
    "dead": 2,
    "id": "HZkACHjW7NlYjg8vEMj2",
    "infected": 118,
    "recovered": 0,
    "latitude": -40.231,
    "pop": 412812,
    "longitude": -72.3311,
    "name": "Los Ríos",
    "country": "CL",
    "sick": 116,
    "invisible": false
  },
  {
    "lastUpdated": "2020-04-09T14:46:03.488Z",
    "dead": 11,
    "id": "He1gSS1v50t06i3YrqvB",
    "infected": 573,
    "recovered": 204,
    "latitude": 53.6127,
    "pop": 1635000,
    "longitude": 12.4296,
    "name": "Mecklenburg-Vorpommern",
    "country": "DE",
    "sick": 358,
    "invisible": false
  },
  {
    "infected": 3181,
    "recovered": 633,
    "latitude": 23.634501,
    "pop": 129200000,
    "longitude": -102.552788,
    "name": "Mexico",
    "country": "MX",
    "lastUpdated": "2020-04-09T14:45:02.891Z",
    "dead": 174,
    "id": "I4OJ6z9Vjs1byOcbsJrd",
    "sick": 2374,
    "invisible": false
  },
  {
    "id": "I9EqrZfbPnkioNU4wZGz",
    "infected": 1859,
    "recovered": 146,
    "latitude": 42.25,
    "pop": 1315000,
    "longitude": 13.75,
    "name": "Abruzzo",
    "country": "IT",
    "lastUpdated": "2020-04-09T14:49:01.122Z",
    "dead": 179,
    "sick": 1534,
    "invisible": false
  },
  {
    "lastUpdated": "2020-04-09T14:29:05.819Z",
    "dead": 8,
    "id": "IAX0OQLVnUwU7FX0ENF1",
    "infected": 1539,
    "recovered": 1423,
    "latitude": 23.363855,
    "pop": 113460000,
    "longitude": 113.373448,
    "name": "Guangdong",
    "country": "CN",
    "sick": 108,
    "invisible": false
  },
  {
    "latitude": 33.875408,
    "pop": 94000000,
    "longitude": 113.484016,
    "name": "Henan",
    "country": "CN",
    "lastUpdated": "2020-04-09T14:29:05.821Z",
    "dead": 22,
    "id": "IFuMrMvSjoiX5agYvllh",
    "infected": 1276,
    "recovered": 1252,
    "sick": 2,
    "invisible": false
  },
  {
    "recovered": 0,
    "latitude": -36.61667,
    "pop": 480600,
    "longitude": -71.95,
    "name": "Ñuble",
    "country": "CL",
    "lastUpdated": "2020-04-09T14:52:06.325Z",
    "dead": 6,
    "id": "ImnOiVx9Cb8Nw7cbRcQ7",
    "infected": 571,
    "sick": 565,
    "invisible": false
  },
  {
    "lastUpdated": "2020-04-09T14:45:02.902Z",
    "dead": 2,
    "id": "InZ38sIqyK7FN7XAOZoX",
    "infected": 30,
    "recovered": 0,
    "latitude": 19.0558,
    "pop": 10980000,
    "longitude": -73.0513,
    "name": "Haiti",
    "country": "HT",
    "sick": 28,
    "invisible": false
  },
  {
    "latitude": 32.528564,
    "pop": 10520000,
    "longitude": -83.280125,
    "name": "Georgia (US)",
    "country": "US",
    "lastUpdated": "2020-04-09T14:42:19.692Z",
    "dead": 370,
    "id": "IvQkDJkTAsoIqPRAU25n",
    "infected": 10206,
    "recovered": 0,
    "sick": 9836,
    "invisible": false
  },
  {
    "lastUpdated": "2020-04-09T14:45:02.893Z",
    "dead": 1,
    "id": "IvVhpOoGpH6JVkGyUhXN",
    "infected": 1239,
    "recovered": 317,
    "latitude": -42.8285,
    "pop": 4794000,
    "longitude": 172.488081,
    "name": "New Zealand",
    "country": "NZ",
    "sick": 921,
    "invisible": false
  },
  {
    "pop": 1255000,
    "longitude": 94.7278,
    "name": "Arunachal Pradesh",
    "country": "IN",
    "lastUpdated": "2020-04-09T14:52:03.926Z",
    "dead": 0,
    "id": "IwYKiIVY18NGwdGQFGWW",
    "infected": 1,
    "recovered": 0,
    "latitude": 28.218,
    "sick": 1,
    "invisible": false
  },
  {
    "longitude": -66.5897,
    "name": "Venezuela",
    "country": "VE",
    "lastUpdated": "2020-04-09T14:45:02.898Z",
    "dead": 9,
    "id": "J3mZXlfEnnJx4CDZLvRG",
    "infected": 167,
    "recovered": 65,
    "latitude": 6.4238,
    "pop": 31980000,
    "sick": 93,
    "invisible": false
  },
  {
    "pop": 1170000,
    "longitude": 33.4299,
    "name": "Cyprus",
    "country": "CY",
    "lastUpdated": "2020-04-09T14:45:02.895Z",
    "dead": 9,
    "id": "JQByE4l2OA6sGOqIcWrM",
    "infected": 526,
    "recovered": 52,
    "latitude": 35.1264,
    "sick": 465,
    "invisible": false
  },
  {
    "latitude": 25.0961,
    "pop": 99020000,
    "longitude": 85.3131,
    "name": "Bihar",
    "country": "IN",
    "lastUpdated": "2020-04-09T14:40:01.141Z",
    "dead": 1,
    "id": "JR7hOGked7CZtIs2nCV5",
    "infected": 51,
    "recovered": 15,
    "sick": 35,
    "invisible": false
  },
  {
    "infected": 95,
    "recovered": 17,
    "latitude": 14.628434,
    "pop": 19658000,
    "longitude": -90.522713,
    "name": "Guatemala",
    "country": "GT",
    "lastUpdated": "2020-04-09T14:45:02.899Z",
    "dead": 3,
    "id": "JUWE6bG3b5oL7fKQMSvv",
    "sick": 75,
    "invisible": false
  },
  {
    "latitude": 49.8153,
    "pop": 602005,
    "longitude": 6.1296,
    "name": "Luxembourg",
    "country": "LU",
    "lastUpdated": "2020-04-09T14:45:02.891Z",
    "dead": 46,
    "id": "JcFsHSn2WvZ5LJW42ovG",
    "infected": 3034,
    "recovered": 500,
    "sick": 2488,
    "invisible": false
  },
  {
    "infected": 6,
    "recovered": 0,
    "latitude": 8.8,
    "pop": 2049000,
    "longitude": -74.167,
    "name": "Bolívar",
    "country": "CO",
    "lastUpdated": "2020-04-09T14:19:08.347Z",
    "dead": 0,
    "id": "JmOyaFe25yZCIV64JbZj",
    "sick": 6,
    "invisible": false
  },
  {
    "pop": 1786500,
    "longitude": -75.8814316,
    "name": "Córdoba",
    "country": "CO",
    "lastUpdated": "2020-04-09T14:19:08.346Z",
    "dead": 2,
    "id": "Jr8syCB0lydmPDXw8Q6N",
    "infected": 7,
    "recovered": 0,
    "latitude": 8.7479801,
    "sick": 5,
    "invisible": false
  },
  {
    "lastUpdated": "2020-04-09T14:45:02.901Z",
    "dead": 3,
    "id": "JrBbirlBKGdWSdcDt7PF",
    "infected": 73,
    "recovered": 24,
    "latitude": 8.6195,
    "pop": 7798000,
    "longitude": 0.8248,
    "name": "Togo",
    "country": "TG",
    "sick": 46,
    "invisible": false
  },
  {
    "infected": 611,
    "recovered": 48,
    "latitude": 42.7339,
    "pop": 7050000,
    "longitude": 25.4858,
    "name": "Bulgaria",
    "country": "BG",
    "lastUpdated": "2020-04-09T14:45:02.894Z",
    "dead": 24,
    "id": "JzZ8sbqzjutThVjkPKPL",
    "sick": 539,
    "invisible": false
  },
  {
    "lastUpdated": "2020-04-09T14:49:01.123Z",
    "dead": 654,
    "id": "KLXicxFogWnu0dLp4bNK",
    "infected": 4906,
    "recovered": 1007,
    "latitude": 44.5,
    "pop": 1557000,
    "longitude": 8.833,
    "name": "Liguria",
    "country": "IT",
    "sick": 3245,
    "invisible": false
  },
  {
    "recovered": 3,
    "latitude": 10.4631,
    "pop": 1201000,
    "longitude": -73.2532,
    "name": "Cesar",
    "country": "CO",
    "lastUpdated": "2020-04-09T14:19:08.346Z",
    "dead": 0,
    "id": "KpOz3WmiZkrXUMlUJNlV",
    "infected": 17,
    "sick": 14,
    "invisible": false
  },
  {
    "lastUpdated": "2020-04-09T14:49:01.125Z",
    "dead": 392,
    "id": "KrLrJbpDqqiXgUPGCCW9",
    "infected": 6379,
    "recovered": 430,
    "latitude": 43.4167,
    "pop": 3737000,
    "longitude": 11,
    "name": "Toscana",
    "country": "IT",
    "sick": 5557,
    "invisible": false
  },
  {
    "infected": 190,
    "recovered": 49,
    "latitude": 7.873054,
    "pop": 21440000,
    "longitude": 80.771797,
    "name": "Sri Lanka",
    "country": "LK",
    "lastUpdated": "2020-04-09T14:45:02.897Z",
    "dead": 7,
    "id": "KsWzJO06cf0d6LJ4ZNh9",
    "sick": 134,
    "invisible": false
  },
  {
    "infected": 348,
    "recovered": 6,
    "latitude": 15.9129,
    "pop": 49670000,
    "longitude": 79.74,
    "name": "Andhra Pradesh",
    "country": "IN",
    "lastUpdated": "2020-04-09T14:52:03.924Z",
    "dead": 4,
    "id": "KtQIo2DoqjELtPAlyDVO",
    "sick": 338,
    "invisible": false
  },
  {
    "pop": 144500000,
    "longitude": 105.318756,
    "name": "Russia",
    "country": "RU",
    "lastUpdated": "2020-04-09T14:45:02.889Z",
    "dead": 76,
    "id": "KwOuGBKSMRlmwftxAvLX",
    "infected": 10131,
    "recovered": 698,
    "latitude": 61.52401,
    "sick": 9357,
    "invisible": false
  },
  {
    "latitude": 18.0708,
    "pop": 32125,
    "longitude": -63.0501,
    "name": "Saint-Martin",
    "country": "FR",
    "lastUpdated": "2020-04-08T20:33:04.236Z",
    "dead": 2,
    "id": "LBUtrLDKJiupXjlUNTUe",
    "infected": 32,
    "recovered": 11,
    "sick": 19,
    "invisible": false
  },
  {
    "recovered": 55,
    "latitude": 47.166,
    "pop": 38557,
    "longitude": 9.5554,
    "name": "Liechtenstein",
    "country": "LI",
    "lastUpdated": "2020-04-09T14:45:02.900Z",
    "dead": 1,
    "id": "LTGEU2E9MFkrCcFhZYVk",
    "infected": 78,
    "sick": 22,
    "invisible": false
  },
  {
    "latitude": 9.9456,
    "pop": 12720000,
    "longitude": -9.6966,
    "name": "Guinea",
    "country": "GN",
    "lastUpdated": "2020-04-09T14:45:02.898Z",
    "dead": 0,
    "id": "LU2QWt5ao8IJa8evNYVV",
    "infected": 164,
    "recovered": 5,
    "sick": 159,
    "invisible": false
  },
  {
    "infected": 10,
    "recovered": 4,
    "latitude": 3.9193051,
    "pop": 563402,
    "longitude": -56.0277824,
    "name": "Suriname",
    "country": "SR",
    "lastUpdated": "2020-04-09T14:45:02.904Z",
    "dead": 1,
    "id": "LglKINHyQpYpFxjckbQ6",
    "sick": 5,
    "invisible": false
  },
  {
    "latitude": 52.9399,
    "pop": 1174000,
    "longitude": -106.4509,
    "name": "Saskatchewan",
    "country": "CA",
    "lastUpdated": "2020-04-09T14:45:01.334Z",
    "dead": 3,
    "id": "LkIDKY0CMAqzbwBHyYCP",
    "infected": 271,
    "recovered": 0,
    "sick": 268,
    "invisible": false
  },
  {
    "latitude": 24.2155,
    "pop": 636442,
    "longitude": -12.8858,
    "name": "Western Sahara",
    "country": "EH",
    "lastUpdated": "2020-04-09T14:45:02.907Z",
    "dead": 0,
    "id": "LooNn6RuMiDhQnwa9svw",
    "infected": 4,
    "recovered": 0,
    "sick": 4,
    "invisible": false
  },
  {
    "latitude": 43.363129,
    "pop": 1022000,
    "longitude": -5.951843,
    "name": "Principado de Asturias",
    "country": "ES",
    "lastUpdated": "2020-04-09T14:43:02.735Z",
    "dead": 110,
    "id": "Lsga7AvYNnY0qQ5gEfV8",
    "infected": 1737,
    "recovered": 340,
    "sick": 1287,
    "invisible": false
  },
  {
    "infected": 2273,
    "recovered": 381,
    "latitude": 39.4937,
    "pop": 1065000,
    "longitude": -6.0679,
    "name": "Extremadura",
    "country": "ES",
    "lastUpdated": "2020-04-09T14:43:02.736Z",
    "dead": 283,
    "id": "LuEErlF7dVKI0eJsRjFm",
    "sick": 1609,
    "invisible": false
  },
  {
    "lastUpdated": "2020-04-09T14:42:19.714Z",
    "dead": 73,
    "id": "MC8MXFw9iXYybnF8v7e6",
    "infected": 1346,
    "recovered": 0,
    "latitude": 37.8393,
    "pop": 4468000,
    "longitude": -84.27,
    "name": "Kentucky",
    "country": "US",
    "sick": 1273,
    "invisible": false
  },
  {
    "lastUpdated": "2020-04-09T14:42:19.693Z",
    "dead": 203,
    "id": "MOxDkmQ4wBi1CuAdVxDE",
    "infected": 5943,
    "recovered": 0,
    "latitude": 40.2672,
    "pop": 6692000,
    "longitude": -86.1349,
    "name": "Indiana",
    "country": "US",
    "sick": 5740,
    "invisible": false
  },
  {
    "lastUpdated": "2020-04-09T14:45:02.896Z",
    "dead": 3,
    "id": "MdQOfc1gNh2DOqwSP6UV",
    "infected": 384,
    "recovered": 48,
    "latitude": 7.54,
    "pop": 24290000,
    "longitude": -5.5471,
    "name": "Ivory Coast",
    "country": "CI",
    "sick": 333,
    "invisible": false
  },
  {
    "lastUpdated": "2020-04-09T14:46:03.488Z",
    "dead": 470,
    "id": "MjpYq3zQyAvSQlVVYjD2",
    "infected": 23938,
    "recovered": 9883,
    "latitude": 51.4332,
    "pop": 17910000,
    "longitude": 7.6616,
    "name": "Nordrhein-Westfalen",
    "country": "DE",
    "sick": 13585,
    "invisible": false
  },
  {
    "latitude": 37.330509,
    "pop": 6301000,
    "longitude": 105.977203,
    "name": "Ningxia",
    "country": "CN",
    "lastUpdated": "2020-04-09T14:29:05.822Z",
    "dead": 0,
    "id": "MntmjjuHljarCdt6aIeE",
    "infected": 75,
    "recovered": 75,
    "sick": 0,
    "invisible": false
  },
  {
    "latitude": 48.6616,
    "pop": 11020000,
    "longitude": 9.3501,
    "name": "Baden-Württemberg",
    "country": "DE",
    "lastUpdated": "2020-04-09T14:46:03.486Z",
    "dead": 552,
    "id": "N3XsRBwJSsNclkEf7Zz5",
    "infected": 22988,
    "recovered": 6152,
    "sick": 16284,
    "invisible": false
  },
  {
    "latitude": 44.696652,
    "pop": 3507000,
    "longitude": 17.824332,
    "name": "Bosnia and Herzegovina",
    "country": "BA",
    "lastUpdated": "2020-04-09T14:45:02.894Z",
    "dead": 35,
    "id": "N7c13sCQF0G789XAVazJ",
    "infected": 841,
    "recovered": 95,
    "sick": 711,
    "invisible": false
  },
  {
    "infected": 166,
    "recovered": 134,
    "latitude": 37.242565,
    "pop": 36500000,
    "longitude": 111.856857,
    "name": "Shanxi",
    "country": "CN",
    "lastUpdated": "2020-04-09T14:29:05.819Z",
    "dead": 0,
    "id": "NBRIGIRrJB1Ry8prDNAC",
    "sick": 32,
    "invisible": false
  },
  {
    "longitude": -79.0193,
    "name": "North Carolina",
    "country": "US",
    "lastUpdated": "2020-04-09T14:42:19.693Z",
    "dead": 68,
    "id": "NC64Qp5kTqAfiTuR27k8",
    "infected": 3578,
    "recovered": 0,
    "latitude": 35.7596,
    "pop": 10380000,
    "sick": 3510,
    "invisible": false
  },
  {
    "infected": 1716,
    "recovered": 272,
    "latitude": 52.4125,
    "pop": 2504000,
    "longitude": 12.5316,
    "name": "Brandenburg",
    "country": "DE",
    "lastUpdated": "2020-04-09T14:46:03.487Z",
    "dead": 46,
    "id": "NJjo2gfBvnbK4xatrsUz",
    "sick": 1398,
    "invisible": false
  },
  {
    "latitude": 30.0668,
    "pop": 10080000,
    "longitude": 79.0193,
    "name": "Uttarakhand",
    "country": "IN",
    "lastUpdated": "2020-04-09T14:52:03.929Z",
    "dead": 0,
    "id": "NMeZEcGToxXfpi16PfFV",
    "infected": 35,
    "recovered": 5,
    "sick": 30,
    "invisible": false
  },
  {
    "latitude": 50.6521,
    "pop": 6243000,
    "longitude": 9.1624,
    "name": "Hessen",
    "country": "DE",
    "lastUpdated": "2020-04-09T14:46:03.488Z",
    "dead": 114,
    "id": "Nk5vPgUIXsWVfbWZf15O",
    "infected": 5273,
    "recovered": 1394,
    "sick": 3765,
    "invisible": false
  },
  {
    "lastUpdated": "2020-04-09T14:45:02.895Z",
    "dead": 2,
    "id": "NmmMKy0YqA8StHdGzB5N",
    "infected": 589,
    "recovered": 16,
    "latitude": 56.96776,
    "pop": 1920000,
    "longitude": 25.837107,
    "name": "Latvia",
    "country": "LV",
    "sick": 571,
    "invisible": false
  },
  {
    "infected": 31,
    "recovered": 3,
    "latitude": 6.4281,
    "pop": 4732000,
    "longitude": -9.4295,
    "name": "Liberia",
    "country": "LR",
    "lastUpdated": "2020-04-09T14:45:02.902Z",
    "dead": 4,
    "id": "O4g88K49HKEZLFXm5gxb",
    "sick": 24,
    "invisible": false
  },
  {
    "infected": 2552,
    "recovered": 0,
    "latitude": 34.003307,
    "pop": 5084000,
    "longitude": -80.525613,
    "name": "South Carolina",
    "country": "US",
    "lastUpdated": "2020-04-09T14:42:19.713Z",
    "dead": 63,
    "id": "ONU4CK8QjViFHKg2w5if",
    "sick": 2489,
    "invisible": false
  },
  {
    "pop": 2987000,
    "longitude": -89.582775,
    "name": "Mississippi",
    "country": "US",
    "lastUpdated": "2020-04-09T14:42:19.713Z",
    "dead": 67,
    "id": "OYa0jFzdbAgo8zUsRv6q",
    "infected": 2003,
    "recovered": 0,
    "latitude": 33.51822,
    "sick": 1936,
    "invisible": false
  },
  {
    "infected": 537,
    "recovered": 0,
    "latitude": 45.2538,
    "pop": 1338000,
    "longitude": -69.4455,
    "name": "Maine",
    "country": "US",
    "lastUpdated": "2020-04-09T14:42:19.715Z",
    "dead": 14,
    "id": "OcXNp9kNVSwrRlG3bNVN",
    "sick": 523,
    "invisible": false
  },
  {
    "latitude": -41.915264,
    "pop": 515000,
    "longitude": 146.725256,
    "name": "Tasmania",
    "country": "AU",
    "lastUpdated": "2020-04-09T14:45:01.335Z",
    "dead": 3,
    "id": "OnOseaqWdnuP18oruABW",
    "infected": 106,
    "recovered": 48,
    "sick": 55,
    "invisible": false
  },
  {
    "latitude": 19.3133,
    "pop": 61559,
    "longitude": -81.2546,
    "name": "Cayman Islands",
    "country": "KY",
    "lastUpdated": "2020-04-09T14:45:02.902Z",
    "dead": 1,
    "id": "P4mwRFLbrvT0t75uD8Wo",
    "infected": 45,
    "recovered": 6,
    "sick": 38,
    "invisible": false
  },
  {
    "lastUpdated": "2020-04-09T14:45:02.905Z",
    "dead": 0,
    "id": "PEDkeFMTOZpvHiSVxBk7",
    "infected": 9,
    "recovered": 0,
    "latitude": 16.7424984,
    "pop": 5900,
    "longitude": -62.1873665,
    "name": "Montserrat",
    "country": "MS",
    "sick": 9,
    "invisible": false
  },
  {
    "id": "PEcgZGEkyhABztt1Ufgc",
    "infected": 110,
    "recovered": 7,
    "latitude": -1.9403,
    "pop": 12210000,
    "longitude": 29.8739,
    "name": "Rwanda",
    "country": "RW",
    "lastUpdated": "2020-04-09T14:45:02.899Z",
    "dead": 0,
    "sick": 103,
    "invisible": false
  },
  {
    "lastUpdated": "2020-04-09T14:42:19.714Z",
    "dead": 39,
    "id": "PJvVYosLIhbcRZYnKX1R",
    "infected": 1154,
    "recovered": 0,
    "latitude": 46.7296,
    "pop": 5611000,
    "longitude": -94.6859,
    "name": "Minnesota",
    "country": "US",
    "sick": 1115,
    "invisible": false
  },
  {
    "infected": 15079,
    "recovered": 2,
    "latitude": 40.6331,
    "pop": 12740000,
    "longitude": -89.3985,
    "name": "Illinois",
    "country": "US",
    "lastUpdated": "2020-04-09T14:42:19.691Z",
    "dead": 462,
    "id": "PTwQr9ijo0TBBsPH2sdJ",
    "sick": 14615,
    "invisible": false
  },
  {
    "infected": 14,
    "recovered": 1,
    "latitude": 13.909444,
    "pop": 178844,
    "longitude": -60.978893,
    "name": "Saint Lucia",
    "country": "LC",
    "lastUpdated": "2020-04-09T14:45:02.903Z",
    "dead": 0,
    "id": "PjLqCeFdyzdZNcZxMkK1",
    "sick": 13,
    "invisible": false
  },
  {
    "longitude": -1.6761,
    "name": "Comunidad Foral de Navarra",
    "country": "ES",
    "lastUpdated": "2020-04-09T14:43:02.737Z",
    "dead": 214,
    "id": "PmUlsNx2uFLU797wwU39",
    "infected": 3575,
    "recovered": 462,
    "latitude": 42.6954,
    "pop": 649900,
    "sick": 2899,
    "invisible": false
  },
  {
    "infected": 628,
    "recovered": 25,
    "latitude": 34.201507,
    "pop": 11530000,
    "longitude": 9.460554,
    "name": "Tunisia",
    "country": "TN",
    "lastUpdated": "2020-04-09T14:45:02.894Z",
    "dead": 24,
    "id": "Pr76V4raf108uSRoEXac",
    "sick": 579,
    "invisible": false
  },
  {
    "latitude": -26.5225,
    "pop": 1367000,
    "longitude": 31.4659,
    "name": "Eswatini",
    "country": "SZ",
    "lastUpdated": "2020-04-09T14:45:02.904Z",
    "dead": 0,
    "id": "PuQgOd9KWiMzGZXm11sR",
    "infected": 12,
    "recovered": 7,
    "sick": 5,
    "invisible": false
  },
  {
    "id": "Q18mrGvFWTLX2BU9SqhQ",
    "infected": 1228,
    "recovered": 736,
    "latitude": -37.009609,
    "pop": 6359000,
    "longitude": 143.94853,
    "name": "Victoria",
    "country": "AU",
    "lastUpdated": "2020-04-09T14:45:01.331Z",
    "dead": 12,
    "sick": 480,
    "invisible": false
  },
  {
    "lastUpdated": "2020-04-09T14:46:03.489Z",
    "dead": 33,
    "id": "Q39XkabIYxt15mHINzTa",
    "infected": 1955,
    "recovered": 272,
    "latitude": 54.2194,
    "pop": 2890000,
    "longitude": 9.6961,
    "name": "Schleswig-Holstein",
    "country": "DE",
    "sick": 1650,
    "invisible": false
  },
  {
    "infected": 1207,
    "recovered": 83,
    "latitude": 58.595272,
    "pop": 1328000,
    "longitude": 25.013607,
    "name": "Estonia",
    "country": "EE",
    "lastUpdated": "2020-04-09T14:45:02.893Z",
    "dead": 24,
    "id": "QR9go2hQKXjty7JHUYe4",
    "sick": 1100,
    "invisible": false
  },
  {
    "lastUpdated": "2020-04-09T14:45:02.907Z",
    "dead": 0,
    "id": "QlZrE4nosm5WfdA2aCDg",
    "infected": 2,
    "recovered": 0,
    "latitude": -6.315,
    "pop": 8251000,
    "longitude": 143.9555,
    "name": "Papua New Guinea",
    "country": "PG",
    "sick": 2,
    "invisible": false
  },
  {
    "infected": 45,
    "recovered": 0,
    "latitude": 18.3358,
    "pop": 107268,
    "longitude": -64.8963,
    "name": "U.S. Virgin Islands",
    "country": "US",
    "lastUpdated": "2020-04-09T14:42:19.716Z",
    "dead": 1,
    "id": "QqhD3YDMKXojvQY3Yu41",
    "sick": 44,
    "invisible": false
  },
  {
    "infected": 15,
    "recovered": 1,
    "latitude": 15.414999,
    "pop": 71937,
    "longitude": -61.3709755,
    "name": "Dominica",
    "country": "DM",
    "lastUpdated": "2020-04-09T14:45:02.903Z",
    "dead": 0,
    "id": "Qy2qW2ep5wltnYjPJBxh",
    "sick": 14,
    "invisible": false
  },
  {
    "infected": 2,
    "recovered": 1,
    "latitude": 5.167,
    "pop": 344027,
    "longitude": -72.167,
    "name": "Casanare",
    "country": "CO",
    "lastUpdated": "2020-04-09T14:19:08.346Z",
    "dead": 0,
    "id": "R3IHMWqIUhOJJTlrmbUZ",
    "sick": 1,
    "invisible": false
  },
  {
    "latitude": 8.538,
    "pop": 4099000,
    "longitude": -80.7821,
    "name": "Panama",
    "country": "PA",
    "lastUpdated": "2020-04-09T14:45:02.892Z",
    "dead": 63,
    "id": "R8YCgephnxTufvcPWMgx",
    "infected": 2528,
    "recovered": 16,
    "sick": 2449,
    "invisible": false
  },
  {
    "latitude": 15.2,
    "pop": 9265000,
    "longitude": -86.2419,
    "name": "Honduras",
    "country": "HN",
    "lastUpdated": "2020-04-09T14:45:02.896Z",
    "dead": 23,
    "id": "RA2SE0p2bVhqo0P2hzGY",
    "infected": 343,
    "recovered": 6,
    "sick": 314,
    "invisible": false
  },
  {
    "id": "RBt9RiwP7WUbMnJfD0lo",
    "infected": 75,
    "recovered": 0,
    "latitude": -18.4745998,
    "pop": 224500,
    "longitude": -70.2979202,
    "name": "Arica y Parinacota",
    "country": "CL",
    "lastUpdated": "2020-04-09T14:52:06.323Z",
    "dead": 0,
    "sick": 75,
    "invisible": false
  },
  {
    "lastUpdated": "2020-04-09T14:49:01.123Z",
    "dead": 169,
    "id": "RCrDBCdBNYzgLNr0aB2H",
    "infected": 2218,
    "recovered": 634,
    "latitude": 45.633331,
    "pop": 1216000,
    "longitude": 13.8,
    "name": "Friuli Venezia Giulia",
    "country": "IT",
    "sick": 1415,
    "invisible": false
  },
  {
    "latitude": 41.878,
    "pop": 3156000,
    "longitude": -93.0977,
    "name": "Iowa",
    "country": "US",
    "lastUpdated": "2020-04-09T14:42:19.714Z",
    "dead": 27,
    "id": "RX0KDu1AFrlCsrRso0nb",
    "infected": 1145,
    "recovered": 0,
    "sick": 1118,
    "invisible": false
  },
  {
    "latitude": 4.624335,
    "pop": 7413000,
    "longitude": -74.063644,
    "name": "Bogotá D.C.",
    "country": "CO",
    "lastUpdated": "2020-04-09T14:19:08.337Z",
    "dead": 25,
    "id": "RZ6PCe5TZsO15JjDObwO",
    "infected": 992,
    "recovered": 66,
    "sick": 901,
    "invisible": false
  },
  {
    "latitude": 26.3351002,
    "pop": 6846000,
    "longitude": 17.2283306,
    "name": "Libya",
    "country": "LY",
    "lastUpdated": "2020-04-09T14:45:02.903Z",
    "dead": 1,
    "id": "RaJxbzlnRFTuj4B8IbpC",
    "infected": 21,
    "recovered": 8,
    "sick": 12,
    "invisible": false
  },
  {
    "latitude": 39.0119,
    "pop": 2912000,
    "longitude": -98.4842,
    "name": "Kansas",
    "country": "US",
    "lastUpdated": "2020-04-09T14:42:19.714Z",
    "dead": 38,
    "id": "Rf4uvBfP3GRDSHdZElRd",
    "infected": 1056,
    "recovered": 0,
    "sick": 1018,
    "invisible": false
  },
  {
    "longitude": 6.1878,
    "name": "Grand Est",
    "country": "FR",
    "lastUpdated": "2020-04-08T20:27:59.409Z",
    "dead": 1781,
    "id": "RmEgf1xeclWt7XCF9oiR",
    "infected": 14177,
    "recovered": 3797,
    "latitude": 48.6998,
    "pop": 5518000,
    "sick": 8599,
    "invisible": false
  },
  {
    "infected": 5276,
    "recovered": 0,
    "latitude": 51.2538,
    "pop": 14570000,
    "longitude": -85.3232,
    "name": "Ontario",
    "country": "CA",
    "lastUpdated": "2020-04-09T14:45:01.325Z",
    "dead": 174,
    "id": "Rx4TuyMpfGb3S8wYJX0x",
    "sick": 5102,
    "invisible": false
  },
  {
    "infected": 10518,
    "recovered": 3242,
    "latitude": 41.652779,
    "pop": 2408000,
    "longitude": -4.723611,
    "name": "Castilla y León",
    "country": "ES",
    "lastUpdated": "2020-04-09T14:43:02.735Z",
    "dead": 1082,
    "id": "S8ewN4zaYp8mjtuqqOTw",
    "sick": 6194,
    "invisible": false
  },
  {
    "infected": 154,
    "recovered": 50,
    "latitude": 14.652027,
    "pop": 376480,
    "longitude": -61.011715,
    "name": "Martinique",
    "country": "FR",
    "lastUpdated": "2020-04-09T14:45:02.898Z",
    "dead": 6,
    "id": "SDdefnq1bc3ZNr7SpEsW",
    "sick": 98,
    "invisible": false
  },
  {
    "infected": 313,
    "recovered": 34,
    "latitude": 7.9465,
    "pop": 28830000,
    "longitude": -1.0232,
    "name": "Ghana",
    "country": "GH",
    "lastUpdated": "2020-04-09T14:45:02.896Z",
    "dead": 6,
    "id": "SG9VWLOV3x2JsTkXmVSz",
    "sick": 273,
    "invisible": false
  },
  {
    "lastUpdated": "2020-04-09T14:45:02.889Z",
    "dead": 926,
    "id": "SGe9sCPayMqh6RsGFaBA",
    "infected": 23612,
    "recovered": 9900,
    "latitude": 46.818188,
    "pop": 8570000,
    "longitude": 8.227512,
    "name": "Switzerland",
    "country": "CH",
    "sick": 12786,
    "invisible": false
  },
  {
    "latitude": 46.8139,
    "pop": 8485000,
    "longitude": -71.208,
    "name": "Quebec",
    "country": "CA",
    "lastUpdated": "2020-04-09T14:45:01.325Z",
    "dead": 175,
    "id": "SHoOE3NiJgWAlDVBzwYH",
    "infected": 10031,
    "recovered": 0,
    "sick": 9856,
    "invisible": false
  },
  {
    "latitude": 42.6026,
    "pop": 1831000,
    "longitude": 20.903,
    "name": "Kosovo",
    "country": "XK",
    "lastUpdated": "2020-04-09T14:14:08.523Z",
    "dead": 6,
    "id": "SMWvuMMuKp2QK7O2tNia",
    "infected": 224,
    "recovered": 37,
    "sick": 181,
    "invisible": false
  },
  {
    "longitude": 74.124,
    "name": "Goa",
    "country": "IN",
    "lastUpdated": "2020-04-09T14:52:03.927Z",
    "dead": 0,
    "id": "SPcujsH2YlUaoAr8AiWF",
    "infected": 7,
    "recovered": 0,
    "latitude": 15.2993,
    "pop": 1817000,
    "sick": 7,
    "invisible": false
  },
  {
    "recovered": 44,
    "latitude": 39,
    "pop": 1957000,
    "longitude": 16.5,
    "name": "Calabria",
    "country": "IT",
    "lastUpdated": "2020-04-09T14:49:01.123Z",
    "dead": 60,
    "id": "SZdF624x0v1LlyzZjKFu",
    "infected": 859,
    "sick": 755,
    "invisible": false
  },
  {
    "infected": 534,
    "recovered": 0,
    "latitude": 41.4925,
    "pop": 1929000,
    "longitude": -99.9018,
    "name": "Nebraska",
    "country": "US",
    "lastUpdated": "2020-04-09T14:42:19.715Z",
    "dead": 14,
    "id": "SakhKQzKu1LRI8laqdQq",
    "sick": 520,
    "invisible": false
  },
  {
    "lastUpdated": "2020-04-09T14:45:02.896Z",
    "dead": 0,
    "id": "SgHzWAAYK1j2sipovxM6",
    "infected": 362,
    "recovered": 40,
    "latitude": -21.1151,
    "pop": 859959,
    "longitude": 55.5364,
    "name": "La Réunion",
    "country": "FR",
    "sick": 322,
    "invisible": false
  },
  {
    "recovered": 63,
    "latitude": 12.565679,
    "pop": 16010000,
    "longitude": 104.990967,
    "name": "Cambodia",
    "country": "KH",
    "lastUpdated": "2020-04-09T14:45:02.899Z",
    "dead": 0,
    "id": "SioMALgUbo7peXmbco2f",
    "infected": 119,
    "sick": 56,
    "invisible": false
  },
  {
    "latitude": 13.4443,
    "pop": 164229,
    "longitude": 144.7937,
    "name": "Guam",
    "country": "GU",
    "lastUpdated": "2020-04-09T14:42:19.715Z",
    "dead": 4,
    "id": "SsWhuEElU7dCTTuH5fdQ",
    "infected": 125,
    "recovered": 0,
    "sick": 121,
    "invisible": false
  },
  {
    "infected": 180,
    "recovered": 9,
    "latitude": -4.0383,
    "pop": 81340000,
    "longitude": 21.7587,
    "name": "DR Congo",
    "country": "CD",
    "lastUpdated": "2020-04-09T14:45:02.898Z",
    "dead": 18,
    "id": "T3iRf8mTUTAzbKrORTap",
    "sick": 153,
    "invisible": false
  },
  {
    "lastUpdated": "2020-04-09T14:45:02.891Z",
    "dead": 44,
    "id": "T7NffoeCgTUpAbOHvYwP",
    "infected": 3287,
    "recovered": 666,
    "latitude": 23.635796,
    "pop": 32940000,
    "longitude": 44.344334,
    "name": "Saudi Arabia",
    "country": "SA",
    "sick": 2577,
    "invisible": false
  },
  {
    "infected": 3026,
    "recovered": 1172,
    "latitude": 42.2871,
    "pop": 315700,
    "longitude": -2.5396,
    "name": "La Rioja",
    "country": "ES",
    "lastUpdated": "2020-04-09T14:43:02.737Z",
    "dead": 182,
    "id": "TNDTapyb0k3l7Mds9q9R",
    "sick": 1672,
    "invisible": false
  },
  {
    "latitude": 4.506106,
    "pop": 428697,
    "longitude": 114.650692,
    "name": "Brunei",
    "country": "BN",
    "lastUpdated": "2020-04-09T14:45:02.898Z",
    "dead": 1,
    "id": "TQZmzsLhJqjtCSExAkCP",
    "infected": 135,
    "recovered": 92,
    "sick": 42,
    "invisible": false
  },
  {
    "longitude": 4.3853,
    "name": "Auvergne-Rhône-Alpes",
    "country": "FR",
    "lastUpdated": "2020-04-08T20:21:54.251Z",
    "dead": 654,
    "id": "TT0MKODSjrxHvG19xZCa",
    "infected": 8131,
    "recovered": 2330,
    "latitude": 45.4471,
    "pop": 8027000,
    "sick": 5147,
    "invisible": false
  },
  {
    "pop": 5696000,
    "longitude": -105.461392,
    "name": "Colorado",
    "country": "US",
    "lastUpdated": "2020-04-09T14:42:19.693Z",
    "dead": 193,
    "id": "Th4dlpXXmSDgi1OHs36P",
    "infected": 5655,
    "recovered": 0,
    "latitude": 39.318928,
    "sick": 5462,
    "invisible": false
  },
  {
    "infected": 414,
    "recovered": 134,
    "latitude": 12.2383,
    "pop": 19190000,
    "longitude": -1.5616,
    "name": "Burkina Faso",
    "country": "BF",
    "lastUpdated": "2020-04-09T14:45:02.896Z",
    "dead": 23,
    "id": "Tup6oDCHj6DgqZR3nQ3x",
    "sick": 257,
    "invisible": false
  },
  {
    "infected": 12,
    "recovered": 0,
    "latitude": 12.104818,
    "pop": 112381,
    "longitude": -61.670761,
    "name": "Grenada",
    "country": "GD",
    "lastUpdated": "2020-04-09T14:45:02.904Z",
    "dead": 0,
    "id": "TvqURPN5xzVBXsmGP46N",
    "sick": 12,
    "invisible": false
  },
  {
    "latitude": 55.675758,
    "pop": 5603000,
    "longitude": 12.56902,
    "name": "Denmark",
    "country": "DK",
    "lastUpdated": "2020-04-09T14:45:02.890Z",
    "dead": 237,
    "id": "Ty1AY3VLPJcRZgdBIERx",
    "infected": 5635,
    "recovered": 1736,
    "sick": 3662,
    "invisible": false
  },
  {
    "latitude": 36.395859,
    "pop": 100472400,
    "longitude": 118.769882,
    "name": "Shandong",
    "country": "CN",
    "lastUpdated": "2020-04-09T14:29:05.819Z",
    "dead": 7,
    "id": "U0tkTJ9CGsBuFJ2Gdoum",
    "infected": 783,
    "recovered": 756,
    "sick": 20,
    "invisible": false
  },
  {
    "lastUpdated": "2020-04-09T14:45:02.897Z",
    "dead": 34,
    "id": "U12rMD5GDW58Q0lIwrB1",
    "infected": 308,
    "recovered": 45,
    "latitude": 43.94236,
    "pop": 33400,
    "longitude": 12.457777,
    "name": "San Marino",
    "country": "SM",
    "sick": 229,
    "invisible": false
  },
  {
    "infected": 4667,
    "recovered": 632,
    "latitude": 36.204823,
    "pop": 126800000,
    "longitude": 138.25293,
    "name": "Japan",
    "country": "JP",
    "lastUpdated": "2020-04-09T14:45:02.891Z",
    "dead": 94,
    "id": "U13Gy4BpRLAZ95bPmBXd",
    "sick": 3941,
    "invisible": false
  },
  {
    "infected": 53,
    "recovered": 0,
    "latitude": 1.3733,
    "pop": 42860000,
    "longitude": 32.2903,
    "name": "Uganda",
    "country": "UG",
    "lastUpdated": "2020-04-09T14:45:02.901Z",
    "dead": 0,
    "id": "UCZXEgnHtxUoChWLR6fQ",
    "sick": 53,
    "invisible": false
  },
  {
    "latitude": -11.2027,
    "pop": 29780000,
    "longitude": 17.8739,
    "name": "Angola",
    "country": "AO",
    "lastUpdated": "2020-04-09T14:45:02.903Z",
    "dead": 2,
    "id": "UIbrFy6kiTTF0D37Kqmp",
    "infected": 19,
    "recovered": 2,
    "sick": 15,
    "invisible": false
  },
  {
    "infected": 1330,
    "recovered": 373,
    "latitude": 48.202,
    "pop": 3329000,
    "longitude": -2.9326,
    "name": "Bretagne",
    "country": "FR",
    "lastUpdated": "2020-04-08T20:23:12.818Z",
    "dead": 107,
    "id": "URKMlJ7OTNldjpaxFbjE",
    "sick": 850,
    "invisible": false
  },
  {
    "lastUpdated": "2020-04-09T14:46:03.488Z",
    "dead": 44,
    "id": "UfFaUECHINUutv1M9tzq",
    "infected": 3370,
    "recovered": 1900,
    "latitude": 53.5511,
    "pop": 1822000,
    "longitude": 9.9937,
    "name": "Hamburg",
    "country": "DE",
    "sick": 1426,
    "invisible": false
  },
  {
    "lastUpdated": "2020-04-09T14:45:01.336Z",
    "dead": 0,
    "id": "UrF45V1VqMo6YBib2KlL",
    "infected": 27,
    "recovered": 2,
    "latitude": -19.4914,
    "pop": 211945,
    "longitude": 132.551,
    "name": "Northern Territory",
    "country": "AU",
    "sick": 25,
    "invisible": false
  },
  {
    "longitude": -63.0548286,
    "name": "Sint Maarten",
    "country": "SX",
    "lastUpdated": "2020-04-09T14:45:02.902Z",
    "dead": 6,
    "id": "UsxgpiuFCtlR2CW1UUFm",
    "infected": 43,
    "recovered": 1,
    "latitude": 18.0424805,
    "pop": 41109,
    "sick": 36,
    "invisible": false
  },
  {
    "latitude": 11.943179,
    "pop": 241773,
    "longitude": 79.808206,
    "name": "Puducherry",
    "country": "IN",
    "lastUpdated": "2020-04-09T14:52:03.929Z",
    "dead": 0,
    "id": "V1qE740s3EUGyKGr6SVv",
    "infected": 5,
    "recovered": 1,
    "sick": 4,
    "invisible": false
  },
  {
    "infected": 7,
    "recovered": 0,
    "latitude": -45.5687,
    "pop": 25569,
    "longitude": -72.0597,
    "name": "Aysén",
    "country": "CL",
    "lastUpdated": "2020-04-09T14:52:06.325Z",
    "dead": 0,
    "id": "V9QxUhV4DyYK7iElEhXV",
    "sick": 7,
    "invisible": false
  },
  {
    "id": "VAG9AcMABTf8oIAfELPh",
    "infected": 457,
    "recovered": 27,
    "latitude": 21.5218,
    "pop": 11480000,
    "longitude": -77.7812,
    "name": "Cuba",
    "country": "CU",
    "lastUpdated": "2020-04-09T14:45:02.895Z",
    "dead": 12,
    "sick": 418,
    "invisible": false
  },
  {
    "latitude": 25.181129,
    "pop": 45970000,
    "longitude": 101.864143,
    "name": "Yunnan",
    "country": "CN",
    "lastUpdated": "2020-04-09T14:29:05.820Z",
    "dead": 2,
    "id": "VIf8T8PD3ZzlzAm5eBCX",
    "infected": 184,
    "recovered": 173,
    "sick": 9,
    "invisible": false
  },
  {
    "infected": 410,
    "recovered": 31,
    "latitude": 26.8467,
    "pop": 204200000,
    "longitude": 80.9462,
    "name": "Uttar Pradesh",
    "country": "IN",
    "lastUpdated": "2020-04-09T14:52:03.930Z",
    "dead": 4,
    "id": "VcKcLdCkC6YpPfIDnRVD",
    "sick": 375,
    "invisible": false
  },
  {
    "recovered": 0,
    "latitude": 64.8255,
    "pop": 44826,
    "longitude": -124.8457,
    "name": "Northwest Territories",
    "country": "CA",
    "lastUpdated": "2020-04-09T14:45:01.336Z",
    "dead": 0,
    "id": "Vd3lLgrNsr81plzTgZkz",
    "infected": 5,
    "sick": 5,
    "invisible": false
  },
  {
    "latitude": 39.999079,
    "pop": 1188000,
    "longitude": 3.838942,
    "name": "Islas Baleares",
    "country": "ES",
    "lastUpdated": "2020-04-09T14:43:02.735Z",
    "dead": 89,
    "id": "VyW0IR9vLMdgnKz1cC7j",
    "infected": 1448,
    "recovered": 696,
    "sick": 663,
    "invisible": false
  },
  {
    "lastUpdated": "2020-04-08T20:31:34.440Z",
    "dead": 195,
    "id": "WAnbFrEjtZDTCIYBt8rz",
    "infected": 3019,
    "recovered": 993,
    "latitude": 43.8927,
    "pop": 5893000,
    "longitude": 3.2828,
    "name": "Occitanie",
    "country": "FR",
    "sick": 1831,
    "invisible": false
  },
  {
    "longitude": 16.5,
    "name": "Basilicata",
    "country": "IT",
    "lastUpdated": "2020-04-09T14:49:01.122Z",
    "dead": 14,
    "id": "WD502XimGXnWzqYg7zxL",
    "infected": 297,
    "recovered": 13,
    "latitude": 40.5,
    "pop": 567118,
    "sick": 270,
    "invisible": false
  },
  {
    "latitude": 24.6637,
    "pop": 2722000,
    "longitude": 93.9063,
    "name": "Manipur",
    "country": "IN",
    "lastUpdated": "2020-04-09T14:52:03.929Z",
    "dead": 0,
    "id": "WKsJQmcpWKxnp0nCwN77",
    "infected": 2,
    "recovered": 1,
    "sick": 1,
    "invisible": false
  },
  {
    "lastUpdated": "2020-04-09T14:45:02.892Z",
    "dead": 18,
    "id": "Whrue10NtwIObLvFFyBr",
    "infected": 1845,
    "recovered": 95,
    "latitude": -30.5595,
    "pop": 56720000,
    "longitude": 22.9375,
    "name": "South Africa",
    "country": "ZA",
    "sick": 1732,
    "invisible": false
  },
  {
    "latitude": 13.443182,
    "pop": 2101000,
    "longitude": -15.3101387,
    "name": "Gambia",
    "country": "GM",
    "lastUpdated": "2020-04-09T14:45:02.907Z",
    "dead": 1,
    "id": "Wk811YwpQxsOCfz8As86",
    "infected": 4,
    "recovered": 2,
    "sick": 1,
    "invisible": false
  },
  {
    "longitude": 90.3563,
    "name": "Bangladesh",
    "country": "BD",
    "lastUpdated": "2020-04-09T14:45:02.896Z",
    "dead": 21,
    "id": "WpLayPPLIJ7VcHZdQaoM",
    "infected": 330,
    "recovered": 33,
    "latitude": 23.685,
    "pop": 164700000,
    "sick": 276,
    "invisible": false
  },
  {
    "infected": 12410,
    "recovered": 1503,
    "latitude": 45.5,
    "pop": 4905000,
    "longitude": 11.75,
    "name": "Veneto",
    "country": "IT",
    "lastUpdated": "2020-04-09T14:49:01.126Z",
    "dead": 736,
    "id": "X2iRhHF6f9pUnJcxPc3J",
    "sick": 10171,
    "invisible": false
  },
  {
    "infected": 1,
    "recovered": 0,
    "latitude": -8.556856,
    "pop": 1311000,
    "longitude": 125.56031,
    "name": "Timor-Leste",
    "country": "TL",
    "lastUpdated": "2020-04-09T14:45:02.907Z",
    "dead": 0,
    "id": "X3GMAVINj2GDzIRVfo7n",
    "sick": 1,
    "invisible": false
  },
  {
    "latitude": 34.152588,
    "pop": 274289,
    "longitude": 77.577049,
    "name": "Ladakh",
    "country": "IN",
    "lastUpdated": "2020-04-09T14:52:03.928Z",
    "dead": 0,
    "id": "X3PZqaJxtnlxcgP4tzya",
    "infected": 14,
    "recovered": 10,
    "sick": 4,
    "invisible": false
  },
  {
    "infected": 351,
    "recovered": 308,
    "latitude": 25.92448,
    "pop": 38560000,
    "longitude": 118.278992,
    "name": "Fujian",
    "country": "CN",
    "lastUpdated": "2020-04-09T14:29:05.819Z",
    "dead": 1,
    "id": "XBBw0iMPrmiEu3qogkbi",
    "sick": 42,
    "invisible": false
  },
  {
    "infected": 286,
    "recovered": 0,
    "latitude": -52.368,
    "pop": 166533,
    "longitude": -70.9863,
    "name": "Magallanes",
    "country": "CL",
    "lastUpdated": "2020-04-09T14:52:06.325Z",
    "dead": 3,
    "id": "XIYUg6ShQvWyEAJfyJzC",
    "sick": 283,
    "invisible": false
  },
  {
    "latitude": -32.5228,
    "pop": 3457000,
    "longitude": -55.7658,
    "name": "Uruguay",
    "country": "UY",
    "lastUpdated": "2020-04-09T14:45:02.895Z",
    "dead": 7,
    "id": "XrsuLstdybIqIvv0E0aJ",
    "infected": 456,
    "recovered": 192,
    "sick": 257,
    "invisible": false
  },
  {
    "longitude": 9.0129,
    "name": "Corse",
    "country": "FR",
    "lastUpdated": "2020-04-08T20:27:03.567Z",
    "dead": 32,
    "id": "YGXgIObKVabP2CYEdcb9",
    "infected": 337,
    "recovered": 117,
    "latitude": 42.0396,
    "pop": 339178,
    "sick": 188,
    "invisible": false
  },
  {
    "id": "YI9zIOUXJqAcgc0T80yb",
    "infected": 38,
    "recovered": 5,
    "latitude": 2.916112,
    "pop": 1126000,
    "longitude": -75.28344,
    "name": "Huila",
    "country": "CO",
    "lastUpdated": "2020-04-09T14:19:08.345Z",
    "dead": 2,
    "sick": 31,
    "invisible": false
  },
  {
    "longitude": 35.2332,
    "name": "Palestine",
    "country": "PS",
    "lastUpdated": "2020-04-09T14:45:02.897Z",
    "dead": 1,
    "id": "YMzKw0SnXG71VT7H1jff",
    "infected": 263,
    "recovered": 44,
    "latitude": 31.9522,
    "pop": 5052000,
    "sick": 218,
    "invisible": false
  },
  {
    "longitude": -15.1804132,
    "name": "Guinea-Bissau",
    "country": "GW",
    "lastUpdated": "2020-04-09T14:45:02.902Z",
    "dead": 0,
    "id": "YZoy8ReFucvC3IFnWZHn",
    "infected": 33,
    "recovered": 0,
    "latitude": 11.8037491,
    "pop": 1955000,
    "sick": 33,
    "invisible": false
  },
  {
    "latitude": 64.2008,
    "pop": 737438,
    "longitude": -149.4937,
    "name": "Alaska",
    "country": "US",
    "lastUpdated": "2020-04-09T14:42:19.715Z",
    "dead": 7,
    "id": "YaCODTMD1KKRnrAlkg2u",
    "infected": 226,
    "recovered": 0,
    "sick": 219,
    "invisible": false
  },
  {
    "pop": 2178000,
    "longitude": -2.6189,
    "name": "País Vasco",
    "country": "ES",
    "lastUpdated": "2020-04-09T14:43:02.737Z",
    "dead": 689,
    "id": "YfA7o2lZP1DhV4JB6Umh",
    "infected": 9806,
    "recovered": 4514,
    "latitude": 42.9896,
    "sick": 4603,
    "invisible": false
  },
  {
    "recovered": 6973,
    "latitude": 37.568291,
    "pop": 51470000,
    "longitude": 126.99778,
    "name": "South Korea",
    "country": "KR",
    "lastUpdated": "2020-04-09T14:45:02.889Z",
    "dead": 204,
    "id": "Yw9uBekNlefXBcOCNMfP",
    "infected": 10423,
    "sick": 3246,
    "invisible": false
  },
  {
    "pop": 285719,
    "longitude": -59.543198,
    "name": "Barbados",
    "country": "BB",
    "lastUpdated": "2020-04-09T14:45:02.901Z",
    "dead": 3,
    "id": "YzZqZMJGvG6joQCdiuXC",
    "infected": 63,
    "recovered": 8,
    "latitude": 13.193887,
    "sick": 52,
    "invisible": false
  },
  {
    "infected": 5341,
    "recovered": 284,
    "latitude": 52.2297,
    "pop": 37980000,
    "longitude": 21.0122,
    "name": "Poland",
    "country": "PL",
    "lastUpdated": "2020-04-09T14:45:02.890Z",
    "dead": 164,
    "id": "ZAZNuCK1VweBaTLCFzCk",
    "sick": 4893,
    "invisible": false
  },
  {
    "longitude": 178.065033,
    "name": "Fiji",
    "country": "FJ",
    "lastUpdated": "2020-04-09T14:45:02.903Z",
    "dead": 0,
    "id": "ZmzOT0sJgfWXEpRImItC",
    "infected": 15,
    "recovered": 0,
    "latitude": -17.713371,
    "pop": 905502,
    "sick": 15,
    "invisible": false
  },
  {
    "longitude": -73.0877,
    "name": "Connecticut",
    "country": "US",
    "lastUpdated": "2020-04-09T14:42:19.693Z",
    "dead": 335,
    "id": "Zqy0gftQzocR49jEJNMl",
    "infected": 8781,
    "recovered": 0,
    "latitude": 41.6032,
    "pop": 3573000,
    "sick": 8446,
    "invisible": false
  },
  {
    "longitude": 13.516667,
    "name": "Marche",
    "country": "IT",
    "lastUpdated": "2020-04-09T14:49:01.124Z",
    "dead": 652,
    "id": "Zwbjs4XN7P9s849Q3zFj",
    "infected": 4859,
    "recovered": 645,
    "latitude": 43.616943,
    "pop": 1532000,
    "sick": 3562,
    "invisible": false
  },
  {
    "longitude": 10.8453,
    "name": "Thüringen",
    "country": "DE",
    "lastUpdated": "2020-04-09T14:46:03.489Z",
    "dead": 22,
    "id": "a9OgUWo6ZSWA3HyF0xnj",
    "infected": 1339,
    "recovered": 314,
    "latitude": 51.011,
    "pop": 2137000,
    "sick": 1003,
    "invisible": false
  },
  {
    "recovered": 120,
    "latitude": -30.000233,
    "pop": 1677000,
    "longitude": 136.209152,
    "name": "South Australia",
    "country": "AU",
    "lastUpdated": "2020-04-09T14:45:01.333Z",
    "dead": 3,
    "id": "a9p9pAOsjg1WAjPGc2a6",
    "infected": 421,
    "sick": 298,
    "invisible": false
  },
  {
    "recovered": 0,
    "latitude": -33.047237,
    "pop": 295100,
    "longitude": -71.612686,
    "name": "Valparaíso",
    "country": "CL",
    "lastUpdated": "2020-04-09T14:52:06.324Z",
    "dead": 2,
    "id": "aNN8fCwDCMMdlpMC2Fml",
    "infected": 230,
    "sick": 228,
    "invisible": false
  },
  {
    "infected": 3432,
    "recovered": 0,
    "latitude": 37.9643,
    "pop": 6126000,
    "longitude": -91.8318,
    "name": "Missouri",
    "country": "US",
    "lastUpdated": "2020-04-09T14:42:19.693Z",
    "dead": 93,
    "id": "aPubGfQ8ToSEuKJldKRT",
    "sick": 3339,
    "invisible": false
  },
  {
    "latitude": 23.64407,
    "pop": 48380000,
    "longitude": 108.26651,
    "name": "Guangxi",
    "country": "CN",
    "lastUpdated": "2020-04-09T14:29:05.821Z",
    "dead": 2,
    "id": "aTa8MiBjtH3iY0SRs2HQ",
    "infected": 254,
    "recovered": 252,
    "sick": 0,
    "invisible": false
  },
  {
    "latitude": 6.6111,
    "pop": 4659000,
    "longitude": 20.9394,
    "name": "CAR",
    "country": "CF",
    "lastUpdated": "2020-04-09T14:45:02.905Z",
    "dead": 0,
    "id": "adcBUeAYp6ey0ZXCzKNs",
    "infected": 8,
    "recovered": 0,
    "sick": 8,
    "invisible": false
  },
  {
    "lastUpdated": "2020-04-09T14:42:19.693Z",
    "dead": 75,
    "id": "afeZTVC1J1SMMNFxkrcc",
    "infected": 3645,
    "recovered": 0,
    "latitude": 37.4316,
    "pop": 8518000,
    "longitude": -78.6569,
    "name": "Virginia",
    "country": "US",
    "sick": 3570,
    "invisible": false
  },
  {
    "longitude": 116.407394,
    "name": "Beijing",
    "country": "CN",
    "lastUpdated": "2020-04-09T14:29:05.818Z",
    "dead": 8,
    "id": "alj4hkxg9cjrTxOzwFKt",
    "infected": 588,
    "recovered": 464,
    "latitude": 39.904202,
    "pop": 21540000,
    "sick": 116,
    "invisible": false
  },
  {
    "infected": 1,
    "recovered": 0,
    "latitude": 46.9419365,
    "pop": 5800,
    "longitude": -56.2711105,
    "name": "Saint Pierre Miquelon",
    "country": "PM",
    "lastUpdated": "2020-04-09T14:45:02.907Z",
    "dead": 0,
    "id": "axK1QECL0ba4j2KePcaH",
    "sick": 1,
    "invisible": false
  },
  {
    "lastUpdated": "2020-04-09T14:45:02.893Z",
    "dead": 69,
    "id": "b7TwXX46FA0EmH1CjHET",
    "infected": 1202,
    "recovered": 452,
    "latitude": 33.22319,
    "pop": 38270000,
    "longitude": 43.679291,
    "name": "Iraq",
    "country": "IQ",
    "sick": 681,
    "invisible": false
  },
  {
    "latitude": 40.4168,
    "pop": 6662000,
    "longitude": -3.7038,
    "name": "Comunidad de Madrid",
    "country": "ES",
    "lastUpdated": "2020-04-09T14:43:02.736Z",
    "dead": 5800,
    "id": "b8xaIMD5TMoenwfrtaYa",
    "infected": 43877,
    "recovered": 21121,
    "sick": 16956,
    "invisible": false
  },
  {
    "id": "b9p1JhVml3GGC7iiPmKv",
    "infected": 250,
    "recovered": 123,
    "latitude": 14.457474,
    "pop": 15850000,
    "longitude": -14.358636,
    "name": "Senegal",
    "country": "SN",
    "lastUpdated": "2020-04-09T14:45:02.897Z",
    "dead": 2,
    "sick": 125,
    "invisible": false
  },
  {
    "latitude": -0.0236,
    "pop": 49700000,
    "longitude": 37.9062,
    "name": "Kenya",
    "country": "KE",
    "lastUpdated": "2020-04-09T14:45:02.897Z",
    "dead": 7,
    "id": "bVHiTolbUJGHIeVht3eG",
    "infected": 184,
    "recovered": 12,
    "sick": 165,
    "invisible": false
  },
  {
    "lastUpdated": "2020-04-09T14:42:19.689Z",
    "dead": 1504,
    "id": "bYp4RRHv19M7lYtSzQeV",
    "infected": 47437,
    "recovered": 0,
    "latitude": 39.561889,
    "pop": 8909000,
    "longitude": -74.672169,
    "name": "New Jersey",
    "country": "US",
    "sick": 45933,
    "invisible": false
  },
  {
    "lastUpdated": "2020-04-09T14:45:02.891Z",
    "dead": 67,
    "id": "bdqD4kpdqGgUaX70Tm2Q",
    "infected": 4228,
    "recovered": 1608,
    "latitude": 3.139,
    "pop": 31620000,
    "longitude": 101.6869,
    "name": "Malaysia",
    "country": "MY",
    "sick": 2553,
    "invisible": false
  },
  {
    "longitude": -68.262383,
    "name": "Caribbean Netherlands",
    "country": "BQ",
    "lastUpdated": "2020-04-09T14:45:02.907Z",
    "dead": 0,
    "id": "be9TyF8p1bLoSF6l32se",
    "infected": 2,
    "recovered": 0,
    "latitude": 12.20189,
    "pop": 25160,
    "sick": 2,
    "invisible": false
  },
  {
    "recovered": 205,
    "latitude": 60.128162,
    "pop": 10120000,
    "longitude": 18.643501,
    "name": "Sweden",
    "country": "SE",
    "lastUpdated": "2020-04-09T14:45:02.889Z",
    "dead": 793,
    "id": "bignnyt2A8BBx8VNo32p",
    "infected": 9141,
    "sick": 8143,
    "invisible": false
  },
  {
    "pop": 31900000,
    "longitude": 85.2799,
    "name": "Jharkhand",
    "country": "IN",
    "lastUpdated": "2020-04-09T14:40:01.142Z",
    "dead": 1,
    "id": "bo2XnTYrVRoaktD5uF93",
    "infected": 13,
    "recovered": 0,
    "latitude": 23.6102,
    "sick": 12,
    "invisible": false
  },
  {
    "pop": 53100,
    "longitude": -62.754593,
    "name": "Saint Kitts and Nevis",
    "country": "KN",
    "lastUpdated": "2020-04-09T14:45:02.904Z",
    "dead": 0,
    "id": "bor36ktvkrB3iSxlsegc",
    "infected": 11,
    "recovered": 0,
    "latitude": 17.363747,
    "sick": 11,
    "invisible": false
  },
  {
    "latitude": 40.973765,
    "pop": 2877000,
    "longitude": 20.010162,
    "name": "Albania",
    "country": "AL",
    "lastUpdated": "2020-04-09T14:45:02.896Z",
    "dead": 22,
    "id": "cCGmFmwHOoBrEpvG3qBP",
    "infected": 409,
    "recovered": 165,
    "sick": 222,
    "invisible": false
  },
  {
    "longitude": 96.199379,
    "name": "Myanmar",
    "country": "MM",
    "lastUpdated": "2020-04-09T14:45:02.902Z",
    "dead": 3,
    "id": "cIbchhSBTuxXmXYgpkdB",
    "infected": 23,
    "recovered": 1,
    "latitude": 16.871311,
    "pop": 55901000,
    "sick": 19,
    "invisible": false
  },
  {
    "latitude": -25.953724,
    "pop": 29670000,
    "longitude": 32.588711,
    "name": "Mozambique",
    "country": "MZ",
    "lastUpdated": "2020-04-09T14:45:02.903Z",
    "dead": 0,
    "id": "cO8TChMvQvAtoZMNurTQ",
    "infected": 17,
    "recovered": 1,
    "sick": 16,
    "invisible": false
  },
  {
    "lastUpdated": "2020-04-09T14:45:02.903Z",
    "dead": 0,
    "id": "cPxONYsVo6BgvCW9HUeQ",
    "infected": 16,
    "recovered": 4,
    "latitude": 46.8625,
    "pop": 3076000,
    "longitude": 103.8467,
    "name": "Mongolia",
    "country": "MN",
    "sick": 12,
    "invisible": false
  },
  {
    "id": "cPxe7nsRnOf6aOPqHElJ",
    "infected": 1616,
    "recovered": 633,
    "latitude": 64.963051,
    "pop": 364260,
    "longitude": -19.020836,
    "name": "Iceland",
    "country": "IS",
    "lastUpdated": "2020-04-09T14:45:02.892Z",
    "dead": 6,
    "sick": 977,
    "invisible": false
  },
  {
    "latitude": 31.046051,
    "pop": 8712000,
    "longitude": 34.851612,
    "name": "Israel",
    "country": "IL",
    "lastUpdated": "2020-04-09T14:45:02.889Z",
    "dead": 79,
    "id": "cX891t0ONLNFj0MYq6La",
    "infected": 9755,
    "recovered": 864,
    "sick": 8812,
    "invisible": false
  },
  {
    "latitude": 4.749531,
    "pop": 290691,
    "longitude": -53.112909,
    "name": "Guyane",
    "country": "FR",
    "lastUpdated": "2020-04-09T14:45:02.899Z",
    "dead": 0,
    "id": "cc7s6hYGQ2MovBBBgkKb",
    "infected": 83,
    "recovered": 43,
    "sick": 40,
    "invisible": false
  },
  {
    "latitude": 61.8926,
    "pop": 49290,
    "longitude": -6.9118,
    "name": "Faeroe Islands",
    "country": "FO",
    "lastUpdated": "2020-04-09T14:45:02.898Z",
    "dead": 0,
    "id": "cgzd5EM8PZv5ziJtTz1w",
    "infected": 184,
    "recovered": 136,
    "sick": 48,
    "invisible": false
  },
  {
    "id": "chj2FF3zb4Xxcop9RHre",
    "infected": 16746,
    "recovered": 0,
    "latitude": 41.2033,
    "pop": 12810000,
    "longitude": -77.1945,
    "name": "Pennsylvania",
    "country": "US",
    "lastUpdated": "2020-04-09T14:42:19.690Z",
    "dead": 319,
    "sick": 16427,
    "invisible": false
  },
  {
    "latitude": 45.7087,
    "pop": 5987000,
    "longitude": 0.6269,
    "name": "Nouvelle-Aquitaine",
    "country": "FR",
    "lastUpdated": "2020-04-08T20:31:16.368Z",
    "dead": 165,
    "id": "cpf3Y5PQTYywIm3PrpIQ",
    "infected": 2347,
    "recovered": 739,
    "sick": 1443,
    "invisible": false
  },
  {
    "recovered": 0,
    "latitude": 18.2206,
    "pop": 15094,
    "longitude": -63.0686,
    "name": "Anguilla",
    "country": "AI",
    "lastUpdated": "2020-04-09T14:45:02.907Z",
    "dead": 0,
    "id": "dVHsmH70A3rxJupqsHzC",
    "infected": 3,
    "sick": 3,
    "invisible": false
  },
  {
    "lastUpdated": "2020-04-09T14:45:02.895Z",
    "dead": 25,
    "id": "dedMXSYR2k92wkSXNZqn",
    "infected": 583,
    "recovered": 58,
    "latitude": 42.50837,
    "pop": 76965,
    "longitude": 1.517155,
    "name": "Andorra",
    "country": "AD",
    "sick": 500,
    "invisible": false
  },
  {
    "latitude": 38.831163,
    "pop": 967171,
    "longitude": -75.375673,
    "name": "Delaware",
    "country": "US",
    "lastUpdated": "2020-04-09T14:42:19.714Z",
    "dead": 19,
    "id": "dzCgqYduzyncjNKU9z6G",
    "infected": 1116,
    "recovered": 0,
    "sick": 1097,
    "invisible": false
  },
  {
    "infected": 38226,
    "recovered": 1846,
    "latitude": 38.9637,
    "pop": 80810000,
    "longitude": 35.2433,
    "name": "Turkey",
    "country": "TR",
    "lastUpdated": "2020-04-09T14:45:02.889Z",
    "dead": 812,
    "id": "dzIcCaUZlbIXuRw0SyDE",
    "sick": 35568,
    "invisible": false
  },
  {
    "infected": 13163,
    "recovered": 5240,
    "latitude": 47.516232,
    "pop": 8822000,
    "longitude": 14.550072,
    "name": "Austria",
    "country": "AT",
    "lastUpdated": "2020-04-09T14:45:02.889Z",
    "dead": 295,
    "id": "e3BtI12qbqhE8jypOoZu",
    "sick": 7628,
    "invisible": false
  },
  {
    "lastUpdated": "2020-04-09T14:46:03.488Z",
    "dead": 165,
    "id": "e3CJgTO8wVbBQZaxqNze",
    "infected": 7313,
    "recovered": 2498,
    "latitude": 52.6367,
    "pop": 7963000,
    "longitude": 9.8451,
    "name": "Niedersachsen",
    "country": "DE",
    "sick": 4650,
    "invisible": false
  },
  {
    "lastUpdated": "2020-04-09T14:29:05.820Z",
    "dead": 2,
    "id": "e7P83iImanpd9r36oXK3",
    "infected": 144,
    "recovered": 132,
    "latitude": 41.097481,
    "pop": 43900000,
    "longitude": 122.310669,
    "name": "Liaoning",
    "country": "CN",
    "sick": 10,
    "invisible": false
  },
  {
    "latitude": 31.230391,
    "pop": 24240000,
    "longitude": 121.473701,
    "name": "Shanghai",
    "country": "CN",
    "lastUpdated": "2020-04-09T14:29:05.818Z",
    "dead": 7,
    "id": "e9pQqQa7CEblCYoDtfKo",
    "infected": 552,
    "recovered": 422,
    "sick": 123,
    "invisible": false
  },
  {
    "pop": 6902000,
    "longitude": -71.382439,
    "name": "Massachusetts",
    "country": "US",
    "lastUpdated": "2020-04-09T14:42:19.690Z",
    "dead": 433,
    "id": "eCKDGssww4pF7NrxOySu",
    "infected": 16790,
    "recovered": 0,
    "latitude": 42.407211,
    "sick": 16357,
    "invisible": false
  },
  {
    "lastUpdated": "2020-04-09T14:43:02.735Z",
    "dead": 3148,
    "id": "eLBIRTx4egPh0gGwoQRT",
    "infected": 31043,
    "recovered": 13063,
    "latitude": 41.5912,
    "pop": 7566000,
    "longitude": 1.5209,
    "name": "Cataluña",
    "country": "ES",
    "sick": 14832,
    "invisible": false
  },
  {
    "latitude": 43.740451,
    "pop": 38695,
    "longitude": 7.432032,
    "name": "Monaco",
    "country": "MC",
    "lastUpdated": "2020-04-09T14:45:02.900Z",
    "dead": 1,
    "id": "eLgKPNUwYM5MNDAtF6ql",
    "infected": 81,
    "recovered": 4,
    "sick": 76,
    "invisible": false
  },
  {
    "lastUpdated": "2020-04-09T14:45:02.907Z",
    "dead": 0,
    "id": "eZi9SQC0jHq5jma6YHKW",
    "infected": 3,
    "recovered": 0,
    "latitude": 18.4207,
    "pop": 31196,
    "longitude": -64.64,
    "name": "British Virgin Islands",
    "country": "VG",
    "sick": 3,
    "invisible": false
  },
  {
    "latitude": -22.328474,
    "pop": 2292000,
    "longitude": 24.684866,
    "name": "Botswana",
    "country": "BW",
    "lastUpdated": "2020-04-09T14:45:02.904Z",
    "dead": 1,
    "id": "edr7fI7Q4Kjj92eyyYLL",
    "infected": 13,
    "recovered": 0,
    "sick": 12,
    "invisible": false
  },
  {
    "id": "ejrjMKfHexGnK52FS9Aa",
    "infected": 3863,
    "recovered": 1160,
    "latitude": 47.2805,
    "pop": 2686000,
    "longitude": 4.9994,
    "name": "Bourgogne-Franche-Comté",
    "country": "FR",
    "lastUpdated": "2020-04-08T20:22:51.200Z",
    "dead": 412,
    "sick": 2291,
    "invisible": false
  },
  {
    "infected": 14,
    "recovered": 0,
    "latitude": 7.217,
    "pop": 2061000,
    "longitude": -73.083,
    "name": "Santander",
    "country": "CO",
    "lastUpdated": "2020-04-09T14:19:08.346Z",
    "dead": 1,
    "id": "er6jMhFclftpPfsmBU9s",
    "sick": 13,
    "invisible": false
  },
  {
    "infected": 764,
    "recovered": 60,
    "latitude": 48.0196,
    "pop": 18040000,
    "longitude": 66.9237,
    "name": "Kazakhstan",
    "country": "KZ",
    "lastUpdated": "2020-04-09T14:45:02.894Z",
    "dead": 7,
    "id": "etrmrftkQg6Kbd9seAga",
    "sick": 697,
    "invisible": false
  },
  {
    "longitude": 102.960701,
    "name": "Sichuan",
    "country": "CN",
    "lastUpdated": "2020-04-09T14:29:05.820Z",
    "dead": 3,
    "id": "eyK5bxFkwdoAouIBvLFM",
    "infected": 560,
    "recovered": 541,
    "latitude": 30.14208,
    "pop": 81100000,
    "sick": 16,
    "invisible": false
  },
  {
    "lastUpdated": "2020-04-09T14:45:02.895Z",
    "dead": 2,
    "id": "f9kmlhYtc3WA3kjbWszW",
    "infected": 457,
    "recovered": 109,
    "latitude": 21.473534,
    "pop": 4636000,
    "longitude": 55.975414,
    "name": "Oman",
    "country": "OM",
    "sick": 346,
    "invisible": false
  },
  {
    "latitude": -0.228021,
    "pop": 81340000,
    "longitude": 15.8276587,
    "name": "Congo",
    "country": "CG",
    "lastUpdated": "2020-04-09T14:45:02.901Z",
    "dead": 5,
    "id": "fEyJ83bQtvcaes8KLhVx",
    "infected": 60,
    "recovered": 5,
    "sick": 50,
    "invisible": false
  },
  {
    "lastUpdated": "2020-04-09T14:46:03.488Z",
    "dead": 63,
    "id": "fGqVm2khm3IBRs709S1f",
    "infected": 3394,
    "recovered": 352,
    "latitude": 51.1045,
    "pop": 4081000,
    "longitude": 13.2017,
    "name": "Sachsen",
    "country": "DE",
    "sick": 2979,
    "invisible": false
  },
  {
    "latitude": 47,
    "longitude": 2,
    "name": "Unknown France region",
    "country": "FR",
    "lastUpdated": "2020-04-08T20:39:00.000Z",
    "dead": 3236,
    "id": "fIp76gl05LhZ0aOxUbhz",
    "invisible": true,
    "infected": 0,
    "recovered": 0,
    "sick": 0
  },
  {
    "infected": 10,
    "recovered": 2,
    "latitude": 15.4542,
    "pop": 14900000,
    "longitude": 18.7322,
    "name": "Chad",
    "country": "TD",
    "lastUpdated": "2020-04-09T14:45:02.904Z",
    "dead": 0,
    "id": "fJc9CaZGR1OCHaW8Tn4V",
    "sick": 8,
    "invisible": false
  },
  {
    "lastUpdated": "2020-04-09T14:45:02.896Z",
    "dead": 6,
    "id": "fK06AziL8wyrcoz7rsmJ",
    "infected": 358,
    "recovered": 150,
    "latitude": 31.295929,
    "pop": 9702000,
    "longitude": 36.691952,
    "name": "Jordan",
    "country": "JO",
    "sick": 202,
    "invisible": false
  },
  {
    "id": "fNganaGVPifA4QahEQPS",
    "infected": 15698,
    "recovered": 0,
    "latitude": 27.716933,
    "pop": 21300000,
    "longitude": -81.555239,
    "name": "Florida",
    "country": "US",
    "lastUpdated": "2020-04-09T14:42:19.690Z",
    "dead": 323,
    "sick": 15375,
    "invisible": false
  },
  {
    "infected": 712,
    "recovered": 587,
    "latitude": 35.452016,
    "longitude": 139.664285,
    "name": "Diamond Princess (Cruise)",
    "country": "ZZ",
    "dead": 10,
    "lastUpdated": "2020-04-09T01:12:20.348Z",
    "id": "fNnE9CD0SttEVrCUo1Ym",
    "sick": 115,
    "invisible": false
  },
  {
    "recovered": 407,
    "latitude": 46.0679,
    "pop": 538223,
    "longitude": 11.1211,
    "name": "P.A. Trento",
    "country": "IT",
    "lastUpdated": "2020-04-09T14:49:01.125Z",
    "dead": 255,
    "id": "fOlU5JggPKOO8jbHh5GD",
    "infected": 2602,
    "sick": 1940,
    "invisible": false
  },
  {
    "latitude": 52.52,
    "pop": 3748000,
    "longitude": 13.405,
    "name": "Berlin",
    "country": "DE",
    "lastUpdated": "2020-04-09T14:46:03.487Z",
    "dead": 37,
    "id": "ffKhENYKy3bwsyBLiYtE",
    "infected": 4212,
    "recovered": 2097,
    "sick": 2078,
    "invisible": false
  },
  {
    "infected": 67803,
    "recovered": 64187,
    "latitude": 31.160629,
    "pop": 58500000,
    "longitude": 112.255402,
    "name": "Hubei",
    "country": "CN",
    "lastUpdated": "2020-04-09T14:29:05.740Z",
    "dead": 3215,
    "id": "fiJ14DCxw15e3SMemh8R",
    "sick": 401,
    "invisible": false
  },
  {
    "infected": 1892,
    "recovered": 45,
    "latitude": 50.4501,
    "pop": 42220000,
    "longitude": 30.5234,
    "name": "Ukraine",
    "country": "UA",
    "lastUpdated": "2020-04-09T14:45:02.892Z",
    "dead": 57,
    "id": "flbZ2kaR5kBuV8XZ2Nsu",
    "sick": 1790,
    "invisible": false
  },
  {
    "pop": 6202000,
    "longitude": 74.7661,
    "name": "Kyrgyzstan",
    "country": "KG",
    "lastUpdated": "2020-04-09T14:45:02.897Z",
    "dead": 4,
    "id": "fst48lrFxiMJbQPf4nur",
    "infected": 280,
    "recovered": 35,
    "latitude": 41.2044,
    "sick": 241,
    "invisible": false
  },
  {
    "infected": 21762,
    "recovered": 250,
    "latitude": 52.132633,
    "pop": 17180000,
    "longitude": 5.291266,
    "name": "Netherlands",
    "country": "NL",
    "lastUpdated": "2020-04-09T14:45:02.889Z",
    "dead": 2396,
    "id": "g0lRMtEJbucWIGqSPn0I",
    "sick": 19116,
    "invisible": false
  },
  {
    "infected": 1077,
    "recovered": 0,
    "latitude": 34.69522,
    "pop": 3014000,
    "longitude": -92.288012,
    "name": "Arkansas",
    "country": "US",
    "lastUpdated": "2020-04-09T14:42:19.714Z",
    "dead": 18,
    "id": "gIdgxJZfTl2QOSYEwMAz",
    "sick": 1059,
    "invisible": false
  },