[
  {
    "lastUpdated": "2020-07-11T23:00:06.998Z",
    "recovered": 21,
    "infected": 28,
    "id": "01b09TY4vmuZwzVuiRFK",
    "pop": 72600,
    "country": "CO",
    "longitude": -81.7006,
    "name": "San Andrés",
    "latitude": 12.5847,
    "dead": 0,
    "sick": 7,
    "invisible": false
  },
  {
    "country": "GG",
    "longitude": -2.5895,
    "name": "Guernsey",
    "alwaysShow": false,
    "latitude": 49.4482,
    "dead": 13,
    "lastUpdated": "2020-07-11T22:49:02.779Z",
    "recovered": 238,
    "infected": 252,
    "id": "0FOJefeLxQYXQ1CnJm9o",
    "pop": 63196,
    "sick": 1,
    "invisible": false
  },
  {
    "latitude": 41.066666,
    "dead": 432,
    "lastUpdated": "2020-07-11T23:01:01.905Z",
    "recovered": 4095,
    "infected": 4769,
    "state": "72",
    "id": "0GJcws44NSPsDHAuxJhW",
    "pop": 5827000,
    "country": "IT",
    "longitude": 14.333333,
    "name": "Campania",
    "sick": 242,
    "invisible": false
  },
  {
    "name": "Tarapacá",
    "latitude": -20.2167,
    "dead": 108,
    "lastUpdated": "2020-07-11T22:51:04.924Z",
    "recovered": 0,
    "infected": 7050,
    "id": "0HDQbiHe462xMCUV5HiI",
    "pop": 383870,
    "country": "CL",
    "longitude": -70.14222,
    "sick": 6942,
    "invisible": false
  },
  {
    "latitude": 20.9517,
    "dead": 79,
    "lastUpdated": "2020-07-11T23:11:02.340Z",
    "recovered": 8360,
    "infected": 12526,
    "id": "0VG7S6aaK4eSo59fL9JO",
    "pop": 45990000,
    "country": "IN",
    "longitude": 85.0985,
    "name": "Odisha",
    "sick": 4087,
    "invisible": false
  },
  {
    "latitude": 20.4737,
    "dead": 773,
    "lastUpdated": "2020-07-11T23:02:02.078Z",
    "recovered": 0,
    "infected": 4676,
    "id": "0XmCRqiK2ZaehoEJvfer",
    "pop": 2990300,
    "country": "MX",
    "longitude": -98.8582,
    "name": "Hidalgo",
    "sick": 3903,
    "invisible": false
  },
  {
    "lastUpdated": "2020-07-11T23:11:02.342Z",
    "recovered": 92,
    "infected": 156,
    "id": "0jStOpTUNRaQYJqgmRoK",
    "pop": 427246,
    "country": "IN",
    "longitude": 92.6586,
    "name": "Andaman and Nicobar Islands",
    "latitude": 11.7401,
    "dead": 0,
    "sick": 64,
    "invisible": false
  },
  {
    "lastUpdated": "2020-07-11T23:16:02.768Z",
    "recovered": 98934,
    "infected": 103128,
    "id": "0m4aECS0Z2DGFEr8ldgI",
    "pop": 2639000,
    "country": "QA",
    "longitude": 51.145517,
    "name": "Qatar",
    "latitude": 25.315058,
    "dead": 146,
    "sick": 4048,
    "invisible": false
  },
  {
    "lastUpdated": "2020-07-11T23:11:02.339Z",
    "recovered": 17959,
    "infected": 28453,
    "id": "0n54EMSDJcRoT1QEvw80",
    "pop": 90320000,
    "country": "IN",
    "longitude": 87.855,
    "name": "West Bengal",
    "latitude": 22.9868,
    "dead": 906,
    "sick": 9588,
    "invisible": false
  },
  {
    "longitude": 78.6569,
    "name": "Madhya Pradesh",
    "latitude": 22.9734,
    "dead": 644,
    "lastUpdated": "2020-07-11T23:11:02.340Z",
    "recovered": 12679,
    "infected": 17201,
    "id": "0s18o5DrDAHjbu5MFcrj",
    "pop": 73340000,
    "country": "IN",
    "sick": 3878,
    "invisible": false
  },
  {
    "latitude": 37.0902,
    "dead": 0,
    "lastUpdated": "2020-07-11T23:16:02.766Z",
    "recovered": 1487887,
    "infected": 0,
    "id": "0tFoopNTs6e4tOoaltu2",
    "country": "US",
    "longitude": -95.7129,
    "invisible": true,
    "name": "Unknown US state",
    "sick": 0
  },
  {
    "latitude": 35.64249,
    "dead": 3,
    "lastUpdated": "2020-07-11T23:08:09.693Z",
    "recovered": 314,
    "infected": 321,
    "id": "0x2HLhr5z5xAtEdO4iZm",
    "pop": 37330000,
    "country": "CN",
    "longitude": 108.472214,
    "name": "Shaanxi",
    "sick": 4,
    "invisible": false
  },
  {
    "name": "North Macedonia",
    "latitude": 41.643351,
    "dead": 376,
    "lastUpdated": "2020-07-11T23:16:02.774Z",
    "recovered": 4080,
    "infected": 7975,
    "id": "19MvIhipqTyYv1H37Upw",
    "pop": 2077000,
    "country": "MK",
    "longitude": 21.668393,
    "sick": 3519,
    "invisible": false
  },
  {
    "lastUpdated": "2020-07-11T23:07:08.317Z",
    "recovered": 258,
    "infected": 262,
    "state": "NL",
    "id": "1DOMOmCWDtva46OVSZLv",
    "pop": 521542,
    "country": "CA",
    "longitude": -57.6604,
    "name": "Newfoundland and Labrador",
    "latitude": 53.1355,
    "dead": 3,
    "sick": 1,
    "invisible": false
  },
  {
    "longitude": 96.779286,
    "name": "Qinghai",
    "latitude": 35.801933,
    "dead": 0,
    "lastUpdated": "2020-07-11T23:08:09.695Z",
    "recovered": 18,
    "infected": 18,
    "id": "1Fap7rZu9SIRqf5TG9Dg",
    "pop": 5627000,
    "country": "CN",
    "sick": 0,
    "invisible": false
  },
  {
    "country": "MX",
    "longitude": -102.5528,
    "invisible": true,
    "name": "Unknown Mexico state",
    "latitude": 23.6345,
    "dead": 0,
    "lastUpdated": "2020-07-11T23:16:02.767Z",
    "recovered": 177097,
    "infected": 0,
    "id": "1YXQMlVL3fUeDZmcVfJw",
    "pop": 126200000,
    "sick": 0
  },
  {
    "latitude": 55.0555,
    "dead": 40,
    "lastUpdated": "2020-07-11T23:00:08.421Z",
    "recovered": 2626,
    "infected": 4563,
    "id": "1at5nIap9H51v32otlQl",
    "pop": 1960000,
    "country": "RU",
    "longitude": 73.3167,
    "name": "Omsk Oblast",
    "sick": 1897,
    "invisible": false
  },
  {
    "longitude": 8.206944,
    "name": "Piemonte",
    "latitude": 44.9,
    "dead": 4111,
    "lastUpdated": "2020-07-11T23:01:01.905Z",
    "recovered": 26314,
    "infected": 31494,
    "state": "21",
    "id": "1eTSQyfp8RoDPeFrIwun",
    "pop": 4376000,
    "country": "IT",
    "sick": 1069,
    "invisible": false
  },
  {
    "latitude": 51.993,
    "dead": 0,
    "lastUpdated": "2020-07-11T23:03:02.693Z",
    "recovered": 0,
    "infected": 186,
    "id": "1j1OurxLTpZYuWIWwQ9F",
    "pop": 1003000,
    "country": "PL",
    "longitude": 15.461,
    "name": "Lubuskie",
    "sick": 186,
    "invisible": false
  },
  {
    "latitude": 47.4116,
    "dead": 640,
    "lastUpdated": "2020-07-11T23:16:02.772Z",
    "recovered": 12456,
    "infected": 19208,
    "id": "1qTPB8X3tyLyIdsb5TN3",
    "pop": 3550000,
    "country": "MD",
    "longitude": 28.3699,
    "name": "Moldova",
    "sick": 6112,
    "invisible": false
  },
  {
    "id": "22PJOAThcDFKgSbyQIkD",
    "country": "US",
    "longitude": -95.7129,
    "invisible": true,
    "name": "Federal Bureau of Prisons",
    "latitude": 37.0902,
    "dead": 95,
    "lastUpdated": "2020-07-11T23:17:02.631Z",
    "recovered": 0,
    "infected": 8949,
    "sick": 8854
  },
  {
    "recovered": 1,
    "infected": 1,
    "id": "25qIBtsW2nfQj3pwBKg9",
    "pop": 3180000,
    "country": "CN",
    "longitude": 88.787865,
    "name": "Tibet",
    "latitude": 30.15336,
    "dead": 0,
    "lastUpdated": "2020-07-11T23:08:09.695Z",
    "sick": 0,
    "invisible": false
  },
  {
    "id": "2KHYUb5t3lwzVVmDjwNX",
    "pop": 264000000,
    "country": "ID",
    "longitude": 115.66779,
    "name": "Indonesia",
    "latitude": -1.572184,
    "dead": 3535,
    "lastUpdated": "2020-07-11T23:16:02.768Z",
    "recovered": 34719,
    "infected": 74018,
    "sick": 35764,
    "invisible": false
  },
  {
    "latitude": 43.807191,
    "dead": 232,
    "lastUpdated": "2020-07-11T23:17:02.629Z",
    "recovered": 0,
    "infected": 11851,
    "state": "OR",
    "id": "2OrsssmGUs4XCzaZzvTv",
    "pop": 4191000,
    "country": "US",
    "longitude": -120.585594,
    "name": "Oregon",
    "sick": 11619,
    "invisible": false
  },
  {
    "id": "2c5HBZ1ffkCVXnMYUWnY",
    "pop": 425000,
    "country": "CL",
    "longitude": -70.400002,
    "name": "Antofagasta",
    "latitude": -23.65,
    "dead": 218,
    "lastUpdated": "2020-07-11T22:51:04.925Z",
    "recovered": 0,
    "infected": 11580,
    "sick": 11362,
    "invisible": false
  },
  {
    "longitude": -51.070534,
    "name": "Amapá",
    "latitude": 0.035574,
    "dead": 473,
    "lastUpdated": "2020-07-11T22:57:02.253Z",
    "recovered": 0,
    "infected": 31279,
    "state": "AP",
    "id": "2dzhyWsBSPpENWlNew0b",
    "pop": 9029000,
    "country": "BR",
    "sick": 30806,
    "invisible": false
  },
  {
    "id": "2jxHvSsxdnom0nPNvOT8",
    "pop": 27460000,
    "country": "CN",
    "longitude": 126.548103,
    "name": "Jilin",
    "latitude": 43.851921,
    "dead": 2,
    "lastUpdated": "2020-07-11T23:08:09.694Z",
    "recovered": 153,
    "infected": 155,
    "sick": 0,
    "invisible": false
  },
  {
    "latitude": 36.1408,
    "dead": 0,
    "lastUpdated": "2020-07-11T23:16:02.780Z",
    "recovered": 176,
    "infected": 180,
    "id": "2p11BjSAs3wVyymgqBOe",
    "pop": 34571,
    "country": "GI",
    "longitude": -5.3536,
    "name": "Gibraltar",
    "sick": 4,
    "invisible": false
  },
  {
    "id": "2sLNkkHpyaHx7dD3aMDO",
    "pop": 2567000,
    "country": "FR",
    "longitude": 1.6751,
    "name": "Centre-Val de Loire",
    "latitude": 47.7516,
    "dead": 553,
    "lastUpdated": "2020-07-11T21:47:46.357Z",
    "recovered": 1994,
    "infected": 4550,
    "sick": 2003,
    "invisible": false
  },
  {
    "country": "IT",
    "longitude": 12.643751,
    "name": "Umbria",
    "latitude": 42.565044,
    "dead": 80,
    "lastUpdated": "2020-07-11T23:01:01.906Z",
    "recovered": 1360,
    "infected": 1448,
    "state": "55",
    "id": "319tiZOMczx1y0DfvOib",
    "pop": 884640,
    "sick": 8,
    "invisible": false
  },
  {
    "name": "Cauca",
    "latitude": 2.43823,
    "dead": 23,
    "lastUpdated": "2020-07-11T23:00:06.998Z",
    "recovered": 206,
    "infected": 710,
    "id": "38T96Q3XNjt5FSJygPed",
    "pop": 1355000,
    "country": "CO",
    "longitude": -76.6131592,
    "sick": 481,
    "invisible": false
  },
  {
    "name": "Zambia",
    "latitude": -13.133896,
    "dead": 42,
    "lastUpdated": "2020-07-11T23:16:02.776Z",
    "recovered": 1348,
    "infected": 1895,
    "id": "3IlPjAbP5qVMn1nlgLTJ",
    "pop": 17090000,
    "country": "ZM",
    "longitude": 27.849332,
    "sick": 505,
    "invisible": false
  },
  {
    "id": "3LstMSN5XMYBkxbe5HN7",
    "pop": 631219,
    "country": "ME",
    "longitude": 19.3958,
    "name": "Montenegro",
    "latitude": 42.7044,
    "dead": 23,
    "lastUpdated": "2020-07-11T23:16:02.777Z",
    "recovered": 325,
    "infected": 1164,
    "sick": 816,
    "invisible": false
  },
  {
    "state": "ACT",
    "id": "3OZoQsKrzxZ18EKyfGE6",
    "pop": 418440,
    "country": "AU",
    "longitude": 149.0124,
    "name": "Australian Capital Territory",
    "latitude": -35.4735,
    "dead": 3,
    "lastUpdated": "2020-07-11T23:13:24.209Z",
    "recovered": 105,
    "infected": 108,
    "sick": 0,
    "invisible": false
  },
  {
    "recovered": 4313,
    "infected": 5230,
    "id": "3PfzjWjvOkfgxc672BHQ",
    "pop": 608000,
    "country": "RU",
    "longitude": 38.8389,
    "name": "Yaroslavl Oblast",
    "latitude": 57.8992,
    "dead": 22,
    "lastUpdated": "2020-07-11T23:00:08.420Z",
    "sick": 895,
    "invisible": false
  },
  {
    "latitude": 51.8873,
    "dead": 32,
    "lastUpdated": "2020-07-11T23:00:08.420Z",
    "recovered": 2028,
    "infected": 5365,
    "id": "3PpqgIUJAtzxo1j7z56i",
    "pop": 321000,
    "country": "RU",
    "longitude": 95.626,
    "name": "Tuva",
    "sick": 3305,
    "invisible": false
  },
  {
    "name": "Assam",
    "latitude": 26.2006,
    "dead": 37,
    "lastUpdated": "2020-07-11T23:11:02.340Z",
    "recovered": 10427,
    "infected": 16072,
    "id": "3cCbnJCsK7mKlTO08K1o",
    "pop": 30940000,
    "country": "IN",
    "longitude": 92.9376,
    "sick": 5608,
    "invisible": false
  },
  {
    "recovered": 0,
    "infected": 64230,
    "state": "OH",
    "id": "3fC3bAyIRUquOQOEnQNe",
    "pop": 11690000,
    "country": "US",
    "longitude": -82.9071,
    "name": "Ohio",
    "latitude": 40.4173,
    "dead": 3041,
    "lastUpdated": "2020-07-11T23:17:02.628Z",
    "sick": 61189,
    "invisible": false
  },
  {
    "lastUpdated": "2020-07-11T23:02:02.074Z",
    "recovered": 0,
    "infected": 9775,
    "id": "3kFCzJguabtBvXaHxgiu",
    "pop": 3066400,
    "country": "MX",
    "longitude": -107.5,
    "name": "Sinaloa",
    "latitude": 25,
    "dead": 1578,
    "sick": 8197,
    "invisible": false
  },
  {
    "country": "CO",
    "longitude": -76.522224,
    "name": "Valle del Cauca",
    "latitude": 3.420556,
    "dead": 426,
    "lastUpdated": "2020-07-11T23:00:06.996Z",
    "recovered": 5206,
    "infected": 12257,
    "id": "3mC2LveOpXV8P1PmQGUj",
    "pop": 4708300,
    "sick": 6625,
    "invisible": false
  },
  {
    "recovered": 2160,
    "infected": 5275,
    "id": "4NnFMekRK2m14IlnZZoj",
    "pop": 4420000,
    "country": "MR",
    "longitude": -10.9408,
    "name": "Mauritania",
    "latitude": 21.0079,
    "dead": 147,
    "lastUpdated": "2020-07-11T23:16:02.775Z",
    "sick": 2968,
    "invisible": false
  },
  {
    "recovered": 2679,
    "infected": 3053,
    "state": "BC",
    "id": "4hfZRUoUgI4a3vrG0GBk",
    "pop": 5071000,
    "country": "CA",
    "longitude": -127.6476,
    "name": "British Columbia",
    "latitude": 53.7267,
    "dead": 187,
    "lastUpdated": "2020-07-11T23:07:08.315Z",
    "sick": 187,
    "invisible": false
  },
  {
    "latitude": -22.908333,
    "dead": 11406,
    "lastUpdated": "2020-07-11T22:57:02.190Z",
    "recovered": 0,
    "infected": 129675,
    "state": "RJ",
    "id": "4kq0z3kh5zt3YAUWxvtE",
    "pop": 17159960,
    "country": "BR",
    "longitude": -43.196388,
    "name": "Rio de Janeiro",
    "sick": 118269,
    "invisible": false
  },
  {
    "recovered": 0,
    "infected": 104188,
    "state": "BA",
    "id": "4yDbkEyqsNzZJjfrciYV",
    "pop": 14812617,
    "country": "BR",
    "longitude": -41.280857,
    "name": "Bahia",
    "latitude": -11.409874,
    "dead": 2436,
    "lastUpdated": "2020-07-11T22:57:02.190Z",
    "sick": 101752,
    "invisible": false
  },
  {
    "country": "AZ",
    "longitude": 47.93802,
    "name": "Azerbaijan",
    "latitude": 40.3426,
    "dead": 298,
    "lastUpdated": "2020-07-11T23:16:02.772Z",
    "recovered": 14607,
    "infected": 23521,
    "id": "4zqzRm2xHn0CDVOUQJ8p",
    "pop": 9898000,
    "sick": 8616,
    "invisible": false
  },
  {
    "country": "MX",
    "longitude": -97.861099,
    "name": "Tamaulipas",
    "latitude": 22.233105,
    "dead": 647,
    "lastUpdated": "2020-07-11T23:02:02.077Z",
    "recovered": 0,
    "infected": 9652,
    "id": "54cfsdsRF76XVHWtZs19",
    "pop": 3672300,
    "sick": 9005,
    "invisible": false
  },
  {
    "longitude": 3.7265,
    "name": "Flanders",
    "latitude": 51.0109,
    "dead": 4905,
    "lastUpdated": "2020-07-11T23:07:07.355Z",
    "recovered": 9449,
    "infected": 35086,
    "state": "VLG",
    "id": "57ydD48mLRD2YoyteJZj",
    "pop": 6596000,
    "country": "BE",
    "sick": 20732,
    "invisible": false
  },
  {
    "id": "5MHegCUO9L3LiAU7DDey",
    "pop": 395361,
    "country": "BS",
    "longitude": -78.035889,
    "name": "Bahamas",
    "latitude": 25.025885,
    "dead": 11,
    "lastUpdated": "2020-07-11T23:16:02.780Z",
    "recovered": 89,
    "infected": 111,
    "sick": 11,
    "invisible": false
  },
  {
    "lastUpdated": "2020-07-11T21:49:59.093Z",
    "recovered": 2996,
    "infected": 3474,
    "state": "NSW",
    "id": "5N16a2OXXRpsEFanw0TC",
    "pop": 7544000,
    "country": "AU",
    "longitude": 146.921097,
    "name": "New South Wales",
    "latitude": -31.253218,
    "dead": 49,
    "sick": 429,
    "invisible": false
  },
  {
    "name": "South Sudan",
    "latitude": 6.8769908,
    "dead": 38,
    "lastUpdated": "2020-07-11T23:16:02.776Z",
    "recovered": 333,
    "infected": 2021,
    "id": "5N4PRxsCDzzwk7R200V1",
    "pop": 12580000,
    "country": "SS",
    "longitude": 31.3069782,
    "sick": 1650,
    "invisible": false
  },
  {
    "lastUpdated": "2020-07-11T21:46:07.157Z",
    "recovered": 9970,
    "infected": 15550,
    "state": "VC",
    "id": "5Va9A7CXR8AXdUz4HTJj",
    "pop": 4975000,
    "country": "ES",
    "longitude": -0.7533,
    "name": "C. Valenciana",
    "latitude": 39.484,
    "dead": 1432,
    "sick": 4148,
    "invisible": false
  },
  {
    "id": "5fg04eyDwFw3kEXnrxez",
    "pop": 280460,
    "country": "NC",
    "longitude": 165.618042,
    "name": "New Caledonia",
    "latitude": -20.9043045,
    "dead": 0,
    "lastUpdated": "2020-07-11T23:16:02.781Z",
    "recovered": 21,
    "infected": 21,
    "sick": 0,
    "invisible": false
  },
  {
    "id": "5gXZIjRgAvd6xWN1LOv8",
    "pop": 29300000,
    "country": "NP",
    "longitude": 84.124008,
    "name": "Nepal",
    "latitude": 28.394857,
    "dead": 38,
    "lastUpdated": "2020-07-11T23:16:02.773Z",
    "recovered": 8442,
    "infected": 16719,
    "sick": 8239,
    "invisible": false
  },
  {
    "recovered": 14037,
    "infected": 54222,
    "id": "5pwmh7aSdGRKqRbnuyc0",
    "pop": 104900000,
    "country": "PH",
    "longitude": 121.774017,
    "name": "Philippines",
    "latitude": 12.879721,
    "dead": 1372,
    "lastUpdated": "2020-07-11T23:16:02.769Z",
    "sick": 38813,
    "invisible": false
  },
  {
    "longitude": 31.053028,
    "name": "Zimbabwe",
    "latitude": -17.824858,
    "dead": 13,
    "lastUpdated": "2020-07-11T23:16:02.778Z",
    "recovered": 320,
    "infected": 942,
    "id": "5qtR9nx4BLwu1ODTniaY",
    "pop": 14802190,
    "country": "ZW",
    "sick": 609,
    "invisible": false
  },
  {
    "state": "NA",
    "id": "5vkKgxTaKq1IH0Go357L",
    "longitude": -109.188,
    "invisible": false,
    "name": "Navajo Nation",
    "dead": 396,
    "latitude": 36.0672,
    "infected": 8098,
    "recovered": 0,
    "pop": 356890,
    "country": "US",
    "lastUpdated": "2020-07-11T23:17:02.631Z",
    "sick": 7702
  },
  {
    "longitude": -99.177254,
    "name": "Ciudad de México",
    "latitude": 19.432241,
    "dead": 7579,
    "lastUpdated": "2020-07-11T23:02:02.075Z",
    "recovered": 0,
    "infected": 56602,
    "id": "61E7TGjUwAo9xu6Y6gAH",
    "pop": 8781300,
    "country": "MX",
    "sick": 49023,
    "invisible": false
  },
  {
    "name": "Kaluga Oblast",
    "latitude": 54.3873,
    "dead": 51,
    "lastUpdated": "2020-07-11T23:00:08.419Z",
    "recovered": 4642,
    "infected": 6559,
    "id": "63KYOuWe41mvqWQrJbr2",
    "pop": 1012000,
    "country": "RU",
    "longitude": 35.1889,
    "sick": 1866,
    "invisible": false
  },
  {
    "longitude": 23.804991,
    "name": "Lithuania",
    "latitude": 55.621011,
    "dead": 79,
    "lastUpdated": "2020-07-11T23:16:02.776Z",
    "recovered": 1579,
    "infected": 1865,
    "id": "694ON7d0mRJDeM1gHBTR",
    "pop": 2794000,
    "country": "LT",
    "sick": 207,
    "invisible": false
  },
  {
    "lastUpdated": "2020-07-11T23:13:10.820Z",
    "recovered": 0,
    "infected": 34183,
    "state": "EN",
    "id": "6IQAsvrmBv0HPdeTnh4x",
    "pop": 9175000,
    "country": "GB",
    "longitude": -0.5596,
    "name": "South East",
    "latitude": 51.1781,
    "dead": 0,
    "sick": 34183,
    "invisible": false
  },
  {
    "country": "HK",
    "longitude": 114.109497,
    "name": "Hong Kong",
    "latitude": 22.396427,
    "dead": 7,
    "lastUpdated": "2020-07-11T23:16:02.777Z",
    "recovered": 1197,
    "infected": 1433,
    "id": "6IcHIIH0zXpY0POmBZTv",
    "pop": 7392000,
    "sick": 229,
    "invisible": false
  },
  {
    "country": "BR",
    "longitude": -72.4,
    "name": "Acre",
    "latitude": -8.65,
    "dead": 419,
    "lastUpdated": "2020-07-11T22:57:02.253Z",
    "recovered": 0,
    "infected": 16080,
    "state": "AC",
    "id": "6LQesrx5bHJsVUi1TXBp",
    "pop": 869265,
    "sick": 15661,
    "invisible": false
  },
  {
    "latitude": 9.3077,
    "dead": 26,
    "lastUpdated": "2020-07-11T23:16:02.777Z",
    "recovered": 557,
    "infected": 1378,
    "id": "6SlpghTyB6lpMFvx3g9U",
    "pop": 11180000,
    "country": "BJ",
    "longitude": 2.3158,
    "name": "Benin",
    "sick": 795,
    "invisible": false
  },
  {
    "name": "Lombardia",
    "latitude": 45.6667,
    "dead": 16740,
    "lastUpdated": "2020-07-11T23:01:01.905Z",
    "recovered": 70020,
    "infected": 94972,
    "state": "25",
    "id": "6ZHcvMIzVWIaRnc4R3Qp",
    "pop": 10040000,
    "country": "IT",
    "longitude": 9.5,
    "sick": 8212,
    "invisible": false
  },
  {
    "recovered": 1429,
    "infected": 1827,
    "id": "6ahNiyKDSDAftCctgLH3",
    "pop": 2067000,
    "country": "SI",
    "longitude": 14.5058,
    "name": "Slovenia",
    "latitude": 46.0569,
    "dead": 111,
    "lastUpdated": "2020-07-11T23:16:02.776Z",
    "sick": 287,
    "invisible": false
  },
  {
    "longitude": -70.331398,
    "name": "Atacama",
    "latitude": -27.3667908,
    "dead": 9,
    "lastUpdated": "2020-07-11T22:51:04.925Z",
    "recovered": 0,
    "infected": 1522,
    "id": "6nyns7UGGgkU7pxrHf8i",
    "pop": 300000,
    "country": "CL",
    "sick": 1513,
    "invisible": false
  },
  {
    "latitude": -0.8037,
    "dead": 46,
    "lastUpdated": "2020-07-11T23:16:02.775Z",
    "recovered": 3004,
    "infected": 5942,
    "id": "6pBi38TUgYfFm0bry2uh",
    "pop": 2025000,
    "country": "GA",
    "longitude": 11.6094,
    "name": "Gabon",
    "sick": 2892,
    "invisible": false
  },
  {
    "recovered": 0,
    "infected": 4170,
    "id": "6vjIVg1gSANFZghV7xtS",
    "pop": 2831900,
    "country": "MX",
    "longitude": -100.9792,
    "name": "San Luis Potosí",
    "latitude": 22.1498,
    "dead": 265,
    "lastUpdated": "2020-07-11T23:02:02.077Z",
    "sick": 3905,
    "invisible": false
  },
  {
    "id": "78Ox26bNHDA2Pk2b3Uwn",
    "pop": 9131,
    "country": "FR",
    "longitude": -62.818544,
    "name": "Saint-Barthélémy",
    "alwaysShow": true,
    "latitude": 17.901672,
    "dead": 0,
    "lastUpdated": "2020-07-11T23:16:02.782Z",
    "recovered": 6,
    "infected": 6,
    "sick": 0,
    "invisible": false
  },
  {
    "recovered": 0,
    "infected": 706,
    "id": "7JDx6UJiwGSJyL1fChaJ",
    "pop": 2305000,
    "country": "PL",
    "longitude": 18.633,
    "name": "Pomorskie",
    "latitude": 54.367,
    "dead": 38,
    "lastUpdated": "2020-07-11T23:03:02.692Z",
    "sick": 668,
    "invisible": false
  },
  {
    "name": "Melilla",
    "latitude": 35.2923,
    "dead": 2,
    "lastUpdated": "2020-07-11T21:47:01.829Z",
    "recovered": 125,
    "infected": 139,
    "state": "ML",
    "id": "7UASdZTZ1nPzzBwSTEA9",
    "pop": 84690,
    "country": "ES",
    "longitude": -2.9381,
    "sick": 12,
    "invisible": false
  },
  {
    "longitude": -61.7964,
    "name": "Antigua and Barbuda",
    "latitude": 17.0608,
    "dead": 3,
    "lastUpdated": "2020-07-11T23:16:02.781Z",
    "recovered": 57,
    "infected": 74,
    "id": "7hVFcEV7nV0MrQr3LHrl",
    "pop": 102012,
    "country": "AG",
    "sick": 14,
    "invisible": false
  },
  {
    "name": "Bayern",
    "latitude": 48.7904,
    "dead": 2655,
    "lastUpdated": "2020-07-11T23:00:10.745Z",
    "recovered": 45670,
    "infected": 49548,
    "state": "BY",
    "id": "7kCrrlOBE3jN6FtOVNUB",
    "pop": 13000000,
    "country": "DE",
    "longitude": 11.4979,
    "sick": 1223,
    "invisible": false
  },
  {
    "id": "7rYC2iFB50c55Ihgbs4Q",
    "pop": 9773000,
    "country": "HU",
    "longitude": 19.0402,
    "name": "Hungary",
    "latitude": 47.4979,
    "dead": 595,
    "lastUpdated": "2020-07-11T23:16:02.775Z",
    "recovered": 2974,
    "infected": 4229,
    "sick": 660,
    "invisible": false
  },
  {
    "country": "CO",
    "longitude": -74.7813,
    "name": "Barranquilla D.E.",
    "latitude": 10.9685,
    "dead": 1058,
    "lastUpdated": "2020-07-11T23:00:06.997Z",
    "recovered": 7334,
    "infected": 17713,
    "id": "7tqLvLyXcBDK808nJv0m",
    "pop": 1206000,
    "sick": 9321,
    "invisible": false
  },
  {
    "id": "8C0d7WVCjyUGtnc2gUAR",
    "pop": 24050000,
    "country": "CM",
    "longitude": 12.3547,
    "name": "Cameroon",
    "latitude": 7.3697,
    "dead": 359,
    "lastUpdated": "2020-07-11T23:16:02.773Z",
    "recovered": 11928,
    "infected": 15173,
    "sick": 2886,
    "invisible": false
  },
  {
    "latitude": 50.8503,
    "dead": 1487,
    "lastUpdated": "2020-07-11T23:07:07.358Z",
    "recovered": 2823,
    "infected": 6469,
    "state": "BRU",
    "id": "8DOZWbN6bDdgaLXVlUEu",
    "pop": 1209000,
    "country": "BE",
    "longitude": 4.3517,
    "name": "Brussels",
    "sick": 2159,
    "invisible": false
  },
  {
    "latitude": -16.2902,
    "dead": 1702,
    "lastUpdated": "2020-07-11T23:16:02.769Z",
    "recovered": 13918,
    "infected": 45565,
    "id": "8RihJrXw4NQXPxaRxr1u",
    "pop": 11050000,
    "country": "BO",
    "longitude": -63.5887,
    "name": "Bolivia",
    "sick": 29945,
    "invisible": false
  },
  {
    "lastUpdated": "2020-07-11T23:16:02.781Z",
    "recovered": 29,
    "infected": 29,
    "id": "8ZTySQROQejkDAad0qxQ",
    "pop": 109897,
    "country": "VC",
    "longitude": -61.2872,
    "name": "St. Vincent Grenadines",
    "latitude": 12.9843,
    "dead": 0,
    "sick": 0,
    "invisible": false
  },
  {
    "longitude": 103.819839,
    "name": "Singapore",
    "latitude": 1.352083,
    "dead": 26,
    "lastUpdated": "2020-07-11T23:16:02.769Z",
    "recovered": 42026,
    "infected": 45783,
    "id": "8pA3fM4xC2c2wv1b4TnE",
    "pop": 5621000,
    "country": "SG",
    "sick": 3731,
    "invisible": false
  },
  {
    "latitude": 47.2184,
    "dead": 470,
    "lastUpdated": "2020-07-11T21:48:19.389Z",
    "recovered": 2114,
    "infected": 4241,
    "id": "98hwAoohgWEOQVa3NlM5",
    "pop": 3787000,
    "country": "FR",
    "longitude": -1.5536,
    "name": "Pays de la Loire",
    "sick": 1657,
    "invisible": false
  },
  {
    "latitude": 19.30754,
    "dead": 271,
    "lastUpdated": "2020-07-11T23:02:02.077Z",
    "recovered": 0,
    "infected": 2817,
    "id": "9DAvxOObTqIvMOU93nlY",
    "pop": 952300,
    "country": "MX",
    "longitude": -90.19885,
    "name": "Campeche",
    "sick": 2546,
    "invisible": false
  },
  {
    "lastUpdated": "2020-07-11T23:16:02.773Z",
    "recovered": 5341,
    "infected": 10250,
    "id": "9DPOkpIqrFy9mR4e9fuv",
    "pop": 40530000,
    "country": "SD",
    "longitude": 30.2176,
    "name": "Sudan",
    "latitude": 12.8628,
    "dead": 650,
    "sick": 4259,
    "invisible": false
  },
  {
    "lastUpdated": "2020-07-11T23:00:08.425Z",
    "recovered": 1197,
    "infected": 1825,
    "id": "9JFYfvpcejMIgYlHpngA",
    "pop": 643000,
    "country": "RU",
    "longitude": 43.9541,
    "name": "Kostroma Oblast",
    "latitude": 58.5501,
    "dead": 23,
    "sick": 605,
    "invisible": false
  },
  {
    "name": "Romania",
    "latitude": 45.943161,
    "dead": 1871,
    "lastUpdated": "2020-07-11T23:16:02.770Z",
    "recovered": 21414,
    "infected": 32079,
    "id": "9QcETqEcM2fTv9zRvx5T",
    "pop": 19530000,
    "country": "RO",
    "longitude": 24.966761,
    "sick": 8794,
    "invisible": false
  },
  {
    "name": "Nicaragua",
    "latitude": 12.136389,
    "dead": 91,
    "lastUpdated": "2020-07-11T23:16:02.775Z",
    "recovered": 1993,
    "infected": 2846,
    "id": "9Y5wmCqNCC6ZrenM31uA",
    "pop": 6218000,
    "country": "NI",
    "longitude": -86.251389,
    "sick": 762,
    "invisible": false
  },
  {
    "recovered": 1683,
    "infected": 2406,
    "id": "9dIzxqDSVqPyINkHqwGv",
    "pop": 18540000,
    "country": "ML",
    "longitude": -3.996166,
    "name": "Mali",
    "latitude": 17.5706921,
    "dead": 121,
    "lastUpdated": "2020-07-11T23:16:02.776Z",
    "sick": 602,
    "invisible": false
  },
  {
    "recovered": 6800,
    "infected": 7291,
    "id": "9p6OCdZbUUwBLA60Gk3W",
    "pop": 5513000,
    "country": "FI",
    "longitude": 25.748152,
    "name": "Finland",
    "latitude": 61.92411,
    "dead": 329,
    "lastUpdated": "2020-07-11T23:16:02.774Z",
    "sick": 162,
    "invisible": false
  },
  {
    "name": "Krasnoyarsk Krai",
    "latitude": 64.248,
    "dead": 225,
    "lastUpdated": "2020-07-11T23:00:08.416Z",
    "recovered": 6525,
    "infected": 10369,
    "id": "A6Us0fpQVCc85SoIqzg3",
    "pop": 2876000,
    "country": "RU",
    "longitude": 95.1104,
    "sick": 3619,
    "invisible": false
  },
  {
    "latitude": 43.311643,
    "dead": 391,
    "lastUpdated": "2020-07-11T23:17:02.630Z",
    "recovered": 0,
    "infected": 6024,
    "state": "NH",
    "id": "A84CwQ52kA46Hr7pn6Bm",
    "pop": 1356000,
    "country": "US",
    "longitude": -71.590315,
    "name": "New Hampshire",
    "sick": 5633,
    "invisible": false
  },
  {
    "lastUpdated": "2020-07-11T23:17:02.629Z",
    "recovered": 0,
    "infected": 17312,
    "state": "RI",
    "id": "AEUWUHS65qvjEslew11c",
    "pop": 1057000,
    "country": "US",
    "longitude": -71.412257,
    "name": "Rhode Island",
    "latitude": 41.823261,
    "dead": 976,
    "sick": 16336,
    "invisible": false
  },
  {
    "state": "45",
    "id": "AJ9jQ0iyKsafsmf5yHAR",
    "pop": 4453000,
    "country": "IT",
    "longitude": 11.327591,
    "name": "Emilia-Romagna",
    "latitude": 44.498955,
    "dead": 4269,
    "lastUpdated": "2020-07-11T23:01:01.905Z",
    "recovered": 23481,
    "infected": 28869,
    "sick": 1119,
    "invisible": false
  },
  {
    "latitude": 49.3964,
    "dead": 178,
    "lastUpdated": "2020-07-11T23:00:10.751Z",
    "recovered": 2617,
    "infected": 2838,
    "state": "SL",
    "id": "AKjFRQGnzuuZQhv5Qwx7",
    "pop": 990509,
    "country": "DE",
    "longitude": 7.023,
    "name": "Saarland",
    "sick": 43,
    "invisible": false
  },
  {
    "country": "RU",
    "longitude": 60.8789,
    "name": "Chelyabinsk Oblast",
    "latitude": 54.4319,
    "dead": 88,
    "lastUpdated": "2020-07-11T23:00:08.416Z",
    "recovered": 4877,
    "infected": 8649,
    "id": "AOapJ3gElQApd8Gnt8EL",
    "pop": 3493000,
    "sick": 3684,
    "invisible": false
  },
  {
    "id": "APTPgjAsjFi0nsGyJV7M",
    "pop": 1125002,
    "country": "CL",
    "longitude": -71.167,
    "name": "Maule",
    "latitude": -35.717,
    "dead": 91,
    "lastUpdated": "2020-07-11T22:51:05.010Z",
    "recovered": 0,
    "infected": 6946,
    "sick": 6855,
    "invisible": false
  },
  {
    "longitude": -42.6043,
    "name": "Greenland",
    "latitude": 71.7069,
    "dead": 0,
    "lastUpdated": "2020-07-11T23:16:02.782Z",
    "recovered": 13,
    "infected": 13,
    "id": "APaZzlGCEeuoLBtzTJMe",
    "pop": 56171,
    "country": "GL",
    "sick": 0,
    "invisible": false
  },
  {
    "lastUpdated": "2020-07-11T23:00:08.423Z",
    "recovered": 2473,
    "infected": 3341,
    "id": "ATxF6ZoDJ2ibdE6ZRYIX",
    "pop": 984000,
    "country": "RU",
    "longitude": 112.4061,
    "name": "Buryatia",
    "latitude": 54.8331,
    "dead": 25,
    "sick": 843,
    "invisible": false
  },
  {
    "lastUpdated": "2020-07-11T23:07:08.317Z",
    "recovered": 1000,
    "infected": 1066,
    "state": "NS",
    "id": "AVCpxeh0fuH2WrHWNDYH",
    "pop": 971395,
    "country": "CA",
    "longitude": -63.582687,
    "name": "Nova Scotia",
    "latitude": 45.65107,
    "dead": 63,
    "sick": 3,
    "invisible": false
  },
  {
    "longitude": -109.128641,
    "name": "Montana",
    "latitude": 47.012918,
    "dead": 29,
    "lastUpdated": "2020-07-11T23:17:02.630Z",
    "recovered": 0,
    "infected": 1677,
    "state": "MT",
    "id": "AcULcZBozObOhwuRKMjJ",
    "pop": 1062000,
    "country": "US",
    "sick": 1648,
    "invisible": false
  },
  {
    "country": "TJ",
    "longitude": 71.2761,
    "name": "Tajikistan",
    "latitude": 38.861,
    "dead": 55,
    "lastUpdated": "2020-07-11T23:16:02.774Z",
    "recovered": 5176,
    "infected": 6506,
    "id": "AiIGs3ybYZZhm1ytVopr",
    "pop": 9275000,
    "sick": 1275,
    "invisible": false
  },
  {
    "country": "CN",
    "longitude": 116.01609,
    "name": "Jiangxi",
    "latitude": 27.285971,
    "dead": 1,
    "lastUpdated": "2020-07-11T23:08:09.694Z",
    "recovered": 931,
    "infected": 932,
    "id": "AmBYm5J6E9Cuez1FQjiN",
    "pop": 45200000,
    "sick": 0,
    "invisible": false
  },
  {
    "longitude": -3.7837,
    "name": "Wales",
    "latitude": 52.1307,
    "dead": 1541,
    "lastUpdated": "2020-07-11T23:13:10.819Z",
    "recovered": 0,
    "infected": 15946,
    "state": "WA",
    "id": "AoLhHdTydeWTfmp9koEX",
    "pop": 3136000,
    "country": "GB",
    "sick": 14405,
    "invisible": false
  },
  {
    "longitude": 90.3982,
    "name": "Khakassia",
    "latitude": 53.0452,
    "dead": 19,
    "lastUpdated": "2020-07-11T23:00:08.424Z",
    "recovered": 1737,
    "infected": 2285,
    "id": "Avls64fLKoEsBFH0Ol0b",
    "pop": 537000,
    "country": "RU",
    "sick": 529,
    "invisible": false
  },
  {
    "id": "AwN0CScPDApcLFgz6e3z",
    "pop": 41320000,
    "country": "DZ",
    "longitude": 1.659626,
    "name": "Algeria",
    "latitude": 28.033886,
    "dead": 1004,
    "lastUpdated": "2020-07-11T23:16:02.772Z",
    "recovered": 13124,
    "infected": 18712,
    "sick": 4584,
    "invisible": false
  },
  {
    "name": "Croatia",
    "latitude": 45.099998,
    "dead": 118,
    "lastUpdated": "2020-07-11T23:16:02.775Z",
    "recovered": 2466,
    "infected": 3672,
    "id": "B82Ef45M8cDu4q7VsSHF",
    "pop": 4076000,
    "country": "HR",
    "longitude": 15.2,
    "sick": 1088,
    "invisible": false
  },
  {
    "recovered": 978,
    "infected": 1099,
    "id": "BENubqQInFUJzhpZTsLT",
    "pop": 23716000,
    "country": "NE",
    "longitude": 8.081666,
    "name": "Niger",
    "latitude": 17.6077881,
    "dead": 68,
    "lastUpdated": "2020-07-11T23:16:02.777Z",
    "sick": 53,
    "invisible": false
  },
  {
    "recovered": 0,
    "infected": 72467,
    "state": "MD",
    "id": "BF51mWl51fgEcyBpCSzb",
    "pop": 6043000,
    "country": "US",
    "longitude": -76.98432,
    "name": "Maryland",
    "latitude": 39.509109,
    "dead": 3310,
    "lastUpdated": "2020-07-11T23:17:02.627Z",
    "sick": 69157,
    "invisible": false
  },
  {
    "lastUpdated": "2020-07-11T23:16:02.768Z",
    "recovered": 54919,
    "infected": 64767,
    "id": "BGg6yVU5VP71B8NXU0oh",
    "pop": 9508000,
    "country": "BY",
    "longitude": 27.953388,
    "name": "Belarus",
    "latitude": 53.709808,
    "dead": 459,
    "sick": 9389,
    "invisible": false
  },
  {
    "lastUpdated": "2020-07-11T21:48:07.413Z",
    "recovered": 1696,
    "infected": 3656,
    "id": "BGtoyzb7y54LVlJ91rbf",
    "pop": 3319000,
    "country": "FR",
    "longitude": 0.1713,
    "name": "Normandie",
    "latitude": 48.8799,
    "dead": 435,
    "sick": 1525,
    "invisible": false
  },
  {
    "latitude": 50.7772,
    "dead": 0,
    "lastUpdated": "2020-07-11T23:13:10.820Z",
    "recovered": 0,
    "infected": 12844,
    "state": "EN",
    "id": "BQqMOlPFD36ZEDTGd3WC",
    "pop": 5616000,
    "country": "GB",
    "longitude": -3.9995,
    "name": "South West",
    "sick": 12844,
    "invisible": false
  },
  {
    "state": "AZ",
    "id": "BTEESCuD2ZbS1afunR2A",
    "pop": 7172000,
    "country": "US",
    "longitude": -111.093735,
    "name": "Arizona",
    "latitude": 34.048927,
    "dead": 2151,
    "lastUpdated": "2020-07-11T23:17:02.627Z",
    "recovered": 0,
    "infected": 119930,
    "sick": 117779,
    "invisible": false
  },
  {
    "name": "Smolensk Oblast",
    "latitude": 54.9883,
    "dead": 75,
    "lastUpdated": "2020-07-11T23:00:08.421Z",
    "recovered": 2914,
    "infected": 5028,
    "id": "BUb7oDHcBM4lQ5cufNoG",
    "pop": 949000,
    "country": "RU",
    "longitude": 32.6677,
    "sick": 2039,
    "invisible": false
  },
  {
    "lastUpdated": "2020-07-11T23:00:08.423Z",
    "recovered": 3297,
    "infected": 3727,
    "id": "BWojXmuKU3szKlS7CE4k",
    "pop": 1283000,
    "country": "RU",
    "longitude": 50.2097,
    "name": "Kirov Oblast",
    "latitude": 58.4199,
    "dead": 43,
    "sick": 387,
    "invisible": false
  },
  {
    "longitude": 14.552812,
    "name": "Zachodniopomorskie",
    "latitude": 53.428543,
    "dead": 23,
    "lastUpdated": "2020-07-11T23:03:02.692Z",
    "recovered": 0,
    "infected": 635,
    "id": "BZwZOAlDJ8AIiaRVLyC9",
    "pop": 1676000,
    "country": "PL",
    "sick": 612,
    "invisible": false
  },
  {
    "recovered": 281114,
    "infected": 0,
    "id": "BbiuZcm8oURX7cZwaa5U",
    "country": "CL",
    "longitude": -70.6693,
    "invisible": true,
    "name": "Unknown Chile region",
    "latitude": -33.4489,
    "dead": 0,
    "lastUpdated": "2020-07-11T23:16:02.766Z",
    "sick": 0
  },
  {
    "latitude": -13.2543,
    "dead": 33,
    "lastUpdated": "2020-07-11T23:16:02.776Z",
    "recovered": 517,
    "infected": 2261,
    "id": "BfT8o5DaEixC6JIZ28kY",
    "pop": 18620000,
    "country": "MW",
    "longitude": 34.3015,
    "name": "Malawi",
    "sick": 1711,
    "invisible": false
  },
  {
    "recovered": 118,
    "infected": 191,
    "id": "BnpMamidC5yYzeK8tPUL",
    "pop": 10860000,
    "country": "BI",
    "longitude": 29.9188862,
    "name": "Burundi",
    "latitude": -3.3730559,
    "dead": 1,
    "lastUpdated": "2020-07-11T23:16:02.779Z",
    "sick": 72,
    "invisible": false
  },
  {
    "latitude": 52.257,
    "dead": 352,
    "lastUpdated": "2020-07-11T23:03:02.691Z",
    "recovered": 0,
    "infected": 5369,
    "id": "BrToMzyq8y2xdwXn75kM",
    "pop": 5385000,
    "country": "PL",
    "longitude": 21.002,
    "name": "Mazowieckie",
    "sick": 5017,
    "invisible": false
  },
  {
    "latitude": -1.333845,
    "dead": 100,
    "lastUpdated": "2020-07-11T23:00:06.999Z",
    "recovered": 2159,
    "infected": 2406,
    "id": "C25xSDm4iYibX5RYML14",
    "pop": 74751,
    "country": "CO",
    "longitude": -71.347573,
    "name": "Amazonas (Colombia)",
    "sick": 147,
    "invisible": false
  },
  {
    "latitude": 40.719042,
    "dead": 32393,
    "lastUpdated": "2020-07-11T23:17:02.626Z",
    "recovered": 0,
    "infected": 426807,
    "state": "NY",
    "id": "C3BCUzV80z9GfiuByIcr",
    "pop": 19540000,
    "country": "US",
    "longitude": -73.982597,
    "name": "New York",
    "sick": 394414,
    "invisible": false
  },
  {
    "id": "C5YXFiytAc1w9swtVGLz",
    "pop": 42800,
    "country": "CO",
    "longitude": -67.92389,
    "name": "Guainía",
    "latitude": 3.86528,
    "dead": 1,
    "lastUpdated": "2020-07-11T23:00:06.999Z",
    "recovered": 11,
    "infected": 14,
    "sick": 2,
    "invisible": false
  },
  {
    "id": "C6S76AggdWVU8G22jFHQ",
    "pop": 10650000,
    "country": "CZ",
    "longitude": 15.359413,
    "name": "Czechia",
    "latitude": 49.731626,
    "dead": 352,
    "lastUpdated": "2020-07-11T23:16:02.773Z",
    "recovered": 8227,
    "infected": 13115,
    "sick": 4536,
    "invisible": false
  },
  {
    "recovered": 27828,
    "infected": 32470,
    "id": "C7cj4nwRITs13KnaJrQ2",
    "pop": 1493000,
    "country": "BH",
    "longitude": 50.557701,
    "name": "Bahrain",
    "latitude": 26.0667,
    "dead": 104,
    "lastUpdated": "2020-07-11T23:16:02.770Z",
    "sick": 4538,
    "invisible": false
  },
  {
    "latitude": 10.4113,
    "dead": 125,
    "lastUpdated": "2020-07-11T23:00:06.998Z",
    "recovered": 457,
    "infected": 1132,
    "id": "CA9LaAl3bNaeAqBuozn4",
    "pop": 1285400,
    "country": "CO",
    "longitude": -74.4057,
    "name": "Magdalena",
    "sick": 550,
    "invisible": false
  },
  {
    "latitude": 26.909979,
    "dead": 339,
    "lastUpdated": "2020-07-11T23:02:02.077Z",
    "recovered": 0,
    "infected": 6841,
    "id": "CCUFp4urvgXPo5unfMGy",
    "pop": 3073500,
    "country": "MX",
    "longitude": -101.430756,
    "name": "Coahuila",
    "sick": 6502,
    "invisible": false
  },
  {
    "recovered": 17869,
    "infected": 23748,
    "id": "CKZCZTPlrcq5fbfUPA9k",
    "pop": 68890000,
    "country": "IN",
    "longitude": 74.2179,
    "name": "Rajasthan",
    "latitude": 27.0238,
    "dead": 503,
    "lastUpdated": "2020-07-11T23:11:02.339Z",
    "sick": 5376,
    "invisible": false
  },
  {
    "longitude": 86.2199,
    "name": "Altai",
    "latitude": 50.6182,
    "dead": 1,
    "lastUpdated": "2020-07-11T23:00:08.425Z",
    "recovered": 515,
    "infected": 1036,
    "id": "CX8z9U1iABNBhc1VK2Dy",
    "pop": 218000,
    "country": "RU",
    "sick": 520,
    "invisible": false
  },
  {
    "country": "SV",
    "longitude": -88.9053,
    "name": "El Salvador",
    "latitude": 13.803,
    "dead": 254,
    "lastUpdated": "2020-07-11T23:16:02.774Z",
    "recovered": 5516,
    "infected": 9391,
    "id": "Cgvmtle61ehMvCzRzYx7",
    "pop": 6378000,
    "sick": 3621,
    "invisible": false
  },
  {
    "latitude": 62.6643,
    "dead": 4,
    "lastUpdated": "2020-07-11T23:00:08.426Z",
    "recovered": 586,
    "infected": 1014,
    "id": "D4WkbqyUXY1pazbOxfKx",
    "pop": 144000,
    "country": "RU",
    "longitude": 153.915,
    "name": "Magadan Oblast",
    "sick": 424,
    "invisible": false
  },
  {
    "latitude": 58.897,
    "dead": 23,
    "lastUpdated": "2020-07-11T23:00:08.424Z",
    "recovered": 1641,
    "infected": 2915,
    "id": "DAp3PFow4BuCMYWWTo3i",
    "pop": 1078000,
    "country": "RU",
    "longitude": 82.6765,
    "name": "Tomsk Oblast",
    "sick": 1251,
    "invisible": false
  },
  {
    "longitude": 44.818474,
    "name": "Armenia",
    "latitude": 40.259003,
    "dead": 559,
    "lastUpdated": "2020-07-11T23:16:02.770Z",
    "recovered": 19419,
    "infected": 31392,
    "id": "DCJCtZoBTWQ4mzdDNljD",
    "pop": 2973000,
    "country": "AM",
    "sick": 11414,
    "invisible": false
  },
  {
    "lastUpdated": "2020-07-11T23:00:06.998Z",
    "recovered": 271,
    "infected": 479,
    "id": "DJJraANgQbEqz1wBBtZz",
    "pop": 1278000,
    "country": "CO",
    "longitude": -73.368,
    "name": "Boyacá",
    "latitude": 5.535,
    "dead": 14,
    "sick": 194,
    "invisible": false
  },
  {
    "name": "Mordovia",
    "latitude": 54.2369,
    "dead": 28,
    "lastUpdated": "2020-07-11T23:00:08.423Z",
    "recovered": 2708,
    "infected": 3792,
    "id": "DKwy7USk22oXUQGEvO42",
    "pop": 834000,
    "country": "RU",
    "longitude": 44.0684,
    "sick": 1056,
    "invisible": false
  },
  {
    "state": "EN",
    "id": "DPwBt2aJuwF0O71vwfM9",
    "pop": 7300000,
    "country": "GB",
    "longitude": -2.5945,
    "name": "North West",
    "latitude": 53.6221,
    "dead": 0,
    "lastUpdated": "2020-07-11T23:13:10.820Z",
    "recovered": 0,
    "infected": 43336,
    "sick": 43336,
    "invisible": false
  },
  {
    "id": "DZyTD0Mu5WIcK6yTcJ91",
    "pop": 65440,
    "country": "BM",
    "longitude": -64.75737,
    "name": "Bermuda",
    "latitude": 32.3213844,
    "dead": 9,
    "lastUpdated": "2020-07-11T23:16:02.780Z",
    "recovered": 137,
    "infected": 150,
    "sick": 4,
    "invisible": false
  },
  {
    "longitude": -71.7979,
    "name": "Turks and Caicos",
    "latitude": 21.694,
    "dead": 2,
    "lastUpdated": "2020-07-11T23:16:02.781Z",
    "recovered": 11,
    "infected": 69,
    "id": "DaMrRSIGJXIG36nW0Pnc",
    "pop": 35446,
    "country": "TC",
    "sick": 56,
    "invisible": false
  },
  {
    "recovered": 6392,
    "infected": 26977,
    "state": "CM",
    "id": "Dbng0NBTH41EEwBxhMzE",
    "pop": 2035000,
    "country": "ES",
    "longitude": -3.0977,
    "name": "Castilla La Mancha",
    "latitude": 39.2796,
    "dead": 3029,
    "lastUpdated": "2020-07-11T21:46:20.685Z",
    "sick": 17556,
    "invisible": false
  },
  {
    "id": "DcQ3D0WkacXEbv6iznRB",
    "pop": 3361000,
    "country": "PL",
    "longitude": 20.006,
    "name": "Malopolskie",
    "latitude": 50.023,
    "dead": 45,
    "lastUpdated": "2020-07-11T23:03:02.691Z",
    "recovered": 0,
    "infected": 2019,
    "sick": 1974,
    "invisible": false
  },
  {
    "latitude": 22.192039,
    "dead": 0,
    "lastUpdated": "2020-07-11T23:16:02.781Z",
    "recovered": 45,
    "infected": 46,
    "id": "DdBt8qsG6A3g92oOR3ow",
    "pop": 622567,
    "country": "MO",
    "longitude": 113.551262,
    "name": "Macao",
    "sick": 1,
    "invisible": false
  },
  {
    "latitude": 25.467,
    "dead": 2,
    "lastUpdated": "2020-07-11T23:11:02.342Z",
    "recovered": 45,
    "infected": 262,
    "id": "Dh0O1vmhrVfmsCsfZCUg",
    "pop": 2651000,
    "country": "IN",
    "longitude": 91.3662,
    "name": "Meghalaya",
    "sick": 215,
    "invisible": false
  },
  {
    "name": "Rostov Oblast",
    "latitude": 47.6853,
    "dead": 161,
    "lastUpdated": "2020-07-11T23:00:08.416Z",
    "recovered": 7954,
    "infected": 10628,
    "id": "DqzAhNFTJFQVm88ma21P",
    "pop": 4220000,
    "country": "RU",
    "longitude": 41.8259,
    "sick": 2513,
    "invisible": false
  },
  {
    "state": "WY",
    "id": "DrGzziUglmBognCGY7R2",
    "pop": 577737,
    "country": "US",
    "longitude": -107.534868,
    "name": "Wyoming",
    "latitude": 42.962334,
    "dead": 21,
    "lastUpdated": "2020-07-11T23:17:02.630Z",
    "recovered": 0,
    "infected": 1839,
    "sick": 1818,
    "invisible": false
  },
  {
    "latitude": 37.9838,
    "dead": 193,
    "lastUpdated": "2020-07-11T23:16:02.775Z",
    "recovered": 1374,
    "infected": 3772,
    "id": "Dtr1lap1RpJpXJdXGJiW",
    "pop": 10740000,
    "country": "GR",
    "longitude": 23.7275,
    "name": "Greece",
    "sick": 2205,
    "invisible": false
  },
  {
    "recovered": 3326,
    "infected": 4342,
    "id": "E8vIyXLVNtcY9dxLHICp",
    "pop": 2623000,
    "country": "RU",
    "longitude": 56.5872,
    "name": "Perm Krai",
    "latitude": 58.8232,
    "dead": 95,
    "lastUpdated": "2020-07-11T23:00:08.422Z",
    "sick": 921,
    "invisible": false
  },
  {
    "latitude": 56.9634,
    "dead": 19,
    "lastUpdated": "2020-07-11T23:00:08.423Z",
    "recovered": 2432,
    "infected": 3952,
    "id": "EHKZ6ivhrJUs3XqNDBOw",
    "pop": 3692000,
    "country": "RU",
    "longitude": 66.9483,
    "name": "Tyumen Oblast",
    "sick": 1501,
    "invisible": false
  },
  {
    "longitude": 121.563698,
    "name": "Taiwan",
    "latitude": 25.03841,
    "dead": 7,
    "lastUpdated": "2020-07-11T23:16:02.779Z",
    "recovered": 438,
    "infected": 451,
    "id": "EKTfs8e7M6DXzI1HqyyX",
    "pop": 23780000,
    "country": "TW",
    "sick": 6,
    "invisible": false
  },
  {
    "id": "EQzJvzVHKjs8kLmK7BMu",
    "pop": 4906000,
    "country": "CR",
    "longitude": -84.387618,
    "name": "Costa Rica",
    "latitude": 10.327273,
    "dead": 28,
    "lastUpdated": "2020-07-11T23:16:02.774Z",
    "recovered": 2220,
    "infected": 7231,
    "sick": 4983,
    "invisible": false
  },
  {
    "latitude": 22.2587,
    "dead": 2033,
    "lastUpdated": "2020-07-11T23:11:02.339Z",
    "recovered": 28685,
    "infected": 41027,
    "id": "ERwk9R9en4m9WbdoMbIg",
    "pop": 62700000,
    "country": "IN",
    "longitude": 71.1924,
    "name": "Gujarat",
    "sick": 10309,
    "invisible": false
  },
  {
    "longitude": 42.5884,
    "name": "Arkhangelsk Oblast",
    "latitude": 63.2853,
    "dead": 96,
    "lastUpdated": "2020-07-11T23:00:08.418Z",
    "recovered": 4297,
    "infected": 6873,
    "id": "EVMBsgCJedjHy91mDYEC",
    "pop": 1155000,
    "country": "RU",
    "sick": 2480,
    "invisible": false
  },
  {
    "latitude": 30.7333,
    "dead": 8,
    "lastUpdated": "2020-07-11T23:11:02.341Z",
    "recovered": 413,
    "infected": 549,
    "id": "Esl5UlCVB9s8pmGB5Ofr",
    "pop": 1055000,
    "country": "IN",
    "longitude": 76.7794,
    "name": "Chandigarh",
    "sick": 128,
    "invisible": false
  },
  {
    "latitude": 51.24,
    "dead": 20,
    "lastUpdated": "2020-07-11T23:03:02.692Z",
    "recovered": 0,
    "infected": 774,
    "id": "Esy1La2CxwH5uB8bGVWZ",
    "pop": 2148000,
    "country": "PL",
    "longitude": 22.653,
    "name": "Lubelskie",
    "sick": 754,
    "invisible": false
  },
  {
    "state": "PR",
    "id": "F4rPrEVGAIMM5rfPEMv4",
    "longitude": -66.664513,
    "name": "Puerto Rico",
    "alwaysShow": true,
    "dead": 167,
    "latitude": 18.200178,
    "infected": 9366,
    "recovered": 0,
    "pop": 3195000,
    "country": "US",
    "lastUpdated": "2020-07-11T23:17:02.631Z",
    "sick": 9199,
    "invisible": false
  },
  {
    "name": "Cundinamarca",
    "latitude": 4.862437,
    "dead": 81,
    "lastUpdated": "2020-07-11T23:00:06.997Z",
    "recovered": 1866,
    "infected": 3959,
    "id": "F7MED5VwEhi3JvJu6KjB",
    "pop": 2919000,
    "country": "CO",
    "longitude": -74.058655,
    "sick": 2012,
    "invisible": false
  },
  {
    "recovered": 296,
    "infected": 317,
    "id": "F8LnLqvuWoWh8awBqiw1",
    "pop": 832322,
    "country": "KM",
    "longitude": 43.3333,
    "name": "Comoros",
    "latitude": -11.6455,
    "dead": 7,
    "lastUpdated": "2020-07-11T23:16:02.779Z",
    "sick": 14,
    "invisible": false
  },
  {
    "id": "FCDmlmnIIswd8bQiUjfN",
    "pop": 35530000,
    "country": "AF",
    "longitude": 67.709953,
    "name": "Afghanistan",
    "latitude": 33.93911,
    "dead": 994,
    "lastUpdated": "2020-07-11T23:16:02.770Z",
    "recovered": 21135,
    "infected": 34366,
    "sick": 12237,
    "invisible": false
  },
  {
    "lastUpdated": "2020-07-11T23:08:09.693Z",
    "recovered": 575,
    "infected": 582,
    "id": "FErOU1m4Tj7jIkRam3vF",
    "pop": 30480000,
    "country": "CN",
    "longitude": 106.912254,
    "name": "Chongqing",
    "latitude": 29.431585,
    "dead": 6,
    "sick": 1,
    "invisible": false
  },
  {
    "recovered": 43961,
    "infected": 54058,
    "id": "FZsUkhxBEgqsPb4eO0PN",
    "pop": 4137000,
    "country": "KW",
    "longitude": 47.481766,
    "name": "Kuwait",
    "latitude": 29.311661,
    "dead": 386,
    "lastUpdated": "2020-07-11T23:16:02.769Z",
    "sick": 9711,
    "invisible": false
  },
  {
    "latitude": -10.9111,
    "dead": 954,
    "lastUpdated": "2020-07-11T22:57:02.252Z",
    "recovered": 0,
    "infected": 36046,
    "state": "SE",
    "id": "FboWeolpM62SZCLwdilT",
    "pop": 2278308,
    "country": "BR",
    "longitude": -37.0717,
    "name": "Sergipe",
    "sick": 35092,
    "invisible": false
  },
  {
    "lastUpdated": "2020-07-11T23:11:02.339Z",
    "recovered": 85915,
    "infected": 134226,
    "id": "FeS45oMNC27pI17F0xEV",
    "pop": 67860000,
    "country": "IN",
    "longitude": 78.6569,
    "name": "Tamil Nadu",
    "latitude": 11.1271,
    "dead": 1898,
    "sick": 46413,
    "invisible": false
  },
  {
    "longitude": -70.430399,
    "name": "Dominican Republic",
    "latitude": 18.947829,
    "dead": 880,
    "lastUpdated": "2020-07-11T23:16:02.769Z",
    "recovered": 20996,
    "infected": 43114,
    "id": "FuiVEJvWb0QMCpxJ3563",
    "pop": 10770000,
    "country": "DO",
    "sick": 21238,
    "invisible": false
  },
  {
    "country": "IN",
    "longitude": 79.0193,
    "name": "Telengana",
    "latitude": 18.1124,
    "dead": 348,
    "lastUpdated": "2020-07-11T23:11:02.339Z",
    "recovered": 20919,
    "infected": 33402,
    "id": "FyC551oNwmENxbr9Yght",
    "pop": 35190000,
    "sick": 12135,
    "invisible": false
  },
  {
    "country": "SK",
    "longitude": 19.699,
    "name": "Slovakia",
    "latitude": 48.669,
    "dead": 28,
    "lastUpdated": "2020-07-11T23:16:02.776Z",
    "recovered": 1493,
    "infected": 1893,
    "id": "FzIDXoqWnTI3nUfhPyT2",
    "pop": 5450000,
    "sick": 372,
    "invisible": false
  },
  {
    "name": "Pakistan",
    "latitude": 30.37532,
    "dead": 5123,
    "lastUpdated": "2020-07-11T23:16:02.767Z",
    "recovered": 153134,
    "infected": 246351,
    "id": "GAp7Wb6IMhdgbvEtMza9",
    "pop": 197000000,
    "country": "PK",
    "longitude": 69.345116,
    "sick": 88094,
    "invisible": false
  },
  {
    "name": "Punjab",
    "latitude": 31.1471,
    "dead": 195,
    "lastUpdated": "2020-07-11T23:11:02.340Z",
    "recovered": 5040,
    "infected": 7587,
    "id": "GGru8cG08mANO8XDDUtZ",
    "pop": 27980000,
    "country": "IN",
    "longitude": 75.3412,
    "sick": 2352,
    "invisible": false
  },
  {
    "lastUpdated": "2020-07-11T23:16:02.769Z",
    "recovered": 44648,
    "infected": 54453,
    "id": "GHzBIsHy2GiBc5JV2HMs",
    "pop": 9400000,
    "country": "AE",
    "longitude": 53.847816,
    "name": "United Arab Emirates",
    "latitude": 23.424076,
    "dead": 331,
    "sick": 9474,
    "invisible": false
  },
  {
    "latitude": 37.0902,
    "dead": 3,
    "lastUpdated": "2020-07-11T23:17:02.631Z",
    "recovered": 0,
    "infected": 103,
    "id": "GLViSIjDjwvptOphedAu",
    "country": "US",
    "longitude": -95.7129,
    "invisible": true,
    "name": "Grand Princess",
    "sick": 100
  },
  {
    "country": "GB",
    "longitude": -0.1278,
    "name": "London",
    "latitude": 51.5074,
    "dead": 0,
    "lastUpdated": "2020-07-11T23:13:10.820Z",
    "recovered": 0,
    "infected": 34107,
    "state": "EN",
    "id": "GPtoS0Yy2EnNafpmmTqY",
    "pop": 10100000,
    "sick": 34107,
    "invisible": false
  },
  {
    "country": "US",
    "longitude": -119.339046,
    "name": "California",
    "latitude": 36.621981,
    "dead": 7025,
    "lastUpdated": "2020-07-11T23:17:02.626Z",
    "recovered": 0,
    "infected": 319610,
    "state": "CA",
    "id": "Gh46r6vuaY7fbGt3IboN",
    "pop": 39560000,
    "sick": 312585,
    "invisible": false
  },
  {
    "latitude": 20.4283,
    "dead": 1,
    "lastUpdated": "2020-07-11T23:11:02.341Z",
    "recovered": 237,
    "infected": 482,
    "id": "GljWeVnun6o9DeW6rlEm",
    "pop": 343709,
    "country": "IN",
    "longitude": 72.8397,
    "name": "Dadra and Nagar Haveli",
    "sick": 244,
    "invisible": false
  },
  {
    "state": "OK",
    "id": "GpF8ULuKOQiFDCUHN44h",
    "pop": 3943000,
    "country": "US",
    "longitude": -97.145514,
    "name": "Oklahoma",
    "latitude": 35.87189,
    "dead": 421,
    "lastUpdated": "2020-07-11T23:17:02.629Z",
    "recovered": 0,
    "infected": 19779,
    "sick": 19358,
    "invisible": false
  },
  {
    "recovered": 19,
    "infected": 141,
    "id": "Gr09a1wn3BnMqjQbgEun",
    "pop": 256627,
    "country": "CO",
    "longitude": -71.557,
    "name": "Arauca",
    "latitude": 6.492,
    "dead": 0,
    "lastUpdated": "2020-07-11T23:00:06.999Z",
    "sick": 122,
    "invisible": false
  },
  {
    "latitude": 57.1057,
    "dead": 57,
    "lastUpdated": "2020-07-11T23:00:08.420Z",
    "recovered": 3436,
    "infected": 5436,
    "id": "GsecjBfopdgTOnyRgtCA",
    "pop": 1014000,
    "country": "RU",
    "longitude": 41.483,
    "name": "Ivanovo Oblast",
    "sick": 1943,
    "invisible": false
  },
  {
    "name": "P.A. Bolzano",
    "latitude": 46.5,
    "dead": 292,
    "lastUpdated": "2020-07-11T23:01:01.905Z",
    "recovered": 2287,
    "infected": 2661,
    "state": "BA",
    "id": "Gzx6GX1qhBm714BkEC6l",
    "pop": 520891,
    "country": "IT",
    "longitude": 11.35,
    "sick": 82,
    "invisible": false
  },
  {
    "latitude": 42.83263,
    "dead": 1,
    "lastUpdated": "2020-07-11T23:08:09.692Z",
    "recovered": 237,
    "infected": 245,
    "id": "H3JeVigVbo5CSYfZG4WI",
    "pop": 24710000,
    "country": "CN",
    "longitude": 113.750972,
    "name": "Inner Mongolia",
    "sick": 7,
    "invisible": false
  },
  {
    "latitude": 39.74536,
    "dead": 592,
    "lastUpdated": "2020-07-11T23:17:02.629Z",
    "recovered": 0,
    "infected": 26838,
    "state": "NV",
    "id": "H3bDg4eV30up4WWrIDAS",
    "pop": 3034000,
    "country": "US",
    "longitude": -116.724977,
    "name": "Nevada",
    "sick": 26246,
    "invisible": false
  },
  {
    "longitude": -38.526669,
    "name": "Ceará",
    "latitude": -3.731862,
    "dead": 6853,
    "lastUpdated": "2020-07-11T22:57:02.189Z",
    "recovered": 0,
    "infected": 135945,
    "state": "CE",
    "id": "HEMWNnFxeFEoeOCBOLJD",
    "pop": 9075649,
    "country": "BR",
    "sick": 129092,
    "invisible": false
  },
  {
    "lastUpdated": "2020-07-11T23:11:02.339Z",
    "recovered": 14718,
    "infected": 36216,
    "id": "HN5mGmxlqlSeFSNeu1K5",
    "pop": 64060000,
    "country": "IN",
    "longitude": 75.7139,
    "name": "Karnataka",
    "latitude": 15.3173,
    "dead": 615,
    "sick": 20883,
    "invisible": false
  },
  {
    "name": "Bhutan",
    "latitude": 27.5142,
    "dead": 0,
    "lastUpdated": "2020-07-11T23:16:02.780Z",
    "recovered": 57,
    "infected": 82,
    "id": "HRDpwyxpqW9RN0xLFyNu",
    "pop": 807610,
    "country": "BT",
    "longitude": 90.4336,
    "sick": 25,
    "invisible": false
  },
  {
    "lastUpdated": "2020-07-11T23:16:02.773Z",
    "recovered": 7723,
    "infected": 12513,
    "id": "HRTA10dtrruDEwjJEGMp",
    "pop": 32390000,
    "country": "UZ",
    "longitude": 64.5853,
    "name": "Uzbekistan",
    "latitude": 41.3775,
    "dead": 57,
    "sick": 4733,
    "invisible": false
  },
  {
    "name": "New Mexico",
    "latitude": 34.138916,
    "dead": 543,
    "lastUpdated": "2020-07-11T23:17:02.629Z",
    "recovered": 0,
    "infected": 14773,
    "state": "NM",
    "id": "HSSFomRju0doHhWgW8On",
    "pop": 2095000,
    "country": "US",
    "longitude": -105.576255,
    "sick": 14230,
    "invisible": false
  },
  {
    "latitude": -40.231,
    "dead": 11,
    "lastUpdated": "2020-07-11T22:51:05.011Z",
    "recovered": 0,
    "infected": 765,
    "id": "HZkACHjW7NlYjg8vEMj2",
    "pop": 412812,
    "country": "CL",
    "longitude": -72.3311,
    "name": "Los Ríos",
    "sick": 754,
    "invisible": false
  },
  {
    "recovered": 781,
    "infected": 809,
    "state": "MV",
    "id": "He1gSS1v50t06i3YrqvB",
    "pop": 1635000,
    "country": "DE",
    "longitude": 12.4296,
    "name": "Mecklenburg-Vorpommern",
    "latitude": 53.6127,
    "dead": 21,
    "lastUpdated": "2020-07-11T23:00:10.747Z",
    "sick": 7,
    "invisible": false
  },
  {
    "state": "65",
    "id": "I9EqrZfbPnkioNU4wZGz",
    "pop": 1315000,
    "country": "IT",
    "longitude": 13.75,
    "name": "Abruzzo",
    "latitude": 42.25,
    "dead": 464,
    "lastUpdated": "2020-07-11T23:01:01.904Z",
    "recovered": 2712,
    "infected": 3323,
    "sick": 147,
    "invisible": false
  },
  {
    "name": "Guangdong",
    "latitude": 23.363855,
    "dead": 8,
    "lastUpdated": "2020-07-11T23:08:09.692Z",
    "recovered": 1634,
    "infected": 1648,
    "id": "IAX0OQLVnUwU7FX0ENF1",
    "pop": 113460000,
    "country": "CN",
    "longitude": 113.373448,
    "sick": 6,
    "invisible": false
  },
  {
    "recovered": 1254,
    "infected": 1276,
    "id": "IFuMrMvSjoiX5agYvllh",
    "pop": 94000000,
    "country": "CN",
    "longitude": 113.484016,
    "name": "Henan",
    "latitude": 33.875408,
    "dead": 22,
    "lastUpdated": "2020-07-11T23:08:09.693Z",
    "sick": 0,
    "invisible": false
  },
  {
    "country": "PT",
    "longitude": -8.16667,
    "name": "Algarve",
    "latitude": 37.2,
    "dead": 15,
    "lastUpdated": "2020-07-11T22:53:01.806Z",
    "recovered": 0,
    "infected": 695,
    "id": "IHqRHC8K3OZPN8gniM7V",
    "pop": 451000,
    "sick": 680,
    "invisible": false
  },
  {
    "latitude": 3.883,
    "dead": 106,
    "lastUpdated": "2020-07-11T23:00:06.998Z",
    "recovered": 1051,
    "infected": 1696,
    "id": "IKWjRUo0SYgHQKdWjTvq",
    "pop": 333194,
    "country": "CO",
    "longitude": -77.0197,
    "name": "Buenaventura D.E.",
    "sick": 539,
    "invisible": false
  },
  {
    "longitude": -0.995,
    "name": "East Midlands",
    "latitude": 52.87,
    "dead": 0,
    "lastUpdated": "2020-07-11T23:13:10.819Z",
    "recovered": 0,
    "infected": 21820,
    "state": "EN",
    "id": "INyu1R48Ppv8cfW4Nuz4",
    "pop": 4811000,
    "country": "GB",
    "sick": 21820,
    "invisible": false
  },
  {
    "name": "Aguascalientes",
    "latitude": 22.017,
    "dead": 194,
    "lastUpdated": "2020-07-11T23:02:02.078Z",
    "recovered": 0,
    "infected": 3637,
    "id": "ISRKMzEDojyrZ9iyWwex",
    "pop": 1342600,
    "country": "MX",
    "longitude": -102.317,
    "sick": 3443,
    "invisible": false
  },
  {
    "country": "MX",
    "longitude": -100.316116,
    "name": "Nuevo León",
    "latitude": 25.686613,
    "dead": 582,
    "lastUpdated": "2020-07-11T23:02:02.078Z",
    "recovered": 0,
    "infected": 18067,
    "id": "IdKbgzgKLpjBFh4UPOwu",
    "pop": 5321300,
    "sick": 17485,
    "invisible": false
  },
  {
    "latitude": 28.632996,
    "dead": 735,
    "lastUpdated": "2020-07-11T23:02:02.074Z",
    "recovered": 0,
    "infected": 5502,
    "id": "IhhiYI6T0TX4CYVPcnmH",
    "pop": 3826900,
    "country": "MX",
    "longitude": -106.069099,
    "name": "Chihuahua",
    "sick": 4767,
    "invisible": false
  },
  {
    "id": "ImnOiVx9Cb8Nw7cbRcQ7",
    "pop": 480600,
    "country": "CL",
    "longitude": -72.57,
    "name": "Ñuble",
    "latitude": -36.7,
    "dead": 38,
    "lastUpdated": "2020-07-11T22:51:05.010Z",
    "recovered": 0,
    "infected": 2909,
    "sick": 2871,
    "invisible": false
  },
  {
    "latitude": 19.0558,
    "dead": 135,
    "lastUpdated": "2020-07-11T23:16:02.774Z",
    "recovered": 2590,
    "infected": 6617,
    "id": "InZ38sIqyK7FN7XAOZoX",
    "pop": 10980000,
    "country": "HT",
    "longitude": -73.0513,
    "name": "Haiti",
    "sick": 3892,
    "invisible": false
  },
  {
    "state": "GA",
    "id": "IvQkDJkTAsoIqPRAU25n",
    "pop": 10520000,
    "country": "US",
    "longitude": -83.280125,
    "name": "Georgia (US)",
    "latitude": 32.528564,
    "dead": 2996,
    "lastUpdated": "2020-07-11T23:17:02.627Z",
    "recovered": 0,
    "infected": 114401,
    "sick": 111405,
    "invisible": false
  },
  {
    "name": "New Zealand",
    "latitude": -42.8285,
    "dead": 22,
    "lastUpdated": "2020-07-11T23:16:02.777Z",
    "recovered": 1497,
    "infected": 1543,
    "id": "IvVhpOoGpH6JVkGyUhXN",
    "pop": 4794000,
    "country": "NZ",
    "longitude": 172.488081,
    "sick": 24,
    "invisible": false
  },
  {
    "name": "Arunachal Pradesh",
    "latitude": 28.218,
    "dead": 2,
    "lastUpdated": "2020-07-11T23:11:02.341Z",
    "recovered": 125,
    "infected": 341,
    "id": "IwYKiIVY18NGwdGQFGWW",
    "pop": 1255000,
    "country": "IN",
    "longitude": 94.7278,
    "sick": 214,
    "invisible": false
  },
  {
    "country": "VE",
    "longitude": -66.5897,
    "name": "Venezuela",
    "latitude": 6.4238,
    "dead": 83,
    "lastUpdated": "2020-07-11T23:16:02.774Z",
    "recovered": 2671,
    "infected": 8803,
    "id": "J3mZXlfEnnJx4CDZLvRG",
    "pop": 28870000,
    "sick": 6049,
    "invisible": false
  },
  {
    "longitude": -72.633,
    "name": "Guaviare",
    "latitude": 2.567,
    "dead": 0,
    "lastUpdated": "2020-07-11T23:00:06.999Z",
    "recovered": 21,
    "infected": 42,
    "id": "JEMCwkwXK39jd1lZ7VgJ",
    "pop": 107932,
    "country": "CO",
    "sick": 21,
    "invisible": false
  },
  {
    "country": "RU",
    "longitude": 40.1754,
    "name": "Adygea",
    "latitude": 44.8229,
    "dead": 14,
    "lastUpdated": "2020-07-11T23:00:08.424Z",
    "recovered": 1701,
    "infected": 2224,
    "id": "JOJVBvOnsLDJPVeYJaI2",
    "pop": 453000,
    "sick": 509,
    "invisible": false
  },
  {
    "id": "JQByE4l2OA6sGOqIcWrM",
    "pop": 1170000,
    "country": "CY",
    "longitude": 33.4299,
    "name": "Cyprus",
    "latitude": 35.1264,
    "dead": 19,
    "lastUpdated": "2020-07-11T23:16:02.777Z",
    "recovered": 839,
    "infected": 1014,
    "sick": 156,
    "invisible": false
  },
  {
    "longitude": 85.3131,
    "name": "Bihar",
    "latitude": 25.0961,
    "dead": 118,
    "lastUpdated": "2020-07-11T23:11:02.340Z",
    "recovered": 10991,
    "infected": 15039,
    "id": "JR7hOGked7CZtIs2nCV5",
    "pop": 99020000,
    "country": "IN",
    "sick": 3930,
    "invisible": false
  },
  {
    "recovered": 4073,
    "infected": 28598,
    "id": "JUWE6bG3b5oL7fKQMSvv",
    "pop": 17250000,
    "country": "GT",
    "longitude": -90.522713,
    "name": "Guatemala",
    "latitude": 14.628434,
    "dead": 1172,
    "lastUpdated": "2020-07-11T23:16:02.770Z",
    "sick": 23353,
    "invisible": false
  },
  {
    "latitude": 49.8153,
    "dead": 110,
    "lastUpdated": "2020-07-11T23:16:02.775Z",
    "recovered": 4086,
    "infected": 4842,
    "id": "JcFsHSn2WvZ5LJW42ovG",
    "pop": 602005,
    "country": "LU",
    "longitude": 6.1296,
    "name": "Luxembourg",
    "sick": 646,
    "invisible": false
  },
  {
    "name": "Bolívar",
    "latitude": 8.8,
    "dead": 54,
    "lastUpdated": "2020-07-11T23:00:06.998Z",
    "recovered": 518,
    "infected": 1268,
    "id": "JmOyaFe25yZCIV64JbZj",
    "pop": 2049000,
    "country": "CO",
    "longitude": -74.167,
    "sick": 696,
    "invisible": false
  },
  {
    "recovered": 0,
    "infected": 10649,
    "id": "Jp9ePErcc8i1aOozEAMf",
    "pop": 3648100,
    "country": "MX",
    "longitude": -115.783,
    "name": "Baja California",
    "latitude": 31.4,
    "dead": 2162,
    "lastUpdated": "2020-07-11T23:02:02.073Z",
    "sick": 8487,
    "invisible": false
  },
  {
    "latitude": 8.7479801,
    "dead": 148,
    "lastUpdated": "2020-07-11T23:00:06.998Z",
    "recovered": 326,
    "infected": 1509,
    "id": "Jr8syCB0lydmPDXw8Q6N",
    "pop": 1786500,
    "country": "CO",
    "longitude": -75.8814316,
    "name": "Córdoba",
    "sick": 1035,
    "invisible": false
  },
  {
    "latitude": 8.6195,
    "dead": 15,
    "lastUpdated": "2020-07-11T23:16:02.778Z",
    "recovered": 494,
    "infected": 710,
    "id": "JrBbirlBKGdWSdcDt7PF",
    "pop": 7798000,
    "country": "TG",
    "longitude": 0.8248,
    "name": "Togo",
    "sick": 201,
    "invisible": false
  },
  {
    "longitude": 25.4858,
    "name": "Bulgaria",
    "latitude": 42.7339,
    "dead": 267,
    "lastUpdated": "2020-07-11T23:16:02.774Z",
    "recovered": 3311,
    "infected": 7175,
    "id": "JzZ8sbqzjutThVjkPKPL",
    "pop": 7050000,
    "country": "BG",
    "sick": 3597,
    "invisible": false
  },
  {
    "longitude": 20.709,
    "name": "Świętokrzyskie",
    "latitude": 50.823,
    "dead": 41,
    "lastUpdated": "2020-07-11T23:03:02.692Z",
    "recovered": 0,
    "infected": 855,
    "id": "KGrK7gafkeWjmU6sHQd2",
    "pop": 1263000,
    "country": "PL",
    "sick": 814,
    "invisible": false
  },
  {
    "latitude": 59.0077,
    "dead": 156,
    "lastUpdated": "2020-07-11T23:00:08.415Z",
    "recovered": 9828,
    "infected": 15623,
    "id": "KLBR5QHW6DePaGcFxlqH",
    "pop": 4325000,
    "country": "RU",
    "longitude": 61.9316,
    "name": "Sverdlovsk Oblast",
    "sick": 5639,
    "invisible": false
  },
  {
    "country": "IT",
    "longitude": 8.833,
    "name": "Liguria",
    "latitude": 44.5,
    "dead": 1559,
    "lastUpdated": "2020-07-11T23:01:01.905Z",
    "recovered": 8219,
    "infected": 10031,
    "state": "42",
    "id": "KLXicxFogWnu0dLp4bNK",
    "pop": 1557000,
    "sick": 253,
    "invisible": false
  },
  {
    "latitude": 56.4385,
    "dead": 26,
    "lastUpdated": "2020-07-11T23:00:08.423Z",
    "recovered": 2891,
    "infected": 3268,
    "id": "KUnAVGJH6fLwFetE8A2x",
    "pop": 682000,
    "country": "RU",
    "longitude": 47.9608,
    "name": "Mari El Republic",
    "sick": 351,
    "invisible": false
  },
  {
    "longitude": -73.2532,
    "name": "Cesar",
    "latitude": 10.4631,
    "dead": 33,
    "lastUpdated": "2020-07-11T23:00:06.998Z",
    "recovered": 784,
    "infected": 1418,
    "id": "KpOz3WmiZkrXUMlUJNlV",
    "pop": 1201000,
    "country": "CO",
    "sick": 601,
    "invisible": false
  },
  {
    "latitude": 43.4167,
    "dead": 1122,
    "lastUpdated": "2020-07-11T23:01:01.906Z",
    "recovered": 8869,
    "infected": 10321,
    "state": "52",
    "id": "KrLrJbpDqqiXgUPGCCW9",
    "pop": 3737000,
    "country": "IT",
    "longitude": 11,
    "name": "Toscana",
    "sick": 330,
    "invisible": false
  },
  {
    "longitude": 80.771797,
    "name": "Sri Lanka",
    "latitude": 7.873054,
    "dead": 11,
    "lastUpdated": "2020-07-11T23:16:02.776Z",
    "recovered": 1980,
    "infected": 2511,
    "id": "KsWzJO06cf0d6LJ4ZNh9",
    "pop": 21440000,
    "country": "LK",
    "sick": 520,
    "invisible": false
  },
  {
    "name": "Andhra Pradesh",
    "latitude": 15.9129,
    "dead": 309,
    "lastUpdated": "2020-07-11T23:11:02.339Z",
    "recovered": 14393,
    "infected": 27235,
    "id": "KtQIo2DoqjELtPAlyDVO",
    "pop": 49670000,
    "country": "IN",
    "longitude": 79.74,
    "sick": 12533,
    "invisible": false
  },
  {
    "name": "Saint-Martin",
    "alwaysShow": true,
    "latitude": 18.0708,
    "dead": 3,
    "lastUpdated": "2020-07-11T23:16:02.781Z",
    "recovered": 37,
    "infected": 43,
    "id": "LBUtrLDKJiupXjlUNTUe",
    "pop": 32125,
    "country": "FR",
    "longitude": -63.0501,
    "sick": 3,
    "invisible": false
  },
  {
    "country": "RU",
    "longitude": 36.9242,
    "name": "Oryol Oblast",
    "latitude": 52.7856,
    "dead": 75,
    "lastUpdated": "2020-07-11T23:00:08.421Z",
    "recovered": 3586,
    "infected": 4974,
    "id": "LD8TNScpLrLRvgpQAn9T",
    "pop": 747000,
    "sick": 1313,
    "invisible": false
  },
  {
    "latitude": 47.166,
    "dead": 1,
    "lastUpdated": "2020-07-11T23:16:02.780Z",
    "recovered": 81,
    "infected": 84,
    "id": "LTGEU2E9MFkrCcFhZYVk",
    "pop": 38557,
    "country": "LI",
    "longitude": 9.5554,
    "name": "Liechtenstein",
    "sick": 2,
    "invisible": false
  },
  {
    "lastUpdated": "2020-07-11T23:16:02.774Z",
    "recovered": 4802,
    "infected": 6044,
    "id": "LU2QWt5ao8IJa8evNYVV",
    "pop": 12720000,
    "country": "GN",
    "longitude": -9.6966,
    "name": "Guinea",
    "latitude": 9.9456,
    "dead": 37,
    "sick": 1205,
    "invisible": false
  },
  {
    "id": "LYCBHrA9ms6GcxpLGPCT",
    "pop": 3062000,
    "country": "MX",
    "longitude": -110.5,
    "name": "Sonora",
    "latitude": 29.6667,
    "dead": 1193,
    "lastUpdated": "2020-07-11T23:02:02.075Z",
    "recovered": 0,
    "infected": 12065,
    "sick": 10872,
    "invisible": false
  },
  {
    "name": "Suriname",
    "latitude": 3.9193051,
    "dead": 18,
    "lastUpdated": "2020-07-11T23:16:02.778Z",
    "recovered": 481,
    "infected": 729,
    "id": "LglKINHyQpYpFxjckbQ6",
    "pop": 563402,
    "country": "SR",
    "longitude": -56.0277824,
    "sick": 230,
    "invisible": false
  },
  {
    "lastUpdated": "2020-07-11T23:07:08.317Z",
    "recovered": 757,
    "infected": 815,
    "state": "SK",
    "id": "LkIDKY0CMAqzbwBHyYCP",
    "pop": 1174000,
    "country": "CA",
    "longitude": -106.4509,
    "name": "Saskatchewan",
    "latitude": 52.9399,
    "dead": 15,
    "sick": 43,
    "invisible": false
  },
  {
    "latitude": 24.2155,
    "dead": 1,
    "lastUpdated": "2020-07-11T23:16:02.782Z",
    "recovered": 8,
    "infected": 10,
    "id": "LooNn6RuMiDhQnwa9svw",
    "pop": 636442,
    "country": "EH",
    "longitude": -12.8858,
    "name": "Western Sahara",
    "sick": 1,
    "invisible": false
  },
  {
    "longitude": -5.951843,
    "name": "Principado de Asturias",
    "latitude": 43.363129,
    "dead": 334,
    "lastUpdated": "2020-07-11T21:47:08.813Z",
    "recovered": 1063,
    "infected": 3422,
    "state": "AS",
    "id": "Lsga7AvYNnY0qQ5gEfV8",
    "pop": 1022000,
    "country": "ES",
    "sick": 2025,
    "invisible": false
  },
  {
    "latitude": 39.4937,
    "dead": 519,
    "lastUpdated": "2020-07-11T21:46:44.381Z",
    "recovered": 2652,
    "infected": 4107,
    "state": "EX",
    "id": "LuEErlF7dVKI0eJsRjFm",
    "pop": 1065000,
    "country": "ES",
    "longitude": -6.0679,
    "name": "Extremadura",
    "sick": 936,
    "invisible": false
  },
  {
    "id": "M3wdiueFtwrUHiQ2rOXA",
    "pop": 5965000,
    "country": "MX",
    "longitude": -101.2591,
    "name": "Guanajuato",
    "latitude": 21.0186,
    "dead": 766,
    "lastUpdated": "2020-07-11T23:02:02.077Z",
    "recovered": 0,
    "infected": 12794,
    "sick": 12028,
    "invisible": false
  },
  {
    "recovered": 0,
    "infected": 19121,
    "state": "KY",
    "id": "MC8MXFw9iXYybnF8v7e6",
    "pop": 4468000,
    "country": "US",
    "longitude": -84.27,
    "name": "Kentucky",
    "latitude": 37.8393,
    "dead": 622,
    "lastUpdated": "2020-07-11T23:17:02.629Z",
    "sick": 18499,
    "invisible": false
  },
  {
    "recovered": 0,
    "infected": 8257,
    "id": "MEjlm8VYdGA28TTTnQmf",
    "country": "GB",
    "longitude": -3.436,
    "invisible": true,
    "name": "Unknown UK region or state",
    "latitude": 55.3781,
    "dead": 40213,
    "lastUpdated": "2020-07-11T23:13:10.821Z",
    "sick": 0
  },
  {
    "latitude": 41.3006,
    "dead": 821,
    "lastUpdated": "2020-07-11T21:41:46.470Z",
    "recovered": 0,
    "infected": 18001,
    "id": "MG4e9tulLJ010SZJvbYN",
    "pop": 3689000,
    "country": "PT",
    "longitude": -7.7441,
    "name": "Norte",
    "sick": 17180,
    "invisible": false
  },
  {
    "state": "SC",
    "id": "MObRYyIriHG337L8FyFC",
    "pop": 5450000,
    "country": "GB",
    "longitude": -4.2026,
    "name": "Scotland",
    "latitude": 56.4907,
    "dead": 2490,
    "lastUpdated": "2020-07-11T23:13:10.819Z",
    "recovered": 0,
    "infected": 18340,
    "sick": 15850,
    "invisible": false
  },
  {
    "lastUpdated": "2020-07-11T23:17:02.628Z",
    "recovered": 0,
    "infected": 51079,
    "state": "IN",
    "id": "MOxDkmQ4wBi1CuAdVxDE",
    "pop": 6692000,
    "country": "US",
    "longitude": -86.1349,
    "name": "Indiana",
    "latitude": 40.2672,
    "dead": 2756,
    "sick": 48323,
    "invisible": false
  },
  {
    "id": "MdQOfc1gNh2DOqwSP6UV",
    "pop": 24290000,
    "country": "CI",
    "longitude": -5.5471,
    "name": "Ivory Coast",
    "latitude": 7.54,
    "dead": 82,
    "lastUpdated": "2020-07-11T23:16:02.773Z",
    "recovered": 6357,
    "infected": 12443,
    "sick": 6004,
    "invisible": false
  },
  {
    "country": "DE",
    "longitude": 7.6616,
    "name": "Nordrhein-Westfalen",
    "latitude": 51.4332,
    "dead": 1720,
    "lastUpdated": "2020-07-11T23:00:10.751Z",
    "recovered": 41008,
    "infected": 44901,
    "state": "NW",
    "id": "MjpYq3zQyAvSQlVVYjD2",
    "pop": 17910000,
    "sick": 2173,
    "invisible": false
  },
  {
    "latitude": 37.330509,
    "dead": 0,
    "lastUpdated": "2020-07-11T23:08:09.694Z",
    "recovered": 75,
    "infected": 75,
    "id": "MntmjjuHljarCdt6aIeE",
    "pop": 6301000,
    "country": "CN",
    "longitude": 105.977203,
    "name": "Ningxia",
    "sick": 0,
    "invisible": false
  },
  {
    "name": "Pará",
    "latitude": -3.20166586,
    "dead": 5274,
    "lastUpdated": "2020-07-11T22:57:02.190Z",
    "recovered": 0,
    "infected": 124934,
    "state": "PA",
    "id": "MuEB2UgkId5crsxi9zQT",
    "pop": 8513497,
    "country": "BR",
    "longitude": -52.203499186,
    "sick": 119660,
    "invisible": false
  },
  {
    "id": "N0KGfqgROVOjAxWcd8wi",
    "pop": 1150000,
    "country": "RU",
    "longitude": 39.2032,
    "name": "Lipetsk Oblast",
    "latitude": 52.5265,
    "dead": 19,
    "lastUpdated": "2020-07-11T23:00:08.422Z",
    "recovered": 2847,
    "infected": 4158,
    "sick": 1292,
    "invisible": false
  },
  {
    "longitude": 9.3501,
    "name": "Baden-Württemberg",
    "latitude": 48.6616,
    "dead": 1893,
    "lastUpdated": "2020-07-11T23:00:10.744Z",
    "recovered": 33694,
    "infected": 36426,
    "state": "BW",
    "id": "N3XsRBwJSsNclkEf7Zz5",
    "pop": 11020000,
    "country": "DE",
    "sick": 839,
    "invisible": false
  },
  {
    "longitude": 17.824332,
    "name": "Bosnia and Herzegovina",
    "latitude": 44.696652,
    "dead": 219,
    "lastUpdated": "2020-07-11T23:16:02.774Z",
    "recovered": 3078,
    "infected": 6719,
    "id": "N7c13sCQF0G789XAVazJ",
    "pop": 3507000,
    "country": "BA",
    "sick": 3422,
    "invisible": false
  },
  {
    "latitude": 37.242565,
    "dead": 0,
    "lastUpdated": "2020-07-11T23:08:09.693Z",
    "recovered": 198,
    "infected": 200,
    "id": "NBRIGIRrJB1Ry8prDNAC",
    "pop": 36500000,
    "country": "CN",
    "longitude": 111.856857,
    "name": "Shanxi",
    "sick": 2,
    "invisible": false
  },
  {
    "country": "US",
    "longitude": -79.0193,
    "name": "North Carolina",
    "latitude": 35.7596,
    "dead": 1523,
    "lastUpdated": "2020-07-11T23:17:02.627Z",
    "recovered": 0,
    "infected": 83820,
    "state": "NC",
    "id": "NC64Qp5kTqAfiTuR27k8",
    "pop": 10380000,
    "sick": 82297,
    "invisible": false
  },
  {
    "lastUpdated": "2020-07-11T23:00:10.746Z",
    "recovered": 3241,
    "infected": 3549,
    "state": "BB",
    "id": "NJjo2gfBvnbK4xatrsUz",
    "pop": 2504000,
    "country": "DE",
    "longitude": 12.5316,
    "name": "Brandenburg",
    "latitude": 52.4125,
    "dead": 177,
    "sick": 131,
    "invisible": false
  },
  {
    "dead": 2,
    "latitude": 15.0979,
    "infected": 31,
    "recovered": 0,
    "pop": 55144,
    "country": "US",
    "lastUpdated": "2020-07-11T23:17:02.631Z",
    "state": "MP",
    "id": "NLLL6pJhJSw0lrDMD4uP",
    "longitude": 145.6739,
    "name": "Northern Mariana Islands",
    "alwaysShow": true,
    "sick": 29,
    "invisible": false
  },
  {
    "recovered": 2718,
    "infected": 3417,
    "id": "NMeZEcGToxXfpi16PfFV",
    "pop": 10080000,
    "country": "IN",
    "longitude": 79.0193,
    "name": "Uttarakhand",
    "latitude": 30.0668,
    "dead": 46,
    "lastUpdated": "2020-07-11T23:11:02.341Z",
    "sick": 653,
    "invisible": false
  },
  {
    "latitude": 50.6521,
    "dead": 521,
    "lastUpdated": "2020-07-11T23:00:10.747Z",
    "recovered": 10244,
    "infected": 11166,
    "state": "HE",
    "id": "Nk5vPgUIXsWVfbWZf15O",
    "pop": 6243000,
    "country": "DE",
    "longitude": 9.1624,
    "name": "Hessen",
    "sick": 401,
    "invisible": false
  },
  {
    "recovered": 1019,
    "infected": 1173,
    "id": "NmmMKy0YqA8StHdGzB5N",
    "pop": 1920000,
    "country": "LV",
    "longitude": 25.837107,
    "name": "Latvia",
    "latitude": 56.96776,
    "dead": 30,
    "lastUpdated": "2020-07-11T23:16:02.777Z",
    "sick": 124,
    "invisible": false
  },
  {
    "latitude": -8.472372,
    "dead": 5556,
    "lastUpdated": "2020-07-11T22:57:02.251Z",
    "recovered": 0,
    "infected": 71370,
    "state": "PE",
    "id": "NyGlFL1gATK1Omv9qtcC",
    "pop": 9496294,
    "country": "BR",
    "longitude": -37.946777,
    "name": "Pernambuco",
    "sick": 65814,
    "invisible": false
  },
  {
    "lastUpdated": "2020-07-11T23:16:02.778Z",
    "recovered": 420,
    "infected": 998,
    "id": "O4g88K49HKEZLFXm5gxb",
    "pop": 4732000,
    "country": "LR",
    "longitude": -9.4295,
    "name": "Liberia",
    "latitude": 6.4281,
    "dead": 47,
    "sick": 531,
    "invisible": false
  },
  {
    "latitude": 51.7936,
    "dead": 50,
    "lastUpdated": "2020-07-11T23:00:08.420Z",
    "recovered": 3800,
    "infected": 5589,
    "id": "O5fNOGWKosps6JTrzkpn",
    "pop": 2350000,
    "country": "RU",
    "longitude": 82.6759,
    "name": "Altai Krai",
    "sick": 1739,
    "invisible": false
  },
  {
    "recovered": 2703,
    "infected": 3595,
    "id": "O6PDzAxKENYbLsLjPx2K",
    "pop": 1072000,
    "country": "RU",
    "longitude": 116.9677,
    "name": "Zabaykalsky Krai",
    "latitude": 53.0929,
    "dead": 44,
    "lastUpdated": "2020-07-11T23:00:08.423Z",
    "sick": 848,
    "invisible": false
  },
  {
    "state": "SC",
    "id": "ONU4CK8QjViFHKg2w5if",
    "pop": 5084000,
    "country": "US",
    "longitude": -80.525613,
    "name": "South Carolina",
    "latitude": 34.003307,
    "dead": 951,
    "lastUpdated": "2020-07-11T23:17:02.628Z",
    "recovered": 0,
    "infected": 54699,
    "sick": 53748,
    "invisible": false
  },
  {
    "state": "MS",
    "id": "OYa0jFzdbAgo8zUsRv6q",
    "pop": 2987000,
    "country": "US",
    "longitude": -89.582775,
    "name": "Mississippi",
    "latitude": 33.51822,
    "dead": 1230,
    "lastUpdated": "2020-07-11T23:17:02.628Z",
    "recovered": 0,
    "infected": 35419,
    "sick": 34189,
    "invisible": false
  },
  {
    "name": "Maine",
    "latitude": 45.2538,
    "dead": 112,
    "lastUpdated": "2020-07-11T23:17:02.630Z",
    "recovered": 0,
    "infected": 3520,
    "state": "ME",
    "id": "OcXNp9kNVSwrRlG3bNVN",
    "pop": 1338000,
    "country": "US",
    "longitude": -69.4455,
    "sick": 3408,
    "invisible": false
  },
  {
    "latitude": 43.4052,
    "dead": 71,
    "lastUpdated": "2020-07-11T23:00:08.423Z",
    "recovered": 2524,
    "infected": 3280,
    "id": "OlKS5SPydHY2TedStFuf",
    "pop": 488000,
    "country": "RU",
    "longitude": 44.8203,
    "name": "Ingushetia",
    "sick": 685,
    "invisible": false
  },
  {
    "latitude": -41.915264,
    "dead": 13,
    "lastUpdated": "2020-07-11T23:13:24.211Z",
    "recovered": 215,
    "infected": 228,
    "state": "TAS",
    "id": "OnOseaqWdnuP18oruABW",
    "pop": 515000,
    "country": "AU",
    "longitude": 146.725256,
    "name": "Tasmania",
    "sick": 0,
    "invisible": false
  },
  {
    "state": "MT",
    "id": "P0GHFGUt1pkKTk5PM8uz",
    "pop": 3441998,
    "country": "BR",
    "longitude": -56.666668,
    "name": "Mato Grosso",
    "latitude": -16.35,
    "dead": 1029,
    "lastUpdated": "2020-07-11T22:57:02.253Z",
    "recovered": 0,
    "infected": 27636,
    "sick": 26607,
    "invisible": false
  },
  {
    "id": "P2I90oqdFSoVk03AaGo4",
    "pop": 1378000,
    "country": "RU",
    "longitude": 40.5927,
    "name": "Vladimir Oblast",
    "latitude": 56.1553,
    "dead": 88,
    "lastUpdated": "2020-07-11T23:00:08.421Z",
    "recovered": 3787,
    "infected": 4874,
    "sick": 999,
    "invisible": false
  },
  {
    "recovered": 197,
    "infected": 201,
    "id": "P4mwRFLbrvT0t75uD8Wo",
    "pop": 61559,
    "country": "KY",
    "longitude": -81.2546,
    "name": "Cayman Islands",
    "latitude": 19.3133,
    "dead": 1,
    "lastUpdated": "2020-07-11T23:16:02.779Z",
    "sick": 3,
    "invisible": false
  },
  {
    "lastUpdated": "2020-07-11T23:16:02.782Z",
    "recovered": 10,
    "infected": 12,
    "id": "PEDkeFMTOZpvHiSVxBk7",
    "pop": 5900,
    "country": "MS",
    "longitude": -62.1873665,
    "name": "Montserrat",
    "latitude": 16.7424984,
    "dead": 1,
    "sick": 1,
    "invisible": false
  },
  {
    "latitude": -1.9403,
    "dead": 4,
    "lastUpdated": "2020-07-11T23:16:02.777Z",
    "recovered": 663,
    "infected": 1299,
    "id": "PEcgZGEkyhABztt1Ufgc",
    "pop": 12210000,
    "country": "RW",
    "longitude": 29.8739,
    "name": "Rwanda",
    "sick": 632,
    "invisible": false
  },
  {
    "longitude": 56.1645,
    "name": "Bashkortostan",
    "latitude": 54.2312,
    "dead": 19,
    "lastUpdated": "2020-07-11T23:00:08.419Z",
    "recovered": 3962,
    "infected": 5875,
    "id": "PHlHdeqYd6KgxsJGfEz0",
    "pop": 4063000,
    "country": "RU",
    "sick": 1894,
    "invisible": false
  },
  {
    "name": "Minnesota",
    "latitude": 46.7296,
    "dead": 1537,
    "lastUpdated": "2020-07-11T23:17:02.628Z",
    "recovered": 0,
    "infected": 41571,
    "state": "MN",
    "id": "PJvVYosLIhbcRZYnKX1R",
    "pop": 5611000,
    "country": "US",
    "longitude": -94.6859,
    "sick": 40034,
    "invisible": false
  },
  {
    "state": "IL",
    "id": "PTwQr9ijo0TBBsPH2sdJ",
    "pop": 12740000,
    "country": "US",
    "longitude": -89.3985,
    "name": "Illinois",
    "latitude": 40.6331,
    "dead": 7369,
    "lastUpdated": "2020-07-11T23:17:02.626Z",
    "recovered": 0,
    "infected": 154094,
    "sick": 146725,
    "invisible": false
  },
  {
    "recovered": 19,
    "infected": 22,
    "id": "PjLqCeFdyzdZNcZxMkK1",
    "pop": 178844,
    "country": "LC",
    "longitude": -60.978893,
    "name": "Saint Lucia",
    "latitude": 13.909444,
    "dead": 0,
    "lastUpdated": "2020-07-11T23:16:02.781Z",
    "sick": 3,
    "invisible": false
  },
  {
    "recovered": 3905,
    "infected": 8680,
    "state": "NC",
    "id": "PmUlsNx2uFLU797wwU39",
    "pop": 649900,
    "country": "ES",
    "longitude": -1.6761,
    "name": "Comunidad Foral de Navarra",
    "latitude": 42.6954,
    "dead": 528,
    "lastUpdated": "2020-07-11T21:46:37.029Z",
    "sick": 4247,
    "invisible": false
  },
  {
    "name": "Tunisia",
    "latitude": 34.201507,
    "dead": 50,
    "lastUpdated": "2020-07-11T23:16:02.777Z",
    "recovered": 1076,
    "infected": 1245,
    "id": "Pr76V4raf108uSRoEXac",
    "pop": 11530000,
    "country": "TN",
    "longitude": 9.460554,
    "sick": 119,
    "invisible": false
  },
  {
    "longitude": 31.4659,
    "name": "Eswatini",
    "latitude": -26.5225,
    "dead": 18,
    "lastUpdated": "2020-07-11T23:16:02.777Z",
    "recovered": 656,
    "infected": 1311,
    "id": "PuQgOd9KWiMzGZXm11sR",
    "pop": 1367000,
    "country": "SZ",
    "sick": 637,
    "invisible": false
  },
  {
    "lastUpdated": "2020-07-11T23:13:24.211Z",
    "recovered": 2286,
    "infected": 2368,
    "state": "VIC",
    "id": "Q18mrGvFWTLX2BU9SqhQ",
    "pop": 6359000,
    "country": "AU",
    "longitude": 143.94853,
    "name": "Victoria",
    "latitude": -37.009609,
    "dead": 20,
    "sick": 62,
    "invisible": false
  },
  {
    "latitude": 54.2194,
    "dead": 159,
    "lastUpdated": "2020-07-11T23:00:10.752Z",
    "recovered": 3015,
    "infected": 3212,
    "state": "SH",
    "id": "Q39XkabIYxt15mHINzTa",
    "pop": 2890000,
    "country": "DE",
    "longitude": 9.6961,
    "name": "Schleswig-Holstein",
    "sick": 38,
    "invisible": false
  },
  {
    "state": "RS",
    "id": "QGpQNhuoVTUPHXvS7qcu",
    "pop": 11329605,
    "country": "BR",
    "longitude": -52.031696,
    "name": "Rio Grande do Sul",
    "latitude": -27.953491,
    "dead": 943,
    "lastUpdated": "2020-07-11T22:57:02.252Z",
    "recovered": 0,
    "infected": 38720,
    "sick": 37777,
    "invisible": false
  },
  {
    "name": "Chuvashia",
    "latitude": 55.5596,
    "dead": 46,
    "lastUpdated": "2020-07-11T23:00:08.419Z",
    "recovered": 3159,
    "infected": 5775,
    "id": "QGyuno7Bc4kwuvGFgMiO",
    "pop": 1231000,
    "country": "RU",
    "longitude": 46.9284,
    "sick": 2570,
    "invisible": false
  },
  {
    "recovered": 1895,
    "infected": 2014,
    "id": "QR9go2hQKXjty7JHUYe4",
    "pop": 1328000,
    "country": "EE",
    "longitude": 25.013607,
    "name": "Estonia",
    "latitude": 58.595272,
    "dead": 69,
    "lastUpdated": "2020-07-11T23:16:02.776Z",
    "sick": 50,
    "invisible": false
  },
  {
    "country": "RU",
    "longitude": 54.8313,
    "name": "Komi Republic",
    "latitude": 63.8631,
    "dead": 35,
    "lastUpdated": "2020-07-11T23:00:08.422Z",
    "recovered": 2288,
    "infected": 4179,
    "id": "QTafh5fpbS8abcuyEjaL",
    "pop": 840000,
    "sick": 1856,
    "invisible": false
  },
  {
    "country": "BR",
    "longitude": -40.336,
    "name": "Espírito Santo",
    "latitude": -20.318,
    "dead": 1984,
    "lastUpdated": "2020-07-11T22:57:02.252Z",
    "recovered": 0,
    "infected": 62236,
    "state": "ES",
    "id": "QaWDLKH8SuwD0Qxq6c38",
    "pop": 3972388,
    "sick": 60252,
    "invisible": false
  },
  {
    "country": "RU",
    "longitude": 35.0884,
    "name": "Murmansk Oblast",
    "latitude": 67.8443,
    "dead": 28,
    "lastUpdated": "2020-07-11T23:00:08.418Z",
    "recovered": 3948,
    "infected": 6866,
    "id": "Qh73PKA4KWeuPoqZfWXz",
    "pop": 795000,
    "sick": 2890,
    "invisible": false
  },
  {
    "name": "Jalisco",
    "latitude": 20.3333,
    "dead": 974,
    "lastUpdated": "2020-07-11T23:02:02.078Z",
    "recovered": 0,
    "infected": 18018,
    "id": "Qkho455pBwx88Gohs3hL",
    "pop": 8222700,
    "country": "MX",
    "longitude": -103.6667,
    "sick": 17044,
    "invisible": false
  },
  {
    "name": "Papua New Guinea",
    "latitude": -6.315,
    "dead": 0,
    "lastUpdated": "2020-07-11T23:16:02.782Z",
    "recovered": 8,
    "infected": 11,
    "id": "QlZrE4nosm5WfdA2aCDg",
    "pop": 8251000,
    "country": "PG",
    "longitude": 143.9555,
    "sick": 3,
    "invisible": false
  },
  {
    "longitude": -64.8963,
    "name": "U.S. Virgin Islands",
    "alwaysShow": true,
    "dead": 6,
    "latitude": 18.3358,
    "infected": 167,
    "recovered": 0,
    "pop": 107268,
    "country": "US",
    "lastUpdated": "2020-07-11T23:17:02.631Z",
    "state": "VI",
    "id": "QqhD3YDMKXojvQY3Yu41",
    "sick": 161,
    "invisible": false
  },
  {
    "id": "Qy2qW2ep5wltnYjPJBxh",
    "pop": 71937,
    "country": "DM",
    "longitude": -61.3709755,
    "name": "Dominica",
    "latitude": 15.414999,
    "dead": 0,
    "lastUpdated": "2020-07-11T23:16:02.781Z",
    "recovered": 18,
    "infected": 18,
    "sick": 0,
    "invisible": false
  },
  {
    "lastUpdated": "2020-07-11T23:00:06.998Z",
    "recovered": 51,
    "infected": 112,
    "id": "R3IHMWqIUhOJJTlrmbUZ",
    "pop": 344027,
    "country": "CO",
    "longitude": -72.167,
    "name": "Casanare",
    "latitude": 5.167,
    "dead": 1,
    "sick": 60,
    "invisible": false
  },
  {
    "recovered": 22170,
    "infected": 44332,
    "id": "R8YCgephnxTufvcPWMgx",
    "pop": 4099000,
    "country": "PA",
    "longitude": -80.7821,
    "name": "Panama",
    "latitude": 8.538,
    "dead": 893,
    "lastUpdated": "2020-07-11T23:16:02.769Z",
    "sick": 21269,
    "invisible": false
  },
  {
    "latitude": 15.2,
    "dead": 750,
    "lastUpdated": "2020-07-11T23:16:02.772Z",
    "recovered": 2850,
    "infected": 27053,
    "id": "RA2SE0p2bVhqo0P2hzGY",
    "pop": 9265000,
    "country": "HN",
    "longitude": -86.2419,
    "name": "Honduras",
    "sick": 23453,
    "invisible": false
  },
  {
    "latitude": -18.4745998,
    "dead": 26,
    "lastUpdated": "2020-07-11T22:51:04.922Z",
    "recovered": 0,
    "infected": 2395,
    "id": "RBt9RiwP7WUbMnJfD0lo",
    "pop": 224500,
    "country": "CL",
    "longitude": -70.2979202,
    "name": "Arica y Parinacota",
    "sick": 2369,
    "invisible": false
  },
  {
    "recovered": 2911,
    "infected": 3335,
    "state": "36",
    "id": "RCrDBCdBNYzgLNr0aB2H",
    "pop": 1216000,
    "country": "IT",
    "longitude": 13.8,
    "name": "Friuli Venezia Giulia",
    "latitude": 45.633331,
    "dead": 345,
    "lastUpdated": "2020-07-11T23:01:01.905Z",
    "sick": 79,
    "invisible": false
  },
  {
    "latitude": 41.878,
    "dead": 748,
    "lastUpdated": "2020-07-11T23:17:02.628Z",
    "recovered": 0,
    "infected": 34658,
    "state": "IA",
    "id": "RX0KDu1AFrlCsrRso0nb",
    "pop": 3156000,
    "country": "US",
    "longitude": -93.0977,
    "name": "Iowa",
    "sick": 33910,
    "invisible": false
  },
  {
    "lastUpdated": "2020-07-11T23:00:06.996Z",
    "recovered": 16755,
    "infected": 45039,
    "id": "RZ6PCe5TZsO15JjDObwO",
    "pop": 7413000,
    "country": "CO",
    "longitude": -74.063644,
    "name": "Bogotá D.C.",
    "latitude": 4.624335,
    "dead": 1007,
    "sick": 27277,
    "invisible": false
  },
  {
    "country": "LY",
    "longitude": 17.2283306,
    "name": "Libya",
    "latitude": 26.3351002,
    "dead": 38,
    "lastUpdated": "2020-07-11T23:16:02.777Z",
    "recovered": 340,
    "infected": 1389,
    "id": "RaJxbzlnRFTuj4B8IbpC",
    "pop": 6846000,
    "sick": 1011,
    "invisible": false
  },
  {
    "lastUpdated": "2020-07-11T23:17:02.629Z",
    "recovered": 0,
    "infected": 18890,
    "state": "KS",
    "id": "Rf4uvBfP3GRDSHdZElRd",
    "pop": 2912000,
    "country": "US",
    "longitude": -98.4842,
    "name": "Kansas",
    "latitude": 39.0119,
    "dead": 294,
    "sick": 18596,
    "invisible": false
  },
  {
    "latitude": 48.6998,
    "dead": 3585,
    "lastUpdated": "2020-07-11T21:47:54.357Z",
    "recovered": 12397,
    "infected": 26360,
    "id": "RmEgf1xeclWt7XCF9oiR",
    "pop": 5518000,
    "country": "FR",
    "longitude": 6.1878,
    "name": "Grand Est",
    "sick": 10378,
    "invisible": false
  },
  {
    "latitude": 50.4176,
    "dead": 3390,
    "lastUpdated": "2020-07-11T23:07:07.358Z",
    "recovered": 4924,
    "infected": 19467,
    "state": "WAL",
    "id": "RryHraSohKQLAsdr1dHO",
    "pop": 3644000,
    "country": "BE",
    "longitude": 4.451,
    "name": "Wallonia",
    "sick": 11153,
    "invisible": false
  },
  {
    "latitude": 51.2538,
    "dead": 2716,
    "lastUpdated": "2020-07-11T23:07:08.309Z",
    "recovered": 32422,
    "infected": 36594,
    "state": "ON",
    "id": "Rx4TuyMpfGb3S8wYJX0x",
    "pop": 14570000,
    "country": "CA",
    "longitude": -85.3232,
    "name": "Ontario",
    "sick": 1456,
    "invisible": false
  },
  {
    "country": "ES",
    "longitude": -4.723611,
    "name": "Castilla y León",
    "latitude": 41.652779,
    "dead": 2791,
    "lastUpdated": "2020-07-11T21:46:24.557Z",
    "recovered": 8716,
    "infected": 26078,
    "state": "CL",
    "id": "S8ewN4zaYp8mjtuqqOTw",
    "pop": 2408000,
    "sick": 14571,
    "invisible": false
  },
  {
    "recovered": 98,
    "infected": 255,
    "id": "SDdefnq1bc3ZNr7SpEsW",
    "pop": 376480,
    "country": "FR",
    "longitude": -61.011715,
    "name": "Martinique",
    "alwaysShow": true,
    "latitude": 14.652027,
    "dead": 15,
    "lastUpdated": "2020-07-11T23:16:02.779Z",
    "sick": 142,
    "invisible": false
  },
  {
    "latitude": 7.9465,
    "dead": 135,
    "lastUpdated": "2020-07-11T23:16:02.772Z",
    "recovered": 19831,
    "infected": 24248,
    "id": "SG9VWLOV3x2JsTkXmVSz",
    "pop": 28830000,
    "country": "GH",
    "longitude": -1.0232,
    "name": "Ghana",
    "sick": 4282,
    "invisible": false
  },
  {
    "longitude": 8.227512,
    "name": "Switzerland",
    "latitude": 46.818188,
    "dead": 1968,
    "lastUpdated": "2020-07-11T23:16:02.770Z",
    "recovered": 29500,
    "infected": 32817,
    "id": "SGe9sCPayMqh6RsGFaBA",
    "pop": 8570000,
    "country": "CH",
    "sick": 1349,
    "invisible": false
  },
  {
    "latitude": 66.7613,
    "dead": 35,
    "lastUpdated": "2020-07-11T23:00:08.421Z",
    "recovered": 4069,
    "infected": 4757,
    "id": "SGhKBmmh5hss7hrNR8hK",
    "pop": 964000,
    "country": "RU",
    "longitude": 124.1238,
    "name": "Yakutia",
    "sick": 653,
    "invisible": false
  },
  {
    "name": "Quebec",
    "latitude": 46.8139,
    "dead": 5620,
    "lastUpdated": "2020-07-11T23:07:08.316Z",
    "recovered": 25773,
    "infected": 56407,
    "state": "QC",
    "id": "SHoOE3NiJgWAlDVBzwYH",
    "pop": 8485000,
    "country": "CA",
    "longitude": -71.208,
    "sick": 25014,
    "invisible": false
  },
  {
    "country": "XK",
    "longitude": 20.903,
    "name": "Kosovo",
    "latitude": 42.6026,
    "dead": 101,
    "lastUpdated": "2020-07-11T22:40:01.722Z",
    "recovered": 2227,
    "infected": 4715,
    "id": "SMWvuMMuKp2QK7O2tNia",
    "pop": 1831000,
    "sick": 2387,
    "invisible": false
  },
  {
    "lastUpdated": "2020-07-11T23:00:08.421Z",
    "recovered": 3648,
    "infected": 5010,
    "id": "SNWCQwRwqYfxX8HZndTA",
    "pop": 1913000,
    "country": "RU",
    "longitude": 135,
    "name": "Primorsky Krai",
    "latitude": 45.0526,
    "dead": 58,
    "sick": 1304,
    "invisible": false
  },
  {
    "id": "SPcujsH2YlUaoAr8AiWF",
    "pop": 1817000,
    "country": "IN",
    "longitude": 74.124,
    "name": "Goa",
    "latitude": 15.2993,
    "dead": 12,
    "lastUpdated": "2020-07-11T23:11:02.341Z",
    "recovered": 1428,
    "infected": 2368,
    "sick": 928,
    "invisible": false
  },
  {
    "longitude": -48.953403,
    "name": "Goiás",
    "latitude": -16.328547,
    "dead": 844,
    "lastUpdated": "2020-07-11T22:57:02.253Z",
    "recovered": 0,
    "infected": 35793,
    "state": "GO",
    "id": "SV5AMF59J61Vt4cXWLgy",
    "pop": 6921161,
    "country": "BR",
    "sick": 34949,
    "invisible": false
  },
  {
    "id": "SYFarIS62W0EW9bOaJmN",
    "pop": 75500,
    "country": "CO",
    "longitude": -68.436,
    "name": "Vichada",
    "latitude": 6.181,
    "dead": 0,
    "lastUpdated": "2020-07-11T23:00:06.999Z",
    "recovered": 1,
    "infected": 1,
    "sick": 0,
    "invisible": false
  },
  {
    "longitude": 16.5,
    "name": "Calabria",
    "latitude": 39,
    "dead": 97,
    "lastUpdated": "2020-07-11T23:01:01.904Z",
    "recovered": 1062,
    "infected": 1188,
    "state": "78",
    "id": "SZdF624x0v1LlyzZjKFu",
    "pop": 1957000,
    "country": "IT",
    "sick": 29,
    "invisible": false
  },
  {
    "state": "NE",
    "id": "SakhKQzKu1LRI8laqdQq",
    "pop": 1929000,
    "country": "US",
    "longitude": -99.9018,
    "name": "Nebraska",
    "latitude": 41.4925,
    "dead": 286,
    "lastUpdated": "2020-07-11T23:17:02.629Z",
    "recovered": 0,
    "infected": 20777,
    "sick": 20491,
    "invisible": false
  },
  {
    "name": "La Réunion",
    "alwaysShow": true,
    "latitude": -21.1151,
    "dead": 3,
    "lastUpdated": "2020-07-11T23:16:02.779Z",
    "recovered": 472,
    "infected": 577,
    "id": "SgHzWAAYK1j2sipovxM6",
    "pop": 859959,
    "country": "FR",
    "longitude": 55.5364,
    "sick": 102,
    "invisible": false
  },
  {
    "longitude": 104.990967,
    "name": "Cambodia",
    "latitude": 12.565679,
    "dead": 0,
    "lastUpdated": "2020-07-11T23:16:02.780Z",
    "recovered": 133,
    "infected": 141,
    "id": "SioMALgUbo7peXmbco2f",
    "pop": 16010000,
    "country": "KH",
    "sick": 8,
    "invisible": false
  },
  {
    "pop": 164229,
    "country": "US",
    "lastUpdated": "2020-07-11T23:17:02.630Z",
    "state": "GU",
    "id": "SsWhuEElU7dCTTuH5fdQ",
    "longitude": 144.7937,
    "name": "Guam",
    "alwaysShow": true,
    "dead": 5,
    "latitude": 13.4443,
    "infected": 310,
    "recovered": 0,
    "sick": 305,
    "invisible": false
  },
  {
    "latitude": 51.9189,
    "dead": 0,
    "lastUpdated": "2020-07-11T23:16:02.769Z",
    "recovered": 26635,
    "infected": 0,
    "id": "SuCr5emUaJ9RHTll1P1p",
    "country": "PL",
    "longitude": 19.1344,
    "invisible": true,
    "name": "Unknown Poland region",
    "sick": 0
  },
  {
    "longitude": 53.0278,
    "name": "Udmurtia",
    "latitude": 57.067,
    "dead": 19,
    "lastUpdated": "2020-07-11T23:00:08.425Z",
    "recovered": 1358,
    "infected": 1701,
    "id": "Sx03z01BJCAbrYkWhEaD",
    "pop": 1513000,
    "country": "RU",
    "sick": 324,
    "invisible": false
  },
  {
    "id": "T3iRf8mTUTAzbKrORTap",
    "pop": 84070000,
    "country": "CD",
    "longitude": 21.7587,
    "name": "DR Congo",
    "latitude": -4.0383,
    "dead": 189,
    "lastUpdated": "2020-07-11T23:16:02.774Z",
    "recovered": 3615,
    "infected": 7971,
    "sick": 4167,
    "invisible": false
  },
  {
    "country": "SA",
    "longitude": 44.344334,
    "name": "Saudi Arabia",
    "latitude": 23.635796,
    "dead": 2181,
    "lastUpdated": "2020-07-11T23:16:02.767Z",
    "recovered": 165396,
    "infected": 229480,
    "id": "T7NffoeCgTUpAbOHvYwP",
    "pop": 32940000,
    "sick": 61903,
    "invisible": false
  },
  {
    "lastUpdated": "2020-07-11T21:46:57.557Z",
    "recovered": 3107,
    "infected": 5476,
    "state": "RI",
    "id": "TNDTapyb0k3l7Mds9q9R",
    "pop": 315700,
    "country": "ES",
    "longitude": -2.5396,
    "name": "La Rioja",
    "latitude": 42.2871,
    "dead": 366,
    "sick": 2003,
    "invisible": false
  },
  {
    "name": "Yucatán",
    "latitude": 20.400417,
    "dead": 610,
    "lastUpdated": "2020-07-11T23:02:02.077Z",
    "recovered": 0,
    "infected": 5890,
    "id": "TQCWbhIpJQBQxBjhCGVJ",
    "pop": 2207200,
    "country": "MX",
    "longitude": -89.134857,
    "sick": 5280,
    "invisible": false
  },
  {
    "lastUpdated": "2020-07-11T23:16:02.780Z",
    "recovered": 138,
    "infected": 141,
    "id": "TQZmzsLhJqjtCSExAkCP",
    "pop": 428697,
    "country": "BN",
    "longitude": 114.650692,
    "name": "Brunei",
    "latitude": 4.506106,
    "dead": 3,
    "sick": 0,
    "invisible": false
  },
  {
    "recovered": 7806,
    "infected": 15596,
    "state": "",
    "id": "TT0MKODSjrxHvG19xZCa",
    "pop": 8027000,
    "country": "FR",
    "longitude": 4.3853,
    "name": "Auvergne-Rhône-Alpes",
    "latitude": 45.4471,
    "dead": 1747,
    "lastUpdated": "2020-07-11T21:47:21.477Z",
    "sick": 6043,
    "invisible": false
  },
  {
    "recovered": 0,
    "infected": 570,
    "id": "TeoNTu4aw5riC04sTd73",
    "pop": 758700,
    "country": "PT",
    "longitude": -7.9,
    "name": "Alentejo",
    "latitude": 38.5667,
    "dead": 18,
    "lastUpdated": "2020-07-11T22:53:01.806Z",
    "sick": 552,
    "invisible": false
  },