[
  {
    "longitude": -81.7006,
    "name": "San Andrés",
    "latitude": 12.5847,
    "dead": 0,
    "lastUpdated": "2020-06-25T08:00:14.480Z",
    "recovered": 17,
    "infected": 23,
    "id": "01b09TY4vmuZwzVuiRFK",
    "pop": 72600,
    "country": "CO",
    "sick": 6,
    "invisible": false
  },
  {
    "recovered": 238,
    "infected": 252,
    "id": "0FOJefeLxQYXQ1CnJm9o",
    "pop": 63196,
    "country": "GG",
    "longitude": -2.5895,
    "name": "Guernsey",
    "alwaysShow": false,
    "latitude": 49.4482,
    "dead": 13,
    "lastUpdated": "2020-06-25T07:35:10.425Z",
    "sick": 1,
    "invisible": false
  },
  {
    "latitude": 41.066666,
    "dead": 431,
    "lastUpdated": "2020-06-25T08:01:09.419Z",
    "recovered": 4066,
    "infected": 4645,
    "state": "72",
    "id": "0GJcws44NSPsDHAuxJhW",
    "pop": 5827000,
    "country": "IT",
    "longitude": 14.333333,
    "name": "Campania",
    "sick": 148,
    "invisible": false
  },
  {
    "latitude": -20.2167,
    "dead": 84,
    "lastUpdated": "2020-06-25T08:21:10.952Z",
    "recovered": 0,
    "infected": 5504,
    "id": "0HDQbiHe462xMCUV5HiI",
    "pop": 383870,
    "country": "CL",
    "longitude": -70.14222,
    "name": "Tarapacá",
    "sick": 5420,
    "invisible": false
  },
  {
    "id": "0VG7S6aaK4eSo59fL9JO",
    "pop": 45990000,
    "country": "IN",
    "longitude": 85.0985,
    "name": "Odisha",
    "latitude": 20.9517,
    "dead": 24,
    "lastUpdated": "2020-06-25T08:11:01.684Z",
    "recovered": 4123,
    "infected": 5962,
    "sick": 1815,
    "invisible": false
  },
  {
    "id": "0XmCRqiK2ZaehoEJvfer",
    "pop": 2990300,
    "country": "MX",
    "longitude": -98.8582,
    "name": "Hidalgo",
    "latitude": 20.4737,
    "dead": 567,
    "lastUpdated": "2020-06-25T08:02:08.464Z",
    "recovered": 0,
    "infected": 3482,
    "sick": 2915,
    "invisible": false
  },
  {
    "id": "0jStOpTUNRaQYJqgmRoK",
    "pop": 427246,
    "country": "IN",
    "longitude": 92.6586,
    "name": "Andaman and Nicobar Islands",
    "latitude": 11.7401,
    "dead": 0,
    "lastUpdated": "2020-06-25T08:11:01.685Z",
    "recovered": 41,
    "infected": 56,
    "sick": 15,
    "invisible": false
  },
  {
    "lastUpdated": "2020-06-25T08:16:03.072Z",
    "recovered": 73083,
    "infected": 90778,
    "id": "0m4aECS0Z2DGFEr8ldgI",
    "pop": 2639000,
    "country": "QA",
    "longitude": 51.145517,
    "name": "Qatar",
    "latitude": 25.315058,
    "dead": 104,
    "sick": 17591,
    "invisible": false
  },
  {
    "latitude": 22.9868,
    "dead": 591,
    "lastUpdated": "2020-06-25T08:11:01.684Z",
    "recovered": 9702,
    "infected": 15173,
    "id": "0n54EMSDJcRoT1QEvw80",
    "pop": 90320000,
    "country": "IN",
    "longitude": 87.855,
    "name": "West Bengal",
    "sick": 4880,
    "invisible": false
  },
  {
    "recovered": 9473,
    "infected": 12448,
    "id": "0s18o5DrDAHjbu5MFcrj",
    "pop": 73340000,
    "country": "IN",
    "longitude": 78.6569,
    "name": "Madhya Pradesh",
    "latitude": 22.9734,
    "dead": 534,
    "lastUpdated": "2020-06-25T08:11:01.684Z",
    "sick": 2441,
    "invisible": false
  },
  {
    "lastUpdated": "2020-06-25T08:16:03.070Z",
    "recovered": 1040608,
    "infected": 0,
    "id": "0tFoopNTs6e4tOoaltu2",
    "country": "US",
    "longitude": -95.7129,
    "invisible": true,
    "name": "Unknown US state",
    "latitude": 37.0902,
    "dead": 0,
    "sick": 0
  },
  {
    "latitude": 35.64249,
    "dead": 3,
    "lastUpdated": "2020-06-25T08:08:10.328Z",
    "recovered": 307,
    "infected": 319,
    "id": "0x2HLhr5z5xAtEdO4iZm",
    "pop": 37330000,
    "country": "CN",
    "longitude": 108.472214,
    "name": "Shaanxi",
    "sick": 9,
    "invisible": false
  },
  {
    "longitude": 21.668393,
    "name": "North Macedonia",
    "latitude": 41.643351,
    "dead": 259,
    "lastUpdated": "2020-06-25T08:16:03.077Z",
    "recovered": 2091,
    "infected": 5445,
    "id": "19MvIhipqTyYv1H37Upw",
    "pop": 2077000,
    "country": "MK",
    "sick": 3095,
    "invisible": false
  },
  {
    "latitude": 53.1355,
    "dead": 3,
    "lastUpdated": "2020-06-25T08:10:08.710Z",
    "recovered": 0,
    "infected": 261,
    "state": "NL",
    "id": "1DOMOmCWDtva46OVSZLv",
    "pop": 521542,
    "country": "CA",
    "longitude": -57.6604,
    "name": "Newfoundland and Labrador",
    "sick": 258,
    "invisible": false
  },
  {
    "longitude": 96.779286,
    "name": "Qinghai",
    "latitude": 35.801933,
    "dead": 0,
    "lastUpdated": "2020-06-25T08:08:10.330Z",
    "recovered": 18,
    "infected": 18,
    "id": "1Fap7rZu9SIRqf5TG9Dg",
    "pop": 5627000,
    "country": "CN",
    "sick": 0,
    "invisible": false
  },
  {
    "latitude": 23.6345,
    "dead": 0,
    "lastUpdated": "2020-06-25T08:16:03.071Z",
    "recovered": 149318,
    "infected": 0,
    "id": "1YXQMlVL3fUeDZmcVfJw",
    "pop": 126200000,
    "country": "MX",
    "longitude": -102.5528,
    "invisible": true,
    "name": "Unknown Mexico state",
    "sick": 0
  },
  {
    "latitude": 55.0555,
    "dead": 27,
    "lastUpdated": "2020-06-25T08:00:17.345Z",
    "recovered": 1851,
    "infected": 3236,
    "id": "1at5nIap9H51v32otlQl",
    "pop": 1960000,
    "country": "RU",
    "longitude": 73.3167,
    "name": "Omsk Oblast",
    "sick": 1358,
    "invisible": false
  },
  {
    "latitude": 44.9,
    "dead": 4066,
    "lastUpdated": "2020-06-25T08:01:09.420Z",
    "recovered": 25480,
    "infected": 31276,
    "state": "21",
    "id": "1eTSQyfp8RoDPeFrIwun",
    "pop": 4376000,
    "country": "IT",
    "longitude": 8.206944,
    "name": "Piemonte",
    "sick": 1730,
    "invisible": false
  },
  {
    "longitude": 15.461,
    "name": "Lubuskie",
    "latitude": 51.993,
    "dead": 0,
    "lastUpdated": "2020-06-25T08:03:08.378Z",
    "recovered": 0,
    "infected": 145,
    "id": "1j1OurxLTpZYuWIWwQ9F",
    "pop": 1003000,
    "country": "PL",
    "sick": 145,
    "invisible": false
  },
  {
    "latitude": 47.4116,
    "dead": 502,
    "lastUpdated": "2020-06-25T08:16:03.075Z",
    "recovered": 8599,
    "infected": 15078,
    "id": "1qTPB8X3tyLyIdsb5TN3",
    "pop": 3550000,
    "country": "MD",
    "longitude": 28.3699,
    "name": "Moldova",
    "sick": 5977,
    "invisible": false
  },
  {
    "country": "US",
    "longitude": -95.7129,
    "invisible": true,
    "name": "Federal Bureau of Prisons",
    "latitude": 37.0902,
    "dead": 89,
    "lastUpdated": "2020-06-25T08:17:01.946Z",
    "recovered": 0,
    "infected": 7125,
    "id": "22PJOAThcDFKgSbyQIkD",
    "sick": 7036
  },
  {
    "lastUpdated": "2020-06-25T08:08:10.330Z",
    "recovered": 1,
    "infected": 1,
    "id": "25qIBtsW2nfQj3pwBKg9",
    "pop": 3180000,
    "country": "CN",
    "longitude": 88.787865,
    "name": "Tibet",
    "latitude": 30.15336,
    "dead": 0,
    "sick": 0,
    "invisible": false
  },
  {
    "country": "ID",
    "longitude": 115.66779,
    "name": "Indonesia",
    "latitude": -1.572184,
    "dead": 2573,
    "lastUpdated": "2020-06-25T08:16:03.073Z",
    "recovered": 19658,
    "infected": 49009,
    "id": "2KHYUb5t3lwzVVmDjwNX",
    "pop": 264000000,
    "sick": 26778,
    "invisible": false
  },
  {
    "name": "Oregon",
    "latitude": 43.807191,
    "dead": 195,
    "lastUpdated": "2020-06-25T08:17:01.943Z",
    "recovered": 0,
    "infected": 7444,
    "state": "OR",
    "id": "2OrsssmGUs4XCzaZzvTv",
    "pop": 4191000,
    "country": "US",
    "longitude": -120.585594,
    "sick": 7249,
    "invisible": false
  },
  {
    "latitude": -23.65,
    "dead": 113,
    "lastUpdated": "2020-06-25T08:21:10.953Z",
    "recovered": 0,
    "infected": 7227,
    "id": "2c5HBZ1ffkCVXnMYUWnY",
    "pop": 425000,
    "country": "CL",
    "longitude": -70.400002,
    "name": "Antofagasta",
    "sick": 7114,
    "invisible": false
  },
  {
    "name": "Amapá",
    "latitude": 0.035574,
    "dead": 387,
    "lastUpdated": "2020-06-25T08:15:10.190Z",
    "recovered": 0,
    "infected": 26919,
    "state": "AP",
    "id": "2dzhyWsBSPpENWlNew0b",
    "pop": 9029000,
    "country": "BR",
    "longitude": -51.070534,
    "sick": 26532,
    "invisible": false
  },
  {
    "recovered": 153,
    "infected": 155,
    "id": "2jxHvSsxdnom0nPNvOT8",
    "pop": 27460000,
    "country": "CN",
    "longitude": 126.548103,
    "name": "Jilin",
    "latitude": 43.851921,
    "dead": 2,
    "lastUpdated": "2020-06-25T08:08:10.330Z",
    "sick": 0,
    "invisible": false
  },
  {
    "name": "Gibraltar",
    "latitude": 36.1408,
    "dead": 0,
    "lastUpdated": "2020-06-25T08:16:03.087Z",
    "recovered": 176,
    "infected": 176,
    "id": "2p11BjSAs3wVyymgqBOe",
    "pop": 34571,
    "country": "GI",
    "longitude": -5.3536,
    "sick": 0,
    "invisible": false
  },
  {
    "longitude": 1.6751,
    "name": "Centre-Val de Loire",
    "latitude": 47.7516,
    "dead": 543,
    "lastUpdated": "2020-06-24T22:47:51.182Z",
    "recovered": 1932,
    "infected": 4410,
    "id": "2sLNkkHpyaHx7dD3aMDO",
    "pop": 2567000,
    "country": "FR",
    "sick": 1935,
    "invisible": false
  },
  {
    "lastUpdated": "2020-06-25T08:01:09.420Z",
    "recovered": 1349,
    "infected": 1439,
    "state": "55",
    "id": "319tiZOMczx1y0DfvOib",
    "pop": 884640,
    "country": "IT",
    "longitude": 12.643751,
    "name": "Umbria",
    "latitude": 42.565044,
    "dead": 79,
    "sick": 11,
    "invisible": false
  },
  {
    "lastUpdated": "2020-06-25T08:00:14.480Z",
    "recovered": 119,
    "infected": 293,
    "id": "38T96Q3XNjt5FSJygPed",
    "pop": 1355000,
    "country": "CO",
    "longitude": -76.6131592,
    "name": "Cauca",
    "latitude": 2.43823,
    "dead": 13,
    "sick": 161,
    "invisible": false
  },
  {
    "recovered": 1223,
    "infected": 1489,
    "id": "3IlPjAbP5qVMn1nlgLTJ",
    "pop": 17090000,
    "country": "ZM",
    "longitude": 27.849332,
    "name": "Zambia",
    "latitude": -13.133896,
    "dead": 18,
    "lastUpdated": "2020-06-25T08:16:03.081Z",
    "sick": 248,
    "invisible": false
  },
  {
    "lastUpdated": "2020-06-25T08:16:03.085Z",
    "recovered": 315,
    "infected": 389,
    "id": "3LstMSN5XMYBkxbe5HN7",
    "pop": 631219,
    "country": "ME",
    "longitude": 19.3958,
    "name": "Montenegro",
    "latitude": 42.7044,
    "dead": 9,
    "sick": 65,
    "invisible": false
  },
  {
    "recovered": 105,
    "infected": 108,
    "state": "ACT",
    "id": "3OZoQsKrzxZ18EKyfGE6",
    "pop": 418440,
    "country": "AU",
    "longitude": 149.0124,
    "name": "Australian Capital Territory",
    "latitude": -35.4735,
    "dead": 3,
    "lastUpdated": "2020-06-25T08:13:32.121Z",
    "sick": 0,
    "invisible": false
  },
  {
    "name": "Yaroslavl Oblast",
    "latitude": 57.8992,
    "dead": 18,
    "lastUpdated": "2020-06-25T08:00:17.343Z",
    "recovered": 2903,
    "infected": 4571,
    "id": "3PfzjWjvOkfgxc672BHQ",
    "pop": 608000,
    "country": "RU",
    "longitude": 38.8389,
    "sick": 1650,
    "invisible": false
  },
  {
    "latitude": 51.8873,
    "dead": 3,
    "lastUpdated": "2020-06-25T08:00:17.344Z",
    "recovered": 774,
    "infected": 3853,
    "id": "3PpqgIUJAtzxo1j7z56i",
    "pop": 321000,
    "country": "RU",
    "longitude": 95.626,
    "name": "Tuva",
    "sick": 3076,
    "invisible": false
  },
  {
    "lastUpdated": "2020-06-25T08:11:01.684Z",
    "recovered": 3959,
    "infected": 6371,
    "id": "3cCbnJCsK7mKlTO08K1o",
    "pop": 30940000,
    "country": "IN",
    "longitude": 92.9376,
    "name": "Assam",
    "latitude": 26.2006,
    "dead": 9,
    "sick": 2403,
    "invisible": false
  },
  {
    "country": "US",
    "longitude": -82.9071,
    "name": "Ohio",
    "latitude": 40.4173,
    "dead": 2779,
    "lastUpdated": "2020-06-25T08:17:01.940Z",
    "recovered": 0,
    "infected": 47151,
    "state": "OH",
    "id": "3fC3bAyIRUquOQOEnQNe",
    "pop": 11690000,
    "sick": 44372,
    "invisible": false
  },
  {
    "id": "3kFCzJguabtBvXaHxgiu",
    "pop": 3066400,
    "country": "MX",
    "longitude": -107.5,
    "name": "Sinaloa",
    "latitude": 25,
    "dead": 1119,
    "lastUpdated": "2020-06-25T08:02:08.455Z",
    "recovered": 0,
    "infected": 7473,
    "sick": 6354,
    "invisible": false
  },
  {
    "country": "CO",
    "longitude": -76.522224,
    "name": "Valle del Cauca",
    "latitude": 3.420556,
    "dead": 270,
    "lastUpdated": "2020-06-25T08:00:14.478Z",
    "recovered": 2968,
    "infected": 7017,
    "id": "3mC2LveOpXV8P1PmQGUj",
    "pop": 4708300,
    "sick": 3779,
    "invisible": false
  },
  {
    "name": "Mauritania",
    "latitude": 21.0079,
    "dead": 116,
    "lastUpdated": "2020-06-25T08:16:03.078Z",
    "recovered": 1074,
    "infected": 3519,
    "id": "4NnFMekRK2m14IlnZZoj",
    "pop": 4420000,
    "country": "MR",
    "longitude": -10.9408,
    "sick": 2329,
    "invisible": false
  },
  {
    "country": "CA",
    "longitude": -127.6476,
    "name": "British Columbia",
    "latitude": 53.7267,
    "dead": 171,
    "lastUpdated": "2020-06-25T08:10:08.709Z",
    "recovered": 0,
    "infected": 2849,
    "state": "BC",
    "id": "4hfZRUoUgI4a3vrG0GBk",
    "pop": 5071000,
    "sick": 2678,
    "invisible": false
  },
  {
    "lastUpdated": "2020-06-25T08:15:10.188Z",
    "recovered": 0,
    "infected": 103493,
    "state": "RJ",
    "id": "4kq0z3kh5zt3YAUWxvtE",
    "pop": 17159960,
    "country": "BR",
    "longitude": -43.196388,
    "name": "Rio de Janeiro",
    "latitude": -22.908333,
    "dead": 9295,
    "sick": 94198,
    "invisible": false
  },
  {
    "latitude": -11.409874,
    "dead": 1541,
    "lastUpdated": "2020-06-25T08:15:10.190Z",
    "recovered": 0,
    "infected": 51931,
    "state": "BA",
    "id": "4yDbkEyqsNzZJjfrciYV",
    "pop": 14812617,
    "country": "BR",
    "longitude": -41.280857,
    "name": "Bahia",
    "sick": 50390,
    "invisible": false
  },
  {
    "latitude": 40.3426,
    "dead": 174,
    "lastUpdated": "2020-06-25T08:16:03.075Z",
    "recovered": 7768,
    "infected": 14305,
    "id": "4zqzRm2xHn0CDVOUQJ8p",
    "pop": 9898000,
    "country": "AZ",
    "longitude": 47.93802,
    "name": "Azerbaijan",
    "sick": 6363,
    "invisible": false
  },
  {
    "id": "54cfsdsRF76XVHWtZs19",
    "pop": 3672300,
    "country": "MX",
    "longitude": -97.861099,
    "name": "Tamaulipas",
    "latitude": 22.233105,
    "dead": 317,
    "lastUpdated": "2020-06-25T08:02:08.464Z",
    "recovered": 0,
    "infected": 5074,
    "sick": 4757,
    "invisible": false
  },
  {
    "recovered": 9260,
    "infected": 34195,
    "state": "VLG",
    "id": "57ydD48mLRD2YoyteJZj",
    "pop": 6596000,
    "country": "BE",
    "longitude": 3.7265,
    "name": "Flanders",
    "latitude": 51.0109,
    "dead": 4878,
    "lastUpdated": "2020-06-25T08:07:13.289Z",
    "sick": 20057,
    "invisible": false
  },
  {
    "country": "BS",
    "longitude": -78.035889,
    "name": "Bahamas",
    "latitude": 25.025885,
    "dead": 11,
    "lastUpdated": "2020-06-25T08:16:03.087Z",
    "recovered": 83,
    "infected": 104,
    "id": "5MHegCUO9L3LiAU7DDey",
    "pop": 395361,
    "sick": 10,
    "invisible": false
  },
  {
    "name": "New South Wales",
    "latitude": -31.253218,
    "dead": 48,
    "lastUpdated": "2020-06-25T08:13:32.131Z",
    "recovered": 2776,
    "infected": 3159,
    "state": "NSW",
    "id": "5N16a2OXXRpsEFanw0TC",
    "pop": 7544000,
    "country": "AU",
    "longitude": 146.921097,
    "sick": 335,
    "invisible": false
  },
  {
    "recovered": 224,
    "infected": 1942,
    "id": "5N4PRxsCDzzwk7R200V1",
    "pop": 12580000,
    "country": "SS",
    "longitude": 31.3069782,
    "name": "South Sudan",
    "latitude": 6.8769908,
    "dead": 36,
    "lastUpdated": "2020-06-25T08:16:03.080Z",
    "sick": 1682,
    "invisible": false
  },
  {
    "country": "ES",
    "longitude": -0.7533,
    "name": "C. Valenciana",
    "latitude": 39.484,
    "dead": 1432,
    "lastUpdated": "2020-06-24T22:33:13.769Z",
    "recovered": 9970,
    "infected": 15311,
    "state": "VC",
    "id": "5Va9A7CXR8AXdUz4HTJj",
    "pop": 4975000,
    "sick": 3909,
    "invisible": false
  },
  {
    "longitude": 165.618042,
    "name": "New Caledonia",
    "latitude": -20.9043045,
    "dead": 0,
    "lastUpdated": "2020-06-25T08:16:03.089Z",
    "recovered": 21,
    "infected": 21,
    "id": "5fg04eyDwFw3kEXnrxez",
    "pop": 280460,
    "country": "NC",
    "sick": 0,
    "invisible": false
  },
  {
    "id": "5gXZIjRgAvd6xWN1LOv8",
    "pop": 29300000,
    "country": "NP",
    "longitude": 84.124008,
    "name": "Nepal",
    "latitude": 28.394857,
    "dead": 24,
    "lastUpdated": "2020-06-25T08:16:03.076Z",
    "recovered": 2338,
    "infected": 10728,
    "sick": 8366,
    "invisible": false
  },
  {
    "latitude": 12.879721,
    "dead": 1204,
    "lastUpdated": "2020-06-25T08:16:03.074Z",
    "recovered": 8656,
    "infected": 32295,
    "id": "5pwmh7aSdGRKqRbnuyc0",
    "pop": 104900000,
    "country": "PH",
    "longitude": 121.774017,
    "name": "Philippines",
    "sick": 22435,
    "invisible": false
  },
  {
    "id": "5qtR9nx4BLwu1ODTniaY",
    "pop": 14802190,
    "country": "ZW",
    "longitude": 31.053028,
    "name": "Zimbabwe",
    "latitude": -17.824858,
    "dead": 6,
    "lastUpdated": "2020-06-25T08:16:03.084Z",
    "recovered": 123,
    "infected": 530,
    "sick": 401,
    "invisible": false
  },
  {
    "longitude": -109.188,
    "invisible": false,
    "name": "Navajo Nation",
    "dead": 336,
    "latitude": 36.0672,
    "infected": 7088,
    "recovered": 0,
    "pop": 356890,
    "country": "US",
    "lastUpdated": "2020-06-25T08:17:01.947Z",
    "state": "NA",
    "id": "5vkKgxTaKq1IH0Go357L",
    "sick": 6752
  },
  {
    "longitude": -99.177254,
    "name": "Ciudad de México",
    "latitude": 19.432241,
    "dead": 5938,
    "lastUpdated": "2020-06-25T08:02:08.456Z",
    "recovered": 0,
    "infected": 44243,
    "id": "61E7TGjUwAo9xu6Y6gAH",
    "pop": 8781300,
    "country": "MX",
    "sick": 38305,
    "invisible": false
  },
  {
    "longitude": 35.1889,
    "name": "Kaluga Oblast",
    "latitude": 54.3873,
    "dead": 43,
    "lastUpdated": "2020-06-25T08:00:17.342Z",
    "recovered": 3392,
    "infected": 5788,
    "id": "63KYOuWe41mvqWQrJbr2",
    "pop": 1012000,
    "country": "RU",
    "sick": 2353,
    "invisible": false
  },
  {
    "id": "694ON7d0mRJDeM1gHBTR",
    "pop": 2794000,
    "country": "LT",
    "longitude": 23.804991,
    "name": "Lithuania",
    "latitude": 55.621011,
    "dead": 78,
    "lastUpdated": "2020-06-25T08:16:03.080Z",
    "recovered": 1494,
    "infected": 1806,
    "sick": 234,
    "invisible": false
  },
  {
    "latitude": 51.1781,
    "dead": 0,
    "lastUpdated": "2020-06-25T08:13:12.603Z",
    "recovered": 0,
    "infected": 22668,
    "state": "EN",
    "id": "6IQAsvrmBv0HPdeTnh4x",
    "pop": 9175000,
    "country": "GB",
    "longitude": -0.5596,
    "name": "South East",
    "sick": 22668,
    "invisible": false
  },
  {
    "recovered": 1086,
    "infected": 1180,
    "id": "6IcHIIH0zXpY0POmBZTv",
    "pop": 7392000,
    "country": "HK",
    "longitude": 114.109497,
    "name": "Hong Kong",
    "latitude": 22.396427,
    "dead": 6,
    "lastUpdated": "2020-06-25T08:16:03.081Z",
    "sick": 88,
    "invisible": false
  },
  {
    "latitude": -8.65,
    "dead": 326,
    "lastUpdated": "2020-06-25T08:15:10.191Z",
    "recovered": 0,
    "infected": 12022,
    "state": "AC",
    "id": "6LQesrx5bHJsVUi1TXBp",
    "pop": 869265,
    "country": "BR",
    "longitude": -72.4,
    "name": "Acre",
    "sick": 11696,
    "invisible": false
  },
  {
    "latitude": 9.3077,
    "dead": 13,
    "lastUpdated": "2020-06-25T08:16:03.082Z",
    "recovered": 277,
    "infected": 902,
    "id": "6SlpghTyB6lpMFvx3g9U",
    "pop": 11180000,
    "country": "BJ",
    "longitude": 2.3158,
    "name": "Benin",
    "sick": 612,
    "invisible": false
  },
  {
    "longitude": 9.5,
    "name": "Lombardia",
    "latitude": 45.6667,
    "dead": 16586,
    "lastUpdated": "2020-06-25T08:01:09.419Z",
    "recovered": 64448,
    "infected": 93261,
    "state": "25",
    "id": "6ZHcvMIzVWIaRnc4R3Qp",
    "pop": 10040000,
    "country": "IT",
    "sick": 12227,
    "invisible": false
  },
  {
    "longitude": 14.5058,
    "name": "Slovenia",
    "latitude": 46.0569,
    "dead": 109,
    "lastUpdated": "2020-06-25T08:16:03.080Z",
    "recovered": 1376,
    "infected": 1541,
    "id": "6ahNiyKDSDAftCctgLH3",
    "pop": 2067000,
    "country": "SI",
    "sick": 56,
    "invisible": false
  },
  {
    "latitude": -27.3667908,
    "dead": 2,
    "lastUpdated": "2020-06-25T08:21:10.954Z",
    "recovered": 0,
    "infected": 785,
    "id": "6nyns7UGGgkU7pxrHf8i",
    "pop": 300000,
    "country": "CL",
    "longitude": -70.331398,
    "name": "Atacama",
    "sick": 783,
    "invisible": false
  },
  {
    "name": "Gabon",
    "latitude": -0.8037,
    "dead": 39,
    "lastUpdated": "2020-06-25T08:16:03.077Z",
    "recovered": 2177,
    "infected": 4956,
    "id": "6pBi38TUgYfFm0bry2uh",
    "pop": 2025000,
    "country": "GA",
    "longitude": 11.6094,
    "sick": 2740,
    "invisible": false
  },
  {
    "recovered": 0,
    "infected": 2508,
    "id": "6vjIVg1gSANFZghV7xtS",
    "pop": 2831900,
    "country": "MX",
    "longitude": -100.9792,
    "name": "San Luis Potosí",
    "latitude": 22.1498,
    "dead": 146,
    "lastUpdated": "2020-06-25T08:02:08.464Z",
    "sick": 2362,
    "invisible": false
  },
  {
    "name": "Saint-Barthélémy",
    "alwaysShow": true,
    "latitude": 17.901672,
    "dead": 0,
    "lastUpdated": "2020-06-25T08:16:03.090Z",
    "recovered": 6,
    "infected": 6,
    "id": "78Ox26bNHDA2Pk2b3Uwn",
    "pop": 9131,
    "country": "FR",
    "longitude": -62.818544,
    "sick": 0,
    "invisible": false
  },
  {
    "longitude": 18.633,
    "name": "Pomorskie",
    "latitude": 54.367,
    "dead": 38,
    "lastUpdated": "2020-06-25T08:03:08.377Z",
    "recovered": 0,
    "infected": 643,
    "id": "7JDx6UJiwGSJyL1fChaJ",
    "pop": 2305000,
    "country": "PL",
    "sick": 605,
    "invisible": false
  },
  {
    "longitude": -2.9381,
    "name": "Melilla",
    "latitude": 35.2923,
    "dead": 2,
    "lastUpdated": "2020-06-24T22:35:22.229Z",
    "recovered": 125,
    "infected": 139,
    "state": "ML",
    "id": "7UASdZTZ1nPzzBwSTEA9",
    "pop": 84690,
    "country": "ES",
    "sick": 12,
    "invisible": false
  },
  {
    "longitude": -61.7964,
    "name": "Antigua and Barbuda",
    "latitude": 17.0608,
    "dead": 3,
    "lastUpdated": "2020-06-25T08:16:03.088Z",
    "recovered": 22,
    "infected": 65,
    "id": "7hVFcEV7nV0MrQr3LHrl",
    "pop": 102012,
    "country": "AG",
    "sick": 40,
    "invisible": false
  },
  {
    "latitude": 48.7904,
    "dead": 2624,
    "lastUpdated": "2020-06-25T08:00:02.999Z",
    "recovered": 45009,
    "infected": 48442,
    "state": "BY",
    "id": "7kCrrlOBE3jN6FtOVNUB",
    "pop": 13000000,
    "country": "DE",
    "longitude": 11.4979,
    "name": "Bayern",
    "sick": 809,
    "invisible": false
  },
  {
    "latitude": 47.4979,
    "dead": 577,
    "lastUpdated": "2020-06-25T08:16:03.078Z",
    "recovered": 2640,
    "infected": 4123,
    "id": "7rYC2iFB50c55Ihgbs4Q",
    "pop": 9773000,
    "country": "HU",
    "longitude": 19.0402,
    "name": "Hungary",
    "sick": 906,
    "invisible": false
  },
  {
    "latitude": 10.9685,
    "dead": 449,
    "lastUpdated": "2020-06-25T08:00:14.479Z",
    "recovered": 2541,
    "infected": 9783,
    "id": "7tqLvLyXcBDK808nJv0m",
    "pop": 1206000,
    "country": "CO",
    "longitude": -74.7813,
    "name": "Barranquilla D.E.",
    "sick": 6793,
    "invisible": false
  },
  {
    "country": "CM",
    "longitude": 12.3547,
    "name": "Cameroon",
    "latitude": 7.3697,
    "dead": 313,
    "lastUpdated": "2020-06-25T08:16:03.076Z",
    "recovered": 10100,
    "infected": 12592,
    "id": "8C0d7WVCjyUGtnc2gUAR",
    "pop": 24050000,
    "sick": 2179,
    "invisible": false
  },
  {
    "latitude": 50.8503,
    "dead": 1482,
    "lastUpdated": "2020-06-25T08:07:13.296Z",
    "recovered": 2765,
    "infected": 6229,
    "state": "BRU",
    "id": "8DOZWbN6bDdgaLXVlUEu",
    "pop": 1209000,
    "country": "BE",
    "longitude": 4.3517,
    "name": "Brussels",
    "sick": 1982,
    "invisible": false
  },
  {
    "id": "8RihJrXw4NQXPxaRxr1u",
    "pop": 11050000,
    "country": "BO",
    "longitude": -63.5887,
    "name": "Bolivia",
    "latitude": -16.2902,
    "dead": 876,
    "lastUpdated": "2020-06-25T08:16:03.074Z",
    "recovered": 6795,
    "infected": 27487,
    "sick": 19816,
    "invisible": false
  },
  {
    "name": "St. Vincent Grenadines",
    "latitude": 12.9843,
    "dead": 0,
    "lastUpdated": "2020-06-25T08:16:03.088Z",
    "recovered": 27,
    "infected": 29,
    "id": "8ZTySQROQejkDAad0qxQ",
    "pop": 109897,
    "country": "VC",
    "longitude": -61.2872,
    "sick": 2,
    "invisible": false
  },
  {
    "latitude": 1.352083,
    "dead": 26,
    "lastUpdated": "2020-06-25T08:16:03.073Z",
    "recovered": 36299,
    "infected": 42736,
    "id": "8pA3fM4xC2c2wv1b4TnE",
    "pop": 5621000,
    "country": "SG",
    "longitude": 103.819839,
    "name": "Singapore",
    "sick": 6411,
    "invisible": false
  },
  {
    "latitude": 47.2184,
    "dead": 467,
    "lastUpdated": "2020-06-24T22:50:59.461Z",
    "recovered": 2035,
    "infected": 4071,
    "id": "98hwAoohgWEOQVa3NlM5",
    "pop": 3787000,
    "country": "FR",
    "longitude": -1.5536,
    "name": "Pays de la Loire",
    "sick": 1569,
    "invisible": false
  },
  {
    "lastUpdated": "2020-06-25T08:02:08.464Z",
    "recovered": 0,
    "infected": 1551,
    "id": "9DAvxOObTqIvMOU93nlY",
    "pop": 952300,
    "country": "MX",
    "longitude": -90.19885,
    "name": "Campeche",
    "latitude": 19.30754,
    "dead": 166,
    "sick": 1385,
    "invisible": false
  },
  {
    "latitude": 12.8628,
    "dead": 548,
    "lastUpdated": "2020-06-25T08:16:03.076Z",
    "recovered": 3699,
    "infected": 8889,
    "id": "9DPOkpIqrFy9mR4e9fuv",
    "pop": 40530000,
    "country": "SD",
    "longitude": 30.2176,
    "name": "Sudan",
    "sick": 4642,
    "invisible": false
  },
  {
    "name": "Kostroma Oblast",
    "latitude": 58.5501,
    "dead": 15,
    "lastUpdated": "2020-06-25T08:00:17.347Z",
    "recovered": 815,
    "infected": 1442,
    "id": "9JFYfvpcejMIgYlHpngA",
    "pop": 643000,
    "country": "RU",
    "longitude": 43.9541,
    "sick": 612,
    "invisible": false
  },
  {
    "lastUpdated": "2020-06-25T08:16:03.075Z",
    "recovered": 17391,
    "infected": 24826,
    "id": "9QcETqEcM2fTv9zRvx5T",
    "pop": 19530000,
    "country": "RO",
    "longitude": 24.966761,
    "name": "Romania",
    "latitude": 45.943161,
    "dead": 1555,
    "sick": 5880,
    "invisible": false
  },
  {
    "id": "9Y5wmCqNCC6ZrenM31uA",
    "pop": 6218000,
    "country": "NI",
    "longitude": -86.251389,
    "name": "Nicaragua",
    "latitude": 12.136389,
    "dead": 74,
    "lastUpdated": "2020-06-25T08:16:03.079Z",
    "recovered": 1238,
    "infected": 2170,
    "sick": 858,
    "invisible": false
  },
  {
    "id": "9dIzxqDSVqPyINkHqwGv",
    "pop": 18540000,
    "country": "ML",
    "longitude": -3.996166,
    "name": "Mali",
    "latitude": 17.5706921,
    "dead": 112,
    "lastUpdated": "2020-06-25T08:16:03.079Z",
    "recovered": 1354,
    "infected": 2005,
    "sick": 539,
    "invisible": false
  },
  {
    "latitude": 61.92411,
    "dead": 327,
    "lastUpdated": "2020-06-25T08:16:03.077Z",
    "recovered": 6600,
    "infected": 7167,
    "id": "9p6OCdZbUUwBLA60Gk3W",
    "pop": 5513000,
    "country": "FI",
    "longitude": 25.748152,
    "name": "Finland",
    "sick": 240,
    "invisible": false
  },
  {
    "country": "RU",
    "longitude": 95.1104,
    "name": "Krasnoyarsk Krai",
    "latitude": 64.248,
    "dead": 99,
    "lastUpdated": "2020-06-25T08:00:17.341Z",
    "recovered": 3308,
    "infected": 8182,
    "id": "A6Us0fpQVCc85SoIqzg3",
    "pop": 2876000,
    "sick": 4775,
    "invisible": false
  },
  {
    "recovered": 0,
    "infected": 5598,
    "state": "NH",
    "id": "A84CwQ52kA46Hr7pn6Bm",
    "pop": 1356000,
    "country": "US",
    "longitude": -71.590315,
    "name": "New Hampshire",
    "latitude": 43.311643,
    "dead": 347,
    "lastUpdated": "2020-06-25T08:17:01.943Z",
    "sick": 5251,
    "invisible": false
  },
  {
    "latitude": 41.823261,
    "dead": 912,
    "lastUpdated": "2020-06-25T08:17:01.942Z",
    "recovered": 0,
    "infected": 16606,
    "state": "RI",
    "id": "AEUWUHS65qvjEslew11c",
    "pop": 1057000,
    "country": "US",
    "longitude": -71.412257,
    "name": "Rhode Island",
    "sick": 15694,
    "invisible": false
  },
  {
    "country": "IT",
    "longitude": 11.327591,
    "name": "Emilia-Romagna",
    "latitude": 44.498955,
    "dead": 4245,
    "lastUpdated": "2020-06-25T08:01:09.419Z",
    "recovered": 22985,
    "infected": 28304,
    "state": "45",
    "id": "AJ9jQ0iyKsafsmf5yHAR",
    "pop": 4453000,
    "sick": 1074,
    "invisible": false
  },
  {
    "country": "DE",
    "longitude": 7.023,
    "name": "Saarland",
    "latitude": 49.3964,
    "dead": 175,
    "lastUpdated": "2020-06-25T08:00:03.001Z",
    "recovered": 2611,
    "infected": 2822,
    "state": "SL",
    "id": "AKjFRQGnzuuZQhv5Qwx7",
    "pop": 990509,
    "sick": 36,
    "invisible": false
  },
  {
    "longitude": 60.8789,
    "name": "Chelyabinsk Oblast",
    "latitude": 54.4319,
    "dead": 70,
    "lastUpdated": "2020-06-25T08:00:17.341Z",
    "recovered": 3500,
    "infected": 6442,
    "id": "AOapJ3gElQApd8Gnt8EL",
    "pop": 3493000,
    "country": "RU",
    "sick": 2872,
    "invisible": false
  },
  {
    "recovered": 0,
    "infected": 4657,
    "id": "APTPgjAsjFi0nsGyJV7M",
    "pop": 1125002,
    "country": "CL",
    "longitude": -71.167,
    "name": "Maule",
    "latitude": -35.717,
    "dead": 36,
    "lastUpdated": "2020-06-25T08:21:10.955Z",
    "sick": 4621,
    "invisible": false
  },
  {
    "name": "Greenland",
    "latitude": 71.7069,
    "dead": 0,
    "lastUpdated": "2020-06-25T08:16:03.089Z",
    "recovered": 13,
    "infected": 13,
    "id": "APaZzlGCEeuoLBtzTJMe",
    "pop": 56171,
    "country": "GL",
    "longitude": -42.6043,
    "sick": 0,
    "invisible": false
  },
  {
    "latitude": 54.8331,
    "dead": 17,
    "lastUpdated": "2020-06-25T08:00:17.346Z",
    "recovered": 1826,
    "infected": 2731,
    "id": "ATxF6ZoDJ2ibdE6ZRYIX",
    "pop": 984000,
    "country": "RU",
    "longitude": 112.4061,
    "name": "Buryatia",
    "sick": 888,
    "invisible": false
  },
  {
    "latitude": 45.65107,
    "dead": 63,
    "lastUpdated": "2020-06-25T08:10:08.709Z",
    "recovered": 0,
    "infected": 1061,
    "state": "NS",
    "id": "AVCpxeh0fuH2WrHWNDYH",
    "pop": 971395,
    "country": "CA",
    "longitude": -63.582687,
    "name": "Nova Scotia",
    "sick": 998,
    "invisible": false
  },
  {
    "latitude": 47.012918,
    "dead": 21,
    "lastUpdated": "2020-06-25T08:17:01.946Z",
    "recovered": 0,
    "infected": 766,
    "state": "MT",
    "id": "AcULcZBozObOhwuRKMjJ",
    "pop": 1062000,
    "country": "US",
    "longitude": -109.128641,
    "name": "Montana",
    "sick": 745,
    "invisible": false
  },
  {
    "country": "TJ",
    "longitude": 71.2761,
    "name": "Tajikistan",
    "latitude": 38.861,
    "dead": 52,
    "lastUpdated": "2020-06-25T08:16:03.077Z",
    "recovered": 4194,
    "infected": 5630,
    "id": "AiIGs3ybYZZhm1ytVopr",
    "pop": 9275000,
    "sick": 1384,
    "invisible": false
  },
  {
    "country": "CN",
    "longitude": 116.01609,
    "name": "Jiangxi",
    "latitude": 27.285971,
    "dead": 1,
    "lastUpdated": "2020-06-25T08:08:10.329Z",
    "recovered": 931,
    "infected": 932,
    "id": "AmBYm5J6E9Cuez1FQjiN",
    "pop": 45200000,
    "sick": 0,
    "invisible": false
  },
  {
    "lastUpdated": "2020-06-25T08:13:12.602Z",
    "recovered": 0,
    "infected": 15341,
    "state": "WA",
    "id": "AoLhHdTydeWTfmp9koEX",
    "pop": 3136000,
    "country": "GB",
    "longitude": -3.7837,
    "name": "Wales",
    "latitude": 52.1307,
    "dead": 1491,
    "sick": 13850,
    "invisible": false
  },
  {
    "longitude": 90.3982,
    "name": "Khakassia",
    "latitude": 53.0452,
    "dead": 15,
    "lastUpdated": "2020-06-25T08:00:17.346Z",
    "recovered": 1257,
    "infected": 1696,
    "id": "Avls64fLKoEsBFH0Ol0b",
    "pop": 537000,
    "country": "RU",
    "sick": 424,
    "invisible": false
  },
  {
    "id": "AwN0CScPDApcLFgz6e3z",
    "pop": 41320000,
    "country": "DZ",
    "longitude": 1.659626,
    "name": "Algeria",
    "latitude": 28.033886,
    "dead": 869,
    "lastUpdated": "2020-06-25T08:16:03.076Z",
    "recovered": 8792,
    "infected": 12248,
    "sick": 2587,
    "invisible": false
  },
  {
    "lastUpdated": "2020-06-25T08:16:03.078Z",
    "recovered": 2145,
    "infected": 2388,
    "id": "B82Ef45M8cDu4q7VsSHF",
    "pop": 4076000,
    "country": "HR",
    "longitude": 15.2,
    "name": "Croatia",
    "latitude": 45.099998,
    "dead": 107,
    "sick": 136,
    "invisible": false
  },
  {
    "longitude": 8.081666,
    "name": "Niger",
    "latitude": 17.6077881,
    "dead": 67,
    "lastUpdated": "2020-06-25T08:16:03.081Z",
    "recovered": 913,
    "infected": 1051,
    "id": "BENubqQInFUJzhpZTsLT",
    "pop": 23716000,
    "country": "NE",
    "sick": 71,
    "invisible": false
  },
  {
    "country": "US",
    "longitude": -76.98432,
    "name": "Maryland",
    "latitude": 39.509109,
    "dead": 3108,
    "lastUpdated": "2020-06-25T08:17:01.939Z",
    "recovered": 0,
    "infected": 65337,
    "state": "MD",
    "id": "BF51mWl51fgEcyBpCSzb",
    "pop": 6043000,
    "sick": 62229,
    "invisible": false
  },
  {
    "latitude": 53.709808,
    "dead": 362,
    "lastUpdated": "2020-06-25T08:16:03.073Z",
    "recovered": 40136,
    "infected": 59945,
    "id": "BGg6yVU5VP71B8NXU0oh",
    "pop": 9508000,
    "country": "BY",
    "longitude": 27.953388,
    "name": "Belarus",
    "sick": 19447,
    "invisible": false
  },
  {
    "latitude": 48.8799,
    "dead": 430,
    "lastUpdated": "2020-06-24T22:50:05.853Z",
    "recovered": 1616,
    "infected": 3463,
    "id": "BGtoyzb7y54LVlJ91rbf",
    "pop": 3319000,
    "country": "FR",
    "longitude": 0.1713,
    "name": "Normandie",
    "sick": 1417,
    "invisible": false
  },
  {
    "recovered": 0,
    "infected": 7928,
    "state": "EN",
    "id": "BQqMOlPFD36ZEDTGd3WC",
    "pop": 5616000,
    "country": "GB",
    "longitude": -3.9995,
    "name": "South West",
    "latitude": 50.7772,
    "dead": 0,
    "lastUpdated": "2020-06-25T08:13:12.603Z",
    "sick": 7928,
    "invisible": false
  },
  {
    "longitude": -111.093735,
    "name": "Arizona",
    "latitude": 34.048927,
    "dead": 1463,
    "lastUpdated": "2020-06-25T08:17:01.939Z",
    "recovered": 0,
    "infected": 59974,
    "state": "AZ",
    "id": "BTEESCuD2ZbS1afunR2A",
    "pop": 7172000,
    "country": "US",
    "sick": 58511,
    "invisible": false
  },
  {
    "latitude": 54.9883,
    "dead": 61,
    "lastUpdated": "2020-06-25T08:00:17.343Z",
    "recovered": 2051,
    "infected": 4380,
    "id": "BUb7oDHcBM4lQ5cufNoG",
    "pop": 949000,
    "country": "RU",
    "longitude": 32.6677,
    "name": "Smolensk Oblast",
    "sick": 2268,
    "invisible": false
  },
  {
    "country": "RU",
    "longitude": 50.2097,
    "name": "Kirov Oblast",
    "latitude": 58.4199,
    "dead": 33,
    "lastUpdated": "2020-06-25T08:00:17.345Z",
    "recovered": 2300,
    "infected": 3026,
    "id": "BWojXmuKU3szKlS7CE4k",
    "pop": 1283000,
    "sick": 693,
    "invisible": false
  },
  {
    "latitude": 53.428543,
    "dead": 20,
    "lastUpdated": "2020-06-25T08:03:08.377Z",
    "recovered": 0,
    "infected": 603,
    "id": "BZwZOAlDJ8AIiaRVLyC9",
    "pop": 1676000,
    "country": "PL",
    "longitude": 14.552812,
    "name": "Zachodniopomorskie",
    "sick": 583,
    "invisible": false
  },
  {
    "latitude": -33.4489,
    "dead": 0,
    "lastUpdated": "2020-06-25T08:16:03.071Z",
    "recovered": 215093,
    "infected": 0,
    "id": "BbiuZcm8oURX7cZwaa5U",
    "country": "CL",
    "longitude": -70.6693,
    "invisible": true,
    "name": "Unknown Chile region",
    "sick": 0
  },
  {
    "country": "MW",
    "longitude": 34.3015,
    "name": "Malawi",
    "latitude": -13.2543,
    "dead": 11,
    "lastUpdated": "2020-06-25T08:16:03.082Z",
    "recovered": 259,
    "infected": 941,
    "id": "BfT8o5DaEixC6JIZ28kY",
    "pop": 18620000,
    "sick": 671,
    "invisible": false
  },
  {
    "longitude": 29.9188862,
    "name": "Burundi",
    "latitude": -3.3730559,
    "dead": 1,
    "lastUpdated": "2020-06-25T08:16:03.087Z",
    "recovered": 93,
    "infected": 144,
    "id": "BnpMamidC5yYzeK8tPUL",
    "pop": 10860000,
    "country": "BI",
    "sick": 50,
    "invisible": false
  },
  {
    "recovered": 0,
    "infected": 4832,
    "id": "BrToMzyq8y2xdwXn75kM",
    "pop": 5385000,
    "country": "PL",
    "longitude": 21.002,
    "name": "Mazowieckie",
    "latitude": 52.257,
    "dead": 324,
    "lastUpdated": "2020-06-25T08:03:08.375Z",
    "sick": 4508,
    "invisible": false
  },
  {
    "name": "Amazonas (Colombia)",
    "latitude": -1.333845,
    "dead": 85,
    "lastUpdated": "2020-06-25T08:00:14.481Z",
    "recovered": 1811,
    "infected": 2220,
    "id": "C25xSDm4iYibX5RYML14",
    "pop": 74751,
    "country": "CO",
    "longitude": -71.347573,
    "sick": 324,
    "invisible": false
  },
  {
    "lastUpdated": "2020-06-25T08:17:01.938Z",
    "recovered": 0,
    "infected": 413355,
    "state": "NY",
    "id": "C3BCUzV80z9GfiuByIcr",
    "pop": 19540000,
    "country": "US",
    "longitude": -73.982597,
    "name": "New York",
    "latitude": 40.719042,
    "dead": 31346,
    "sick": 382009,
    "invisible": false
  },
  {
    "lastUpdated": "2020-06-25T08:00:14.482Z",
    "recovered": 2,
    "infected": 14,
    "id": "C5YXFiytAc1w9swtVGLz",
    "pop": 42800,
    "country": "CO",
    "longitude": -67.92389,
    "name": "Guainía",
    "latitude": 3.86528,
    "dead": 1,
    "sick": 11,
    "invisible": false
  },
  {
    "latitude": 49.731626,
    "dead": 344,
    "lastUpdated": "2020-06-25T08:16:03.076Z",
    "recovered": 7592,
    "infected": 10780,
    "id": "C6S76AggdWVU8G22jFHQ",
    "pop": 10650000,
    "country": "CZ",
    "longitude": 15.359413,
    "name": "Czechia",
    "sick": 2844,
    "invisible": false
  },
  {
    "longitude": 50.557701,
    "name": "Bahrain",
    "latitude": 26.0667,
    "dead": 69,
    "lastUpdated": "2020-06-25T08:16:03.075Z",
    "recovered": 17977,
    "infected": 23570,
    "id": "C7cj4nwRITs13KnaJrQ2",
    "pop": 1493000,
    "country": "BH",
    "sick": 5524,
    "invisible": false
  },
  {
    "recovered": 266,
    "infected": 642,
    "id": "CA9LaAl3bNaeAqBuozn4",
    "pop": 1285400,
    "country": "CO",
    "longitude": -74.4057,
    "name": "Magdalena",
    "latitude": 10.4113,
    "dead": 57,
    "lastUpdated": "2020-06-25T08:00:14.481Z",
    "sick": 319,
    "invisible": false
  },
  {
    "recovered": 0,
    "infected": 3225,
    "id": "CCUFp4urvgXPo5unfMGy",
    "pop": 3073500,
    "country": "MX",
    "longitude": -101.430756,
    "name": "Coahuila",
    "latitude": 26.909979,
    "dead": 177,
    "lastUpdated": "2020-06-25T08:02:08.463Z",
    "sick": 3048,
    "invisible": false
  },
  {
    "lastUpdated": "2020-06-25T08:11:01.684Z",
    "recovered": 12646,
    "infected": 16085,
    "id": "CKZCZTPlrcq5fbfUPA9k",
    "pop": 68890000,
    "country": "IN",
    "longitude": 74.2179,
    "name": "Rajasthan",
    "latitude": 27.0238,
    "dead": 375,
    "sick": 3064,
    "invisible": false
  },
  {
    "longitude": 86.2199,
    "name": "Altai",
    "latitude": 50.6182,
    "dead": 0,
    "lastUpdated": "2020-06-25T08:00:17.347Z",
    "recovered": 215,
    "infected": 511,
    "id": "CX8z9U1iABNBhc1VK2Dy",
    "pop": 218000,
    "country": "RU",
    "sick": 296,
    "invisible": false
  },
  {
    "country": "SV",
    "longitude": -88.9053,
    "name": "El Salvador",
    "latitude": 13.803,
    "dead": 119,
    "lastUpdated": "2020-06-25T08:16:03.077Z",
    "recovered": 2950,
    "infected": 5150,
    "id": "Cgvmtle61ehMvCzRzYx7",
    "pop": 6378000,
    "sick": 2081,
    "invisible": false
  },
  {
    "longitude": 153.915,
    "name": "Magadan Oblast",
    "latitude": 62.6643,
    "dead": 4,
    "lastUpdated": "2020-06-25T08:00:17.347Z",
    "recovered": 326,
    "infected": 642,
    "id": "D4WkbqyUXY1pazbOxfKx",
    "pop": 144000,
    "country": "RU",
    "sick": 312,
    "invisible": false
  },
  {
    "country": "RU",
    "longitude": 82.6765,
    "name": "Tomsk Oblast",
    "latitude": 58.897,
    "dead": 14,
    "lastUpdated": "2020-06-25T08:00:17.346Z",
    "recovered": 862,
    "infected": 1968,
    "id": "DAp3PFow4BuCMYWWTo3i",
    "pop": 1078000,
    "sick": 1092,
    "invisible": false
  },
  {
    "latitude": 40.259003,
    "dead": 397,
    "lastUpdated": "2020-06-25T08:16:03.075Z",
    "recovered": 11335,
    "infected": 22488,
    "id": "DCJCtZoBTWQ4mzdDNljD",
    "pop": 2973000,
    "country": "AM",
    "longitude": 44.818474,
    "name": "Armenia",
    "sick": 10756,
    "invisible": false
  },
  {
    "id": "DJJraANgQbEqz1wBBtZz",
    "pop": 1278000,
    "country": "CO",
    "longitude": -73.368,
    "name": "Boyacá",
    "latitude": 5.535,
    "dead": 11,
    "lastUpdated": "2020-06-25T08:00:14.481Z",
    "recovered": 199,
    "infected": 328,
    "sick": 118,
    "invisible": false
  },
  {
    "lastUpdated": "2020-06-25T08:00:17.345Z",
    "recovered": 2029,
    "infected": 3192,
    "id": "DKwy7USk22oXUQGEvO42",
    "pop": 834000,
    "country": "RU",
    "longitude": 44.0684,
    "name": "Mordovia",
    "latitude": 54.2369,
    "dead": 24,
    "sick": 1139,
    "invisible": false
  },
  {
    "latitude": 53.6221,
    "dead": 0,
    "lastUpdated": "2020-06-25T08:13:12.603Z",
    "recovered": 0,
    "infected": 27137,
    "state": "EN",
    "id": "DPwBt2aJuwF0O71vwfM9",
    "pop": 7300000,
    "country": "GB",
    "longitude": -2.5945,
    "name": "North West",
    "sick": 27137,
    "invisible": false
  },
  {
    "id": "DZyTD0Mu5WIcK6yTcJ91",
    "pop": 65440,
    "country": "BM",
    "longitude": -64.75737,
    "name": "Bermuda",
    "latitude": 32.3213844,
    "dead": 9,
    "lastUpdated": "2020-06-25T08:16:03.087Z",
    "recovered": 132,
    "infected": 146,
    "sick": 5,
    "invisible": false
  },
  {
    "lastUpdated": "2020-06-25T08:16:03.089Z",
    "recovered": 11,
    "infected": 15,
    "id": "DaMrRSIGJXIG36nW0Pnc",
    "pop": 35446,
    "country": "TC",
    "longitude": -71.7979,
    "name": "Turks and Caicos",
    "latitude": 21.694,
    "dead": 1,
    "sick": 3,
    "invisible": false
  },
  {
    "latitude": 39.2796,
    "dead": 3022,
    "lastUpdated": "2020-06-24T22:33:43.970Z",
    "recovered": 6392,
    "infected": 26621,
    "state": "CM",
    "id": "Dbng0NBTH41EEwBxhMzE",
    "pop": 2035000,
    "country": "ES",
    "longitude": -3.0977,
    "name": "Castilla La Mancha",
    "sick": 17207,
    "invisible": false
  },
  {
    "recovered": 0,
    "infected": 1629,
    "id": "DcQ3D0WkacXEbv6iznRB",
    "pop": 3361000,
    "country": "PL",
    "longitude": 20.006,
    "name": "Malopolskie",
    "latitude": 50.023,
    "dead": 44,
    "lastUpdated": "2020-06-25T08:03:08.376Z",
    "sick": 1585,
    "invisible": false
  },
  {
    "lastUpdated": "2020-06-25T08:16:03.088Z",
    "recovered": 45,
    "infected": 45,
    "id": "DdBt8qsG6A3g92oOR3ow",
    "pop": 622567,
    "country": "MO",
    "longitude": 113.551262,
    "name": "Macao",
    "latitude": 22.192039,
    "dead": 0,
    "sick": 0,
    "invisible": false
  },
  {
    "longitude": 91.3662,
    "name": "Meghalaya",
    "latitude": 25.467,
    "dead": 1,
    "lastUpdated": "2020-06-25T08:11:01.685Z",
    "recovered": 41,
    "infected": 46,
    "id": "Dh0O1vmhrVfmsCsfZCUg",
    "pop": 2651000,
    "country": "IN",
    "sick": 4,
    "invisible": false
  },
  {
    "recovered": 4778,
    "infected": 9074,
    "id": "DqzAhNFTJFQVm88ma21P",
    "pop": 4220000,
    "country": "RU",
    "longitude": 41.8259,
    "name": "Rostov Oblast",
    "latitude": 47.6853,
    "dead": 100,
    "lastUpdated": "2020-06-25T08:00:17.341Z",
    "sick": 4196,
    "invisible": false
  },
  {
    "country": "US",
    "longitude": -107.534868,
    "name": "Wyoming",
    "latitude": 42.962334,
    "dead": 20,
    "lastUpdated": "2020-06-25T08:17:01.944Z",
    "recovered": 0,
    "infected": 1282,
    "state": "WY",
    "id": "DrGzziUglmBognCGY7R2",
    "pop": 577737,
    "sick": 1262,
    "invisible": false
  },
  {
    "latitude": 37.9838,
    "dead": 190,
    "lastUpdated": "2020-06-25T08:16:03.078Z",
    "recovered": 1374,
    "infected": 3310,
    "id": "Dtr1lap1RpJpXJdXGJiW",
    "pop": 10740000,
    "country": "GR",
    "longitude": 23.7275,
    "name": "Greece",
    "sick": 1746,
    "invisible": false
  },
  {
    "id": "E8vIyXLVNtcY9dxLHICp",
    "pop": 2623000,
    "country": "RU",
    "longitude": 56.5872,
    "name": "Perm Krai",
    "latitude": 58.8232,
    "dead": 76,
    "lastUpdated": "2020-06-25T08:00:17.344Z",
    "recovered": 2533,
    "infected": 3416,
    "sick": 807,
    "invisible": false
  },
  {
    "name": "Tyumen Oblast",
    "latitude": 56.9634,
    "dead": 16,
    "lastUpdated": "2020-06-25T08:00:17.345Z",
    "recovered": 1646,
    "infected": 2766,
    "id": "EHKZ6ivhrJUs3XqNDBOw",
    "pop": 3692000,
    "country": "RU",
    "longitude": 66.9483,
    "sick": 1104,
    "invisible": false
  },
  {
    "longitude": 121.563698,
    "name": "Taiwan",
    "latitude": 25.03841,
    "dead": 7,
    "lastUpdated": "2020-06-25T08:16:03.085Z",
    "recovered": 435,
    "infected": 447,
    "id": "EKTfs8e7M6DXzI1HqyyX",
    "pop": 23780000,
    "country": "TW",
    "sick": 5,
    "invisible": false
  },
  {
    "recovered": 1210,
    "infected": 2515,
    "id": "EQzJvzVHKjs8kLmK7BMu",
    "pop": 4906000,
    "country": "CR",
    "longitude": -84.387618,
    "name": "Costa Rica",
    "latitude": 10.327273,
    "dead": 12,
    "lastUpdated": "2020-06-25T08:16:03.078Z",
    "sick": 1293,
    "invisible": false
  },
  {
    "recovered": 21096,
    "infected": 29001,
    "id": "ERwk9R9en4m9WbdoMbIg",
    "pop": 62700000,
    "country": "IN",
    "longitude": 71.1924,
    "name": "Gujarat",
    "latitude": 22.2587,
    "dead": 1736,
    "lastUpdated": "2020-06-25T08:11:01.683Z",
    "sick": 6169,
    "invisible": false
  },
  {
    "country": "RU",
    "longitude": 42.5884,
    "name": "Arkhangelsk Oblast",
    "latitude": 63.2853,
    "dead": 37,
    "lastUpdated": "2020-06-25T08:00:17.342Z",
    "recovered": 2295,
    "infected": 4992,
    "id": "EVMBsgCJedjHy91mDYEC",
    "pop": 1155000,
    "sick": 2660,
    "invisible": false
  },
  {
    "longitude": 76.7794,
    "name": "Chandigarh",
    "latitude": 30.7333,
    "dead": 6,
    "lastUpdated": "2020-06-25T08:11:01.685Z",
    "recovered": 322,
    "infected": 420,
    "id": "Esl5UlCVB9s8pmGB5Ofr",
    "pop": 1055000,
    "country": "IN",
    "sick": 92,
    "invisible": false
  },
  {
    "recovered": 0,
    "infected": 614,
    "id": "Esy1La2CxwH5uB8bGVWZ",
    "pop": 2148000,
    "country": "PL",
    "longitude": 22.653,
    "name": "Lubelskie",
    "latitude": 51.24,
    "dead": 17,
    "lastUpdated": "2020-06-25T08:03:08.377Z",
    "sick": 597,
    "invisible": false
  },
  {
    "state": "PR",
    "id": "F4rPrEVGAIMM5rfPEMv4",
    "longitude": -66.664513,
    "name": "Puerto Rico",
    "alwaysShow": true,
    "dead": 149,
    "latitude": 18.200178,
    "infected": 6820,
    "recovered": 0,
    "pop": 3195000,
    "country": "US",
    "lastUpdated": "2020-06-25T08:17:01.946Z",
    "sick": 6671,
    "invisible": false
  },
  {
    "recovered": 1057,
    "infected": 2182,
    "id": "F7MED5VwEhi3JvJu6KjB",
    "pop": 2919000,
    "country": "CO",
    "longitude": -74.058655,
    "name": "Cundinamarca",
    "latitude": 4.862437,
    "dead": 48,
    "lastUpdated": "2020-06-25T08:00:14.479Z",
    "sick": 1077,
    "invisible": false
  },
  {
    "lastUpdated": "2020-06-25T08:16:03.085Z",
    "recovered": 159,
    "infected": 265,
    "id": "F8LnLqvuWoWh8awBqiw1",
    "pop": 832322,
    "country": "KM",
    "longitude": 43.3333,
    "name": "Comoros",
    "latitude": -11.6455,
    "dead": 7,
    "sick": 99,
    "invisible": false
  },
  {
    "latitude": 33.93911,
    "dead": 675,
    "lastUpdated": "2020-06-25T08:16:03.074Z",
    "recovered": 10174,
    "infected": 30175,
    "id": "FCDmlmnIIswd8bQiUjfN",
    "pop": 35530000,
    "country": "AF",
    "longitude": 67.709953,
    "name": "Afghanistan",
    "sick": 19326,
    "invisible": false
  },
  {
    "id": "FErOU1m4Tj7jIkRam3vF",
    "pop": 30480000,
    "country": "CN",
    "longitude": 106.912254,
    "name": "Chongqing",
    "latitude": 29.431585,
    "dead": 6,
    "lastUpdated": "2020-06-25T08:08:10.328Z",
    "recovered": 573,
    "infected": 582,
    "sick": 3,
    "invisible": false
  },
  {
    "latitude": 29.311661,
    "dead": 337,
    "lastUpdated": "2020-06-25T08:16:03.073Z",
    "recovered": 32809,
    "infected": 41879,
    "id": "FZsUkhxBEgqsPb4eO0PN",
    "pop": 4137000,
    "country": "KW",
    "longitude": 47.481766,
    "name": "Kuwait",
    "sick": 8733,
    "invisible": false
  },
  {
    "country": "BR",
    "longitude": -37.0717,
    "name": "Sergipe",
    "latitude": -10.9111,
    "dead": 524,
    "lastUpdated": "2020-06-25T08:15:10.191Z",
    "recovered": 0,
    "infected": 20353,
    "state": "SE",
    "id": "FboWeolpM62SZCLwdilT",
    "pop": 2278308,
    "sick": 19829,
    "invisible": false
  },
  {
    "name": "Tamil Nadu",
    "latitude": 11.1271,
    "dead": 866,
    "lastUpdated": "2020-06-25T08:11:01.683Z",
    "recovered": 37763,
    "infected": 67468,
    "id": "FeS45oMNC27pI17F0xEV",
    "pop": 67860000,
    "country": "IN",
    "longitude": 78.6569,
    "sick": 28839,
    "invisible": false
  },
  {
    "lastUpdated": "2020-06-25T08:16:03.074Z",
    "recovered": 16006,
    "infected": 28631,
    "id": "FuiVEJvWb0QMCpxJ3563",
    "pop": 10770000,
    "country": "DO",
    "longitude": -70.430399,
    "name": "Dominican Republic",
    "latitude": 18.947829,
    "dead": 691,
    "sick": 11934,
    "invisible": false
  },
  {
    "name": "Telengana",
    "latitude": 18.1124,
    "dead": 225,
    "lastUpdated": "2020-06-25T08:11:01.684Z",
    "recovered": 4361,
    "infected": 10444,
    "id": "FyC551oNwmENxbr9Yght",
    "pop": 35190000,
    "country": "IN",
    "longitude": 79.0193,
    "sick": 5858,
    "invisible": false
  },
  {
    "latitude": 48.669,
    "dead": 28,
    "lastUpdated": "2020-06-25T08:16:03.080Z",
    "recovered": 1452,
    "infected": 1630,
    "id": "FzIDXoqWnTI3nUfhPyT2",
    "pop": 5450000,
    "country": "SK",
    "longitude": 19.699,
    "name": "Slovakia",
    "sick": 150,
    "invisible": false
  },
  {
    "country": "PK",
    "longitude": 69.345116,
    "name": "Pakistan",
    "latitude": 30.37532,
    "dead": 3903,
    "lastUpdated": "2020-06-25T08:16:03.071Z",
    "recovered": 81307,
    "infected": 192970,
    "id": "GAp7Wb6IMhdgbvEtMza9",
    "pop": 197000000,
    "sick": 107760,
    "invisible": false
  },
  {
    "name": "Punjab",
    "latitude": 31.1471,
    "dead": 113,
    "lastUpdated": "2020-06-25T08:11:01.684Z",
    "recovered": 3099,
    "infected": 4627,
    "id": "GGru8cG08mANO8XDDUtZ",
    "pop": 27980000,
    "country": "IN",
    "longitude": 75.3412,
    "sick": 1415,
    "invisible": false
  },
  {
    "name": "United Arab Emirates",
    "latitude": 23.424076,
    "dead": 307,
    "lastUpdated": "2020-06-25T08:16:03.073Z",
    "recovered": 34405,
    "infected": 46133,
    "id": "GHzBIsHy2GiBc5JV2HMs",
    "pop": 9400000,
    "country": "AE",
    "longitude": 53.847816,
    "sick": 11421,
    "invisible": false
  },
  {
    "longitude": -95.7129,
    "invisible": true,
    "name": "Grand Princess",
    "latitude": 37.0902,
    "dead": 3,
    "lastUpdated": "2020-06-25T08:17:01.947Z",
    "recovered": 0,
    "infected": 103,
    "id": "GLViSIjDjwvptOphedAu",
    "country": "US",
    "sick": 100
  },
  {
    "latitude": 51.5074,
    "dead": 0,
    "lastUpdated": "2020-06-25T08:13:12.603Z",
    "recovered": 0,
    "infected": 27483,
    "state": "EN",
    "id": "GPtoS0Yy2EnNafpmmTqY",
    "pop": 10100000,
    "country": "GB",
    "longitude": -0.1278,
    "name": "London",
    "sick": 27483,
    "invisible": false
  },
  {
    "name": "California",
    "latitude": 36.621981,
    "dead": 5729,
    "lastUpdated": "2020-06-25T08:17:01.938Z",
    "recovered": 0,
    "infected": 195564,
    "state": "CA",
    "id": "Gh46r6vuaY7fbGt3IboN",
    "pop": 39560000,
    "country": "US",
    "longitude": -119.339046,
    "sick": 189835,
    "invisible": false
  },
  {
    "longitude": 72.8397,
    "name": "Dadra and Nagar Haveli",
    "latitude": 20.4283,
    "dead": 0,
    "lastUpdated": "2020-06-25T08:11:01.685Z",
    "recovered": 30,
    "infected": 134,
    "id": "GljWeVnun6o9DeW6rlEm",
    "pop": 343709,
    "country": "IN",
    "sick": 104,
    "invisible": false
  },
  {
    "name": "Oklahoma",
    "latitude": 35.87189,
    "dead": 372,
    "lastUpdated": "2020-06-25T08:17:01.942Z",
    "recovered": 0,
    "infected": 11510,
    "state": "OK",
    "id": "GpF8ULuKOQiFDCUHN44h",
    "pop": 3943000,
    "country": "US",
    "longitude": -97.145514,
    "sick": 11138,
    "invisible": false
  },
  {
    "longitude": -71.557,
    "name": "Arauca",
    "latitude": 6.492,
    "dead": 0,
    "lastUpdated": "2020-06-25T08:00:14.482Z",
    "recovered": 2,
    "infected": 76,
    "id": "Gr09a1wn3BnMqjQbgEun",
    "pop": 256627,
    "country": "CO",
    "sick": 74,
    "invisible": false
  },
  {
    "name": "Ivanovo Oblast",
    "latitude": 57.1057,
    "dead": 39,
    "lastUpdated": "2020-06-25T08:00:17.343Z",
    "recovered": 2643,
    "infected": 4330,
    "id": "GsecjBfopdgTOnyRgtCA",
    "pop": 1014000,
    "country": "RU",
    "longitude": 41.483,
    "sick": 1648,
    "invisible": false
  },
  {
    "state": "BA",
    "id": "Gzx6GX1qhBm714BkEC6l",
    "pop": 520891,
    "country": "IT",
    "longitude": 11.35,
    "name": "P.A. Bolzano",
    "latitude": 46.5,
    "dead": 292,
    "lastUpdated": "2020-06-25T08:01:09.418Z",
    "recovered": 2252,
    "infected": 2634,
    "sick": 90,
    "invisible": false
  },
  {
    "country": "CN",
    "longitude": 113.750972,
    "name": "Inner Mongolia",
    "latitude": 42.83263,
    "dead": 1,
    "lastUpdated": "2020-06-25T08:08:10.329Z",
    "recovered": 236,
    "infected": 238,
    "id": "H3JeVigVbo5CSYfZG4WI",
    "pop": 24710000,
    "sick": 1,
    "invisible": false
  },
  {
    "state": "NV",
    "id": "H3bDg4eV30up4WWrIDAS",
    "pop": 3034000,
    "country": "US",
    "longitude": -116.724977,
    "name": "Nevada",
    "latitude": 39.74536,
    "dead": 494,
    "lastUpdated": "2020-06-25T08:17:01.942Z",
    "recovered": 0,
    "infected": 14362,
    "sick": 13868,
    "invisible": false
  },
  {
    "state": "CE",
    "id": "HEMWNnFxeFEoeOCBOLJD",
    "pop": 9075649,
    "country": "BR",
    "longitude": -38.526669,
    "name": "Ceará",
    "latitude": -3.731862,
    "dead": 5815,
    "lastUpdated": "2020-06-25T08:15:10.189Z",
    "recovered": 0,
    "infected": 99578,
    "sick": 93763,
    "invisible": false
  },
  {
    "recovered": 6153,
    "infected": 10118,
    "id": "HN5mGmxlqlSeFSNeu1K5",
    "pop": 64060000,
    "country": "IN",
    "longitude": 75.7139,
    "name": "Karnataka",
    "latitude": 15.3173,
    "dead": 164,
    "lastUpdated": "2020-06-25T08:11:01.684Z",
    "sick": 3801,
    "invisible": false
  },
  {
    "recovered": 34,
    "infected": 70,
    "id": "HRDpwyxpqW9RN0xLFyNu",
    "pop": 807610,
    "country": "BT",
    "longitude": 90.4336,
    "name": "Bhutan",
    "latitude": 27.5142,
    "dead": 0,
    "lastUpdated": "2020-06-25T08:16:03.088Z",
    "sick": 36,
    "invisible": false
  },
  {
    "lastUpdated": "2020-06-25T08:16:03.077Z",
    "recovered": 4685,
    "infected": 6990,
    "id": "HRTA10dtrruDEwjJEGMp",
    "pop": 32390000,
    "country": "UZ",
    "longitude": 64.5853,
    "name": "Uzbekistan",
    "latitude": 41.3775,
    "dead": 19,
    "sick": 2286,
    "invisible": false
  },
  {
    "lastUpdated": "2020-06-25T08:17:01.942Z",
    "recovered": 0,
    "infected": 10990,
    "state": "NM",
    "id": "HSSFomRju0doHhWgW8On",
    "pop": 2095000,
    "country": "US",
    "longitude": -105.576255,
    "name": "New Mexico",
    "latitude": 34.138916,
    "dead": 480,
    "sick": 10510,
    "invisible": false
  },
  {
    "lastUpdated": "2020-06-25T08:21:10.955Z",
    "recovered": 0,
    "infected": 629,
    "id": "HZkACHjW7NlYjg8vEMj2",
    "pop": 412812,
    "country": "CL",
    "longitude": -72.3311,
    "name": "Los Ríos",
    "latitude": -40.231,
    "dead": 10,
    "sick": 619,
    "invisible": false
  },
  {
    "lastUpdated": "2020-06-25T08:00:03.001Z",
    "recovered": 758,
    "infected": 800,
    "state": "MV",
    "id": "He1gSS1v50t06i3YrqvB",
    "pop": 1635000,
    "country": "DE",
    "longitude": 12.4296,
    "name": "Mecklenburg-Vorpommern",
    "latitude": 53.6127,
    "dead": 21,
    "sick": 21,
    "invisible": false
  },
  {
    "name": "Abruzzo",
    "latitude": 42.25,
    "dead": 461,
    "lastUpdated": "2020-06-25T08:01:09.413Z",
    "recovered": 2444,
    "infected": 3283,
    "state": "65",
    "id": "I9EqrZfbPnkioNU4wZGz",
    "pop": 1315000,
    "country": "IT",
    "longitude": 13.75,
    "sick": 378,
    "invisible": false
  },
  {
    "longitude": 113.373448,
    "name": "Guangdong",
    "latitude": 23.363855,
    "dead": 8,
    "lastUpdated": "2020-06-25T08:08:10.328Z",
    "recovered": 1621,
    "infected": 1635,
    "id": "IAX0OQLVnUwU7FX0ENF1",
    "pop": 113460000,
    "country": "CN",
    "sick": 6,
    "invisible": false
  },
  {
    "id": "IFuMrMvSjoiX5agYvllh",
    "pop": 94000000,
    "country": "CN",
    "longitude": 113.484016,
    "name": "Henan",
    "latitude": 33.875408,
    "dead": 22,
    "lastUpdated": "2020-06-25T08:08:10.329Z",
    "recovered": 1254,
    "infected": 1276,
    "sick": 0,
    "invisible": false
  },
  {
    "country": "PT",
    "longitude": -8.16667,
    "name": "Algarve",
    "latitude": 37.2,
    "dead": 15,
    "lastUpdated": "2020-06-25T07:53:01.531Z",
    "recovered": 0,
    "infected": 552,
    "id": "IHqRHC8K3OZPN8gniM7V",
    "pop": 451000,
    "sick": 537,
    "invisible": false
  },
  {
    "latitude": 3.883,
    "dead": 79,
    "lastUpdated": "2020-06-25T08:00:14.481Z",
    "recovered": 495,
    "infected": 1325,
    "id": "IKWjRUo0SYgHQKdWjTvq",
    "pop": 333194,
    "country": "CO",
    "longitude": -77.0197,
    "name": "Buenaventura D.E.",
    "sick": 751,
    "invisible": false
  },
  {
    "lastUpdated": "2020-06-25T08:13:12.603Z",
    "recovered": 0,
    "infected": 9826,
    "state": "EN",
    "id": "INyu1R48Ppv8cfW4Nuz4",
    "pop": 4811000,
    "country": "GB",
    "longitude": -0.995,
    "name": "East Midlands",
    "latitude": 52.87,
    "dead": 0,
    "sick": 9826,
    "invisible": false
  },
  {
    "longitude": -102.317,
    "name": "Aguascalientes",
    "latitude": 22.017,
    "dead": 127,
    "lastUpdated": "2020-06-25T08:02:08.466Z",
    "recovered": 0,
    "infected": 2591,
    "id": "ISRKMzEDojyrZ9iyWwex",
    "pop": 1342600,
    "country": "MX",
    "sick": 2464,
    "invisible": false
  },
  {
    "latitude": 25.686613,
    "dead": 288,
    "lastUpdated": "2020-06-25T08:02:08.465Z",
    "recovered": 0,
    "infected": 7785,
    "id": "IdKbgzgKLpjBFh4UPOwu",
    "pop": 5321300,
    "country": "MX",
    "longitude": -100.316116,
    "name": "Nuevo León",
    "sick": 7497,
    "invisible": false
  },
  {
    "longitude": -106.069099,
    "name": "Chihuahua",
    "latitude": 28.632996,
    "dead": 594,
    "lastUpdated": "2020-06-25T08:02:08.455Z",
    "recovered": 0,
    "infected": 4068,
    "id": "IhhiYI6T0TX4CYVPcnmH",
    "pop": 3826900,
    "country": "MX",
    "sick": 3474,
    "invisible": false
  },
  {
    "latitude": -36.7,
    "dead": 29,
    "lastUpdated": "2020-06-25T08:21:10.955Z",
    "recovered": 0,
    "infected": 2219,
    "id": "ImnOiVx9Cb8Nw7cbRcQ7",
    "pop": 480600,
    "country": "CL",
    "longitude": -72.57,
    "name": "Ñuble",
    "sick": 2190,
    "invisible": false
  },
  {
    "lastUpdated": "2020-06-25T08:16:03.077Z",
    "recovered": 512,
    "infected": 5429,
    "id": "InZ38sIqyK7FN7XAOZoX",
    "pop": 10980000,
    "country": "HT",
    "longitude": -73.0513,
    "name": "Haiti",
    "latitude": 19.0558,
    "dead": 92,
    "sick": 4825,
    "invisible": false
  },
  {
    "latitude": 32.528564,
    "dead": 2698,
    "lastUpdated": "2020-06-25T08:17:01.939Z",
    "recovered": 0,
    "infected": 69381,
    "state": "GA",
    "id": "IvQkDJkTAsoIqPRAU25n",
    "pop": 10520000,
    "country": "US",
    "longitude": -83.280125,
    "name": "Georgia (US)",
    "sick": 66683,
    "invisible": false
  },
  {
    "country": "NZ",
    "longitude": 172.488081,
    "name": "New Zealand",
    "latitude": -42.8285,
    "dead": 22,
    "lastUpdated": "2020-06-25T08:16:03.080Z",
    "recovered": 1484,
    "infected": 1519,
    "id": "IvVhpOoGpH6JVkGyUhXN",
    "pop": 4794000,
    "sick": 13,
    "invisible": false
  },
  {
    "latitude": 28.218,
    "dead": 1,
    "lastUpdated": "2020-06-25T08:11:01.685Z",
    "recovered": 38,
    "infected": 160,
    "id": "IwYKiIVY18NGwdGQFGWW",
    "pop": 1255000,
    "country": "IN",
    "longitude": 94.7278,
    "name": "Arunachal Pradesh",
    "sick": 121,
    "invisible": false
  },
  {
    "lastUpdated": "2020-06-25T08:16:03.077Z",
    "recovered": 1327,
    "infected": 4366,
    "id": "J3mZXlfEnnJx4CDZLvRG",
    "pop": 31980000,
    "country": "VE",
    "longitude": -66.5897,
    "name": "Venezuela",
    "latitude": 6.4238,
    "dead": 38,
    "sick": 3001,
    "invisible": false
  },
  {
    "country": "CO",
    "longitude": -72.633,
    "name": "Guaviare",
    "latitude": 2.567,
    "dead": 0,
    "lastUpdated": "2020-06-25T08:00:14.482Z",
    "recovered": 1,
    "infected": 10,
    "id": "JEMCwkwXK39jd1lZ7VgJ",
    "pop": 107932,
    "sick": 9,
    "invisible": false
  },
  {
    "longitude": 40.1754,
    "name": "Adygea",
    "latitude": 44.8229,
    "dead": 12,
    "lastUpdated": "2020-06-25T08:00:17.346Z",
    "recovered": 1119,
    "infected": 1682,
    "id": "JOJVBvOnsLDJPVeYJaI2",
    "pop": 453000,
    "country": "RU",
    "sick": 551,
    "invisible": false
  },
  {
    "latitude": 35.1264,
    "dead": 19,
    "lastUpdated": "2020-06-25T08:16:03.081Z",
    "recovered": 824,
    "infected": 991,
    "id": "JQByE4l2OA6sGOqIcWrM",
    "pop": 1170000,
    "country": "CY",
    "longitude": 33.4299,
    "name": "Cyprus",
    "sick": 148,
    "invisible": false
  },
  {
    "longitude": 85.3131,
    "name": "Bihar",
    "latitude": 25.0961,
    "dead": 55,
    "lastUpdated": "2020-06-25T08:11:01.684Z",
    "recovered": 6106,
    "infected": 8273,
    "id": "JR7hOGked7CZtIs2nCV5",
    "pop": 99020000,
    "country": "IN",
    "sick": 2112,
    "invisible": false
  },
  {
    "id": "JUWE6bG3b5oL7fKQMSvv",
    "pop": 17250000,
    "country": "GT",
    "longitude": -90.522713,
    "name": "Guatemala",
    "latitude": 14.628434,
    "dead": 601,
    "lastUpdated": "2020-06-25T08:16:03.075Z",
    "recovered": 2930,
    "infected": 14819,
    "sick": 11288,
    "invisible": false
  },
  {
    "lastUpdated": "2020-06-25T08:16:03.078Z",
    "recovered": 3965,
    "infected": 4140,
    "id": "JcFsHSn2WvZ5LJW42ovG",
    "pop": 602005,
    "country": "LU",
    "longitude": 6.1296,
    "name": "Luxembourg",
    "latitude": 49.8153,
    "dead": 110,
    "sick": 65,
    "invisible": false
  },
  {
    "longitude": -74.167,
    "name": "Bolívar",
    "latitude": 8.8,
    "dead": 26,
    "lastUpdated": "2020-06-25T08:00:14.481Z",
    "recovered": 229,
    "infected": 709,
    "id": "JmOyaFe25yZCIV64JbZj",
    "pop": 2049000,
    "country": "CO",
    "sick": 454,
    "invisible": false
  },
  {
    "longitude": -115.783,
    "name": "Baja California",
    "latitude": 31.4,
    "dead": 1768,
    "lastUpdated": "2020-06-25T08:02:08.454Z",
    "recovered": 0,
    "infected": 8164,
    "id": "Jp9ePErcc8i1aOozEAMf",
    "pop": 3648100,
    "country": "MX",
    "sick": 6396,
    "invisible": false
  },
  {
    "latitude": 8.7479801,
    "dead": 27,
    "lastUpdated": "2020-06-25T08:00:14.481Z",
    "recovered": 136,
    "infected": 485,
    "id": "Jr8syCB0lydmPDXw8Q6N",
    "pop": 1786500,
    "country": "CO",
    "longitude": -75.8814316,
    "name": "Córdoba",
    "sick": 322,
    "invisible": false
  },
  {
    "latitude": 8.6195,
    "dead": 14,
    "lastUpdated": "2020-06-25T08:16:03.084Z",
    "recovered": 392,
    "infected": 583,
    "id": "JrBbirlBKGdWSdcDt7PF",
    "pop": 7798000,
    "country": "TG",
    "longitude": 0.8248,
    "name": "Togo",
    "sick": 177,
    "invisible": false
  },
  {
    "recovered": 2263,
    "infected": 4242,
    "id": "JzZ8sbqzjutThVjkPKPL",
    "pop": 7050000,
    "country": "BG",
    "longitude": 25.4858,
    "name": "Bulgaria",
    "latitude": 42.7339,
    "dead": 209,
    "lastUpdated": "2020-06-25T08:16:03.078Z",
    "sick": 1770,
    "invisible": false
  },
  {
    "recovered": 0,
    "infected": 742,
    "id": "KGrK7gafkeWjmU6sHQd2",
    "pop": 1263000,
    "country": "PL",
    "longitude": 20.709,
    "name": "Świętokrzyskie",
    "latitude": 50.823,
    "dead": 36,
    "lastUpdated": "2020-06-25T08:03:08.377Z",
    "sick": 706,
    "invisible": false
  },
  {
    "country": "RU",
    "longitude": 61.9316,
    "name": "Sverdlovsk Oblast",
    "latitude": 59.0077,
    "dead": 82,
    "lastUpdated": "2020-06-25T08:00:17.340Z",
    "recovered": 6496,
    "infected": 11684,
    "id": "KLBR5QHW6DePaGcFxlqH",
    "pop": 4325000,
    "sick": 5106,
    "invisible": false
  },
  {
    "country": "IT",
    "longitude": 8.833,
    "name": "Liguria",
    "latitude": 44.5,
    "dead": 1555,
    "lastUpdated": "2020-06-25T08:01:09.419Z",
    "recovered": 8124,
    "infected": 9940,
    "state": "42",
    "id": "KLXicxFogWnu0dLp4bNK",
    "pop": 1557000,
    "sick": 261,
    "invisible": false
  },
  {
    "latitude": 56.4385,
    "dead": 21,
    "lastUpdated": "2020-06-25T07:00:26.702Z",
    "recovered": 2758,
    "infected": 2783,
    "id": "KUnAVGJH6fLwFetE8A2x",
    "pop": 682000,
    "country": "RU",
    "longitude": 47.9608,
    "name": "Mari El Republic",
    "sick": 4,
    "invisible": false
  },
  {
    "recovered": 281,
    "infected": 784,
    "id": "KpOz3WmiZkrXUMlUJNlV",
    "pop": 1201000,
    "country": "CO",
    "longitude": -73.2532,
    "name": "Cesar",
    "latitude": 10.4631,
    "dead": 21,
    "lastUpdated": "2020-06-25T08:00:14.480Z",
    "sick": 482,
    "invisible": false
  },
  {
    "recovered": 8791,
    "infected": 10222,
    "state": "52",
    "id": "KrLrJbpDqqiXgUPGCCW9",
    "pop": 3737000,
    "country": "IT",
    "longitude": 11,
    "name": "Toscana",
    "latitude": 43.4167,
    "dead": 1101,
    "lastUpdated": "2020-06-25T08:01:09.420Z",
    "sick": 330,
    "invisible": false
  },
  {
    "recovered": 1602,
    "infected": 2001,
    "id": "KsWzJO06cf0d6LJ4ZNh9",
    "pop": 21440000,
    "country": "LK",
    "longitude": 80.771797,
    "name": "Sri Lanka",
    "latitude": 7.873054,
    "dead": 11,
    "lastUpdated": "2020-06-25T08:16:03.079Z",
    "sick": 388,
    "invisible": false
  },
  {
    "country": "IN",
    "longitude": 79.74,
    "name": "Andhra Pradesh",
    "latitude": 15.9129,
    "dead": 136,
    "lastUpdated": "2020-06-25T08:11:01.684Z",
    "recovered": 4988,
    "infected": 10884,
    "id": "KtQIo2DoqjELtPAlyDVO",
    "pop": 49670000,
    "sick": 5760,
    "invisible": false
  },
  {
    "alwaysShow": true,
    "latitude": 18.0708,
    "dead": 3,
    "lastUpdated": "2020-06-24T22:51:32.267Z",
    "recovered": 36,
    "infected": 43,
    "id": "LBUtrLDKJiupXjlUNTUe",
    "pop": 32125,
    "country": "FR",
    "longitude": -63.0501,
    "name": "Saint-Martin",
    "sick": 4,
    "invisible": false
  },
  {
    "recovered": 2575,
    "infected": 4318,
    "id": "LD8TNScpLrLRvgpQAn9T",
    "pop": 747000,
    "country": "RU",
    "longitude": 36.9242,
    "name": "Oryol Oblast",
    "latitude": 52.7856,
    "dead": 51,
    "lastUpdated": "2020-06-25T08:00:17.343Z",
    "sick": 1692,
    "invisible": false
  },
  {
    "lastUpdated": "2020-06-25T08:16:03.088Z",
    "recovered": 81,
    "infected": 82,
    "id": "LTGEU2E9MFkrCcFhZYVk",
    "pop": 38557,
    "country": "LI",
    "longitude": 9.5554,
    "name": "Liechtenstein",
    "latitude": 47.166,
    "dead": 1,
    "sick": 0,
    "invisible": false
  },
  {
    "name": "Guinea",
    "latitude": 9.9456,
    "dead": 29,
    "lastUpdated": "2020-06-25T08:16:03.077Z",
    "recovered": 3861,
    "infected": 5174,
    "id": "LU2QWt5ao8IJa8evNYVV",
    "pop": 12720000,
    "country": "GN",
    "longitude": -9.6966,
    "sick": 1284,
    "invisible": false
  },
  {
    "lastUpdated": "2020-06-25T08:02:08.455Z",
    "recovered": 0,
    "infected": 7306,
    "id": "LYCBHrA9ms6GcxpLGPCT",
    "pop": 3062000,
    "country": "MX",
    "longitude": -110.5,
    "name": "Sonora",
    "latitude": 29.6667,
    "dead": 674,
    "sick": 6632,
    "invisible": false
  },
  {
    "country": "SR",
    "longitude": -56.0277824,
    "name": "Suriname",
    "latitude": 3.9193051,
    "dead": 10,
    "lastUpdated": "2020-06-25T08:16:03.085Z",
    "recovered": 154,
    "infected": 357,
    "id": "LglKINHyQpYpFxjckbQ6",
    "pop": 563402,
    "sick": 193,
    "invisible": false
  },
  {
    "state": "SK",
    "id": "LkIDKY0CMAqzbwBHyYCP",
    "pop": 1174000,
    "country": "CA",
    "longitude": -106.4509,
    "name": "Saskatchewan",
    "latitude": 52.9399,
    "dead": 13,
    "lastUpdated": "2020-06-25T08:10:08.709Z",
    "recovered": 0,
    "infected": 757,
    "sick": 744,
    "invisible": false
  },
  {
    "lastUpdated": "2020-06-25T08:16:03.089Z",
    "recovered": 8,
    "infected": 10,
    "id": "LooNn6RuMiDhQnwa9svw",
    "pop": 636442,
    "country": "EH",
    "longitude": -12.8858,
    "name": "Western Sahara",
    "latitude": 24.2155,
    "dead": 1,
    "sick": 1,
    "invisible": false
  },
  {
    "lastUpdated": "2020-06-24T22:35:39.960Z",
    "recovered": 1063,
    "infected": 3420,
    "state": "AS",
    "id": "Lsga7AvYNnY0qQ5gEfV8",
    "pop": 1022000,
    "country": "ES",
    "longitude": -5.951843,
    "name": "Principado de Asturias",
    "latitude": 43.363129,
    "dead": 333,
    "sick": 2024,
    "invisible": false
  },
  {
    "state": "EX",
    "id": "LuEErlF7dVKI0eJsRjFm",
    "pop": 1065000,
    "country": "ES",
    "longitude": -6.0679,
    "name": "Extremadura",
    "latitude": 39.4937,
    "dead": 519,
    "lastUpdated": "2020-06-24T22:34:46.336Z",
    "recovered": 2652,
    "infected": 4018,
    "sick": 847,
    "invisible": false
  },
  {
    "name": "Guanajuato",
    "latitude": 21.0186,
    "dead": 426,
    "lastUpdated": "2020-06-25T08:02:08.463Z",
    "recovered": 0,
    "infected": 6574,
    "id": "M3wdiueFtwrUHiQ2rOXA",
    "pop": 5965000,
    "country": "MX",
    "longitude": -101.2591,
    "sick": 6148,
    "invisible": false
  },
  {
    "latitude": 37.8393,
    "dead": 538,
    "lastUpdated": "2020-06-25T08:17:01.942Z",
    "recovered": 0,
    "infected": 14363,
    "state": "KY",
    "id": "MC8MXFw9iXYybnF8v7e6",
    "pop": 4468000,
    "country": "US",
    "longitude": -84.27,
    "name": "Kentucky",
    "sick": 13825,
    "invisible": false
  },
  {
    "name": "Unknown UK region or state",
    "latitude": 55.3781,
    "dead": 38568,
    "lastUpdated": "2020-06-25T08:13:12.604Z",
    "recovered": 0,
    "infected": 117966,
    "id": "MEjlm8VYdGA28TTTnQmf",
    "country": "GB",
    "longitude": -3.436,
    "invisible": true,
    "sick": 79398
  },
  {
    "latitude": 41.3006,
    "dead": 814,
    "lastUpdated": "2020-06-24T22:28:18.798Z",
    "recovered": 0,
    "infected": 17339,
    "id": "MG4e9tulLJ010SZJvbYN",
    "pop": 3689000,
    "country": "PT",
    "longitude": -7.7441,
    "name": "Norte",
    "sick": 16525,
    "invisible": false
  },
  {
    "recovered": 0,
    "infected": 15802,
    "state": "SC",
    "id": "MObRYyIriHG337L8FyFC",
    "pop": 5450000,
    "country": "GB",
    "longitude": -4.2026,
    "name": "Scotland",
    "latitude": 56.4907,
    "dead": 2476,
    "lastUpdated": "2020-06-25T08:13:12.602Z",
    "sick": 13326,
    "invisible": false
  },
  {
    "recovered": 0,
    "infected": 43140,
    "state": "IN",
    "id": "MOxDkmQ4wBi1CuAdVxDE",
    "pop": 6692000,
    "country": "US",
    "longitude": -86.1349,
    "name": "Indiana",
    "latitude": 40.2672,
    "dead": 2578,
    "lastUpdated": "2020-06-25T08:17:01.940Z",
    "sick": 40562,
    "invisible": false
  },
  {
    "latitude": 7.54,
    "dead": 58,
    "lastUpdated": "2020-06-25T08:16:03.077Z",
    "recovered": 3419,
    "infected": 8164,
    "id": "MdQOfc1gNh2DOqwSP6UV",
    "pop": 24290000,
    "country": "CI",
    "longitude": -5.5471,
    "name": "Ivory Coast",
    "sick": 4687,
    "invisible": false
  },
  {
    "country": "DE",
    "longitude": 7.6616,
    "name": "Nordrhein-Westfalen",
    "latitude": 51.4332,
    "dead": 1679,
    "lastUpdated": "2020-06-25T08:00:03.001Z",
    "recovered": 37396,
    "infected": 42068,
    "state": "NW",
    "id": "MjpYq3zQyAvSQlVVYjD2",
    "pop": 17910000,
    "sick": 2993,
    "invisible": false
  },
  {
    "country": "CN",
    "longitude": 105.977203,
    "name": "Ningxia",
    "latitude": 37.330509,
    "dead": 0,
    "lastUpdated": "2020-06-25T08:08:10.330Z",
    "recovered": 75,
    "infected": 75,
    "id": "MntmjjuHljarCdt6aIeE",
    "pop": 6301000,
    "sick": 0,
    "invisible": false
  },
  {
    "longitude": -52.203499186,
    "name": "Pará",
    "latitude": -3.20166586,
    "dead": 4726,
    "lastUpdated": "2020-06-25T08:15:10.189Z",
    "recovered": 0,
    "infected": 91708,
    "state": "PA",
    "id": "MuEB2UgkId5crsxi9zQT",
    "pop": 8513497,
    "country": "BR",
    "sick": 86982,
    "invisible": false
  },
  {
    "lastUpdated": "2020-06-25T08:00:17.344Z",
    "recovered": 2186,
    "infected": 3583,
    "id": "N0KGfqgROVOjAxWcd8wi",
    "pop": 1150000,
    "country": "RU",
    "longitude": 39.2032,
    "name": "Lipetsk Oblast",
    "latitude": 52.5265,
    "dead": 13,
    "sick": 1384,
    "invisible": false
  },
  {
    "lastUpdated": "2020-06-25T08:00:02.999Z",
    "recovered": 33229,
    "infected": 35873,
    "state": "BW",
    "id": "N3XsRBwJSsNclkEf7Zz5",
    "pop": 11020000,
    "country": "DE",
    "longitude": 9.3501,
    "name": "Baden-Württemberg",
    "latitude": 48.6616,
    "dead": 1880,
    "sick": 764,
    "invisible": false
  },
  {
    "id": "N7c13sCQF0G789XAVazJ",
    "pop": 3507000,
    "country": "BA",
    "longitude": 17.824332,
    "name": "Bosnia and Herzegovina",
    "latitude": 44.696652,
    "dead": 173,
    "lastUpdated": "2020-06-25T08:16:03.078Z",
    "recovered": 2297,
    "infected": 3676,
    "sick": 1206,
    "invisible": false
  },
  {
    "latitude": 37.242565,
    "dead": 0,
    "lastUpdated": "2020-06-25T08:08:10.330Z",
    "recovered": 198,
    "infected": 198,
    "id": "NBRIGIRrJB1Ry8prDNAC",
    "pop": 36500000,
    "country": "CN",
    "longitude": 111.856857,
    "name": "Shanxi",
    "sick": 0,
    "invisible": false
  },
  {
    "name": "North Carolina",
    "latitude": 35.7596,
    "dead": 1318,
    "lastUpdated": "2020-06-25T01:47:02.113Z",
    "recovered": 0,
    "infected": 56955,
    "state": "NC",
    "id": "NC64Qp5kTqAfiTuR27k8",
    "pop": 10380000,
    "country": "US",
    "longitude": -79.0193,
    "sick": 55637,
    "invisible": false
  },
  {
    "recovered": 3160,
    "infected": 3454,
    "state": "BB",
    "id": "NJjo2gfBvnbK4xatrsUz",
    "pop": 2504000,
    "country": "DE",
    "longitude": 12.5316,
    "name": "Brandenburg",
    "latitude": 52.4125,
    "dead": 175,
    "lastUpdated": "2020-06-25T08:00:03.000Z",
    "sick": 119,
    "invisible": false
  },
  {
    "country": "US",
    "lastUpdated": "2020-06-25T08:17:01.946Z",
    "state": "MP",
    "id": "NLLL6pJhJSw0lrDMD4uP",
    "longitude": 145.6739,
    "name": "Northern Mariana Islands",
    "alwaysShow": true,
    "dead": 2,
    "latitude": 15.0979,
    "infected": 31,
    "recovered": 0,
    "pop": 55144,
    "sick": 29,
    "invisible": false
  },
  {
    "latitude": 30.0668,
    "dead": 35,
    "lastUpdated": "2020-06-25T08:11:01.684Z",
    "recovered": 1721,
    "infected": 2623,
    "id": "NMeZEcGToxXfpi16PfFV",
    "pop": 10080000,
    "country": "IN",
    "longitude": 79.0193,
    "name": "Uttarakhand",
    "sick": 867,
    "invisible": false
  },
  {
    "longitude": 9.1624,
    "name": "Hessen",
    "latitude": 50.6521,
    "dead": 511,
    "lastUpdated": "2020-06-25T08:00:03.000Z",
    "recovered": 9813,
    "infected": 10703,
    "state": "HE",
    "id": "Nk5vPgUIXsWVfbWZf15O",
    "pop": 6243000,
    "country": "DE",
    "sick": 379,
    "invisible": false
  },
  {
    "country": "LV",
    "longitude": 25.837107,
    "name": "Latvia",
    "latitude": 56.96776,
    "dead": 30,
    "lastUpdated": "2020-06-25T08:16:03.081Z",
    "recovered": 903,
    "infected": 1111,
    "id": "NmmMKy0YqA8StHdGzB5N",
    "pop": 1920000,
    "sick": 178,
    "invisible": false
  },
  {
    "lastUpdated": "2020-06-25T08:15:10.190Z",
    "recovered": 0,
    "infected": 54022,
    "state": "PE",
    "id": "NyGlFL1gATK1Omv9qtcC",
    "pop": 9496294,
    "country": "BR",
    "longitude": -37.946777,
    "name": "Pernambuco",
    "latitude": -8.472372,
    "dead": 4425,
    "sick": 49597,
    "invisible": false
  },
  {
    "id": "O4g88K49HKEZLFXm5gxb",
    "pop": 4732000,
    "country": "LR",
    "longitude": -9.4295,
    "name": "Liberia",
    "latitude": 6.4281,
    "dead": 34,
    "lastUpdated": "2020-06-25T08:16:03.084Z",
    "recovered": 270,
    "infected": 662,
    "sick": 358,
    "invisible": false
  },
  {
    "id": "O5fNOGWKosps6JTrzkpn",
    "pop": 2350000,
    "country": "RU",
    "longitude": 82.6759,
    "name": "Altai Krai",
    "latitude": 51.7936,
    "dead": 29,
    "lastUpdated": "2020-06-25T08:00:17.344Z",
    "recovered": 2594,
    "infected": 3600,
    "sick": 977,
    "invisible": false
  },
  {
    "recovered": 1656,
    "infected": 2793,
    "id": "O6PDzAxKENYbLsLjPx2K",
    "pop": 1072000,
    "country": "RU",
    "longitude": 116.9677,
    "name": "Zabaykalsky Krai",
    "latitude": 53.0929,
    "dead": 41,
    "lastUpdated": "2020-06-25T08:00:17.345Z",
    "sick": 1096,
    "invisible": false
  },
  {
    "name": "South Carolina",
    "latitude": 34.003307,
    "dead": 683,
    "lastUpdated": "2020-06-25T08:17:01.941Z",
    "recovered": 0,
    "infected": 27897,
    "state": "SC",
    "id": "ONU4CK8QjViFHKg2w5if",
    "pop": 5084000,
    "country": "US",
    "longitude": -80.525613,
    "sick": 27214,
    "invisible": false
  },
  {
    "name": "Mississippi",
    "latitude": 33.51822,
    "dead": 1011,
    "lastUpdated": "2020-06-25T08:17:01.941Z",
    "recovered": 0,
    "infected": 23424,
    "state": "MS",
    "id": "OYa0jFzdbAgo8zUsRv6q",
    "pop": 2987000,
    "country": "US",
    "longitude": -89.582775,
    "sick": 22413,
    "invisible": false
  },
  {
    "longitude": -69.4455,
    "name": "Maine",
    "latitude": 45.2538,
    "dead": 103,
    "lastUpdated": "2020-06-25T08:17:01.943Z",
    "recovered": 0,
    "infected": 3017,
    "state": "ME",
    "id": "OcXNp9kNVSwrRlG3bNVN",
    "pop": 1338000,
    "country": "US",
    "sick": 2914,
    "invisible": false
  },
  {
    "lastUpdated": "2020-06-25T08:00:17.345Z",
    "recovered": 2374,
    "infected": 2916,
    "id": "OlKS5SPydHY2TedStFuf",
    "pop": 488000,
    "country": "RU",
    "longitude": 44.8203,
    "name": "Ingushetia",
    "latitude": 43.4052,
    "dead": 67,
    "sick": 475,
    "invisible": false
  },
  {
    "longitude": 146.725256,
    "name": "Tasmania",
    "latitude": -41.915264,
    "dead": 13,
    "lastUpdated": "2020-06-25T08:13:32.134Z",
    "recovered": 215,
    "infected": 228,
    "state": "TAS",
    "id": "OnOseaqWdnuP18oruABW",
    "pop": 515000,
    "country": "AU",
    "sick": 0,
    "invisible": false
  },
  {
    "latitude": -16.35,
    "dead": 443,
    "lastUpdated": "2020-06-25T08:15:10.191Z",
    "recovered": 0,
    "infected": 11443,
    "state": "MT",
    "id": "P0GHFGUt1pkKTk5PM8uz",
    "pop": 3441998,
    "country": "BR",
    "longitude": -56.666668,
    "name": "Mato Grosso",
    "sick": 11000,
    "invisible": false
  },
  {
    "id": "P2I90oqdFSoVk03AaGo4",
    "pop": 1378000,
    "country": "RU",
    "longitude": 40.5927,
    "name": "Vladimir Oblast",
    "latitude": 56.1553,
    "dead": 55,
    "lastUpdated": "2020-06-25T08:00:17.344Z",
    "recovered": 2412,
    "infected": 4109,
    "sick": 1642,
    "invisible": false
  },
  {
    "id": "P4mwRFLbrvT0t75uD8Wo",
    "pop": 61559,
    "country": "KY",
    "longitude": -81.2546,
    "name": "Cayman Islands",
    "latitude": 19.3133,
    "dead": 1,
    "lastUpdated": "2020-06-25T08:16:03.087Z",
    "recovered": 169,
    "infected": 196,
    "sick": 26,
    "invisible": false
  },
  {
    "lastUpdated": "2020-06-25T08:16:03.089Z",
    "recovered": 10,
    "infected": 11,
    "id": "PEDkeFMTOZpvHiSVxBk7",
    "pop": 5900,
    "country": "MS",
    "longitude": -62.1873665,
    "name": "Montserrat",
    "latitude": 16.7424984,
    "dead": 1,
    "sick": 0,
    "invisible": false
  },
  {
    "id": "PEcgZGEkyhABztt1Ufgc",
    "pop": 12210000,
    "country": "RW",
    "longitude": 29.8739,
    "name": "Rwanda",
    "latitude": -1.9403,
    "dead": 2,
    "lastUpdated": "2020-06-25T08:16:03.082Z",
    "recovered": 376,
    "infected": 830,
    "sick": 452,
    "invisible": false
  },
  {
    "country": "RU",
    "longitude": 56.1645,
    "name": "Bashkortostan",
    "latitude": 54.2312,
    "dead": 18,
    "lastUpdated": "2020-06-25T08:00:17.342Z",
    "recovered": 2643,
    "infected": 5121,
    "id": "PHlHdeqYd6KgxsJGfEz0",
    "pop": 4063000,
    "sick": 2460,
    "invisible": false
  },
  {
    "lastUpdated": "2020-06-25T08:17:01.941Z",
    "recovered": 0,
    "infected": 33763,
    "state": "MN",
    "id": "PJvVYosLIhbcRZYnKX1R",
    "pop": 5611000,
    "country": "US",
    "longitude": -94.6859,
    "name": "Minnesota",
    "latitude": 46.7296,
    "dead": 1432,
    "sick": 32331,
    "invisible": false
  },
  {
    "recovered": 0,
    "infected": 138540,
    "state": "IL",
    "id": "PTwQr9ijo0TBBsPH2sdJ",
    "pop": 12740000,
    "country": "US",
    "longitude": -89.3985,
    "name": "Illinois",
    "latitude": 40.6331,
    "dead": 6770,
    "lastUpdated": "2020-06-25T08:17:01.938Z",
    "sick": 131770,
    "invisible": false
  },
  {
    "name": "Saint Lucia",
    "latitude": 13.909444,
    "dead": 0,
    "lastUpdated": "2020-06-25T08:16:03.089Z",
    "recovered": 19,
    "infected": 19,
    "id": "PjLqCeFdyzdZNcZxMkK1",
    "pop": 178844,
    "country": "LC",
    "longitude": -60.978893,
    "sick": 0,
    "invisible": false
  },
  {
    "state": "NC",
    "id": "PmUlsNx2uFLU797wwU39",
    "pop": 649900,
    "country": "ES",
    "longitude": -1.6761,
    "name": "Comunidad Foral de Navarra",
    "latitude": 42.6954,
    "dead": 528,
    "lastUpdated": "2020-06-24T22:34:26.089Z",
    "recovered": 3905,
    "infected": 8583,
    "sick": 4150,
    "invisible": false
  },
  {
    "longitude": 9.460554,
    "name": "Tunisia",
    "latitude": 34.201507,
    "dead": 50,
    "lastUpdated": "2020-06-25T08:16:03.081Z",
    "recovered": 1023,
    "infected": 1160,
    "id": "Pr76V4raf108uSRoEXac",
    "pop": 11530000,
    "country": "TN",
    "sick": 87,
    "invisible": false
  },
  {
    "name": "Eswatini",
    "latitude": -26.5225,
    "dead": 7,
    "lastUpdated": "2020-06-25T08:16:03.084Z",
    "recovered": 331,
    "infected": 690,
    "id": "PuQgOd9KWiMzGZXm11sR",
    "pop": 1367000,
    "country": "SZ",
    "longitude": 31.4659,
    "sick": 352,
    "invisible": false
  },
  {
    "name": "Victoria",
    "latitude": -37.009609,
    "dead": 20,
    "lastUpdated": "2020-06-25T08:13:32.137Z",
    "recovered": 1732,
    "infected": 1884,
    "state": "VIC",
    "id": "Q18mrGvFWTLX2BU9SqhQ",
    "pop": 6359000,
    "country": "AU",
    "longitude": 143.94853,
    "sick": 132,
    "invisible": false
  },
  {
    "latitude": 54.2194,
    "dead": 157,
    "lastUpdated": "2020-06-25T08:00:03.002Z",
    "recovered": 2967,
    "infected": 3147,
    "state": "SH",
    "id": "Q39XkabIYxt15mHINzTa",
    "pop": 2890000,
    "country": "DE",
    "longitude": 9.6961,
    "name": "Schleswig-Holstein",
    "sick": 23,
    "invisible": false
  },
  {
    "latitude": -27.953491,
    "dead": 500,
    "lastUpdated": "2020-06-25T08:15:10.190Z",
    "recovered": 0,
    "infected": 22009,
    "state": "RS",
    "id": "QGpQNhuoVTUPHXvS7qcu",
    "pop": 11329605,
    "country": "BR",
    "longitude": -52.031696,
    "name": "Rio Grande do Sul",
    "sick": 21509,
    "invisible": false
  },
  {
    "lastUpdated": "2020-06-25T08:00:17.342Z",
    "recovered": 2767,
    "infected": 4802,
    "id": "QGyuno7Bc4kwuvGFgMiO",
    "pop": 1231000,
    "country": "RU",
    "longitude": 46.9284,
    "name": "Chuvashia",
    "latitude": 55.5596,
    "dead": 25,
    "sick": 2010,
    "invisible": false
  },
  {
    "latitude": 58.595272,
    "dead": 69,
    "lastUpdated": "2020-06-25T08:16:03.080Z",
    "recovered": 1790,
    "infected": 1984,
    "id": "QR9go2hQKXjty7JHUYe4",
    "pop": 1328000,
    "country": "EE",
    "longitude": 25.013607,
    "name": "Estonia",
    "sick": 125,
    "invisible": false
  },
  {
    "latitude": 63.8631,
    "dead": 29,
    "lastUpdated": "2020-06-25T08:00:17.345Z",
    "recovered": 1343,
    "infected": 3050,
    "id": "QTafh5fpbS8abcuyEjaL",
    "pop": 840000,
    "country": "RU",
    "longitude": 54.8313,
    "name": "Komi Republic",
    "sick": 1678,
    "invisible": false
  },
  {
    "longitude": -40.336,
    "name": "Espírito Santo",
    "latitude": -20.318,
    "dead": 1463,
    "lastUpdated": "2020-06-25T08:15:10.190Z",
    "recovered": 0,
    "infected": 38481,
    "state": "ES",
    "id": "QaWDLKH8SuwD0Qxq6c38",
    "pop": 3972388,
    "country": "BR",
    "sick": 37018,
    "invisible": false
  },
  {
    "lastUpdated": "2020-06-25T08:00:17.342Z",
    "recovered": 3362,
    "infected": 4732,
    "id": "Qh73PKA4KWeuPoqZfWXz",
    "pop": 795000,
    "country": "RU",
    "longitude": 35.0884,
    "name": "Murmansk Oblast",
    "latitude": 67.8443,
    "dead": 11,
    "sick": 1359,
    "invisible": false
  },
  {
    "latitude": 20.3333,
    "dead": 588,
    "lastUpdated": "2020-06-25T08:02:08.465Z",
    "recovered": 0,
    "infected": 9875,
    "id": "Qkho455pBwx88Gohs3hL",
    "pop": 8222700,
    "country": "MX",
    "longitude": -103.6667,
    "name": "Jalisco",
    "sick": 9287,
    "invisible": false
  },
  {
    "id": "QlZrE4nosm5WfdA2aCDg",
    "pop": 8251000,
    "country": "PG",
    "longitude": 143.9555,
    "name": "Papua New Guinea",
    "latitude": -6.315,
    "dead": 0,
    "lastUpdated": "2020-06-25T08:16:03.089Z",
    "recovered": 8,
    "infected": 10,
    "sick": 2,
    "invisible": false
  },
  {
    "state": "VI",
    "id": "QqhD3YDMKXojvQY3Yu41",
    "longitude": -64.8963,
    "name": "U.S. Virgin Islands",
    "alwaysShow": true,
    "dead": 6,
    "latitude": 18.3358,
    "infected": 76,
    "recovered": 0,
    "pop": 107268,
    "country": "US",
    "lastUpdated": "2020-06-25T08:17:01.946Z",
    "sick": 70,
    "invisible": false
  },
  {
    "name": "Dominica",
    "latitude": 15.414999,
    "dead": 0,
    "lastUpdated": "2020-06-25T08:16:03.089Z",
    "recovered": 18,
    "infected": 18,
    "id": "Qy2qW2ep5wltnYjPJBxh",
    "pop": 71937,
    "country": "DM",
    "longitude": -61.3709755,
    "sick": 0,
    "invisible": false
  },
  {
    "name": "Casanare",
    "latitude": 5.167,
    "dead": 0,
    "lastUpdated": "2020-06-25T08:00:14.480Z",
    "recovered": 35,
    "infected": 61,
    "id": "R3IHMWqIUhOJJTlrmbUZ",
    "pop": 344027,
    "country": "CO",
    "longitude": -72.167,
    "sick": 26,
    "invisible": false
  },
  {
    "recovered": 14794,
    "infected": 28030,
    "id": "R8YCgephnxTufvcPWMgx",
    "pop": 4099000,
    "country": "PA",
    "longitude": -80.7821,
    "name": "Panama",
    "latitude": 8.538,
    "dead": 547,
    "lastUpdated": "2020-06-25T08:16:03.074Z",
    "sick": 12689,
    "invisible": false
  },
  {
    "lastUpdated": "2020-06-25T08:16:03.075Z",
    "recovered": 1546,
    "infected": 14571,
    "id": "RA2SE0p2bVhqo0P2hzGY",
    "pop": 9265000,
    "country": "HN",
    "longitude": -86.2419,
    "name": "Honduras",
    "latitude": 15.2,
    "dead": 417,
    "sick": 12608,
    "invisible": false
  },
  {
    "country": "CL",
    "longitude": -70.2979202,
    "name": "Arica y Parinacota",
    "latitude": -18.4745998,
    "dead": 15,
    "lastUpdated": "2020-06-25T08:21:10.944Z",
    "recovered": 0,
    "infected": 1473,
    "id": "RBt9RiwP7WUbMnJfD0lo",
    "pop": 224500,
    "sick": 1458,
    "invisible": false
  },
  {
    "latitude": 45.633331,
    "dead": 344,
    "lastUpdated": "2020-06-25T08:01:09.419Z",
    "recovered": 2904,
    "infected": 3305,
    "state": "36",
    "id": "RCrDBCdBNYzgLNr0aB2H",
    "pop": 1216000,
    "country": "IT",
    "longitude": 13.8,
    "name": "Friuli Venezia Giulia",
    "sick": 57,
    "invisible": false
  },
  {
    "longitude": -93.0977,
    "name": "Iowa",
    "latitude": 41.878,
    "dead": 694,
    "lastUpdated": "2020-06-25T08:17:01.941Z",
    "recovered": 0,
    "infected": 26894,
    "state": "IA",
    "id": "RX0KDu1AFrlCsrRso0nb",
    "pop": 3156000,
    "country": "US",
    "sick": 26200,
    "invisible": false
  },
  {
    "recovered": 10317,
    "infected": 23367,
    "id": "RZ6PCe5TZsO15JjDObwO",
    "pop": 7413000,
    "country": "CO",
    "longitude": -74.063644,
    "name": "Bogotá D.C.",
    "latitude": 4.624335,
    "dead": 530,
    "lastUpdated": "2020-06-25T08:00:14.472Z",
    "sick": 12520,
    "invisible": false
  },
  {
    "name": "Libya",
    "latitude": 26.3351002,
    "dead": 18,
    "lastUpdated": "2020-06-25T08:16:03.084Z",
    "recovered": 138,
    "infected": 670,
    "id": "RaJxbzlnRFTuj4B8IbpC",
    "pop": 6846000,
    "country": "LY",
    "longitude": 17.2283306,
    "sick": 514,
    "invisible": false
  },
  {
    "state": "KS",
    "id": "Rf4uvBfP3GRDSHdZElRd",
    "pop": 2912000,
    "country": "US",
    "longitude": -98.4842,
    "name": "Kansas",
    "latitude": 39.0119,
    "dead": 262,
    "lastUpdated": "2020-06-25T08:17:01.942Z",
    "recovered": 0,
    "infected": 13045,
    "sick": 12783,
    "invisible": false
  },
  {
    "longitude": 6.1878,
    "name": "Grand Est",
    "latitude": 48.6998,
    "dead": 3546,
    "lastUpdated": "2020-06-24T22:48:20.875Z",
    "recovered": 11981,
    "infected": 25403,
    "id": "RmEgf1xeclWt7XCF9oiR",
    "pop": 5518000,
    "country": "FR",
    "sick": 9876,
    "invisible": false
  },
  {
    "country": "BE",
    "longitude": 4.451,
    "name": "Wallonia",
    "latitude": 50.4176,
    "dead": 3362,
    "lastUpdated": "2020-06-25T08:07:13.297Z",
    "recovered": 4833,
    "infected": 19093,
    "state": "WAL",
    "id": "RryHraSohKQLAsdr1dHO",
    "pop": 3644000,
    "sick": 10898,
    "invisible": false
  },
  {
    "state": "ON",
    "id": "Rx4TuyMpfGb3S8wYJX0x",
    "pop": 14570000,
    "country": "CA",
    "longitude": -85.3232,
    "name": "Ontario",
    "latitude": 51.2538,
    "dead": 2690,
    "lastUpdated": "2020-06-25T08:10:08.708Z",
    "recovered": 0,
    "infected": 35861,
    "sick": 33171,
    "invisible": false
  },
  {
    "lastUpdated": "2020-06-24T22:33:55.350Z",
    "recovered": 8716,
    "infected": 25854,
    "state": "CL",
    "id": "S8ewN4zaYp8mjtuqqOTw",
    "pop": 2408000,
    "country": "ES",
    "longitude": -4.723611,
    "name": "Castilla y León",
    "latitude": 41.652779,
    "dead": 2780,
    "sick": 14358,
    "invisible": false
  },
  {
    "recovered": 98,
    "infected": 238,
    "id": "SDdefnq1bc3ZNr7SpEsW",
    "pop": 376480,
    "country": "FR",
    "longitude": -61.011715,
    "name": "Martinique",
    "alwaysShow": true,
    "latitude": 14.652027,
    "dead": 14,
    "lastUpdated": "2020-06-24T22:49:40.478Z",
    "sick": 126,
    "invisible": false
  },
  {
    "country": "GH",
    "longitude": -1.0232,
    "name": "Ghana",
    "latitude": 7.9465,
    "dead": 95,
    "lastUpdated": "2020-06-25T08:16:03.075Z",
    "recovered": 11078,
    "infected": 15013,
    "id": "SG9VWLOV3x2JsTkXmVSz",
    "pop": 28830000,
    "sick": 3840,
    "invisible": false
  },
  {
    "latitude": 46.818188,
    "dead": 1958,
    "lastUpdated": "2020-06-25T08:16:03.074Z",
    "recovered": 29000,
    "infected": 31376,
    "id": "SGe9sCPayMqh6RsGFaBA",
    "pop": 8570000,
    "country": "CH",
    "longitude": 8.227512,
    "name": "Switzerland",
    "sick": 418,
    "invisible": false
  },
  {
    "latitude": 66.7613,
    "dead": 25,
    "lastUpdated": "2020-06-25T08:00:17.344Z",
    "recovered": 2757,
    "infected": 3963,
    "id": "SGhKBmmh5hss7hrNR8hK",
    "pop": 964000,
    "country": "RU",
    "longitude": 124.1238,
    "name": "Yakutia",
    "sick": 1181,
    "invisible": false
  },
  {
    "lastUpdated": "2020-06-25T08:10:08.702Z",
    "recovered": 0,
    "infected": 54937,
    "state": "QC",
    "id": "SHoOE3NiJgWAlDVBzwYH",
    "pop": 8485000,
    "country": "CA",
    "longitude": -71.208,
    "name": "Quebec",
    "latitude": 46.8139,
    "dead": 5441,
    "sick": 49496,
    "invisible": false
  },
  {
    "country": "XK",
    "longitude": 20.903,
    "name": "Kosovo",
    "latitude": 42.6026,
    "dead": 37,
    "lastUpdated": "2020-06-25T07:40:01.386Z",
    "recovered": 1047,
    "infected": 2169,
    "id": "SMWvuMMuKp2QK7O2tNia",
    "pop": 1831000,
    "sick": 1085,
    "invisible": false
  },
  {
    "country": "RU",
    "longitude": 135,
    "name": "Primorsky Krai",
    "latitude": 45.0526,
    "dead": 40,
    "lastUpdated": "2020-06-25T08:00:17.344Z",
    "recovered": 2364,
    "infected": 3895,
    "id": "SNWCQwRwqYfxX8HZndTA",
    "pop": 1913000,
    "sick": 1491,
    "invisible": false
  },
  {
    "name": "Goa",
    "latitude": 15.2993,
    "dead": 2,
    "lastUpdated": "2020-06-25T08:11:01.685Z",
    "recovered": 289,
    "infected": 951,
    "id": "SPcujsH2YlUaoAr8AiWF",
    "pop": 1817000,
    "country": "IN",
    "longitude": 74.124,
    "sick": 660,
    "invisible": false
  },
  {
    "state": "GO",
    "id": "SV5AMF59J61Vt4cXWLgy",
    "pop": 6921161,
    "country": "BR",
    "longitude": -48.953403,
    "name": "Goiás",
    "latitude": -16.328547,
    "dead": 363,
    "lastUpdated": "2020-06-25T08:15:10.191Z",
    "recovered": 0,
    "infected": 18622,
    "sick": 18259,
    "invisible": false
  },
  {
    "lastUpdated": "2020-06-25T08:00:14.482Z",
    "recovered": 1,
    "infected": 1,
    "id": "SYFarIS62W0EW9bOaJmN",
    "pop": 75500,
    "country": "CO",
    "longitude": -68.436,
    "name": "Vichada",
    "latitude": 6.181,
    "dead": 0,
    "sick": 0,
    "invisible": false
  },
  {
    "latitude": 39,
    "dead": 97,
    "lastUpdated": "2020-06-25T08:01:09.419Z",
    "recovered": 1050,
    "infected": 1175,
    "state": "78",
    "id": "SZdF624x0v1LlyzZjKFu",
    "pop": 1957000,
    "country": "IT",
    "longitude": 16.5,
    "name": "Calabria",
    "sick": 28,
    "invisible": false
  },
  {
    "longitude": -99.9018,
    "name": "Nebraska",
    "latitude": 41.4925,
    "dead": 257,
    "lastUpdated": "2020-06-25T08:17:01.942Z",
    "recovered": 0,
    "infected": 18221,
    "state": "NE",
    "id": "SakhKQzKu1LRI8laqdQq",
    "pop": 1929000,
    "country": "US",
    "sick": 17964,
    "invisible": false
  },
  {
    "lastUpdated": "2020-06-25T08:16:03.084Z",
    "recovered": 460,
    "infected": 508,
    "id": "SgHzWAAYK1j2sipovxM6",
    "pop": 859959,
    "country": "FR",
    "longitude": 55.5364,
    "name": "La Réunion",
    "alwaysShow": true,
    "latitude": -21.1151,
    "dead": 1,
    "sick": 47,
    "invisible": false
  },
  {
    "lastUpdated": "2020-06-25T08:16:03.087Z",
    "recovered": 127,
    "infected": 130,
    "id": "SioMALgUbo7peXmbco2f",
    "pop": 16010000,
    "country": "KH",
    "longitude": 104.990967,
    "name": "Cambodia",
    "latitude": 12.565679,
    "dead": 0,
    "sick": 3,
    "invisible": false
  },
  {
    "longitude": 144.7937,
    "name": "Guam",
    "alwaysShow": true,
    "dead": 5,
    "latitude": 13.4443,
    "infected": 226,
    "recovered": 0,
    "pop": 164229,
    "country": "US",
    "lastUpdated": "2020-06-25T08:17:01.946Z",
    "state": "GU",
    "id": "SsWhuEElU7dCTTuH5fdQ",
    "sick": 221,
    "invisible": false
  },
  {
    "longitude": 19.1344,
    "invisible": true,
    "name": "Unknown Poland region",
    "latitude": 51.9189,
    "dead": 0,
    "lastUpdated": "2020-06-25T08:16:03.074Z",
    "recovered": 18654,
    "infected": 0,
    "id": "SuCr5emUaJ9RHTll1P1p",
    "country": "PL",
    "sick": 0
  },
  {
    "longitude": 53.0278,
    "name": "Udmurtia",
    "latitude": 57.067,
    "dead": 15,
    "lastUpdated": "2020-06-25T08:00:17.347Z",
    "recovered": 945,
    "infected": 1314,
    "id": "Sx03z01BJCAbrYkWhEaD",
    "pop": 1513000,
    "country": "RU",
    "sick": 354,
    "invisible": false
  },
  {
    "country": "CD",
    "longitude": 21.7587,
    "name": "DR Congo",
    "latitude": -4.0383,
    "dead": 142,
    "lastUpdated": "2020-06-25T08:16:03.077Z",
    "recovered": 870,
    "infected": 6213,
    "id": "T3iRf8mTUTAzbKrORTap",
    "pop": 84070000,
    "sick": 5201,
    "invisible": false
  },
  {
    "longitude": 44.344334,
    "name": "Saudi Arabia",
    "latitude": 23.635796,
    "dead": 1387,
    "lastUpdated": "2020-06-25T08:16:03.072Z",
    "recovered": 112797,
    "infected": 167267,
    "id": "T7NffoeCgTUpAbOHvYwP",
    "pop": 32940000,
    "country": "SA",
    "sick": 53083,
    "invisible": false
  },
  {
    "longitude": -2.5396,
    "name": "La Rioja",
    "latitude": 42.2871,
    "dead": 365,
    "lastUpdated": "2020-06-24T22:35:14.186Z",
    "recovered": 3107,
    "infected": 5468,
    "state": "RI",
    "id": "TNDTapyb0k3l7Mds9q9R",
    "pop": 315700,
    "country": "ES",
    "sick": 1996,
    "invisible": false
  },
  {
    "recovered": 0,
    "infected": 3529,
    "id": "TQCWbhIpJQBQxBjhCGVJ",
    "pop": 2207200,
    "country": "MX",
    "longitude": -89.134857,
    "name": "Yucatán",
    "latitude": 20.400417,
    "dead": 384,
    "lastUpdated": "2020-06-25T08:02:08.458Z",
    "sick": 3145,
    "invisible": false
  },
  {
    "latitude": 4.506106,
    "dead": 3,
    "lastUpdated": "2020-06-25T08:16:03.087Z",
    "recovered": 138,
    "infected": 141,
    "id": "TQZmzsLhJqjtCSExAkCP",
    "pop": 428697,
    "country": "BN",
    "longitude": 114.650692,
    "name": "Brunei",
    "sick": 0,
    "invisible": false
  },
  {
    "name": "Auvergne-Rhône-Alpes",
    "latitude": 45.4471,
    "dead": 1728,
    "lastUpdated": "2020-06-24T22:47:12.521Z",
    "recovered": 7625,
    "infected": 15061,
    "state": "",
    "id": "TT0MKODSjrxHvG19xZCa",
    "pop": 8027000,
    "country": "FR",
    "longitude": 4.3853,
    "sick": 5708,
    "invisible": false
  },
  {
    "country": "PT",
    "longitude": -7.9,
    "name": "Alentejo",
    "latitude": 38.5667,
    "dead": 2,
    "lastUpdated": "2020-06-25T07:53:01.532Z",
    "recovered": 0,
    "infected": 406,
    "id": "TeoNTu4aw5riC04sTd73",
    "pop": 758700,
    "sick": 404,
    "invisible": false
  },