[
  {
    "latitude": 12.5847,
    "pop": 72600,
    "longitude": -81.7006,
    "name": "San Andrés",
    "country": "CO",
    "lastUpdated": "2020-04-25T00:46:08.117Z",
    "dead": 0,
    "id": "01b09TY4vmuZwzVuiRFK",
    "infected": 6,
    "recovered": 2,
    "sick": 4,
    "invisible": false
  },
  {
    "latitude": 49.4482,
    "pop": 67052,
    "longitude": -2.5895,
    "name": "Guernsey",
    "country": "GG",
    "lastUpdated": "2020-04-25T00:17:10.322Z",
    "dead": 11,
    "id": "0FOJefeLxQYXQ1CnJm9o",
    "infected": 245,
    "recovered": 155,
    "sick": 79,
    "invisible": false
  },
  {
    "longitude": 14.333333,
    "name": "Campania",
    "country": "IT",
    "lastUpdated": "2020-04-25T00:31:01.376Z",
    "dead": 336,
    "id": "0GJcws44NSPsDHAuxJhW",
    "infected": 4282,
    "recovered": 1003,
    "latitude": 41.066666,
    "pop": 5827000,
    "sick": 2943,
    "invisible": false
  },
  {
    "id": "0HDQbiHe462xMCUV5HiI",
    "infected": 134,
    "recovered": 0,
    "latitude": -20.2167,
    "pop": 383870,
    "longitude": -70.14222,
    "name": "Tarapacá",
    "country": "CL",
    "lastUpdated": "2020-04-25T00:37:15.047Z",
    "dead": 0,
    "sick": 134,
    "invisible": false
  },
  {
    "infected": 94,
    "recovered": 33,
    "latitude": 20.9517,
    "pop": 45990000,
    "longitude": 85.0985,
    "name": "Odisha",
    "country": "IN",
    "lastUpdated": "2020-04-25T00:41:06.961Z",
    "dead": 1,
    "id": "0VG7S6aaK4eSo59fL9JO",
    "sick": 60,
    "invisible": false
  },
  {
    "infected": 155,
    "recovered": 0,
    "latitude": 20.4737,
    "pop": 2990300,
    "longitude": -98.8582,
    "name": "Hidalgo",
    "country": "MX",
    "lastUpdated": "2020-04-25T00:40:08.652Z",
    "dead": 16,
    "id": "0XmCRqiK2ZaehoEJvfer",
    "sick": 139,
    "invisible": false
  },
  {
    "infected": 29,
    "recovered": 11,
    "latitude": 11.7401,
    "pop": 427246,
    "longitude": 92.6586,
    "name": "Andaman and Nicobar Islands",
    "country": "IN",
    "lastUpdated": "2020-04-25T00:41:06.962Z",
    "dead": 0,
    "id": "0jStOpTUNRaQYJqgmRoK",
    "sick": 18,
    "invisible": false
  },
  {
    "infected": 8525,
    "recovered": 809,
    "latitude": 25.315058,
    "pop": 2639000,
    "longitude": 51.145517,
    "name": "Qatar",
    "country": "QA",
    "lastUpdated": "2020-04-25T00:51:02.264Z",
    "dead": 10,
    "id": "0m4aECS0Z2DGFEr8ldgI",
    "sick": 7706,
    "invisible": false
  },
  {
    "infected": 514,
    "recovered": 103,
    "latitude": 22.9868,
    "pop": 90320000,
    "longitude": 87.855,
    "name": "West Bengal",
    "country": "IN",
    "lastUpdated": "2020-04-25T00:41:06.961Z",
    "dead": 18,
    "id": "0n54EMSDJcRoT1QEvw80",
    "sick": 393,
    "invisible": false
  },
  {
    "lastUpdated": "2020-04-25T00:41:06.959Z",
    "dead": 92,
    "id": "0s18o5DrDAHjbu5MFcrj",
    "infected": 1846,
    "recovered": 210,
    "latitude": 22.9734,
    "pop": 73340000,
    "longitude": 78.6569,
    "name": "Madhya Pradesh",
    "country": "IN",
    "sick": 1544,
    "invisible": false
  },
  {
    "id": "0tFoopNTs6e4tOoaltu2",
    "invisible": true,
    "infected": 0,
    "recovered": 110432,
    "latitude": 37.0902,
    "longitude": -95.7129,
    "name": "Unknown US state",
    "country": "US",
    "lastUpdated": "2020-04-25T00:51:02.259Z",
    "dead": 0,
    "sick": 0
  },
  {
    "lastUpdated": "2020-04-25T00:53:10.233Z",
    "dead": 3,
    "id": "0x2HLhr5z5xAtEdO4iZm",
    "infected": 279,
    "recovered": 253,
    "latitude": 35.64249,
    "pop": 37330000,
    "longitude": 108.472214,
    "name": "Shaanxi",
    "country": "CN",
    "sick": 23,
    "invisible": false
  },
  {
    "infected": 1326,
    "recovered": 337,
    "latitude": 41.643351,
    "pop": 2077000,
    "longitude": 21.668393,
    "name": "North Macedonia",
    "country": "MK",
    "lastUpdated": "2020-04-25T00:51:02.269Z",
    "dead": 57,
    "id": "19MvIhipqTyYv1H37Upw",
    "sick": 932,
    "invisible": false
  },
  {
    "id": "1DOMOmCWDtva46OVSZLv",
    "infected": 256,
    "recovered": 0,
    "latitude": 53.1355,
    "pop": 521542,
    "longitude": -57.6604,
    "name": "Newfoundland and Labrador",
    "country": "CA",
    "lastUpdated": "2020-04-25T00:36:08.784Z",
    "dead": 3,
    "sick": 253,
    "invisible": false
  },
  {
    "infected": 18,
    "recovered": 18,
    "latitude": 35.801933,
    "pop": 5627000,
    "longitude": 96.779286,
    "name": "Qinghai",
    "country": "CN",
    "lastUpdated": "2020-04-25T00:53:10.235Z",
    "dead": 0,
    "id": "1Fap7rZu9SIRqf5TG9Dg",
    "sick": 0,
    "invisible": false
  },
  {
    "lastUpdated": "2020-04-25T00:51:02.264Z",
    "dead": 0,
    "id": "1YXQMlVL3fUeDZmcVfJw",
    "invisible": true,
    "infected": 0,
    "recovered": 2627,
    "latitude": 23.6345,
    "pop": 126200000,
    "longitude": -102.5528,
    "name": "Unknown Mexico state",
    "country": "MX",
    "sick": 0
  },
  {
    "pop": 4376000,
    "longitude": 8.206944,
    "name": "Piemonte",
    "country": "IT",
    "lastUpdated": "2020-04-25T00:31:01.377Z",
    "dead": 2699,
    "id": "1eTSQyfp8RoDPeFrIwun",
    "infected": 23822,
    "recovered": 5732,
    "latitude": 44.9,
    "sick": 15391,
    "invisible": false
  },
  {
    "infected": 85,
    "recovered": 0,
    "latitude": 51.993,
    "pop": 1003000,
    "longitude": 15.461,
    "name": "Lubuskie",
    "country": "PL",
    "lastUpdated": "2020-04-25T00:33:02.073Z",
    "dead": 0,
    "id": "1j1OurxLTpZYuWIWwQ9F",
    "sick": 85,
    "invisible": false
  },
  {
    "infected": 3110,
    "recovered": 755,
    "latitude": 47.4116,
    "pop": 3550000,
    "longitude": 28.3699,
    "name": "Moldova",
    "country": "MD",
    "lastUpdated": "2020-04-25T00:51:02.267Z",
    "dead": 84,
    "id": "1qTPB8X3tyLyIdsb5TN3",
    "sick": 2271,
    "invisible": false
  },
  {
    "invisible": true,
    "infected": 977,
    "recovered": 0,
    "latitude": 37.0902,
    "longitude": -95.7129,
    "name": "Federal Bureau of Prisons",
    "country": "US",
    "lastUpdated": "2020-04-24T21:56:22.994Z",
    "dead": 24,
    "id": "22PJOAThcDFKgSbyQIkD",
    "sick": 953
  },
  {
    "infected": 1,
    "recovered": 1,
    "latitude": 30.15336,
    "pop": 3180000,
    "longitude": 88.787865,
    "name": "Tibet",
    "country": "CN",
    "lastUpdated": "2020-04-25T00:53:10.235Z",
    "dead": 0,
    "id": "25qIBtsW2nfQj3pwBKg9",
    "sick": 0,
    "invisible": false
  },
  {
    "latitude": -1.572184,
    "pop": 264000000,
    "longitude": 115.66779,
    "name": "Indonesia",
    "country": "ID",
    "lastUpdated": "2020-04-25T00:51:02.264Z",
    "dead": 689,
    "id": "2KHYUb5t3lwzVVmDjwNX",
    "infected": 8211,
    "recovered": 1002,
    "sick": 6520,
    "invisible": false
  },
  {
    "latitude": 43.807191,
    "pop": 4191000,
    "longitude": -120.585594,
    "name": "Oregon",
    "country": "US",
    "lastUpdated": "2020-04-24T21:56:22.993Z",
    "dead": 86,
    "id": "2OrsssmGUs4XCzaZzvTv",
    "infected": 2178,
    "recovered": 0,
    "sick": 2092,
    "invisible": false
  },
  {
    "infected": 366,
    "recovered": 0,
    "latitude": -23.65,
    "pop": 425000,
    "longitude": -70.400002,
    "name": "Antofagasta",
    "country": "CL",
    "lastUpdated": "2020-04-25T00:37:15.052Z",
    "dead": 2,
    "id": "2c5HBZ1ffkCVXnMYUWnY",
    "sick": 364,
    "invisible": false
  },
  {
    "lastUpdated": "2020-04-25T00:46:08.611Z",
    "dead": 18,
    "id": "2dzhyWsBSPpENWlNew0b",
    "infected": 633,
    "recovered": 0,
    "latitude": 0.035574,
    "pop": 9029000,
    "longitude": -51.070534,
    "name": "Amapá",
    "country": "BR",
    "sick": 615,
    "invisible": false
  },
  {
    "id": "2jxHvSsxdnom0nPNvOT8",
    "infected": 109,
    "recovered": 99,
    "latitude": 43.851921,
    "pop": 27460000,
    "longitude": 126.548103,
    "name": "Jilin",
    "country": "CN",
    "lastUpdated": "2020-04-25T00:53:10.233Z",
    "dead": 1,
    "sick": 9,
    "invisible": false
  },
  {
    "recovered": 131,
    "latitude": 36.1408,
    "pop": 34571,
    "longitude": -5.3536,
    "name": "Gibraltar",
    "country": "GI",
    "lastUpdated": "2020-04-25T00:51:02.272Z",
    "dead": 0,
    "id": "2p11BjSAs3wVyymgqBOe",
    "infected": 133,
    "sick": 2,
    "invisible": false
  },
  {
    "infected": 3330,
    "recovered": 1038,
    "latitude": 47.7516,
    "pop": 2567000,
    "longitude": 1.6751,
    "name": "Centre-Val de Loire",
    "country": "FR",
    "lastUpdated": "2020-04-24T18:38:59.349Z",
    "dead": 343,
    "id": "2sLNkkHpyaHx7dD3aMDO",
    "sick": 1949,
    "invisible": false
  },
  {
    "infected": 1363,
    "recovered": 979,
    "latitude": 42.565044,
    "pop": 884640,
    "longitude": 12.643751,
    "name": "Umbria",
    "country": "IT",
    "lastUpdated": "2020-04-25T00:31:01.378Z",
    "dead": 62,
    "id": "319tiZOMczx1y0DfvOib",
    "sick": 322,
    "invisible": false
  },
  {
    "lastUpdated": "2020-04-25T00:46:08.116Z",
    "dead": 3,
    "id": "38T96Q3XNjt5FSJygPed",
    "infected": 25,
    "recovered": 9,
    "latitude": 2.43823,
    "pop": 1355000,
    "longitude": -76.6131592,
    "name": "Cauca",
    "country": "CO",
    "sick": 13,
    "invisible": false
  },
  {
    "pop": 17090000,
    "longitude": 27.849332,
    "name": "Zambia",
    "country": "ZM",
    "lastUpdated": "2020-04-25T00:51:02.274Z",
    "dead": 3,
    "id": "3IlPjAbP5qVMn1nlgLTJ",
    "infected": 84,
    "recovered": 37,
    "latitude": -13.133896,
    "sick": 44,
    "invisible": false
  },
  {
    "lastUpdated": "2020-04-25T00:51:02.271Z",
    "dead": 6,
    "id": "3LstMSN5XMYBkxbe5HN7",
    "infected": 319,
    "recovered": 123,
    "latitude": 42.7044,
    "pop": 631219,
    "longitude": 19.3958,
    "name": "Montenegro",
    "country": "ME",
    "sick": 190,
    "invisible": false
  },
  {
    "latitude": -35.4735,
    "pop": 418440,
    "longitude": 149.0124,
    "name": "Australian Capital Territory",
    "country": "AU",
    "lastUpdated": "2020-04-25T00:50:02.121Z",
    "dead": 3,
    "id": "3OZoQsKrzxZ18EKyfGE6",
    "infected": 104,
    "recovered": 88,
    "sick": 13,
    "invisible": false
  },
  {
    "infected": 36,
    "recovered": 19,
    "latitude": 26.2006,
    "pop": 30940000,
    "longitude": 92.9376,
    "name": "Assam",
    "country": "IN",
    "lastUpdated": "2020-04-25T00:41:06.961Z",
    "dead": 1,
    "id": "3cCbnJCsK7mKlTO08K1o",
    "sick": 16,
    "invisible": false
  },
  {
    "lastUpdated": "2020-04-24T21:56:22.991Z",
    "dead": 690,
    "id": "3fC3bAyIRUquOQOEnQNe",
    "infected": 15169,
    "recovered": 0,
    "latitude": 40.4173,
    "pop": 11690000,
    "longitude": -82.9071,
    "name": "Ohio",
    "country": "US",
    "sick": 14479,
    "invisible": false
  },
  {
    "longitude": -107.5,
    "name": "Sinaloa",
    "country": "MX",
    "lastUpdated": "2020-04-25T00:40:08.646Z",
    "dead": 92,
    "id": "3kFCzJguabtBvXaHxgiu",
    "infected": 690,
    "recovered": 0,
    "latitude": 25,
    "pop": 3066400,
    "sick": 598,
    "invisible": false
  },
  {
    "longitude": -76.522224,
    "name": "Valle del Cauca",
    "country": "CO",
    "lastUpdated": "2020-04-25T00:46:08.115Z",
    "dead": 47,
    "id": "3mC2LveOpXV8P1PmQGUj",
    "infected": 778,
    "recovered": 122,
    "latitude": 3.420556,
    "pop": 4708300,
    "sick": 609,
    "invisible": false
  },
  {
    "lastUpdated": "2020-04-25T00:51:02.282Z",
    "dead": 1,
    "id": "4NnFMekRK2m14IlnZZoj",
    "infected": 7,
    "recovered": 6,
    "latitude": 21.0079,
    "pop": 4420000,
    "longitude": -10.9408,
    "name": "Mauritania",
    "country": "MR",
    "sick": 0,
    "invisible": false
  },
  {
    "infected": 1824,
    "recovered": 0,
    "latitude": 53.7267,
    "pop": 5071000,
    "longitude": -127.6476,
    "name": "British Columbia",
    "country": "CA",
    "lastUpdated": "2020-04-25T00:36:08.783Z",
    "dead": 94,
    "id": "4hfZRUoUgI4a3vrG0GBk",
    "sick": 1730,
    "invisible": false
  },
  {
    "latitude": -22.908333,
    "pop": 17159960,
    "longitude": -43.196388,
    "name": "Rio de Janeiro",
    "country": "BR",
    "lastUpdated": "2020-04-25T00:46:08.613Z",
    "dead": 570,
    "id": "4kq0z3kh5zt3YAUWxvtE",
    "infected": 6282,
    "recovered": 0,
    "sick": 5712,
    "invisible": false
  },
  {
    "latitude": -11.409874,
    "pop": 14812617,
    "longitude": -41.280857,
    "name": "Bahia",
    "country": "BR",
    "lastUpdated": "2020-04-25T00:46:08.612Z",
    "dead": 64,
    "id": "4yDbkEyqsNzZJjfrciYV",
    "infected": 1962,
    "recovered": 0,
    "sick": 1898,
    "invisible": false
  },
  {
    "infected": 1592,
    "recovered": 1013,
    "latitude": 40.3426,
    "pop": 9898000,
    "longitude": 47.93802,
    "name": "Azerbaijan",
    "country": "AZ",
    "lastUpdated": "2020-04-25T00:51:02.268Z",
    "dead": 21,
    "id": "4zqzRm2xHn0CDVOUQJ8p",
    "sick": 558,
    "invisible": false
  },
  {
    "recovered": 0,
    "latitude": 22.233105,
    "pop": 3672300,
    "longitude": -97.861099,
    "name": "Tamaulipas",
    "country": "MX",
    "lastUpdated": "2020-04-25T00:40:08.652Z",
    "dead": 12,
    "id": "54cfsdsRF76XVHWtZs19",
    "infected": 312,
    "sick": 300,
    "invisible": false
  },
  {
    "latitude": 51.0109,
    "pop": 6596000,
    "longitude": 3.7265,
    "name": "Flanders",
    "country": "BE",
    "lastUpdated": "2020-04-25T00:29:04.917Z",
    "dead": 3220,
    "id": "57ydD48mLRD2YoyteJZj",
    "infected": 24721,
    "recovered": 5688,
    "sick": 15813,
    "invisible": false
  },
  {
    "id": "5MHegCUO9L3LiAU7DDey",
    "infected": 73,
    "recovered": 15,
    "latitude": 25.025885,
    "pop": 395361,
    "longitude": -78.035889,
    "name": "Bahamas",
    "country": "BS",
    "lastUpdated": "2020-04-25T00:51:02.274Z",
    "dead": 11,
    "sick": 47,
    "invisible": false
  },
  {
    "id": "5N16a2OXXRpsEFanw0TC",
    "infected": 2994,
    "recovered": 1379,
    "latitude": -31.253218,
    "pop": 7544000,
    "longitude": 146.921097,
    "name": "New South Wales",
    "country": "AU",
    "lastUpdated": "2020-04-25T00:50:02.121Z",
    "dead": 31,
    "sick": 1584,
    "invisible": false
  },
  {
    "infected": 5,
    "recovered": 0,
    "latitude": 6.8769908,
    "pop": 12580000,
    "longitude": 31.3069782,
    "name": "South Sudan",
    "country": "SS",
    "lastUpdated": "2020-04-25T00:51:02.283Z",
    "dead": 0,
    "id": "5N4PRxsCDzzwk7R200V1",
    "sick": 5,
    "invisible": false
  },
  {
    "latitude": 39.484,
    "pop": 4975000,
    "longitude": -0.7533,
    "name": "C. Valenciana",
    "country": "ES",
    "lastUpdated": "2020-04-25T00:41:04.371Z",
    "dead": 1147,
    "id": "5Va9A7CXR8AXdUz4HTJj",
    "infected": 10906,
    "recovered": 5809,
    "sick": 3950,
    "invisible": false
  },
  {
    "latitude": -20.9043045,
    "pop": 280460,
    "longitude": 165.618042,
    "name": "New Caledonia",
    "country": "NC",
    "lastUpdated": "2020-04-25T00:51:02.278Z",
    "dead": 0,
    "id": "5fg04eyDwFw3kEXnrxez",
    "infected": 18,
    "recovered": 17,
    "sick": 1,
    "invisible": false
  },
  {
    "latitude": 28.394857,
    "pop": 29300000,
    "longitude": 84.124008,
    "name": "Nepal",
    "country": "NP",
    "lastUpdated": "2020-04-25T00:51:02.275Z",
    "dead": 0,
    "id": "5gXZIjRgAvd6xWN1LOv8",
    "infected": 49,
    "recovered": 10,
    "sick": 39,
    "invisible": false
  },
  {
    "infected": 7192,
    "recovered": 762,
    "latitude": 12.879721,
    "pop": 104900000,
    "longitude": 121.774017,
    "name": "Philippines",
    "country": "PH",
    "lastUpdated": "2020-04-25T00:51:02.265Z",
    "dead": 477,
    "id": "5pwmh7aSdGRKqRbnuyc0",
    "sick": 5953,
    "invisible": false
  },
  {
    "pop": 14802190,
    "longitude": 31.053028,
    "name": "Zimbabwe",
    "country": "ZW",
    "lastUpdated": "2020-04-25T00:51:02.277Z",
    "dead": 4,
    "id": "5qtR9nx4BLwu1ODTniaY",
    "infected": 29,
    "recovered": 2,
    "latitude": -17.824858,
    "sick": 23,
    "invisible": false
  },
  {
    "latitude": 36.0672,
    "pop": 356890,
    "longitude": -109.188,
    "name": "Navajo Nation",
    "country": "US",
    "lastUpdated": "2020-04-24T21:56:22.994Z",
    "dead": 45,
    "id": "5vkKgxTaKq1IH0Go357L",
    "invisible": true,
    "infected": 1360,
    "recovered": 0,
    "sick": 1315
  },
  {
    "infected": 3532,
    "recovered": 0,
    "latitude": 19.432241,
    "pop": 8781300,
    "longitude": -99.177254,
    "name": "Ciudad de México",
    "country": "MX",
    "lastUpdated": "2020-04-25T00:40:08.648Z",
    "dead": 251,
    "id": "61E7TGjUwAo9xu6Y6gAH",
    "sick": 3281,
    "invisible": false
  },
  {
    "infected": 1410,
    "recovered": 430,
    "latitude": 55.621011,
    "pop": 2794000,
    "longitude": 23.804991,
    "name": "Lithuania",
    "country": "LT",
    "lastUpdated": "2020-04-25T00:51:02.268Z",
    "dead": 40,
    "id": "694ON7d0mRJDeM1gHBTR",
    "sick": 940,
    "invisible": false
  },
  {
    "pop": 9175000,
    "longitude": -0.5596,
    "name": "South East",
    "country": "GB",
    "lastUpdated": "2020-04-25T00:39:25.193Z",
    "dead": 0,
    "id": "6IQAsvrmBv0HPdeTnh4x",
    "infected": 14974,
    "recovered": 0,
    "latitude": 51.1781,
    "sick": 14974,
    "invisible": false
  },
  {
    "infected": 1036,
    "recovered": 725,
    "latitude": 22.396427,
    "pop": 7392000,
    "longitude": 114.109497,
    "name": "Hong Kong",
    "country": "HK",
    "lastUpdated": "2020-04-25T00:51:02.269Z",
    "dead": 4,
    "id": "6IcHIIH0zXpY0POmBZTv",
    "sick": 307,
    "invisible": false
  },
  {
    "infected": 234,
    "recovered": 0,
    "latitude": -8.65,
    "pop": 869265,
    "longitude": -72.4,
    "name": "Acre",
    "country": "BR",
    "lastUpdated": "2020-04-25T00:46:08.606Z",
    "dead": 11,
    "id": "6LQesrx5bHJsVUi1TXBp",
    "sick": 223,
    "invisible": false
  },
  {
    "infected": 54,
    "recovered": 27,
    "latitude": 9.3077,
    "pop": 11180000,
    "longitude": 2.3158,
    "name": "Benin",
    "country": "BJ",
    "lastUpdated": "2020-04-25T00:51:02.275Z",
    "dead": 1,
    "id": "6SlpghTyB6lpMFvx3g9U",
    "sick": 26,
    "invisible": false
  },
  {
    "infected": 71256,
    "recovered": 23782,
    "latitude": 45.6667,
    "pop": 10040000,
    "longitude": 9.5,
    "name": "Lombardia",
    "country": "IT",
    "lastUpdated": "2020-04-25T00:31:01.377Z",
    "dead": 13106,
    "id": "6ZHcvMIzVWIaRnc4R3Qp",
    "sick": 34368,
    "invisible": false
  },
  {
    "lastUpdated": "2020-04-25T00:51:02.268Z",
    "dead": 80,
    "id": "6ahNiyKDSDAftCctgLH3",
    "infected": 1373,
    "recovered": 211,
    "latitude": 46.0569,
    "pop": 2067000,
    "longitude": 14.5058,
    "name": "Slovenia",
    "country": "SI",
    "sick": 1082,
    "invisible": false
  },
  {
    "lastUpdated": "2020-04-25T00:37:15.052Z",
    "dead": 0,
    "id": "6nyns7UGGgkU7pxrHf8i",
    "infected": 21,
    "recovered": 0,
    "latitude": -27.3667908,
    "pop": 300000,
    "longitude": -70.331398,
    "name": "Atacama",
    "country": "CL",
    "sick": 21,
    "invisible": false
  },
  {
    "latitude": -0.8037,
    "pop": 2025000,
    "longitude": 11.6094,
    "name": "Gabon",
    "country": "GA",
    "lastUpdated": "2020-04-25T00:51:02.272Z",
    "dead": 3,
    "id": "6pBi38TUgYfFm0bry2uh",
    "infected": 172,
    "recovered": 26,
    "sick": 143,
    "invisible": false
  },
  {
    "infected": 81,
    "recovered": 0,
    "latitude": 22.1498,
    "pop": 2831900,
    "longitude": -100.9792,
    "name": "San Luis Potosí",
    "country": "MX",
    "lastUpdated": "2020-04-25T00:40:08.652Z",
    "dead": 8,
    "id": "6vjIVg1gSANFZghV7xtS",
    "sick": 73,
    "invisible": false
  },
  {
    "latitude": 17.901672,
    "pop": 9131,
    "longitude": -62.818544,
    "name": "Saint-Barthélémy",
    "country": "FR",
    "lastUpdated": "2020-04-25T00:51:02.282Z",
    "dead": 0,
    "id": "78Ox26bNHDA2Pk2b3Uwn",
    "infected": 6,
    "recovered": 6,
    "sick": 0,
    "invisible": false
  },
  {
    "latitude": 54.367,
    "pop": 2305000,
    "longitude": 18.633,
    "name": "Pomorskie",
    "country": "PL",
    "lastUpdated": "2020-04-25T00:33:02.072Z",
    "dead": 3,
    "id": "7JDx6UJiwGSJyL1fChaJ",
    "infected": 257,
    "recovered": 0,
    "sick": 254,
    "invisible": false
  },
  {
    "infected": 116,
    "recovered": 61,
    "latitude": 35.2923,
    "pop": 84690,
    "longitude": -2.9381,
    "name": "Melilla",
    "country": "ES",
    "lastUpdated": "2020-04-25T00:41:04.372Z",
    "dead": 2,
    "id": "7UASdZTZ1nPzzBwSTEA9",
    "sick": 53,
    "invisible": false
  },
  {
    "infected": 24,
    "recovered": 10,
    "latitude": 17.0608,
    "pop": 102012,
    "longitude": -61.7964,
    "name": "Antigua and Barbuda",
    "country": "AG",
    "lastUpdated": "2020-04-25T00:51:02.277Z",
    "dead": 3,
    "id": "7hVFcEV7nV0MrQr3LHrl",
    "sick": 11,
    "invisible": false
  },
  {
    "infected": 41216,
    "recovered": 26340,
    "latitude": 48.7904,
    "pop": 13000000,
    "longitude": 11.4979,
    "name": "Bayern",
    "country": "DE",
    "lastUpdated": "2020-04-25T00:30:02.426Z",
    "dead": 1703,
    "id": "7kCrrlOBE3jN6FtOVNUB",
    "sick": 13173,
    "invisible": false
  },
  {
    "latitude": 47.4979,
    "pop": 9773000,
    "longitude": 19.0402,
    "name": "Hungary",
    "country": "HU",
    "lastUpdated": "2020-04-25T00:51:02.267Z",
    "dead": 250,
    "id": "7rYC2iFB50c55Ihgbs4Q",
    "infected": 2383,
    "recovered": 401,
    "sick": 1732,
    "invisible": false
  },
  {
    "lastUpdated": "2020-04-25T00:46:08.116Z",
    "dead": 5,
    "id": "7tqLvLyXcBDK808nJv0m",
    "infected": 94,
    "recovered": 33,
    "latitude": 10.9685,
    "pop": 2400000,
    "longitude": -74.7813,
    "name": "Barranquilla D.E.",
    "country": "CO",
    "sick": 56,
    "invisible": false
  },
  {
    "infected": 1430,
    "recovered": 668,
    "latitude": 7.3697,
    "pop": 24050000,
    "longitude": 12.3547,
    "name": "Cameroon",
    "country": "CM",
    "lastUpdated": "2020-04-25T00:51:02.268Z",
    "dead": 43,
    "id": "8C0d7WVCjyUGtnc2gUAR",
    "sick": 719,
    "invisible": false
  },
  {
    "id": "8DOZWbN6bDdgaLXVlUEu",
    "infected": 4451,
    "recovered": 1645,
    "latitude": 50.8503,
    "pop": 1209000,
    "longitude": 4.3517,
    "name": "Brussels",
    "country": "BE",
    "lastUpdated": "2020-04-25T00:29:04.916Z",
    "dead": 1060,
    "sick": 1746,
    "invisible": false
  },
  {
    "lastUpdated": "2020-04-25T00:51:02.270Z",
    "dead": 43,
    "id": "8RihJrXw4NQXPxaRxr1u",
    "infected": 703,
    "recovered": 44,
    "latitude": -16.2902,
    "pop": 11050000,
    "longitude": -63.5887,
    "name": "Bolivia",
    "country": "BO",
    "sick": 616,
    "invisible": false
  },
  {
    "infected": 14,
    "recovered": 5,
    "latitude": 12.9843,
    "pop": 109897,
    "longitude": -61.2872,
    "name": "St. Vincent Grenadines",
    "country": "VC",
    "lastUpdated": "2020-04-25T00:51:02.279Z",
    "dead": 0,
    "id": "8ZTySQROQejkDAad0qxQ",
    "sick": 9,
    "invisible": false
  },
  {
    "recovered": 956,
    "latitude": 1.352083,
    "pop": 5621000,
    "longitude": 103.819839,
    "name": "Singapore",
    "country": "SG",
    "lastUpdated": "2020-04-25T00:51:02.263Z",
    "dead": 12,
    "id": "8pA3fM4xC2c2wv1b4TnE",
    "infected": 12075,
    "sick": 11107,
    "invisible": false
  },
  {
    "longitude": -1.5536,
    "name": "Pays de la Loire",
    "country": "FR",
    "lastUpdated": "2020-04-24T18:39:40.442Z",
    "dead": 303,
    "id": "98hwAoohgWEOQVa3NlM5",
    "infected": 3001,
    "recovered": 1090,
    "latitude": 47.2184,
    "pop": 3787000,
    "sick": 1608,
    "invisible": false
  },
  {
    "id": "9DAvxOObTqIvMOU93nlY",
    "infected": 78,
    "recovered": 0,
    "latitude": 19.30754,
    "pop": 952300,
    "longitude": -90.19885,
    "name": "Campeche",
    "country": "MX",
    "lastUpdated": "2020-04-25T00:40:08.652Z",
    "dead": 8,
    "sick": 70,
    "invisible": false
  },
  {
    "infected": 174,
    "recovered": 14,
    "latitude": 12.8628,
    "pop": 40530000,
    "longitude": 30.2176,
    "name": "Sudan",
    "country": "SD",
    "lastUpdated": "2020-04-25T00:51:02.272Z",
    "dead": 16,
    "id": "9DPOkpIqrFy9mR4e9fuv",
    "sick": 144,
    "invisible": false
  },
  {
    "latitude": 45.943161,
    "pop": 19530000,
    "longitude": 24.966761,
    "name": "Romania",
    "country": "RO",
    "lastUpdated": "2020-04-25T00:51:02.264Z",
    "dead": 567,
    "id": "9QcETqEcM2fTv9zRvx5T",
    "infected": 10417,
    "recovered": 2817,
    "sick": 7033,
    "invisible": false
  },
  {
    "latitude": 12.136389,
    "pop": 6218000,
    "longitude": -86.251389,
    "name": "Nicaragua",
    "country": "NI",
    "lastUpdated": "2020-04-25T00:51:02.281Z",
    "dead": 3,
    "id": "9Y5wmCqNCC6ZrenM31uA",
    "infected": 11,
    "recovered": 7,
    "sick": 1,
    "invisible": false
  },
  {
    "infected": 325,
    "recovered": 87,
    "latitude": 17.5706921,
    "pop": 18540000,
    "longitude": -3.996166,
    "name": "Mali",
    "country": "ML",
    "lastUpdated": "2020-04-25T00:51:02.271Z",
    "dead": 21,
    "id": "9dIzxqDSVqPyINkHqwGv",
    "sick": 217,
    "invisible": false
  },
  {
    "latitude": 61.92411,
    "pop": 5513000,
    "longitude": 25.748152,
    "name": "Finland",
    "country": "FI",
    "lastUpdated": "2020-04-25T00:51:02.266Z",
    "dead": 177,
    "id": "9p6OCdZbUUwBLA60Gk3W",
    "infected": 4395,
    "recovered": 2500,
    "sick": 1718,
    "invisible": false
  },
  {
    "infected": 1731,
    "recovered": 0,
    "latitude": 43.311643,
    "pop": 1356000,
    "longitude": -71.590315,
    "name": "New Hampshire",
    "country": "US",
    "lastUpdated": "2020-04-24T21:56:22.994Z",
    "dead": 51,
    "id": "A84CwQ52kA46Hr7pn6Bm",
    "sick": 1680,
    "invisible": false
  },
  {
    "infected": 6699,
    "recovered": 0,
    "latitude": 41.823261,
    "pop": 1057000,
    "longitude": -71.412257,
    "name": "Rhode Island",
    "country": "US",
    "lastUpdated": "2020-04-24T21:56:22.992Z",
    "dead": 202,
    "id": "AEUWUHS65qvjEslew11c",
    "sick": 6497,
    "invisible": false
  },
  {
    "longitude": 11.327591,
    "name": "Emilia-Romagna",
    "country": "IT",
    "lastUpdated": "2020-04-25T00:31:01.376Z",
    "dead": 3303,
    "id": "AJ9jQ0iyKsafsmf5yHAR",
    "infected": 23970,
    "recovered": 8158,
    "latitude": 44.498955,
    "pop": 4453000,
    "sick": 12509,
    "invisible": false
  },
  {
    "lastUpdated": "2020-04-24T20:00:14.071Z",
    "dead": 120,
    "id": "AKjFRQGnzuuZQhv5Qwx7",
    "infected": 2477,
    "recovered": 1362,
    "latitude": 49.3964,
    "pop": 990509,
    "longitude": 7.023,
    "name": "Saarland",
    "country": "DE",
    "sick": 995,
    "invisible": false
  },
  {
    "latitude": -35.717,
    "pop": 1125002,
    "longitude": -71.167,
    "name": "Maule",
    "country": "CL",
    "lastUpdated": "2020-04-25T00:37:15.055Z",
    "dead": 10,
    "id": "APTPgjAsjFi0nsGyJV7M",
    "infected": 349,
    "recovered": 0,
    "sick": 339,
    "invisible": false
  },
  {
    "infected": 11,
    "recovered": 11,
    "latitude": 71.7069,
    "pop": 56171,
    "longitude": -42.6043,
    "name": "Greenland",
    "country": "GL",
    "lastUpdated": "2020-04-25T00:51:02.282Z",
    "dead": 0,
    "id": "APaZzlGCEeuoLBtzTJMe",
    "sick": 0,
    "invisible": false
  },
  {
    "pop": 971395,
    "longitude": -63.582687,
    "name": "Nova Scotia",
    "country": "CA",
    "lastUpdated": "2020-04-25T00:36:08.784Z",
    "dead": 16,
    "id": "AVCpxeh0fuH2WrHWNDYH",
    "infected": 850,
    "recovered": 0,
    "latitude": 45.65107,
    "sick": 834,
    "invisible": false
  },
  {
    "infected": 444,
    "recovered": 0,
    "latitude": 47.012918,
    "pop": 1062000,
    "longitude": -109.128641,
    "name": "Montana",
    "country": "US",
    "lastUpdated": "2020-04-24T21:56:22.995Z",
    "dead": 14,
    "id": "AcULcZBozObOhwuRKMjJ",
    "sick": 430,
    "invisible": false
  },
  {
    "id": "AmBYm5J6E9Cuez1FQjiN",
    "infected": 937,
    "recovered": 936,
    "latitude": 27.285971,
    "pop": 45200000,
    "longitude": 116.01609,
    "name": "Jiangxi",
    "country": "CN",
    "lastUpdated": "2020-04-25T00:53:10.234Z",
    "dead": 1,
    "sick": 0,
    "invisible": false
  },
  {
    "lastUpdated": "2020-04-25T00:39:25.192Z",
    "dead": 751,
    "id": "AoLhHdTydeWTfmp9koEX",
    "infected": 8601,
    "recovered": 0,
    "latitude": 52.1307,
    "pop": 3136000,
    "longitude": -3.7837,
    "name": "Wales",
    "country": "GB",
    "sick": 7850,
    "invisible": false
  },
  {
    "infected": 3127,
    "recovered": 1408,
    "latitude": 28.033886,
    "pop": 41320000,
    "longitude": 1.659626,
    "name": "Algeria",
    "country": "DZ",
    "lastUpdated": "2020-04-25T00:51:02.267Z",
    "dead": 415,
    "id": "AwN0CScPDApcLFgz6e3z",
    "sick": 1304,
    "invisible": false
  },
  {
    "id": "B82Ef45M8cDu4q7VsSHF",
    "infected": 2009,
    "recovered": 982,
    "latitude": 45.099998,
    "pop": 4076000,
    "longitude": 15.2,
    "name": "Croatia",
    "country": "HR",
    "lastUpdated": "2020-04-25T00:51:02.267Z",
    "dead": 51,
    "sick": 976,
    "invisible": false
  },
  {
    "id": "BENubqQInFUJzhpZTsLT",
    "infected": 681,
    "recovered": 289,
    "latitude": 17.6077881,
    "pop": 23716000,
    "longitude": 8.081666,
    "name": "Niger",
    "country": "NE",
    "lastUpdated": "2020-04-25T00:51:02.270Z",
    "dead": 24,
    "sick": 368,
    "invisible": false
  },
  {
    "id": "BF51mWl51fgEcyBpCSzb",
    "infected": 16616,
    "recovered": 0,
    "latitude": 39.509109,
    "pop": 6043000,
    "longitude": -76.98432,
    "name": "Maryland",
    "country": "US",
    "lastUpdated": "2020-04-24T21:56:22.991Z",
    "dead": 798,
    "sick": 15818,
    "invisible": false
  },
  {
    "latitude": 53.709808,
    "pop": 9508000,
    "longitude": 27.953388,
    "name": "Belarus",
    "country": "BY",
    "lastUpdated": "2020-04-25T00:51:02.264Z",
    "dead": 63,
    "id": "BGg6yVU5VP71B8NXU0oh",
    "infected": 8773,
    "recovered": 1120,
    "sick": 7590,
    "invisible": false
  },
  {
    "infected": 2680,
    "recovered": 965,
    "latitude": 48.8799,
    "pop": 3319000,
    "longitude": 0.1713,
    "name": "Normandie",
    "country": "FR",
    "lastUpdated": "2020-04-24T18:39:22.190Z",
    "dead": 312,
    "id": "BGtoyzb7y54LVlJ91rbf",
    "sick": 1403,
    "invisible": false
  },
  {
    "longitude": -3.9995,
    "name": "South West",
    "country": "GB",
    "lastUpdated": "2020-04-25T00:39:25.194Z",
    "dead": 0,
    "id": "BQqMOlPFD36ZEDTGd3WC",
    "infected": 5528,
    "recovered": 0,
    "latitude": 50.7772,
    "pop": 5616000,
    "sick": 5528,
    "invisible": false
  },
  {
    "lastUpdated": "2020-04-24T21:56:22.992Z",
    "dead": 266,
    "id": "BTEESCuD2ZbS1afunR2A",
    "infected": 6045,
    "recovered": 0,
    "latitude": 34.048927,
    "pop": 7172000,
    "longitude": -111.093735,
    "name": "Arizona",
    "country": "US",
    "sick": 5779,
    "invisible": false
  },
  {
    "pop": 1676000,
    "longitude": 14.552812,
    "name": "Zachodniopomorskie",
    "country": "PL",
    "lastUpdated": "2020-04-25T00:33:02.070Z",
    "dead": 6,
    "id": "BZwZOAlDJ8AIiaRVLyC9",
    "infected": 336,
    "recovered": 0,
    "latitude": 53.428543,
    "sick": 330,
    "invisible": false
  },
  {
    "lastUpdated": "2020-04-25T00:37:15.056Z",
    "dead": 0,
    "id": "BbiuZcm8oURX7cZwaa5U",
    "invisible": true,
    "infected": 0,
    "recovered": 6327,
    "latitude": -33.4489,
    "longitude": -70.6693,
    "name": "Unknown Chile region",
    "country": "CL",
    "sick": 0
  },
  {
    "latitude": -13.2543,
    "pop": 18620000,
    "longitude": 34.3015,
    "name": "Malawi",
    "country": "MW",
    "lastUpdated": "2020-04-25T00:51:02.277Z",
    "dead": 3,
    "id": "BfT8o5DaEixC6JIZ28kY",
    "infected": 33,
    "recovered": 4,
    "sick": 26,
    "invisible": false
  },
  {
    "infected": 11,
    "recovered": 4,
    "latitude": -3.3730559,
    "pop": 10860000,
    "longitude": 29.9188862,
    "name": "Burundi",
    "country": "BI",
    "lastUpdated": "2020-04-25T00:51:02.281Z",
    "dead": 1,
    "id": "BnpMamidC5yYzeK8tPUL",
    "sick": 6,
    "invisible": false
  },
  {
    "recovered": 0,
    "latitude": 52.257,
    "pop": 5385000,
    "longitude": 21.002,
    "name": "Mazowieckie",
    "country": "PL",
    "lastUpdated": "2020-04-25T00:33:02.064Z",
    "dead": 160,
    "id": "BrToMzyq8y2xdwXn75kM",
    "infected": 2206,
    "sick": 2046,
    "invisible": false
  },
  {
    "lastUpdated": "2020-04-25T00:46:08.118Z",
    "dead": 1,
    "id": "C25xSDm4iYibX5RYML14",
    "infected": 14,
    "recovered": 0,
    "latitude": -1.333845,
    "pop": 74751,
    "longitude": -71.347573,
    "name": "Amazonas (Colombia)",
    "country": "CO",
    "sick": 13,
    "invisible": false
  },
  {
    "infected": 277165,
    "recovered": 0,
    "latitude": 40.719042,
    "pop": 19540000,
    "longitude": -73.982597,
    "name": "New York",
    "country": "US",
    "lastUpdated": "2020-04-24T21:56:22.983Z",
    "dead": 21368,
    "id": "C3BCUzV80z9GfiuByIcr",
    "sick": 255797,
    "invisible": false
  },
  {
    "id": "C6S76AggdWVU8G22jFHQ",
    "infected": 7273,
    "recovered": 2371,
    "latitude": 49.731626,
    "pop": 10650000,
    "longitude": 15.359413,
    "name": "Czechia",
    "country": "CZ",
    "lastUpdated": "2020-04-25T00:51:02.265Z",
    "dead": 214,
    "sick": 4688,
    "invisible": false
  },
  {
    "recovered": 1113,
    "latitude": 26.0667,
    "pop": 1493000,
    "longitude": 50.557701,
    "name": "Bahrain",
    "country": "BH",
    "lastUpdated": "2020-04-25T00:51:02.267Z",
    "dead": 8,
    "id": "C7cj4nwRITs13KnaJrQ2",
    "infected": 2518,
    "sick": 1397,
    "invisible": false
  },
  {
    "recovered": 1,
    "latitude": 10.4113,
    "pop": 1285400,
    "longitude": -74.4057,
    "name": "Magdalena",
    "country": "CO",
    "lastUpdated": "2020-04-25T00:46:08.117Z",
    "dead": 2,
    "id": "CA9LaAl3bNaeAqBuozn4",
    "infected": 26,
    "sick": 23,
    "invisible": false
  },
  {
    "latitude": 26.909979,
    "pop": 3073500,
    "longitude": -101.430756,
    "name": "Coahuila",
    "country": "MX",
    "lastUpdated": "2020-04-25T00:40:08.651Z",
    "dead": 33,
    "id": "CCUFp4urvgXPo5unfMGy",
    "infected": 343,
    "recovered": 0,
    "sick": 310,
    "invisible": false
  },
  {
    "lastUpdated": "2020-04-25T00:41:06.958Z",
    "dead": 32,
    "id": "CKZCZTPlrcq5fbfUPA9k",
    "infected": 2034,
    "recovered": 493,
    "latitude": 27.0238,
    "pop": 68890000,
    "longitude": 74.2179,
    "name": "Rajasthan",
    "country": "IN",
    "sick": 1509,
    "invisible": false
  },
  {
    "infected": 261,
    "recovered": 72,
    "latitude": 13.803,
    "pop": 6378000,
    "longitude": -88.9053,
    "name": "El Salvador",
    "country": "SV",
    "lastUpdated": "2020-04-25T00:51:02.272Z",
    "dead": 8,
    "id": "Cgvmtle61ehMvCzRzYx7",
    "sick": 181,
    "invisible": false
  },
  {
    "lastUpdated": "2020-04-25T00:51:02.268Z",
    "dead": 27,
    "id": "DCJCtZoBTWQ4mzdDNljD",
    "infected": 1596,
    "recovered": 728,
    "latitude": 40.259003,
    "pop": 2973000,
    "longitude": 44.818474,
    "name": "Armenia",
    "country": "AM",
    "sick": 841,
    "invisible": false
  },
  {
    "pop": 1278000,
    "longitude": -73.368,
    "name": "Boyacá",
    "country": "CO",
    "lastUpdated": "2020-04-25T00:46:08.117Z",
    "dead": 1,
    "id": "DJJraANgQbEqz1wBBtZz",
    "infected": 33,
    "recovered": 7,
    "latitude": 5.535,
    "sick": 25,
    "invisible": false
  },
  {
    "infected": 16252,
    "recovered": 0,
    "latitude": 53.6221,
    "pop": 7300000,
    "longitude": -2.5945,
    "name": "North West",
    "country": "GB",
    "lastUpdated": "2020-04-25T00:39:25.193Z",
    "dead": 0,
    "id": "DPwBt2aJuwF0O71vwfM9",
    "sick": 16252,
    "invisible": false
  },
  {
    "infected": 99,
    "recovered": 39,
    "latitude": 32.3213844,
    "pop": 65440,
    "longitude": -64.75737,
    "name": "Bermuda",
    "country": "BM",
    "lastUpdated": "2020-04-25T00:51:02.274Z",
    "dead": 5,
    "id": "DZyTD0Mu5WIcK6yTcJ91",
    "sick": 55,
    "invisible": false
  },
  {
    "infected": 11,
    "recovered": 4,
    "latitude": 21.694,
    "pop": 35446,
    "longitude": -71.7979,
    "name": "Turks and Caicos",
    "country": "TC",
    "lastUpdated": "2020-04-25T00:51:02.281Z",
    "dead": 1,
    "id": "DaMrRSIGJXIG36nW0Pnc",
    "sick": 6,
    "invisible": false
  },
  {
    "infected": 18053,
    "recovered": 4782,
    "latitude": 39.2796,
    "pop": 2035000,
    "longitude": -3.0977,
    "name": "Castilla La Mancha",
    "country": "ES",
    "lastUpdated": "2020-04-25T00:41:04.371Z",
    "dead": 2255,
    "id": "Dbng0NBTH41EEwBxhMzE",
    "sick": 11016,
    "invisible": false
  },
  {
    "recovered": 0,
    "latitude": 50.023,
    "pop": 3361000,
    "longitude": 20.006,
    "name": "Malopolskie",
    "country": "PL",
    "lastUpdated": "2020-04-25T00:33:02.067Z",
    "dead": 25,
    "id": "DcQ3D0WkacXEbv6iznRB",
    "infected": 788,
    "sick": 763,
    "invisible": false
  },
  {
    "latitude": 22.192039,
    "pop": 622567,
    "longitude": 113.551262,
    "name": "Macao",
    "country": "MO",
    "lastUpdated": "2020-04-25T00:51:02.275Z",
    "dead": 0,
    "id": "DdBt8qsG6A3g92oOR3ow",
    "infected": 45,
    "recovered": 27,
    "sick": 18,
    "invisible": false
  },
  {
    "id": "Dh0O1vmhrVfmsCsfZCUg",
    "infected": 12,
    "recovered": 0,
    "latitude": 25.467,
    "pop": 2651000,
    "longitude": 91.3662,
    "name": "Meghalaya",
    "country": "IN",
    "lastUpdated": "2020-04-25T00:41:06.962Z",
    "dead": 1,
    "sick": 11,
    "invisible": false
  },
  {
    "lastUpdated": "2020-04-24T21:56:22.995Z",
    "dead": 7,
    "id": "DrGzziUglmBognCGY7R2",
    "infected": 473,
    "recovered": 0,
    "latitude": 42.962334,
    "pop": 577737,
    "longitude": -107.534868,
    "name": "Wyoming",
    "country": "US",
    "sick": 466,
    "invisible": false
  },
  {
    "latitude": 37.9838,
    "pop": 10740000,
    "longitude": 23.7275,
    "name": "Greece",
    "country": "GR",
    "lastUpdated": "2020-04-25T00:51:02.267Z",
    "dead": 130,
    "id": "Dtr1lap1RpJpXJdXGJiW",
    "infected": 2490,
    "recovered": 577,
    "sick": 1783,
    "invisible": false
  },
  {
    "latitude": 25.03841,
    "pop": 23780000,
    "longitude": 121.563698,
    "name": "Taiwan",
    "country": "TW",
    "lastUpdated": "2020-04-25T00:51:02.271Z",
    "dead": 6,
    "id": "EKTfs8e7M6DXzI1HqyyX",
    "infected": 428,
    "recovered": 264,
    "sick": 158,
    "invisible": false
  },
  {
    "infected": 687,
    "recovered": 216,
    "latitude": 10.327273,
    "pop": 4906000,
    "longitude": -84.387618,
    "name": "Costa Rica",
    "country": "CR",
    "lastUpdated": "2020-04-25T00:51:02.270Z",
    "dead": 6,
    "id": "EQzJvzVHKjs8kLmK7BMu",
    "sick": 465,
    "invisible": false
  },
  {
    "latitude": 22.2587,
    "pop": 62700000,
    "longitude": 71.1924,
    "name": "Gujarat",
    "country": "IN",
    "lastUpdated": "2020-04-25T00:41:06.958Z",
    "dead": 127,
    "id": "ERwk9R9en4m9WbdoMbIg",
    "infected": 2815,
    "recovered": 265,
    "sick": 2423,
    "invisible": false
  },
  {
    "id": "Esl5UlCVB9s8pmGB5Ofr",
    "infected": 27,
    "recovered": 15,
    "latitude": 30.7333,
    "pop": 1055000,
    "longitude": 76.7794,
    "name": "Chandigarh",
    "country": "IN",
    "lastUpdated": "2020-04-25T00:41:06.961Z",
    "dead": 0,
    "sick": 12,
    "invisible": false
  },
  {
    "infected": 342,
    "recovered": 0,
    "latitude": 51.24,
    "pop": 2148000,
    "longitude": 22.653,
    "name": "Lubelskie",
    "country": "PL",
    "lastUpdated": "2020-04-25T00:33:02.069Z",
    "dead": 10,
    "id": "Esy1La2CxwH5uB8bGVWZ",
    "sick": 332,
    "invisible": false
  },
  {
    "lastUpdated": "2020-04-24T18:12:25.746Z",
    "dead": 77,
    "id": "F4rPrEVGAIMM5rfPEMv4",
    "infected": 1416,
    "recovered": 0,
    "latitude": 18.200178,
    "pop": 3195000,
    "longitude": -66.664513,
    "name": "Puerto Rico",
    "country": "PR",
    "sick": 1339,
    "invisible": false
  },
  {
    "infected": 187,
    "recovered": 51,
    "latitude": 4.862437,
    "pop": 2919000,
    "longitude": -74.058655,
    "name": "Cundinamarca",
    "country": "CO",
    "lastUpdated": "2020-04-25T00:46:08.116Z",
    "dead": 9,
    "id": "F7MED5VwEhi3JvJu6KjB",
    "sick": 127,
    "invisible": false
  },
  {
    "id": "FCDmlmnIIswd8bQiUjfN",
    "infected": 1351,
    "recovered": 188,
    "latitude": 33.93911,
    "pop": 35530000,
    "longitude": 67.709953,
    "name": "Afghanistan",
    "country": "AF",
    "lastUpdated": "2020-04-25T00:51:02.268Z",
    "dead": 43,
    "sick": 1120,
    "invisible": false
  },
  {
    "latitude": 29.431585,
    "pop": 30480000,
    "longitude": 106.912254,
    "name": "Chongqing",
    "country": "CN",
    "lastUpdated": "2020-04-25T00:53:10.234Z",
    "dead": 6,
    "id": "FErOU1m4Tj7jIkRam3vF",
    "infected": 579,
    "recovered": 573,
    "sick": 0,
    "invisible": false
  },
  {
    "longitude": 47.481766,
    "name": "Kuwait",
    "country": "KW",
    "lastUpdated": "2020-04-25T00:51:02.267Z",
    "dead": 15,
    "id": "FZsUkhxBEgqsPb4eO0PN",
    "infected": 2614,
    "recovered": 613,
    "latitude": 29.311661,
    "pop": 4137000,
    "sick": 1986,
    "invisible": false
  },
  {
    "infected": 144,
    "recovered": 0,
    "latitude": -10.9111,
    "pop": 2278308,
    "longitude": -37.0717,
    "name": "Sergipe",
    "country": "BR",
    "lastUpdated": "2020-04-25T00:46:08.614Z",
    "dead": 8,
    "id": "FboWeolpM62SZCLwdilT",
    "sick": 136,
    "invisible": false
  },
  {
    "id": "FeS45oMNC27pI17F0xEV",
    "infected": 1755,
    "recovered": 866,
    "latitude": 11.1271,
    "pop": 67860000,
    "longitude": 78.6569,
    "name": "Tamil Nadu",
    "country": "IN",
    "lastUpdated": "2020-04-25T00:41:06.958Z",
    "dead": 22,
    "sick": 867,
    "invisible": false
  },
  {
    "infected": 5749,
    "recovered": 763,
    "latitude": 18.947829,
    "pop": 10770000,
    "longitude": -70.430399,
    "name": "Dominican Republic",
    "country": "DO",
    "lastUpdated": "2020-04-25T00:51:02.265Z",
    "dead": 267,
    "id": "FuiVEJvWb0QMCpxJ3563",
    "sick": 4719,
    "invisible": false
  },
  {
    "latitude": 18.1124,
    "pop": 35190000,
    "longitude": 79.0193,
    "name": "Telengana",
    "country": "IN",
    "lastUpdated": "2020-04-25T00:41:06.960Z",
    "dead": 25,
    "id": "FyC551oNwmENxbr9Yght",
    "infected": 983,
    "recovered": 291,
    "sick": 667,
    "invisible": false
  },
  {
    "pop": 5450000,
    "longitude": 19.699,
    "name": "Slovakia",
    "country": "SK",
    "lastUpdated": "2020-04-25T00:51:02.268Z",
    "dead": 17,
    "id": "FzIDXoqWnTI3nUfhPyT2",
    "infected": 1360,
    "recovered": 355,
    "latitude": 48.669,
    "sick": 988,
    "invisible": false
  },
  {
    "infected": 11940,
    "recovered": 2755,
    "latitude": 30.37532,
    "pop": 197000000,
    "longitude": 69.345116,
    "name": "Pakistan",
    "country": "PK",
    "lastUpdated": "2020-04-25T00:51:02.264Z",
    "dead": 253,
    "id": "GAp7Wb6IMhdgbvEtMza9",
    "sick": 8932,
    "invisible": false
  },
  {
    "longitude": 75.3412,
    "name": "Punjab",
    "country": "IN",
    "lastUpdated": "2020-04-25T00:41:06.961Z",
    "dead": 17,
    "id": "GGru8cG08mANO8XDDUtZ",
    "infected": 298,
    "recovered": 70,
    "latitude": 31.1471,
    "pop": 27980000,
    "sick": 211,
    "invisible": false
  },
  {
    "lastUpdated": "2020-04-25T00:51:02.264Z",
    "dead": 64,
    "id": "GHzBIsHy2GiBc5JV2HMs",
    "infected": 9281,
    "recovered": 1760,
    "latitude": 23.424076,
    "pop": 9400000,
    "longitude": 53.847816,
    "name": "United Arab Emirates",
    "country": "AE",
    "sick": 7457,
    "invisible": false
  },
  {
    "lastUpdated": "2020-04-24T21:56:22.995Z",
    "dead": 3,
    "id": "GLViSIjDjwvptOphedAu",
    "invisible": true,
    "infected": 103,
    "recovered": 0,
    "latitude": 37.0902,
    "longitude": -95.7129,
    "name": "Grand Princess",
    "country": "US",
    "sick": 100
  },
  {
    "lastUpdated": "2020-04-25T00:39:25.193Z",
    "dead": 0,
    "id": "GPtoS0Yy2EnNafpmmTqY",
    "infected": 23063,
    "recovered": 0,
    "latitude": 51.5074,
    "pop": 10100000,
    "longitude": -0.1278,
    "name": "London",
    "country": "GB",
    "sick": 23063,
    "invisible": false
  },
  {
    "pop": 39560000,
    "longitude": -119.339046,
    "name": "California",
    "country": "US",
    "lastUpdated": "2020-04-24T21:56:22.990Z",
    "dead": 1597,
    "id": "Gh46r6vuaY7fbGt3IboN",
    "infected": 40829,
    "recovered": 0,
    "latitude": 36.621981,
    "sick": 39232,
    "invisible": false
  },
  {
    "lastUpdated": "2020-04-24T21:56:22.993Z",
    "dead": 188,
    "id": "GpF8ULuKOQiFDCUHN44h",
    "infected": 3121,
    "recovered": 0,
    "latitude": 35.87189,
    "pop": 3943000,
    "longitude": -97.145514,
    "name": "Oklahoma",
    "country": "US",
    "sick": 2933,
    "invisible": false
  },
  {
    "infected": 2456,
    "recovered": 1100,
    "latitude": 46.5,
    "pop": 520891,
    "longitude": 11.35,
    "name": "P.A. Bolzano",
    "country": "IT",
    "lastUpdated": "2020-04-25T00:31:01.376Z",
    "dead": 263,
    "id": "Gzx6GX1qhBm714BkEC6l",
    "sick": 1093,
    "invisible": false
  },
  {
    "lastUpdated": "2020-04-25T00:53:10.230Z",
    "dead": 1,
    "id": "H3JeVigVbo5CSYfZG4WI",
    "infected": 194,
    "recovered": 108,
    "latitude": 42.83263,
    "pop": 24710000,
    "longitude": 113.750972,
    "name": "Inner Mongolia",
    "country": "CN",
    "sick": 85,
    "invisible": false
  },
  {
    "longitude": -116.724977,
    "name": "Nevada",
    "country": "US",
    "lastUpdated": "2020-04-24T21:56:22.993Z",
    "dead": 197,
    "id": "H3bDg4eV30up4WWrIDAS",
    "infected": 4398,
    "recovered": 0,
    "latitude": 39.74536,
    "pop": 3034000,
    "sick": 4201,
    "invisible": false
  },
  {
    "infected": 4800,
    "recovered": 0,
    "latitude": -3.731862,
    "pop": 9075649,
    "longitude": -38.526669,
    "name": "Ceará",
    "country": "BR",
    "lastUpdated": "2020-04-25T00:46:08.612Z",
    "dead": 284,
    "id": "HEMWNnFxeFEoeOCBOLJD",
    "sick": 4516,
    "invisible": false
  },
  {
    "lastUpdated": "2020-04-25T00:41:06.960Z",
    "dead": 18,
    "id": "HN5mGmxlqlSeFSNeu1K5",
    "infected": 474,
    "recovered": 152,
    "latitude": 15.3173,
    "pop": 64060000,
    "longitude": 75.7139,
    "name": "Karnataka",
    "country": "IN",
    "sick": 304,
    "invisible": false
  },
  {
    "latitude": 27.5142,
    "pop": 807610,
    "longitude": 90.4336,
    "name": "Bhutan",
    "country": "BT",
    "lastUpdated": "2020-04-25T00:51:02.282Z",
    "dead": 0,
    "id": "HRDpwyxpqW9RN0xLFyNu",
    "infected": 7,
    "recovered": 3,
    "sick": 4,
    "invisible": false
  },
  {
    "infected": 1804,
    "recovered": 621,
    "latitude": 41.3775,
    "pop": 32390000,
    "longitude": 64.5853,
    "name": "Uzbekistan",
    "country": "UZ",
    "lastUpdated": "2020-04-25T00:51:02.267Z",
    "dead": 8,
    "id": "HRTA10dtrruDEwjJEGMp",
    "sick": 1175,
    "invisible": false
  },
  {
    "id": "HSSFomRju0doHhWgW8On",
    "infected": 2379,
    "recovered": 0,
    "latitude": 34.138916,
    "pop": 2095000,
    "longitude": -105.576255,
    "name": "New Mexico",
    "country": "US",
    "lastUpdated": "2020-04-24T21:56:22.993Z",
    "dead": 78,
    "sick": 2301,
    "invisible": false
  },
  {
    "infected": 174,
    "recovered": 0,
    "latitude": -40.231,
    "pop": 412812,
    "longitude": -72.3311,
    "name": "Los Ríos",
    "country": "CL",
    "lastUpdated": "2020-04-25T00:37:15.055Z",
    "dead": 3,
    "id": "HZkACHjW7NlYjg8vEMj2",
    "sick": 171,
    "invisible": false
  },
  {
    "infected": 667,
    "recovered": 529,
    "latitude": 53.6127,
    "pop": 1635000,
    "longitude": 12.4296,
    "name": "Mecklenburg-Vorpommern",
    "country": "DE",
    "lastUpdated": "2020-04-25T00:30:02.427Z",
    "dead": 17,
    "id": "He1gSS1v50t06i3YrqvB",
    "sick": 121,
    "invisible": false
  },
  {
    "infected": 2803,
    "recovered": 438,
    "latitude": 42.25,
    "pop": 1315000,
    "longitude": 13.75,
    "name": "Abruzzo",
    "country": "IT",
    "lastUpdated": "2020-04-25T00:31:01.375Z",
    "dead": 286,
    "id": "I9EqrZfbPnkioNU4wZGz",
    "sick": 2079,
    "invisible": false
  },
  {
    "latitude": 23.363855,
    "pop": 113460000,
    "longitude": 113.373448,
    "name": "Guangdong",
    "country": "CN",
    "lastUpdated": "2020-04-25T00:53:10.233Z",
    "dead": 8,
    "id": "IAX0OQLVnUwU7FX0ENF1",
    "infected": 1585,
    "recovered": 1534,
    "sick": 43,
    "invisible": false
  },
  {
    "lastUpdated": "2020-04-25T00:53:10.234Z",
    "dead": 22,
    "id": "IFuMrMvSjoiX5agYvllh",
    "infected": 1276,
    "recovered": 1254,
    "latitude": 33.875408,
    "pop": 94000000,
    "longitude": 113.484016,
    "name": "Henan",
    "country": "CN",
    "sick": 0,
    "invisible": false
  },
  {
    "infected": 320,
    "recovered": 0,
    "latitude": 37.2,
    "pop": 451000,
    "longitude": -8.16667,
    "name": "Algarve",
    "country": "PT",
    "lastUpdated": "2020-04-25T00:34:01.759Z",
    "dead": 11,
    "id": "IHqRHC8K3OZPN8gniM7V",
    "sick": 309,
    "invisible": false
  },
  {
    "lastUpdated": "2020-04-25T00:46:08.118Z",
    "dead": 1,
    "id": "IKWjRUo0SYgHQKdWjTvq",
    "infected": 19,
    "recovered": 0,
    "latitude": 3.883,
    "pop": 333194,
    "longitude": -77.0197,
    "name": "Buenaventura D.E.",
    "country": "CO",
    "sick": 18,
    "invisible": false
  },
  {
    "latitude": 52.87,
    "pop": 4811000,
    "longitude": -0.995,
    "name": "East Midlands",
    "country": "GB",
    "lastUpdated": "2020-04-25T00:39:25.193Z",
    "dead": 0,
    "id": "INyu1R48Ppv8cfW4Nuz4",
    "infected": 5941,
    "recovered": 0,
    "sick": 5941,
    "invisible": false
  },
  {
    "lastUpdated": "2020-04-25T00:40:08.653Z",
    "dead": 5,
    "id": "ISRKMzEDojyrZ9iyWwex",
    "infected": 151,
    "recovered": 0,
    "latitude": 22.017,
    "pop": 1342600,
    "longitude": -102.317,
    "name": "Aguascalientes",
    "country": "MX",
    "sick": 146,
    "invisible": false
  },
  {
    "infected": 536,
    "recovered": 0,
    "latitude": 25.686613,
    "pop": 5321300,
    "longitude": -100.316116,
    "name": "Nuevo León",
    "country": "MX",
    "lastUpdated": "2020-04-25T00:40:08.653Z",
    "dead": 10,
    "id": "IdKbgzgKLpjBFh4UPOwu",
    "sick": 526,
    "invisible": false
  },
  {
    "latitude": 28.632996,
    "pop": 3826900,
    "longitude": -106.069099,
    "name": "Chihuahua",
    "country": "MX",
    "lastUpdated": "2020-04-25T00:40:08.647Z",
    "dead": 49,
    "id": "IhhiYI6T0TX4CYVPcnmH",
    "infected": 271,
    "recovered": 0,
    "sick": 222,
    "invisible": false
  },
  {
    "infected": 715,
    "recovered": 0,
    "latitude": -36.7,
    "pop": 480600,
    "longitude": -72.57,
    "name": "Ñuble",
    "country": "CL",
    "lastUpdated": "2020-04-25T00:37:15.055Z",
    "dead": 14,
    "id": "ImnOiVx9Cb8Nw7cbRcQ7",
    "sick": 701,
    "invisible": false
  },
  {
    "infected": 72,
    "recovered": 2,
    "latitude": 19.0558,
    "pop": 10980000,
    "longitude": -73.0513,
    "name": "Haiti",
    "country": "HT",
    "lastUpdated": "2020-04-25T00:51:02.274Z",
    "dead": 5,
    "id": "InZ38sIqyK7FN7XAOZoX",
    "sick": 65,
    "invisible": false
  },
  {
    "lastUpdated": "2020-04-24T21:56:22.991Z",
    "dead": 892,
    "id": "IvQkDJkTAsoIqPRAU25n",
    "infected": 22147,
    "recovered": 0,
    "latitude": 32.528564,
    "pop": 10520000,
    "longitude": -83.280125,
    "name": "Georgia (US)",
    "country": "US",
    "sick": 21255,
    "invisible": false
  },
  {
    "latitude": -42.8285,
    "pop": 4794000,
    "longitude": 172.488081,
    "name": "New Zealand",
    "country": "NZ",
    "lastUpdated": "2020-04-25T00:51:02.268Z",
    "dead": 17,
    "id": "IvVhpOoGpH6JVkGyUhXN",
    "infected": 1456,
    "recovered": 1095,
    "sick": 344,
    "invisible": false
  },
  {
    "latitude": 28.218,
    "pop": 1255000,
    "longitude": 94.7278,
    "name": "Arunachal Pradesh",
    "country": "IN",
    "lastUpdated": "2020-04-25T00:41:06.962Z",
    "dead": 0,
    "id": "IwYKiIVY18NGwdGQFGWW",
    "infected": 1,
    "recovered": 1,
    "sick": 0,
    "invisible": false
  },
  {
    "latitude": 6.4238,
    "pop": 31980000,
    "longitude": -66.5897,
    "name": "Venezuela",
    "country": "VE",
    "lastUpdated": "2020-04-25T00:51:02.271Z",
    "dead": 10,
    "id": "J3mZXlfEnnJx4CDZLvRG",
    "infected": 318,
    "recovered": 132,
    "sick": 176,
    "invisible": false
  },
  {
    "lastUpdated": "2020-04-25T00:51:02.269Z",
    "dead": 14,
    "id": "JQByE4l2OA6sGOqIcWrM",
    "infected": 804,
    "recovered": 98,
    "latitude": 35.1264,
    "pop": 1170000,
    "longitude": 33.4299,
    "name": "Cyprus",
    "country": "CY",
    "sick": 692,
    "invisible": false
  },
  {
    "infected": 223,
    "recovered": 44,
    "latitude": 25.0961,
    "pop": 99020000,
    "longitude": 85.3131,
    "name": "Bihar",
    "country": "IN",
    "lastUpdated": "2020-04-25T00:41:06.961Z",
    "dead": 2,
    "id": "JR7hOGked7CZtIs2nCV5",
    "sick": 177,
    "invisible": false
  },
  {
    "lastUpdated": "2020-04-25T00:51:02.271Z",
    "dead": 11,
    "id": "JUWE6bG3b5oL7fKQMSvv",
    "infected": 384,
    "recovered": 30,
    "latitude": 14.628434,
    "pop": 17250000,
    "longitude": -90.522713,
    "name": "Guatemala",
    "country": "GT",
    "sick": 343,
    "invisible": false
  },
  {
    "infected": 3695,
    "recovered": 3007,
    "latitude": 49.8153,
    "pop": 602005,
    "longitude": 6.1296,
    "name": "Luxembourg",
    "country": "LU",
    "lastUpdated": "2020-04-25T00:51:02.267Z",
    "dead": 85,
    "id": "JcFsHSn2WvZ5LJW42ovG",
    "sick": 603,
    "invisible": false
  },
  {
    "infected": 20,
    "recovered": 2,
    "latitude": 8.8,
    "pop": 2049000,
    "longitude": -74.167,
    "name": "Bolívar",
    "country": "CO",
    "lastUpdated": "2020-04-25T00:46:08.117Z",
    "dead": 3,
    "id": "JmOyaFe25yZCIV64JbZj",
    "sick": 15,
    "invisible": false
  },
  {
    "lastUpdated": "2020-04-25T00:40:08.549Z",
    "dead": 163,
    "id": "Jp9ePErcc8i1aOozEAMf",
    "infected": 1161,
    "recovered": 0,
    "latitude": 31.4,
    "pop": 3648100,
    "longitude": -115.783,
    "name": "Baja California",
    "country": "MX",
    "sick": 998,
    "invisible": false
  },
  {
    "infected": 22,
    "recovered": 3,
    "latitude": 8.7479801,
    "pop": 1786500,
    "longitude": -75.8814316,
    "name": "Córdoba",
    "country": "CO",
    "lastUpdated": "2020-04-25T00:46:08.117Z",
    "dead": 3,
    "id": "Jr8syCB0lydmPDXw8Q6N",
    "sick": 16,
    "invisible": false
  },
  {
    "latitude": 8.6195,
    "pop": 7798000,
    "longitude": 0.8248,
    "name": "Togo",
    "country": "TG",
    "lastUpdated": "2020-04-25T00:51:02.274Z",
    "dead": 6,
    "id": "JrBbirlBKGdWSdcDt7PF",
    "infected": 90,
    "recovered": 59,
    "sick": 25,
    "invisible": false
  },
  {
    "id": "JzZ8sbqzjutThVjkPKPL",
    "infected": 1188,
    "recovered": 193,
    "latitude": 42.7339,
    "pop": 7050000,
    "longitude": 25.4858,
    "name": "Bulgaria",
    "country": "BG",
    "lastUpdated": "2020-04-25T00:51:02.269Z",
    "dead": 54,
    "sick": 941,
    "invisible": false
  },
  {
    "infected": 254,
    "recovered": 0,
    "latitude": 50.823,
    "pop": 1263000,
    "longitude": 20.709,
    "name": "Świętokrzyskie",
    "country": "PL",
    "lastUpdated": "2020-04-25T00:33:02.072Z",
    "dead": 6,
    "id": "KGrK7gafkeWjmU6sHQd2",
    "sick": 248,
    "invisible": false
  },
  {
    "infected": 7173,
    "recovered": 2660,
    "latitude": 44.5,
    "pop": 1557000,
    "longitude": 8.833,
    "name": "Liguria",
    "country": "IT",
    "lastUpdated": "2020-04-25T00:31:01.377Z",
    "dead": 1076,
    "id": "KLXicxFogWnu0dLp4bNK",
    "sick": 3437,
    "invisible": false
  },
  {
    "latitude": 10.4631,
    "pop": 1201000,
    "longitude": -73.2532,
    "name": "Cesar",
    "country": "CO",
    "lastUpdated": "2020-04-25T00:46:08.117Z",
    "dead": 2,
    "id": "KpOz3WmiZkrXUMlUJNlV",
    "infected": 42,
    "recovered": 17,
    "sick": 23,
    "invisible": false
  },
  {
    "latitude": 43.4167,
    "pop": 3737000,
    "longitude": 11,
    "name": "Toscana",
    "country": "IT",
    "lastUpdated": "2020-04-25T00:31:01.378Z",
    "dead": 742,
    "id": "KrLrJbpDqqiXgUPGCCW9",
    "infected": 8877,
    "recovered": 2002,
    "sick": 6133,
    "invisible": false
  },
  {
    "latitude": 7.873054,
    "pop": 21440000,
    "longitude": 80.771797,
    "name": "Sri Lanka",
    "country": "LK",
    "lastUpdated": "2020-04-25T00:51:02.271Z",
    "dead": 7,
    "id": "KsWzJO06cf0d6LJ4ZNh9",
    "infected": 417,
    "recovered": 109,
    "sick": 301,
    "invisible": false
  },
  {
    "lastUpdated": "2020-04-25T00:41:06.960Z",
    "dead": 29,
    "id": "KtQIo2DoqjELtPAlyDVO",
    "infected": 955,
    "recovered": 145,
    "latitude": 15.9129,
    "pop": 49670000,
    "longitude": 79.74,
    "name": "Andhra Pradesh",
    "country": "IN",
    "sick": 781,
    "invisible": false
  },
  {
    "infected": 68622,
    "recovered": 5568,
    "latitude": 61.52401,
    "pop": 144500000,
    "longitude": 105.318756,
    "name": "Russia",
    "country": "RU",
    "lastUpdated": "2020-04-25T00:51:02.261Z",
    "dead": 615,
    "id": "KwOuGBKSMRlmwftxAvLX",
    "sick": 62439,
    "invisible": false
  },
  {
    "infected": 38,
    "recovered": 24,
    "latitude": 18.0708,
    "pop": 32125,
    "longitude": -63.0501,
    "name": "Saint-Martin",
    "country": "FR",
    "lastUpdated": "2020-04-25T00:51:02.276Z",
    "dead": 3,
    "id": "LBUtrLDKJiupXjlUNTUe",
    "sick": 11,
    "invisible": false
  },
  {
    "pop": 38557,
    "longitude": 9.5554,
    "name": "Liechtenstein",
    "country": "LI",
    "lastUpdated": "2020-04-25T00:51:02.274Z",
    "dead": 1,
    "id": "LTGEU2E9MFkrCcFhZYVk",
    "infected": 81,
    "recovered": 55,
    "latitude": 47.166,
    "sick": 25,
    "invisible": false
  },
  {
    "lastUpdated": "2020-04-25T00:51:02.269Z",
    "dead": 6,
    "id": "LU2QWt5ao8IJa8evNYVV",
    "infected": 954,
    "recovered": 191,
    "latitude": 9.9456,
    "pop": 12720000,
    "longitude": -9.6966,
    "name": "Guinea",
    "country": "GN",
    "sick": 757,
    "invisible": false
  },
  {
    "latitude": 29.6667,
    "pop": 3062000,
    "longitude": -110.5,
    "name": "Sonora",
    "country": "MX",
    "lastUpdated": "2020-04-25T00:40:08.647Z",
    "dead": 22,
    "id": "LYCBHrA9ms6GcxpLGPCT",
    "infected": 199,
    "recovered": 0,
    "sick": 177,
    "invisible": false
  },
  {
    "infected": 10,
    "recovered": 7,
    "latitude": 3.9193051,
    "pop": 563402,
    "longitude": -56.0277824,
    "name": "Suriname",
    "country": "SR",
    "lastUpdated": "2020-04-25T00:51:02.282Z",
    "dead": 1,
    "id": "LglKINHyQpYpFxjckbQ6",
    "sick": 2,
    "invisible": false
  },
  {
    "infected": 341,
    "recovered": 0,
    "latitude": 52.9399,
    "pop": 1174000,
    "longitude": -106.4509,
    "name": "Saskatchewan",
    "country": "CA",
    "lastUpdated": "2020-04-25T00:36:08.784Z",
    "dead": 4,
    "id": "LkIDKY0CMAqzbwBHyYCP",
    "sick": 337,
    "invisible": false
  },
  {
    "infected": 6,
    "recovered": 5,
    "latitude": 24.2155,
    "pop": 636442,
    "longitude": -12.8858,
    "name": "Western Sahara",
    "country": "EH",
    "lastUpdated": "2020-04-25T00:51:02.282Z",
    "dead": 0,
    "id": "LooNn6RuMiDhQnwa9svw",
    "sick": 1,
    "invisible": false
  },
  {
    "latitude": 43.363129,
    "pop": 1022000,
    "longitude": -5.951843,
    "name": "Principado de Asturias",
    "country": "ES",
    "lastUpdated": "2020-04-25T00:41:04.366Z",
    "dead": 231,
    "id": "Lsga7AvYNnY0qQ5gEfV8",
    "infected": 2509,
    "recovered": 688,
    "sick": 1590,
    "invisible": false
  },
  {
    "infected": 3403,
    "recovered": 1358,
    "latitude": 39.4937,
    "pop": 1065000,
    "longitude": -6.0679,
    "name": "Extremadura",
    "country": "ES",
    "lastUpdated": "2020-04-25T00:41:04.371Z",
    "dead": 411,
    "id": "LuEErlF7dVKI0eJsRjFm",
    "sick": 1634,
    "invisible": false
  },
  {
    "infected": 240,
    "recovered": 0,
    "latitude": 21.0186,
    "pop": 5965000,
    "longitude": -101.2591,
    "name": "Guanajuato",
    "country": "MX",
    "lastUpdated": "2020-04-25T00:40:08.651Z",
    "dead": 19,
    "id": "M3wdiueFtwrUHiQ2rOXA",
    "sick": 221,
    "invisible": false
  },
  {
    "latitude": 37.8393,
    "pop": 4468000,
    "longitude": -84.27,
    "name": "Kentucky",
    "country": "US",
    "lastUpdated": "2020-04-24T21:56:22.993Z",
    "dead": 191,
    "id": "MC8MXFw9iXYybnF8v7e6",
    "infected": 3481,
    "recovered": 0,
    "sick": 3290,
    "invisible": false
  },
  {
    "invisible": true,
    "infected": 21364,
    "recovered": 0,
    "latitude": 55.3781,
    "longitude": -3.436,
    "name": "Unknown UK region or state",
    "country": "GB",
    "lastUpdated": "2020-04-25T00:39:25.194Z",
    "dead": 17372,
    "id": "MEjlm8VYdGA28TTTnQmf",
    "sick": 3992
  },
  {
    "pop": 3689000,
    "longitude": -7.7441,
    "name": "Norte",
    "country": "PT",
    "lastUpdated": "2020-04-25T00:34:01.758Z",
    "dead": 491,
    "id": "MG4e9tulLJ010SZJvbYN",
    "infected": 13707,
    "recovered": 0,
    "latitude": 41.3006,
    "sick": 13216,
    "invisible": false
  },
  {
    "lastUpdated": "2020-04-25T00:39:25.191Z",
    "dead": 1120,
    "id": "MObRYyIriHG337L8FyFC",
    "infected": 9697,
    "recovered": 0,
    "latitude": 56.4907,
    "pop": 5450000,
    "longitude": -4.2026,
    "name": "Scotland",
    "country": "GB",
    "sick": 8577,
    "invisible": false
  },
  {
    "infected": 13039,
    "recovered": 0,
    "latitude": 40.2672,
    "pop": 6692000,
    "longitude": -86.1349,
    "name": "Indiana",
    "country": "US",
    "lastUpdated": "2020-04-24T21:56:22.991Z",
    "dead": 706,
    "id": "MOxDkmQ4wBi1CuAdVxDE",
    "sick": 12333,
    "invisible": false
  },
  {
    "infected": 1077,
    "recovered": 419,
    "latitude": 7.54,
    "pop": 24290000,
    "longitude": -5.5471,
    "name": "Ivory Coast",
    "country": "CI",
    "lastUpdated": "2020-04-25T00:51:02.269Z",
    "dead": 14,
    "id": "MdQOfc1gNh2DOqwSP6UV",
    "sick": 644,
    "invisible": false
  },
  {
    "infected": 31682,
    "recovered": 20257,
    "latitude": 51.4332,
    "pop": 17910000,
    "longitude": 7.6616,
    "name": "Nordrhein-Westfalen",
    "country": "DE",
    "lastUpdated": "2020-04-25T00:30:02.427Z",
    "dead": 1117,
    "id": "MjpYq3zQyAvSQlVVYjD2",
    "sick": 10308,
    "invisible": false
  },
  {
    "infected": 75,
    "recovered": 75,
    "latitude": 37.330509,
    "pop": 6301000,
    "longitude": 105.977203,
    "name": "Ningxia",
    "country": "CN",
    "lastUpdated": "2020-04-25T00:53:10.235Z",
    "dead": 0,
    "id": "MntmjjuHljarCdt6aIeE",
    "sick": 0,
    "invisible": false
  },
  {
    "infected": 1446,
    "recovered": 0,
    "latitude": -3.20166586,
    "pop": 8513497,
    "longitude": -52.203499186,
    "name": "Pará",
    "country": "BR",
    "lastUpdated": "2020-04-25T00:46:08.613Z",
    "dead": 75,
    "id": "MuEB2UgkId5crsxi9zQT",
    "sick": 1371,
    "invisible": false
  },
  {
    "lastUpdated": "2020-04-25T00:30:02.425Z",
    "dead": 1270,
    "id": "N3XsRBwJSsNclkEf7Zz5",
    "infected": 31577,
    "recovered": 19339,
    "latitude": 48.6616,
    "pop": 11020000,
    "longitude": 9.3501,
    "name": "Baden-Württemberg",
    "country": "DE",
    "sick": 10968,
    "invisible": false
  },
  {
    "pop": 3507000,
    "longitude": 17.824332,
    "name": "Bosnia and Herzegovina",
    "country": "BA",
    "lastUpdated": "2020-04-25T00:51:02.268Z",
    "dead": 55,
    "id": "N7c13sCQF0G789XAVazJ",
    "infected": 1421,
    "recovered": 538,
    "latitude": 44.696652,
    "sick": 828,
    "invisible": false
  },
  {
    "recovered": 149,
    "latitude": 37.242565,
    "pop": 36500000,
    "longitude": 111.856857,
    "name": "Shanxi",
    "country": "CN",
    "lastUpdated": "2020-04-25T00:53:10.232Z",
    "dead": 0,
    "id": "NBRIGIRrJB1Ry8prDNAC",
    "infected": 197,
    "sick": 48,
    "invisible": false
  },
  {
    "latitude": 35.7596,
    "pop": 10380000,
    "longitude": -79.0193,
    "name": "North Carolina",
    "country": "US",
    "lastUpdated": "2020-04-24T21:56:22.992Z",
    "dead": 293,
    "id": "NC64Qp5kTqAfiTuR27k8",
    "infected": 8218,
    "recovered": 0,
    "sick": 7925,
    "invisible": false
  },
  {
    "infected": 2704,
    "recovered": 1650,
    "latitude": 52.4125,
    "pop": 2504000,
    "longitude": 12.5316,
    "name": "Brandenburg",
    "country": "DE",
    "lastUpdated": "2020-04-25T00:30:02.426Z",
    "dead": 125,
    "id": "NJjo2gfBvnbK4xatrsUz",
    "sick": 929,
    "invisible": false
  },
  {
    "recovered": 0,
    "latitude": 15.0979,
    "pop": 55144,
    "longitude": -145.6739,
    "name": "Northern Mariana Islands",
    "country": "MP",
    "lastUpdated": "2020-04-24T21:56:22.995Z",
    "dead": 2,
    "id": "NLLL6pJhJSw0lrDMD4uP",
    "infected": 14,
    "sick": 12,
    "invisible": false
  },
  {
    "infected": 48,
    "recovered": 25,
    "latitude": 30.0668,
    "pop": 10080000,
    "longitude": 79.0193,
    "name": "Uttarakhand",
    "country": "IN",
    "lastUpdated": "2020-04-25T00:41:06.961Z",
    "dead": 0,
    "id": "NMeZEcGToxXfpi16PfFV",
    "sick": 23,
    "invisible": false
  },
  {
    "lastUpdated": "2020-04-25T00:30:02.427Z",
    "dead": 312,
    "id": "Nk5vPgUIXsWVfbWZf15O",
    "infected": 7847,
    "recovered": 4027,
    "latitude": 50.6521,
    "pop": 6243000,
    "longitude": 9.1624,
    "name": "Hessen",
    "country": "DE",
    "sick": 3508,
    "invisible": false
  },
  {
    "infected": 784,
    "recovered": 267,
    "latitude": 56.96776,
    "pop": 1920000,
    "longitude": 25.837107,
    "name": "Latvia",
    "country": "LV",
    "lastUpdated": "2020-04-25T00:51:02.269Z",
    "dead": 12,
    "id": "NmmMKy0YqA8StHdGzB5N",
    "sick": 505,
    "invisible": false
  },
  {
    "latitude": -8.472372,
    "pop": 9496294,
    "longitude": -37.946777,
    "name": "Pernambuco",
    "country": "BR",
    "lastUpdated": "2020-04-25T00:46:08.613Z",
    "dead": 352,
    "id": "NyGlFL1gATK1Omv9qtcC",
    "infected": 3999,
    "recovered": 0,
    "sick": 3647,
    "invisible": false
  },
  {
    "latitude": 6.4281,
    "pop": 4732000,
    "longitude": -9.4295,
    "name": "Liberia",
    "country": "LR",
    "lastUpdated": "2020-04-25T00:51:02.273Z",
    "dead": 8,
    "id": "O4g88K49HKEZLFXm5gxb",
    "infected": 117,
    "recovered": 25,
    "sick": 84,
    "invisible": false
  },
  {
    "latitude": 34.003307,
    "pop": 5084000,
    "longitude": -80.525613,
    "name": "South Carolina",
    "country": "US",
    "lastUpdated": "2020-04-24T21:56:22.992Z",
    "dead": 150,
    "id": "ONU4CK8QjViFHKg2w5if",
    "infected": 4917,
    "recovered": 0,
    "sick": 4767,
    "invisible": false
  },
  {
    "lastUpdated": "2020-04-24T21:56:22.992Z",
    "dead": 209,
    "id": "OYa0jFzdbAgo8zUsRv6q",
    "infected": 5434,
    "recovered": 0,
    "latitude": 33.51822,
    "pop": 2987000,
    "longitude": -89.582775,
    "name": "Mississippi",
    "country": "US",
    "sick": 5225,
    "invisible": false
  },
  {
    "longitude": -69.4455,
    "name": "Maine",
    "country": "US",
    "lastUpdated": "2020-04-24T21:56:22.994Z",
    "dead": 47,
    "id": "OcXNp9kNVSwrRlG3bNVN",
    "infected": 965,
    "recovered": 0,
    "latitude": 45.2538,
    "pop": 1338000,
    "sick": 918,
    "invisible": false
  },
  {
    "latitude": -41.915264,
    "pop": 515000,
    "longitude": 146.725256,
    "name": "Tasmania",
    "country": "AU",
    "lastUpdated": "2020-04-25T00:50:02.121Z",
    "dead": 8,
    "id": "OnOseaqWdnuP18oruABW",
    "infected": 207,
    "recovered": 67,
    "sick": 132,
    "invisible": false
  },
  {
    "infected": 240,
    "recovered": 0,
    "latitude": -16.35,
    "pop": 3441998,
    "longitude": -56.666668,
    "name": "Mato Grosso",
    "country": "BR",
    "lastUpdated": "2020-04-25T00:46:08.613Z",
    "dead": 8,
    "id": "P0GHFGUt1pkKTk5PM8uz",
    "sick": 232,
    "invisible": false
  },
  {
    "latitude": 19.3133,
    "pop": 61559,
    "longitude": -81.2546,
    "name": "Cayman Islands",
    "country": "KY",
    "lastUpdated": "2020-04-25T00:51:02.275Z",
    "dead": 1,
    "id": "P4mwRFLbrvT0t75uD8Wo",
    "infected": 70,
    "recovered": 8,
    "sick": 61,
    "invisible": false
  },
  {
    "latitude": 16.7424984,
    "pop": 5900,
    "longitude": -62.1873665,
    "name": "Montserrat",
    "country": "MS",
    "lastUpdated": "2020-04-25T00:51:02.282Z",
    "dead": 0,
    "id": "PEDkeFMTOZpvHiSVxBk7",
    "infected": 11,
    "recovered": 2,
    "sick": 9,
    "invisible": false
  },
  {
    "longitude": 29.8739,
    "name": "Rwanda",
    "country": "RW",
    "lastUpdated": "2020-04-25T00:51:02.272Z",
    "dead": 0,
    "id": "PEcgZGEkyhABztt1Ufgc",
    "infected": 176,
    "recovered": 87,
    "latitude": -1.9403,
    "pop": 12210000,
    "sick": 89,
    "invisible": false
  },
  {
    "recovered": 0,
    "latitude": 46.7296,
    "pop": 5611000,
    "longitude": -94.6859,
    "name": "Minnesota",
    "country": "US",
    "lastUpdated": "2020-04-24T21:56:22.993Z",
    "dead": 221,
    "id": "PJvVYosLIhbcRZYnKX1R",
    "infected": 3185,
    "sick": 2964,
    "invisible": false
  },
  {
    "recovered": 0,
    "latitude": 40.6331,
    "pop": 12740000,
    "longitude": -89.3985,
    "name": "Illinois",
    "country": "US",
    "lastUpdated": "2020-04-24T20:56:23.330Z",
    "dead": 1794,
    "id": "PTwQr9ijo0TBBsPH2sdJ",
    "infected": 39655,
    "sick": 37861,
    "invisible": false
  },
  {
    "id": "PjLqCeFdyzdZNcZxMkK1",
    "infected": 15,
    "recovered": 15,
    "latitude": 13.909444,
    "pop": 178844,
    "longitude": -60.978893,
    "name": "Saint Lucia",
    "country": "LC",
    "lastUpdated": "2020-04-25T00:51:02.279Z",
    "dead": 0,
    "sick": 0,
    "invisible": false
  },
  {
    "latitude": 42.6954,
    "pop": 649900,
    "longitude": -1.6761,
    "name": "Comunidad Foral de Navarra",
    "country": "ES",
    "lastUpdated": "2020-04-25T00:41:04.372Z",
    "dead": 417,
    "id": "PmUlsNx2uFLU797wwU39",
    "infected": 5180,
    "recovered": 1552,
    "sick": 3211,
    "invisible": false
  },
  {
    "infected": 922,
    "recovered": 194,
    "latitude": 34.201507,
    "pop": 11530000,
    "longitude": 9.460554,
    "name": "Tunisia",
    "country": "TN",
    "lastUpdated": "2020-04-25T00:51:02.269Z",
    "dead": 38,
    "id": "Pr76V4raf108uSRoEXac",
    "sick": 690,
    "invisible": false
  },
  {
    "infected": 36,
    "recovered": 10,
    "latitude": -26.5225,
    "pop": 1367000,
    "longitude": 31.4659,
    "name": "Eswatini",
    "country": "SZ",
    "lastUpdated": "2020-04-25T00:51:02.276Z",
    "dead": 1,
    "id": "PuQgOd9KWiMzGZXm11sR",
    "sick": 25,
    "invisible": false
  },
  {
    "latitude": -37.009609,
    "pop": 6359000,
    "longitude": 143.94853,
    "name": "Victoria",
    "country": "AU",
    "lastUpdated": "2020-04-25T00:50:02.122Z",
    "dead": 16,
    "id": "Q18mrGvFWTLX2BU9SqhQ",
    "infected": 1343,
    "recovered": 1172,
    "sick": 155,
    "invisible": false
  },
  {
    "lastUpdated": "2020-04-25T00:30:02.428Z",
    "dead": 100,
    "id": "Q39XkabIYxt15mHINzTa",
    "infected": 2586,
    "recovered": 1900,
    "latitude": 54.2194,
    "pop": 2890000,
    "longitude": 9.6961,
    "name": "Schleswig-Holstein",
    "country": "DE",
    "sick": 586,
    "invisible": false
  },
  {
    "infected": 1061,
    "recovered": 0,
    "latitude": -27.953491,
    "pop": 11329605,
    "longitude": -52.031696,
    "name": "Rio Grande do Sul",
    "country": "BR",
    "lastUpdated": "2020-04-25T00:46:08.613Z",
    "dead": 31,
    "id": "QGpQNhuoVTUPHXvS7qcu",
    "sick": 1030,
    "invisible": false
  },
  {
    "longitude": 25.013607,
    "name": "Estonia",
    "country": "EE",
    "lastUpdated": "2020-04-25T00:51:02.268Z",
    "dead": 46,
    "id": "QR9go2hQKXjty7JHUYe4",
    "infected": 1605,
    "recovered": 206,
    "latitude": 58.595272,
    "pop": 1328000,
    "sick": 1353,
    "invisible": false
  },
  {
    "infected": 1381,
    "recovered": 0,
    "latitude": -20.318,
    "pop": 3972388,
    "longitude": -40.336,
    "name": "Espírito Santo",
    "country": "BR",
    "lastUpdated": "2020-04-25T00:46:08.612Z",
    "dead": 42,
    "id": "QaWDLKH8SuwD0Qxq6c38",
    "sick": 1339,
    "invisible": false
  },
  {
    "lastUpdated": "2020-04-25T00:40:08.653Z",
    "dead": 20,
    "id": "Qkho455pBwx88Gohs3hL",
    "infected": 287,
    "recovered": 0,
    "latitude": 20.3333,
    "pop": 8222700,
    "longitude": -103.6667,
    "name": "Jalisco",
    "country": "MX",
    "sick": 267,
    "invisible": false
  },
  {
    "pop": 8251000,
    "longitude": 143.9555,
    "name": "Papua New Guinea",
    "country": "PG",
    "lastUpdated": "2020-04-25T00:51:02.282Z",
    "dead": 0,
    "id": "QlZrE4nosm5WfdA2aCDg",
    "infected": 8,
    "recovered": 0,
    "latitude": -6.315,
    "sick": 8,
    "invisible": false
  },
  {
    "infected": 54,
    "recovered": 0,
    "latitude": 18.3358,
    "pop": 107268,
    "longitude": -64.8963,
    "name": "U.S. Virgin Islands",
    "country": "US",
    "lastUpdated": "2020-04-24T21:56:22.995Z",
    "dead": 3,
    "id": "QqhD3YDMKXojvQY3Yu41",
    "sick": 51,
    "invisible": false
  },
  {
    "infected": 16,
    "recovered": 10,
    "latitude": 15.414999,
    "pop": 71937,
    "longitude": -61.3709755,
    "name": "Dominica",
    "country": "DM",
    "lastUpdated": "2020-04-25T00:51:02.278Z",
    "dead": 0,
    "id": "Qy2qW2ep5wltnYjPJBxh",
    "sick": 6,
    "invisible": false
  },
  {
    "latitude": 5.167,
    "pop": 344027,
    "longitude": -72.167,
    "name": "Casanare",
    "country": "CO",
    "lastUpdated": "2020-04-25T00:46:08.117Z",
    "dead": 0,
    "id": "R3IHMWqIUhOJJTlrmbUZ",
    "infected": 10,
    "recovered": 2,
    "sick": 8,
    "invisible": false
  },
  {
    "latitude": 8.538,
    "pop": 4099000,
    "longitude": -80.7821,
    "name": "Panama",
    "country": "PA",
    "lastUpdated": "2020-04-25T00:23:09.403Z",
    "dead": 154,
    "id": "R8YCgephnxTufvcPWMgx",
    "infected": 5338,
    "recovered": 319,
    "sick": 4865,
    "invisible": false
  },
  {
    "recovered": 50,
    "latitude": 15.2,
    "pop": 9265000,
    "longitude": -86.2419,
    "name": "Honduras",
    "country": "HN",
    "lastUpdated": "2020-04-25T00:51:02.270Z",
    "dead": 47,
    "id": "RA2SE0p2bVhqo0P2hzGY",
    "infected": 562,
    "sick": 465,
    "invisible": false
  },
  {
    "latitude": -18.4745998,
    "pop": 224500,
    "longitude": -70.2979202,
    "name": "Arica y Parinacota",
    "country": "CL",
    "lastUpdated": "2020-04-25T00:37:15.025Z",
    "dead": 3,
    "id": "RBt9RiwP7WUbMnJfD0lo",
    "infected": 239,
    "recovered": 0,
    "sick": 236,
    "invisible": false
  },
  {
    "lastUpdated": "2020-04-25T00:31:01.376Z",
    "dead": 258,
    "id": "RCrDBCdBNYzgLNr0aB2H",
    "infected": 2882,
    "recovered": 1304,
    "latitude": 45.633331,
    "pop": 1216000,
    "longitude": 13.8,
    "name": "Friuli Venezia Giulia",
    "country": "IT",
    "sick": 1320,
    "invisible": false
  },
  {
    "id": "RX0KDu1AFrlCsrRso0nb",
    "infected": 4445,
    "recovered": 0,
    "latitude": 41.878,
    "pop": 3156000,
    "longitude": -93.0977,
    "name": "Iowa",
    "country": "US",
    "lastUpdated": "2020-04-24T21:56:22.992Z",
    "dead": 107,
    "sick": 4338,
    "invisible": false
  },
  {
    "latitude": 4.624335,
    "pop": 7413000,
    "longitude": -74.063644,
    "name": "Bogotá D.C.",
    "country": "CO",
    "lastUpdated": "2020-04-25T00:46:08.057Z",
    "dead": 81,
    "id": "RZ6PCe5TZsO15JjDObwO",
    "infected": 2065,
    "recovered": 370,
    "sick": 1614,
    "invisible": false
  },
  {
    "id": "RaJxbzlnRFTuj4B8IbpC",
    "infected": 61,
    "recovered": 18,
    "latitude": 26.3351002,
    "pop": 6846000,
    "longitude": 17.2283306,
    "name": "Libya",
    "country": "LY",
    "lastUpdated": "2020-04-25T00:51:02.275Z",
    "dead": 2,
    "sick": 41,
    "invisible": false
  },
  {
    "latitude": 39.0119,
    "pop": 2912000,
    "longitude": -98.4842,
    "name": "Kansas",
    "country": "US",
    "lastUpdated": "2020-04-24T21:56:22.993Z",
    "dead": 117,
    "id": "Rf4uvBfP3GRDSHdZElRd",
    "infected": 2861,
    "recovered": 0,
    "sick": 2744,
    "invisible": false
  },
  {
    "latitude": 48.6998,
    "pop": 5518000,
    "longitude": 6.1878,
    "name": "Grand Est",
    "country": "FR",
    "lastUpdated": "2020-04-24T18:43:25.552Z",
    "dead": 2679,
    "id": "RmEgf1xeclWt7XCF9oiR",
    "infected": 19972,
    "recovered": 7056,
    "sick": 10237,
    "invisible": false
  },
  {
    "lastUpdated": "2020-04-25T00:29:04.916Z",
    "dead": 2399,
    "id": "RryHraSohKQLAsdr1dHO",
    "infected": 14318,
    "recovered": 2789,
    "latitude": 50.4176,
    "pop": 3644000,
    "longitude": 4.451,
    "name": "Wallonia",
    "country": "BE",
    "sick": 9130,
    "invisible": false
  },
  {
    "latitude": 51.2538,
    "pop": 14570000,
    "longitude": -85.3232,
    "name": "Ontario",
    "country": "CA",
    "lastUpdated": "2020-04-25T00:36:08.782Z",
    "dead": 854,
    "id": "Rx4TuyMpfGb3S8wYJX0x",
    "infected": 14496,
    "recovered": 0,
    "sick": 13642,
    "invisible": false
  },
  {
    "infected": 17776,
    "recovered": 5943,
    "latitude": 41.652779,
    "pop": 2408000,
    "longitude": -4.723611,
    "name": "Castilla y León",
    "country": "ES",
    "lastUpdated": "2020-04-25T00:41:04.371Z",
    "dead": 1612,
    "id": "S8ewN4zaYp8mjtuqqOTw",
    "sick": 10221,
    "invisible": false
  },
  {
    "infected": 173,
    "recovered": 77,
    "latitude": 14.652027,
    "pop": 376480,
    "longitude": -61.011715,
    "name": "Martinique",
    "country": "FR",
    "lastUpdated": "2020-04-24T18:38:09.280Z",
    "dead": 14,
    "id": "SDdefnq1bc3ZNr7SpEsW",
    "sick": 82,
    "invisible": false
  },
  {
    "lastUpdated": "2020-04-25T00:51:02.269Z",
    "dead": 10,
    "id": "SG9VWLOV3x2JsTkXmVSz",
    "infected": 1279,
    "recovered": 134,
    "latitude": 7.9465,
    "pop": 28830000,
    "longitude": -1.0232,
    "name": "Ghana",
    "country": "GH",
    "sick": 1135,
    "invisible": false
  },
  {
    "infected": 28677,
    "recovered": 21000,
    "latitude": 46.818188,
    "pop": 8570000,
    "longitude": 8.227512,
    "name": "Switzerland",
    "country": "CH",
    "lastUpdated": "2020-04-25T00:51:02.262Z",
    "dead": 1589,
    "id": "SGe9sCPayMqh6RsGFaBA",
    "sick": 6088,
    "invisible": false
  },
  {
    "lastUpdated": "2020-04-24T19:36:08.447Z",
    "dead": 1341,
    "id": "SHoOE3NiJgWAlDVBzwYH",
    "infected": 22616,
    "recovered": 0,
    "latitude": 46.8139,
    "pop": 8485000,
    "longitude": -71.208,
    "name": "Quebec",
    "country": "CA",
    "sick": 21275,
    "invisible": false
  },
  {
    "pop": 1831000,
    "longitude": 20.903,
    "name": "Kosovo",
    "country": "XK",
    "lastUpdated": "2020-04-25T00:55:08.405Z",
    "dead": 19,
    "id": "SMWvuMMuKp2QK7O2tNia",
    "infected": 703,
    "recovered": 162,
    "latitude": 42.6026,
    "sick": 522,
    "invisible": false
  },
  {
    "longitude": 74.124,
    "name": "Goa",
    "country": "IN",
    "lastUpdated": "2020-04-25T00:41:06.962Z",
    "dead": 0,
    "id": "SPcujsH2YlUaoAr8AiWF",
    "infected": 7,
    "recovered": 7,
    "latitude": 15.2993,
    "pop": 1817000,
    "sick": 0,
    "invisible": false
  },
  {
    "infected": 486,
    "recovered": 0,
    "latitude": -16.328547,
    "pop": 6921161,
    "longitude": -48.953403,
    "name": "Goiás",
    "country": "BR",
    "lastUpdated": "2020-04-25T00:46:08.612Z",
    "dead": 24,
    "id": "SV5AMF59J61Vt4cXWLgy",
    "sick": 462,
    "invisible": false
  },
  {
    "latitude": 39,
    "pop": 1957000,
    "longitude": 16.5,
    "name": "Calabria",
    "country": "IT",
    "lastUpdated": "2020-04-25T00:31:01.376Z",
    "dead": 80,
    "id": "SZdF624x0v1LlyzZjKFu",
    "infected": 1079,
    "recovered": 178,
    "sick": 821,
    "invisible": false
  },
  {
    "lastUpdated": "2020-04-24T21:56:22.993Z",
    "dead": 47,
    "id": "SakhKQzKu1LRI8laqdQq",
    "infected": 2202,
    "recovered": 0,
    "latitude": 41.4925,
    "pop": 1929000,
    "longitude": -99.9018,
    "name": "Nebraska",
    "country": "US",
    "sick": 2155,
    "invisible": false
  },
  {
    "recovered": 300,
    "latitude": -21.1151,
    "pop": 859959,
    "longitude": 55.5364,
    "name": "La Réunion",
    "country": "FR",
    "lastUpdated": "2020-04-25T00:51:02.271Z",
    "dead": 0,
    "id": "SgHzWAAYK1j2sipovxM6",
    "infected": 412,
    "sick": 112,
    "invisible": false
  },
  {
    "lastUpdated": "2020-04-25T00:51:02.273Z",
    "dead": 0,
    "id": "SioMALgUbo7peXmbco2f",
    "infected": 122,
    "recovered": 110,
    "latitude": 12.565679,
    "pop": 16010000,
    "longitude": 104.990967,
    "name": "Cambodia",
    "country": "KH",
    "sick": 12,
    "invisible": false
  },
  {
    "latitude": 13.4443,
    "pop": 164229,
    "longitude": 144.7937,
    "name": "Guam",
    "country": "GU",
    "lastUpdated": "2020-04-24T21:56:22.995Z",
    "dead": 5,
    "id": "SsWhuEElU7dCTTuH5fdQ",
    "infected": 139,
    "recovered": 0,
    "sick": 134,
    "invisible": false
  },
  {
    "infected": 0,
    "recovered": 1944,
    "latitude": 51.9189,
    "longitude": 19.1344,
    "name": "Unknown Poland region",
    "country": "PL",
    "lastUpdated": "2020-04-25T00:51:02.264Z",
    "dead": 0,
    "id": "SuCr5emUaJ9RHTll1P1p",
    "invisible": true,
    "sick": 0
  },
  {
    "lastUpdated": "2020-04-25T00:51:02.271Z",
    "dead": 25,
    "id": "T3iRf8mTUTAzbKrORTap",
    "infected": 394,
    "recovered": 48,
    "latitude": -4.0383,
    "pop": 81340000,
    "longitude": 21.7587,
    "name": "DR Congo",
    "country": "CD",
    "sick": 321,
    "invisible": false
  },
  {
    "longitude": 44.344334,
    "name": "Saudi Arabia",
    "country": "SA",
    "lastUpdated": "2020-04-25T00:51:02.263Z",
    "dead": 127,
    "id": "T7NffoeCgTUpAbOHvYwP",
    "infected": 15102,
    "recovered": 2049,
    "latitude": 23.635796,
    "pop": 32940000,
    "sick": 12926,
    "invisible": false
  },
  {
    "lastUpdated": "2020-04-25T00:41:04.372Z",
    "dead": 307,
    "id": "TNDTapyb0k3l7Mds9q9R",
    "infected": 4865,
    "recovered": 1964,
    "latitude": 42.2871,
    "pop": 315700,
    "longitude": -2.5396,
    "name": "La Rioja",
    "country": "ES",
    "sick": 2594,
    "invisible": false
  },
  {
    "latitude": 20.400417,
    "pop": 2207200,
    "longitude": -89.134857,
    "name": "Yucatán",
    "country": "MX",
    "lastUpdated": "2020-04-25T00:40:08.651Z",
    "dead": 20,
    "id": "TQCWbhIpJQBQxBjhCGVJ",
    "infected": 248,
    "recovered": 0,
    "sick": 228,
    "invisible": false
  },
  {
    "lastUpdated": "2020-04-25T00:51:02.272Z",
    "dead": 1,
    "id": "TQZmzsLhJqjtCSExAkCP",
    "infected": 138,
    "recovered": 120,
    "latitude": 4.506106,
    "pop": 428697,
    "longitude": 114.650692,
    "name": "Brunei",
    "country": "BN",
    "sick": 17,
    "invisible": false
  },
  {
    "latitude": 45.4471,
    "pop": 8027000,
    "longitude": 4.3853,
    "name": "Auvergne-Rhône-Alpes",
    "country": "FR",
    "lastUpdated": "2020-04-24T18:41:59.215Z",
    "dead": 1192,
    "id": "TT0MKODSjrxHvG19xZCa",
    "infected": 11962,
    "recovered": 4526,
    "sick": 6244,
    "invisible": false
  },
  {
    "id": "TeoNTu4aw5riC04sTd73",
    "infected": 183,
    "recovered": 0,
    "latitude": 38.5667,
    "pop": 758700,
    "longitude": -7.9,
    "name": "Alentejo",
    "country": "PT",
    "lastUpdated": "2020-04-25T00:34:01.759Z",
    "dead": 1,
    "sick": 182,
    "invisible": false
  },
  {
    "latitude": 39.318928,
    "pop": 5696000,
    "longitude": -105.461392,
    "name": "Colorado",
    "country": "US",
    "lastUpdated": "2020-04-24T21:56:22.991Z",
    "dead": 552,
    "id": "Th4dlpXXmSDgi1OHs36P",
    "infected": 11278,
    "recovered": 0,
    "sick": 10726,
    "invisible": false
  },
  {
    "lastUpdated": "2020-04-25T00:51:02.270Z",
    "dead": 41,
    "id": "Tup6oDCHj6DgqZR3nQ3x",
    "infected": 629,
    "recovered": 425,
    "latitude": 12.2383,
    "pop": 19190000,
    "longitude": -1.5616,
    "name": "Burkina Faso",
    "country": "BF",
    "sick": 163,
    "invisible": false
  },
  {
    "recovered": 7,
    "latitude": 12.104818,
    "pop": 112381,
    "longitude": -61.670761,
    "name": "Grenada",
    "country": "GD",
    "lastUpdated": "2020-04-25T00:51:02.278Z",
    "dead": 0,
    "id": "TvqURPN5xzVBXsmGP46N",
    "infected": 15,
    "sick": 8,
    "invisible": false
  },
  {
    "infected": 8210,
    "recovered": 5526,
    "latitude": 55.675758,
    "pop": 5603000,
    "longitude": 12.56902,
    "name": "Denmark",
    "country": "DK",
    "lastUpdated": "2020-04-25T00:51:02.265Z",
    "dead": 403,
    "id": "Ty1AY3VLPJcRZgdBIERx",
    "sick": 2281,
    "invisible": false
  },
  {
    "lastUpdated": "2020-04-25T00:39:25.194Z",
    "dead": 0,
    "id": "U0N7cIPJXAc4T6uKV60c",
    "infected": 8326,
    "recovered": 0,
    "latitude": 53.9062,
    "pop": 5486000,
    "longitude": -1.0334,
    "name": "Yorkshire and The Humber",
    "country": "GB",
    "sick": 8326,
    "invisible": false
  },
  {
    "latitude": 36.395859,
    "pop": 100472400,
    "longitude": 118.769882,
    "name": "Shandong",
    "country": "CN",
    "lastUpdated": "2020-04-25T00:53:10.233Z",
    "dead": 7,
    "id": "U0tkTJ9CGsBuFJ2Gdoum",
    "infected": 787,
    "recovered": 767,
    "sick": 13,
    "invisible": false
  },
  {
    "lastUpdated": "2020-04-25T00:51:02.270Z",
    "dead": 40,
    "id": "U12rMD5GDW58Q0lIwrB1",
    "infected": 513,
    "recovered": 64,
    "latitude": 43.94236,
    "pop": 33400,
    "longitude": 12.457777,
    "name": "San Marino",
    "country": "SM",
    "sick": 409,
    "invisible": false
  },
  {
    "latitude": 36.204823,
    "pop": 126800000,
    "longitude": 138.25293,
    "name": "Japan",
    "country": "JP",
    "lastUpdated": "2020-04-25T00:51:02.263Z",
    "dead": 345,
    "id": "U13Gy4BpRLAZ95bPmBXd",
    "infected": 12712,
    "recovered": 1530,
    "sick": 10837,
    "invisible": false
  },
  {
    "infected": 75,
    "recovered": 46,
    "latitude": 1.3733,
    "pop": 42860000,
    "longitude": 32.2903,
    "name": "Uganda",
    "country": "UG",
    "lastUpdated": "2020-04-25T00:51:02.274Z",
    "dead": 0,
    "id": "UCZXEgnHtxUoChWLR6fQ",
    "sick": 29,
    "invisible": false
  },
  {
    "infected": 25,
    "recovered": 6,
    "latitude": -11.2027,
    "pop": 29780000,
    "longitude": 17.8739,
    "name": "Angola",
    "country": "AO",
    "lastUpdated": "2020-04-25T00:51:02.277Z",
    "dead": 2,
    "id": "UIbrFy6kiTTF0D37Kqmp",
    "sick": 17,
    "invisible": false
  },
  {
    "infected": 1945,
    "recovered": 743,
    "latitude": 48.202,
    "pop": 3329000,
    "longitude": -2.9326,
    "name": "Bretagne",
    "country": "FR",
    "lastUpdated": "2020-04-24T18:41:17.673Z",
    "dead": 199,
    "id": "URKMlJ7OTNldjpaxFbjE",
    "sick": 1003,
    "invisible": false
  },
  {
    "infected": 4558,
    "recovered": 3000,
    "latitude": 53.5511,
    "pop": 1822000,
    "longitude": 9.9937,
    "name": "Hamburg",
    "country": "DE",
    "lastUpdated": "2020-04-25T00:30:02.427Z",
    "dead": 122,
    "id": "UfFaUECHINUutv1M9tzq",
    "sick": 1436,
    "invisible": false
  },
  {
    "infected": 52,
    "recovered": 0,
    "latitude": 22.774916,
    "pop": 1615000,
    "longitude": -102.586899,
    "name": "Zacatecas",
    "country": "MX",
    "lastUpdated": "2020-04-25T00:40:08.652Z",
    "dead": 4,
    "id": "UflxTAb4FnAwve7c5MbY",
    "sick": 48,
    "invisible": false
  },
  {
    "recovered": 0,
    "latitude": -20.4427795,
    "pop": 2748023,
    "longitude": -54.646389,
    "name": "Mato Grosso do Sul",
    "country": "BR",
    "lastUpdated": "2020-04-25T00:46:08.613Z",
    "dead": 7,
    "id": "UlA1ubOUhPtf9jjKxxhF",
    "infected": 213,
    "sick": 206,
    "invisible": false
  },
  {
    "latitude": -19.4914,
    "pop": 211945,
    "longitude": 132.551,
    "name": "Northern Territory",
    "country": "AU",
    "lastUpdated": "2020-04-25T00:50:02.121Z",
    "dead": 0,
    "id": "UrF45V1VqMo6YBib2KlL",
    "infected": 27,
    "recovered": 11,
    "sick": 16,
    "invisible": false
  },
  {
    "infected": 73,
    "recovered": 22,
    "latitude": 18.0424805,
    "pop": 41109,
    "longitude": -63.0548286,
    "name": "Sint Maarten",
    "country": "SX",
    "lastUpdated": "2020-04-25T00:51:02.274Z",
    "dead": 12,
    "id": "UsxgpiuFCtlR2CW1UUFm",
    "sick": 39,
    "invisible": false
  },
  {
    "lastUpdated": "2020-04-25T00:39:25.194Z",
    "dead": 0,
    "id": "UzOGOMitJmaFTdh2FbvI",
    "infected": 11172,
    "recovered": 0,
    "latitude": 52.4751,
    "pop": 5908000,
    "longitude": -1.8298,
    "name": "West Midlands",
    "country": "GB",
    "sick": 11172,
    "invisible": false
  },
  {
    "latitude": 11.943179,
    "pop": 241773,
    "longitude": 79.808206,
    "name": "Puducherry",
    "country": "IN",
    "lastUpdated": "2020-04-25T00:41:06.962Z",
    "dead": 0,
    "id": "V1qE740s3EUGyKGr6SVv",
    "infected": 7,
    "recovered": 4,
    "sick": 3,
    "invisible": false
  },
  {
    "pop": 25569,
    "longitude": -72.0597,
    "name": "Aysén",
    "country": "CL",
    "lastUpdated": "2020-04-25T00:37:15.055Z",
    "dead": 0,
    "id": "V9QxUhV4DyYK7iElEhXV",
    "infected": 7,
    "recovered": 0,
    "latitude": -45.5687,
    "sick": 7,
    "invisible": false
  },
  {
    "lastUpdated": "2020-04-25T00:51:02.269Z",
    "dead": 49,
    "id": "VAG9AcMABTf8oIAfELPh",
    "infected": 1285,
    "recovered": 416,
    "latitude": 21.5218,
    "pop": 11480000,
    "longitude": -77.7812,
    "name": "Cuba",
    "country": "CU",
    "sick": 820,
    "invisible": false
  },
  {
    "infected": 185,
    "recovered": 180,
    "latitude": 25.181129,
    "pop": 45970000,
    "longitude": 101.864143,
    "name": "Yunnan",
    "country": "CN",
    "lastUpdated": "2020-04-25T00:53:10.234Z",
    "dead": 2,
    "id": "VIf8T8PD3ZzlzAm5eBCX",
    "sick": 3,
    "invisible": false
  },
  {
    "infected": 3194,
    "recovered": 0,
    "latitude": -3.4653,
    "pop": 4080611,
    "longitude": -62.2159,
    "name": "Amazonas",
    "country": "BR",
    "lastUpdated": "2020-04-25T00:46:08.611Z",
    "dead": 255,
    "id": "VZQiSdZ7cUHgUZWgpNTP",
    "sick": 2939,
    "invisible": false
  },
  {
    "longitude": 80.9462,
    "name": "Uttar Pradesh",
    "country": "IN",
    "lastUpdated": "2020-04-25T00:41:06.960Z",
    "dead": 25,
    "id": "VcKcLdCkC6YpPfIDnRVD",
    "infected": 1621,
    "recovered": 226,
    "latitude": 26.8467,
    "pop": 204200000,
    "sick": 1370,
    "invisible": false
  },
  {
    "latitude": 64.8255,
    "pop": 44826,
    "longitude": -124.8457,
    "name": "Northwest Territories",
    "country": "CA",
    "lastUpdated": "2020-04-25T00:36:08.785Z",
    "dead": 0,
    "id": "Vd3lLgrNsr81plzTgZkz",
    "infected": 5,
    "recovered": 0,
    "sick": 5,
    "invisible": false
  },
  {
    "pop": 1188000,
    "longitude": 3.838942,
    "name": "Islas Baleares",
    "country": "ES",
    "lastUpdated": "2020-04-25T00:41:04.366Z",
    "dead": 172,
    "id": "VyW0IR9vLMdgnKz1cC7j",
    "infected": 1878,
    "recovered": 1081,
    "latitude": 39.999079,
    "sick": 625,
    "invisible": false
  },
  {
    "latitude": 43.8927,
    "pop": 5893000,
    "longitude": 3.2828,
    "name": "Occitanie",
    "country": "FR",
    "lastUpdated": "2020-04-24T18:40:36.861Z",
    "dead": 356,
    "id": "WAnbFrEjtZDTCIYBt8rz",
    "infected": 4359,
    "recovered": 1974,
    "sick": 2029,
    "invisible": false
  },
  {
    "pop": 567118,
    "longitude": 16.5,
    "name": "Basilicata",
    "country": "IT",
    "lastUpdated": "2020-04-25T00:31:01.375Z",
    "dead": 24,
    "id": "WD502XimGXnWzqYg7zxL",
    "infected": 360,
    "recovered": 107,
    "latitude": 40.5,
    "sick": 229,
    "invisible": false
  },
  {
    "longitude": 93.9063,
    "name": "Manipur",
    "country": "IN",
    "lastUpdated": "2020-04-25T00:41:06.962Z",
    "dead": 0,
    "id": "WKsJQmcpWKxnp0nCwN77",
    "infected": 2,
    "recovered": 2,
    "latitude": 24.6637,
    "pop": 2722000,
    "sick": 0,
    "invisible": false
  },
  {
    "latitude": -9.933,
    "pop": 1757589,
    "longitude": -63.067,
    "name": "Rondônia",
    "country": "BR",
    "lastUpdated": "2020-04-25T00:46:08.614Z",
    "dead": 5,
    "id": "WRqKCfMIJFjrjXLMud70",
    "infected": 290,
    "recovered": 0,
    "sick": 285,
    "invisible": false
  },
  {
    "latitude": -30.5595,
    "pop": 56720000,
    "longitude": 22.9375,
    "name": "South Africa",
    "country": "ZA",
    "lastUpdated": "2020-04-25T00:51:02.266Z",
    "dead": 79,
    "id": "Whrue10NtwIObLvFFyBr",
    "infected": 4220,
    "recovered": 1473,
    "sick": 2668,
    "invisible": false
  },
  {
    "id": "Wk811YwpQxsOCfz8As86",
    "infected": 10,
    "recovered": 8,
    "latitude": 13.443182,
    "pop": 2101000,
    "longitude": -15.3101387,
    "name": "Gambia",
    "country": "GM",
    "lastUpdated": "2020-04-25T00:51:02.282Z",
    "dead": 1,
    "sick": 1,
    "invisible": false
  },
  {
    "infected": 1992,
    "recovered": 0,
    "latitude": 19.352498,
    "pop": 17666800,
    "longitude": -99.625164,
    "name": "Estado de México",
    "country": "MX",
    "lastUpdated": "2020-04-25T00:40:08.652Z",
    "dead": 147,
    "id": "WpCXuQjYFLbozSpEhbrZ",
    "sick": 1845,
    "invisible": false
  },
  {
    "infected": 4689,
    "recovered": 112,
    "latitude": 23.685,
    "pop": 164700000,
    "longitude": 90.3563,
    "name": "Bangladesh",
    "country": "BD",
    "lastUpdated": "2020-04-25T00:51:02.266Z",
    "dead": 131,
    "id": "WpLayPPLIJ7VcHZdQaoM",
    "sick": 4446,
    "invisible": false
  },
  {
    "lastUpdated": "2020-04-25T00:40:08.549Z",
    "dead": 7,
    "id": "Wt97UDm6jfYef6WBrS2w",
    "infected": 103,
    "recovered": 0,
    "latitude": 20.836,
    "pop": 2100000,
    "longitude": -99.8508,
    "name": "Querétaro",
    "country": "MX",
    "sick": 96,
    "invisible": false
  },
  {
    "lastUpdated": "2020-04-25T00:31:01.378Z",
    "dead": 1244,
    "id": "X2iRhHF6f9pUnJcxPc3J",
    "infected": 17229,
    "recovered": 6306,
    "latitude": 45.5,
    "pop": 4905000,
    "longitude": 11.75,
    "name": "Veneto",
    "country": "IT",
    "sick": 9679,
    "invisible": false
  },
  {
    "lastUpdated": "2020-04-25T00:51:02.277Z",
    "dead": 0,
    "id": "X3GMAVINj2GDzIRVfo7n",
    "infected": 24,
    "recovered": 2,
    "latitude": -8.556856,
    "pop": 1311000,
    "longitude": 125.56031,
    "name": "Timor-Leste",
    "country": "TL",
    "sick": 22,
    "invisible": false
  },
  {
    "lastUpdated": "2020-04-25T00:41:06.962Z",
    "dead": 0,
    "id": "X3PZqaJxtnlxcgP4tzya",
    "infected": 18,
    "recovered": 16,
    "latitude": 34.152588,
    "pop": 274289,
    "longitude": 77.577049,
    "name": "Ladakh",
    "country": "IN",
    "sick": 2,
    "invisible": false
  },
  {
    "pop": 38560000,
    "longitude": 118.278992,
    "name": "Fujian",
    "country": "CN",
    "lastUpdated": "2020-04-25T00:53:10.233Z",
    "dead": 1,
    "id": "XBBw0iMPrmiEu3qogkbi",
    "infected": 355,
    "recovered": 346,
    "latitude": 25.92448,
    "sick": 8,
    "invisible": false
  },
  {
    "id": "XIYUg6ShQvWyEAJfyJzC",
    "infected": 624,
    "recovered": 0,
    "latitude": -52.368,
    "pop": 166533,
    "longitude": -70.9863,
    "name": "Magallanes",
    "country": "CL",
    "lastUpdated": "2020-04-25T00:37:15.055Z",
    "dead": 8,
    "sick": 616,
    "invisible": false
  },
  {
    "latitude": 37.794597,
    "pop": 246746,
    "longitude": -25.506134,
    "name": "Açores",
    "country": "PT",
    "lastUpdated": "2020-04-25T00:34:01.759Z",
    "dead": 8,
    "id": "XhM7BCQK50gGQ2wIUtDq",
    "infected": 109,
    "recovered": 0,
    "sick": 101,
    "invisible": false
  },
  {
    "latitude": -32.5228,
    "pop": 3457000,
    "longitude": -55.7658,
    "name": "Uruguay",
    "country": "UY",
    "lastUpdated": "2020-04-25T00:51:02.270Z",
    "dead": 12,
    "id": "XrsuLstdybIqIvv0E0aJ",
    "infected": 563,
    "recovered": 369,
    "sick": 182,
    "invisible": false
  },
  {
    "infected": 407,
    "recovered": 168,
    "latitude": 42.0396,
    "pop": 339178,
    "longitude": 9.0129,
    "name": "Corse",
    "country": "FR",
    "lastUpdated": "2020-04-24T18:40:18.051Z",
    "dead": 49,
    "id": "YGXgIObKVabP2CYEdcb9",
    "sick": 190,
    "invisible": false
  },
  {
    "id": "YI9zIOUXJqAcgc0T80yb",
    "infected": 82,
    "recovered": 26,
    "latitude": 2.916112,
    "pop": 1126000,
    "longitude": -75.28344,
    "name": "Huila",
    "country": "CO",
    "lastUpdated": "2020-04-25T00:46:08.115Z",
    "dead": 5,
    "sick": 51,
    "invisible": false
  },
  {
    "longitude": 35.2332,
    "name": "Palestine",
    "country": "PS",
    "lastUpdated": "2020-04-25T00:51:02.270Z",
    "dead": 4,
    "id": "YMzKw0SnXG71VT7H1jff",
    "infected": 484,
    "recovered": 92,
    "latitude": 31.9522,
    "pop": 5052000,
    "sick": 388,
    "invisible": false
  },
  {
    "recovered": 0,
    "latitude": 17.97,
    "pop": 2460900,
    "longitude": -92.5867,
    "name": "Tabasco",
    "country": "MX",
    "lastUpdated": "2020-04-25T00:40:08.549Z",
    "dead": 80,
    "id": "YP3nlz6AKyrnCWYb5mHA",
    "infected": 649,
    "sick": 569,
    "invisible": false
  },
  {
    "lastUpdated": "2020-04-25T00:51:02.275Z",
    "dead": 0,
    "id": "YZoy8ReFucvC3IFnWZHn",
    "infected": 52,
    "recovered": 3,
    "latitude": 11.8037491,
    "pop": 1955000,
    "longitude": -15.1804132,
    "name": "Guinea-Bissau",
    "country": "GW",
    "sick": 49,
    "invisible": false
  },
  {
    "infected": 339,
    "recovered": 0,
    "latitude": 64.2008,
    "pop": 737438,
    "longitude": -149.4937,
    "name": "Alaska",
    "country": "US",
    "lastUpdated": "2020-04-24T21:56:22.995Z",
    "dead": 9,
    "id": "YaCODTMD1KKRnrAlkg2u",
    "sick": 330,
    "invisible": false
  },
  {
    "infected": 13780,
    "recovered": 8459,
    "latitude": 42.9896,
    "pop": 2178000,
    "longitude": -2.6189,
    "name": "País Vasco",
    "country": "ES",
    "lastUpdated": "2020-04-25T00:41:04.372Z",
    "dead": 1193,
    "id": "YfA7o2lZP1DhV4JB6Umh",
    "sick": 4128,
    "invisible": false
  },
  {
    "latitude": 16.8922,
    "pop": 4091400,
    "longitude": -96.4085,
    "name": "Oaxaca",
    "country": "MX",
    "lastUpdated": "2020-04-25T00:40:08.548Z",
    "dead": 11,
    "id": "YidRsOGDERjtbaIBGCdu",
    "infected": 89,
    "recovered": 0,
    "sick": 78,
    "invisible": false
  },
  {
    "longitude": 126.99778,
    "name": "South Korea",
    "country": "KR",
    "lastUpdated": "2020-04-25T00:51:02.264Z",
    "dead": 240,
    "id": "Yw9uBekNlefXBcOCNMfP",
    "infected": 10708,
    "recovered": 8501,
    "latitude": 37.568291,
    "pop": 51470000,
    "sick": 1967,
    "invisible": false
  },