[
  {
    "latitude": 12.5847,
    "pop": 72600,
    "longitude": -81.7006,
    "name": "San Andrés",
    "country": "CO",
    "lastUpdated": "2020-04-21T10:31:12.457Z",
    "dead": 0,
    "id": "01b09TY4vmuZwzVuiRFK",
    "infected": 6,
    "recovered": 1,
    "sick": 5,
    "invisible": false
  },
  {
    "lastUpdated": "2020-04-21T10:44:10.191Z",
    "dead": 10,
    "id": "0FOJefeLxQYXQ1CnJm9o",
    "infected": 239,
    "recovered": 112,
    "latitude": 49.4482,
    "pop": 67052,
    "longitude": -2.5895,
    "name": "Guernsey",
    "country": "GG",
    "sick": 117,
    "invisible": false
  },
  {
    "infected": 4074,
    "recovered": 746,
    "latitude": 41.066666,
    "pop": 5827000,
    "longitude": 14.333333,
    "name": "Campania",
    "country": "IT",
    "lastUpdated": "2020-04-21T11:01:07.914Z",
    "dead": 309,
    "id": "0GJcws44NSPsDHAuxJhW",
    "sick": 3019,
    "invisible": false
  },
  {
    "id": "0HDQbiHe462xMCUV5HiI",
    "infected": 93,
    "recovered": 0,
    "latitude": -20.2167,
    "pop": 383870,
    "longitude": -70.14222,
    "name": "Tarapacá",
    "country": "CL",
    "lastUpdated": "2020-04-21T11:07:13.350Z",
    "dead": 0,
    "sick": 93,
    "invisible": false
  },
  {
    "infected": 79,
    "recovered": 29,
    "latitude": 20.9517,
    "pop": 45990000,
    "longitude": 85.0985,
    "name": "Odisha",
    "country": "IN",
    "lastUpdated": "2020-04-21T11:11:06.826Z",
    "dead": 1,
    "id": "0VG7S6aaK4eSo59fL9JO",
    "sick": 49,
    "invisible": false
  },
  {
    "latitude": 20.4737,
    "pop": 2990300,
    "longitude": -98.8582,
    "name": "Hidalgo",
    "country": "MX",
    "lastUpdated": "2020-04-21T11:10:08.973Z",
    "dead": 14,
    "id": "0XmCRqiK2ZaehoEJvfer",
    "infected": 92,
    "recovered": 0,
    "sick": 78,
    "invisible": false
  },
  {
    "latitude": 11.7401,
    "pop": 427246,
    "longitude": 92.6586,
    "name": "Andaman and Nicobar Islands",
    "country": "IN",
    "lastUpdated": "2020-04-21T11:11:06.827Z",
    "dead": 0,
    "id": "0jStOpTUNRaQYJqgmRoK",
    "infected": 16,
    "recovered": 11,
    "sick": 5,
    "invisible": false
  },
  {
    "lastUpdated": "2020-04-21T11:08:06.782Z",
    "dead": 9,
    "id": "0m4aECS0Z2DGFEr8ldgI",
    "infected": 6533,
    "recovered": 614,
    "latitude": 25.315058,
    "pop": 2639000,
    "longitude": 51.145517,
    "name": "Qatar",
    "country": "QA",
    "sick": 5910,
    "invisible": false
  },
  {
    "lastUpdated": "2020-04-21T11:11:06.826Z",
    "dead": 12,
    "id": "0n54EMSDJcRoT1QEvw80",
    "infected": 392,
    "recovered": 73,
    "latitude": 22.9868,
    "pop": 90320000,
    "longitude": 87.855,
    "name": "West Bengal",
    "country": "IN",
    "sick": 307,
    "invisible": false
  },
  {
    "recovered": 138,
    "latitude": 22.9734,
    "pop": 73340000,
    "longitude": 78.6569,
    "name": "Madhya Pradesh",
    "country": "IN",
    "lastUpdated": "2020-04-21T11:11:06.825Z",
    "dead": 76,
    "id": "0s18o5DrDAHjbu5MFcrj",
    "infected": 1485,
    "sick": 1271,
    "invisible": false
  },
  {
    "infected": 0,
    "recovered": 72389,
    "latitude": 37.0902,
    "longitude": -95.7129,
    "name": "Unknown US state",
    "country": "US",
    "lastUpdated": "2020-04-21T11:08:06.777Z",
    "dead": 0,
    "id": "0tFoopNTs6e4tOoaltu2",
    "invisible": true,
    "sick": 0
  },
  {
    "longitude": 108.472214,
    "name": "Shaanxi",
    "country": "CN",
    "lastUpdated": "2020-04-21T10:38:10.975Z",
    "dead": 3,
    "id": "0x2HLhr5z5xAtEdO4iZm",
    "infected": 277,
    "recovered": 253,
    "latitude": 35.64249,
    "pop": 37330000,
    "sick": 21,
    "invisible": false
  },
  {
    "id": "19MvIhipqTyYv1H37Upw",
    "infected": 1231,
    "recovered": 224,
    "latitude": 41.643351,
    "pop": 2077000,
    "longitude": 21.668393,
    "name": "North Macedonia",
    "country": "MK",
    "lastUpdated": "2020-04-21T11:08:06.786Z",
    "dead": 55,
    "sick": 952,
    "invisible": false
  },
  {
    "id": "1DOMOmCWDtva46OVSZLv",
    "infected": 257,
    "recovered": 0,
    "latitude": 53.1355,
    "pop": 521542,
    "longitude": -57.6604,
    "name": "Newfoundland and Labrador",
    "country": "CA",
    "lastUpdated": "2020-04-21T11:06:08.674Z",
    "dead": 3,
    "sick": 254,
    "invisible": false
  },
  {
    "infected": 18,
    "recovered": 18,
    "latitude": 35.801933,
    "pop": 5627000,
    "longitude": 96.779286,
    "name": "Qinghai",
    "country": "CN",
    "lastUpdated": "2020-04-21T10:38:10.977Z",
    "dead": 0,
    "id": "1Fap7rZu9SIRqf5TG9Dg",
    "sick": 0,
    "invisible": false
  },
  {
    "lastUpdated": "2020-04-21T11:08:06.782Z",
    "dead": 0,
    "id": "1YXQMlVL3fUeDZmcVfJw",
    "invisible": true,
    "infected": 0,
    "recovered": 2627,
    "latitude": 23.6345,
    "pop": 126200000,
    "longitude": -102.5528,
    "name": "Unknown Mexico state",
    "country": "MX",
    "sick": 0
  },
  {
    "latitude": 44.9,
    "pop": 4376000,
    "longitude": 8.206944,
    "name": "Piemonte",
    "country": "IT",
    "lastUpdated": "2020-04-21T11:01:07.915Z",
    "dead": 2409,
    "id": "1eTSQyfp8RoDPeFrIwun",
    "infected": 21349,
    "recovered": 4383,
    "sick": 14557,
    "invisible": false
  },
  {
    "lastUpdated": "2020-04-21T10:50:09.059Z",
    "dead": 0,
    "id": "1j1OurxLTpZYuWIWwQ9F",
    "infected": 83,
    "recovered": 0,
    "latitude": 51.993,
    "pop": 1003000,
    "longitude": 15.461,
    "name": "Lubuskie",
    "country": "PL",
    "sick": 83,
    "invisible": false
  },
  {
    "recovered": 505,
    "latitude": 47.4116,
    "pop": 3550000,
    "longitude": 28.3699,
    "name": "Moldova",
    "country": "MD",
    "lastUpdated": "2020-04-21T11:08:06.784Z",
    "dead": 72,
    "id": "1qTPB8X3tyLyIdsb5TN3",
    "infected": 2548,
    "sick": 1971,
    "invisible": false
  },
  {
    "latitude": 37.0902,
    "longitude": -95.7129,
    "name": "Federal Bureau of Prisons",
    "country": "US",
    "lastUpdated": "2020-04-21T11:14:21.482Z",
    "dead": 22,
    "id": "22PJOAThcDFKgSbyQIkD",
    "invisible": true,
    "infected": 816,
    "recovered": 0,
    "sick": 794
  },
  {
    "latitude": 30.15336,
    "pop": 3180000,
    "longitude": 88.787865,
    "name": "Tibet",
    "country": "CN",
    "lastUpdated": "2020-04-21T10:38:10.980Z",
    "dead": 0,
    "id": "25qIBtsW2nfQj3pwBKg9",
    "infected": 1,
    "recovered": 1,
    "sick": 0,
    "invisible": false
  },
  {
    "latitude": -1.572184,
    "pop": 264000000,
    "longitude": 115.66779,
    "name": "Indonesia",
    "country": "ID",
    "lastUpdated": "2020-04-21T11:08:06.782Z",
    "dead": 616,
    "id": "2KHYUb5t3lwzVVmDjwNX",
    "infected": 7135,
    "recovered": 842,
    "sick": 5677,
    "invisible": false
  },
  {
    "lastUpdated": "2020-04-21T11:14:21.481Z",
    "dead": 75,
    "id": "2OrsssmGUs4XCzaZzvTv",
    "infected": 1956,
    "recovered": 0,
    "latitude": 43.807191,
    "pop": 4191000,
    "longitude": -120.585594,
    "name": "Oregon",
    "country": "US",
    "sick": 1881,
    "invisible": false
  },
  {
    "infected": 263,
    "recovered": 0,
    "latitude": -23.65,
    "pop": 425000,
    "longitude": -70.400002,
    "name": "Antofagasta",
    "country": "CL",
    "lastUpdated": "2020-04-21T11:07:13.351Z",
    "dead": 1,
    "id": "2c5HBZ1ffkCVXnMYUWnY",
    "sick": 262,
    "invisible": false
  },
  {
    "longitude": -51.070534,
    "name": "Amapá",
    "country": "BR",
    "lastUpdated": "2020-04-21T10:46:01.785Z",
    "dead": 13,
    "id": "2dzhyWsBSPpENWlNew0b",
    "infected": 433,
    "recovered": 0,
    "latitude": 0.035574,
    "pop": 9029000,
    "sick": 420,
    "invisible": false
  },
  {
    "latitude": 43.851921,
    "pop": 27460000,
    "longitude": 126.548103,
    "name": "Jilin",
    "country": "CN",
    "lastUpdated": "2020-04-21T10:38:10.976Z",
    "dead": 1,
    "id": "2jxHvSsxdnom0nPNvOT8",
    "infected": 106,
    "recovered": 97,
    "sick": 8,
    "invisible": false
  },
  {
    "latitude": 36.1408,
    "pop": 34571,
    "longitude": -5.3536,
    "name": "Gibraltar",
    "country": "GI",
    "lastUpdated": "2020-04-21T11:08:06.792Z",
    "dead": 0,
    "id": "2p11BjSAs3wVyymgqBOe",
    "infected": 132,
    "recovered": 120,
    "sick": 12,
    "invisible": false
  },
  {
    "latitude": 47.7516,
    "pop": 2567000,
    "longitude": 1.6751,
    "name": "Centre-Val de Loire",
    "country": "FR",
    "lastUpdated": "2020-04-21T08:38:39.910Z",
    "dead": 298,
    "id": "2sLNkkHpyaHx7dD3aMDO",
    "infected": 3059,
    "recovered": 896,
    "sick": 1865,
    "invisible": false
  },
  {
    "lastUpdated": "2020-04-21T11:01:07.915Z",
    "dead": 58,
    "id": "319tiZOMczx1y0DfvOib",
    "infected": 1349,
    "recovered": 867,
    "latitude": 42.565044,
    "pop": 884640,
    "longitude": 12.643751,
    "name": "Umbria",
    "country": "IT",
    "sick": 424,
    "invisible": false
  },
  {
    "infected": 24,
    "recovered": 8,
    "latitude": 2.43823,
    "pop": 1355000,
    "longitude": -76.6131592,
    "name": "Cauca",
    "country": "CO",
    "lastUpdated": "2020-04-21T10:31:12.456Z",
    "dead": 3,
    "id": "38T96Q3XNjt5FSJygPed",
    "sick": 13,
    "invisible": false
  },
  {
    "latitude": -13.133896,
    "pop": 17090000,
    "longitude": 27.849332,
    "name": "Zambia",
    "country": "ZM",
    "lastUpdated": "2020-04-21T11:08:06.799Z",
    "dead": 3,
    "id": "3IlPjAbP5qVMn1nlgLTJ",
    "infected": 70,
    "recovered": 35,
    "sick": 32,
    "invisible": false
  },
  {
    "recovered": 90,
    "latitude": 42.7044,
    "pop": 631219,
    "longitude": 19.3958,
    "name": "Montenegro",
    "country": "ME",
    "lastUpdated": "2020-04-21T11:08:06.789Z",
    "dead": 5,
    "id": "3LstMSN5XMYBkxbe5HN7",
    "infected": 313,
    "sick": 218,
    "invisible": false
  },
  {
    "infected": 104,
    "recovered": 88,
    "latitude": -35.4735,
    "pop": 418440,
    "longitude": 149.0124,
    "name": "Australian Capital Territory",
    "country": "AU",
    "lastUpdated": "2020-04-21T11:06:08.675Z",
    "dead": 3,
    "id": "3OZoQsKrzxZ18EKyfGE6",
    "sick": 13,
    "invisible": false
  },
  {
    "recovered": 19,
    "latitude": 26.2006,
    "pop": 30940000,
    "longitude": 92.9376,
    "name": "Assam",
    "country": "IN",
    "lastUpdated": "2020-04-21T11:11:06.827Z",
    "dead": 1,
    "id": "3cCbnJCsK7mKlTO08K1o",
    "infected": 35,
    "sick": 15,
    "invisible": false
  },
  {
    "infected": 12919,
    "recovered": 0,
    "latitude": 40.4173,
    "pop": 11690000,
    "longitude": -82.9071,
    "name": "Ohio",
    "country": "US",
    "lastUpdated": "2020-04-21T11:14:21.479Z",
    "dead": 509,
    "id": "3fC3bAyIRUquOQOEnQNe",
    "sick": 12410,
    "invisible": false
  },
  {
    "latitude": 25,
    "pop": 3066400,
    "longitude": -107.5,
    "name": "Sinaloa",
    "country": "MX",
    "lastUpdated": "2020-04-21T11:10:08.967Z",
    "dead": 49,
    "id": "3kFCzJguabtBvXaHxgiu",
    "infected": 504,
    "recovered": 0,
    "sick": 455,
    "invisible": false
  },
  {
    "lastUpdated": "2020-04-21T10:31:12.454Z",
    "dead": 36,
    "id": "3mC2LveOpXV8P1PmQGUj",
    "infected": 668,
    "recovered": 96,
    "latitude": 3.420556,
    "pop": 4708300,
    "longitude": -76.522224,
    "name": "Valle del Cauca",
    "country": "CO",
    "sick": 536,
    "invisible": false
  },
  {
    "latitude": 21.0079,
    "pop": 4420000,
    "longitude": -10.9408,
    "name": "Mauritania",
    "country": "MR",
    "lastUpdated": "2020-04-21T11:08:06.805Z",
    "dead": 1,
    "id": "4NnFMekRK2m14IlnZZoj",
    "infected": 7,
    "recovered": 6,
    "sick": 0,
    "invisible": false
  },
  {
    "id": "4hfZRUoUgI4a3vrG0GBk",
    "infected": 1699,
    "recovered": 0,
    "latitude": 53.7267,
    "pop": 5071000,
    "longitude": -127.6476,
    "name": "British Columbia",
    "country": "CA",
    "lastUpdated": "2020-04-21T11:06:08.672Z",
    "dead": 86,
    "sick": 1613,
    "invisible": false
  },
  {
    "infected": 4899,
    "recovered": 0,
    "latitude": -22.908333,
    "pop": 17159960,
    "longitude": -43.196388,
    "name": "Rio de Janeiro",
    "country": "BR",
    "lastUpdated": "2020-04-21T10:46:01.786Z",
    "dead": 422,
    "id": "4kq0z3kh5zt3YAUWxvtE",
    "sick": 4477,
    "invisible": false
  },
  {
    "latitude": -11.409874,
    "pop": 14812617,
    "longitude": -41.280857,
    "name": "Bahia",
    "country": "BR",
    "lastUpdated": "2020-04-21T10:46:01.785Z",
    "dead": 46,
    "id": "4yDbkEyqsNzZJjfrciYV",
    "infected": 1341,
    "recovered": 0,
    "sick": 1295,
    "invisible": false
  },
  {
    "latitude": 40.3426,
    "pop": 9898000,
    "longitude": 47.93802,
    "name": "Azerbaijan",
    "country": "AZ",
    "lastUpdated": "2020-04-21T11:08:06.785Z",
    "dead": 19,
    "id": "4zqzRm2xHn0CDVOUQJ8p",
    "infected": 1436,
    "recovered": 791,
    "sick": 626,
    "invisible": false
  },
  {
    "infected": 201,
    "recovered": 0,
    "latitude": 22.233105,
    "pop": 3672300,
    "longitude": -97.861099,
    "name": "Tamaulipas",
    "country": "MX",
    "lastUpdated": "2020-04-21T11:10:08.969Z",
    "dead": 6,
    "id": "54cfsdsRF76XVHWtZs19",
    "sick": 195,
    "invisible": false
  },
  {
    "infected": 23325,
    "recovered": 5100,
    "latitude": 51.0109,
    "pop": 6596000,
    "longitude": 3.7265,
    "name": "Flanders",
    "country": "BE",
    "lastUpdated": "2020-04-21T10:59:11.016Z",
    "dead": 2964,
    "id": "57ydD48mLRD2YoyteJZj",
    "sick": 15261,
    "invisible": false
  },
  {
    "latitude": 25.025885,
    "pop": 395361,
    "longitude": -78.035889,
    "name": "Bahamas",
    "country": "BS",
    "lastUpdated": "2020-04-21T11:08:06.799Z",
    "dead": 9,
    "id": "5MHegCUO9L3LiAU7DDey",
    "infected": 60,
    "recovered": 11,
    "sick": 40,
    "invisible": false
  },
  {
    "lastUpdated": "2020-04-21T11:06:08.672Z",
    "dead": 26,
    "id": "5N16a2OXXRpsEFanw0TC",
    "infected": 2969,
    "recovered": 1379,
    "latitude": -31.253218,
    "pop": 7544000,
    "longitude": 146.921097,
    "name": "New South Wales",
    "country": "AU",
    "sick": 1564,
    "invisible": false
  },
  {
    "longitude": 31.3069782,
    "name": "South Sudan",
    "country": "SS",
    "lastUpdated": "2020-04-21T11:08:06.806Z",
    "dead": 0,
    "id": "5N4PRxsCDzzwk7R200V1",
    "infected": 4,
    "recovered": 0,
    "latitude": 6.8769908,
    "pop": 12580000,
    "sick": 4,
    "invisible": false
  },
  {
    "lastUpdated": "2020-04-21T11:11:09.050Z",
    "dead": 1089,
    "id": "5Va9A7CXR8AXdUz4HTJj",
    "infected": 10084,
    "recovered": 4719,
    "latitude": 39.484,
    "pop": 4975000,
    "longitude": -0.7533,
    "name": "C. Valenciana",
    "country": "ES",
    "sick": 4276,
    "invisible": false
  },
  {
    "infected": 18,
    "recovered": 17,
    "latitude": -20.9043045,
    "pop": 280460,
    "longitude": 165.618042,
    "name": "New Caledonia",
    "country": "NC",
    "lastUpdated": "2020-04-21T11:08:06.802Z",
    "dead": 0,
    "id": "5fg04eyDwFw3kEXnrxez",
    "sick": 1,
    "invisible": false
  },
  {
    "lastUpdated": "2020-04-21T11:08:06.801Z",
    "dead": 0,
    "id": "5gXZIjRgAvd6xWN1LOv8",
    "infected": 32,
    "recovered": 4,
    "latitude": 28.394857,
    "pop": 29300000,
    "longitude": 84.124008,
    "name": "Nepal",
    "country": "NP",
    "sick": 28,
    "invisible": false
  },
  {
    "pop": 104900000,
    "longitude": 121.774017,
    "name": "Philippines",
    "country": "PH",
    "lastUpdated": "2020-04-21T11:08:06.782Z",
    "dead": 437,
    "id": "5pwmh7aSdGRKqRbnuyc0",
    "infected": 6599,
    "recovered": 654,
    "latitude": 12.879721,
    "sick": 5508,
    "invisible": false
  },
  {
    "lastUpdated": "2020-04-21T11:08:06.801Z",
    "dead": 3,
    "id": "5qtR9nx4BLwu1ODTniaY",
    "infected": 25,
    "recovered": 2,
    "latitude": -17.824858,
    "pop": 14802190,
    "longitude": 31.053028,
    "name": "Zimbabwe",
    "country": "ZW",
    "sick": 20,
    "invisible": false
  },
  {
    "pop": 356890,
    "longitude": -109.188,
    "name": "Navajo Nation",
    "country": "US",
    "lastUpdated": "2020-04-21T11:14:21.481Z",
    "dead": 45,
    "id": "5vkKgxTaKq1IH0Go357L",
    "invisible": true,
    "infected": 1321,
    "recovered": 0,
    "latitude": 36.0672,
    "sick": 1276
  },
  {
    "recovered": 0,
    "latitude": 19.432241,
    "pop": 8781300,
    "longitude": -99.177254,
    "name": "Ciudad de México",
    "country": "MX",
    "lastUpdated": "2020-04-21T11:10:08.968Z",
    "dead": 183,
    "id": "61E7TGjUwAo9xu6Y6gAH",
    "infected": 2710,
    "sick": 2527,
    "invisible": false
  },
  {
    "recovered": 298,
    "latitude": 55.621011,
    "pop": 2794000,
    "longitude": 23.804991,
    "name": "Lithuania",
    "country": "LT",
    "lastUpdated": "2020-04-21T11:08:06.786Z",
    "dead": 37,
    "id": "694ON7d0mRJDeM1gHBTR",
    "infected": 1350,
    "sick": 1015,
    "invisible": false
  },
  {
    "infected": 12878,
    "recovered": 0,
    "latitude": 51.1781,
    "pop": 9175000,
    "longitude": -0.5596,
    "name": "South East",
    "country": "GB",
    "lastUpdated": "2020-04-21T11:09:26.151Z",
    "dead": 0,
    "id": "6IQAsvrmBv0HPdeTnh4x",
    "sick": 12878,
    "invisible": false
  },
  {
    "latitude": 22.396427,
    "pop": 7392000,
    "longitude": 114.109497,
    "name": "Hong Kong",
    "country": "HK",
    "lastUpdated": "2020-04-21T11:08:06.786Z",
    "dead": 4,
    "id": "6IcHIIH0zXpY0POmBZTv",
    "infected": 1030,
    "recovered": 650,
    "sick": 376,
    "invisible": false
  },
  {
    "id": "6LQesrx5bHJsVUi1TXBp",
    "infected": 176,
    "recovered": 0,
    "latitude": -8.65,
    "pop": 869265,
    "longitude": -72.4,
    "name": "Acre",
    "country": "BR",
    "lastUpdated": "2020-04-21T10:46:01.784Z",
    "dead": 8,
    "sick": 168,
    "invisible": false
  },
  {
    "lastUpdated": "2020-04-21T11:08:06.800Z",
    "dead": 1,
    "id": "6SlpghTyB6lpMFvx3g9U",
    "infected": 54,
    "recovered": 27,
    "latitude": 9.3077,
    "pop": 11180000,
    "longitude": 2.3158,
    "name": "Benin",
    "country": "BJ",
    "sick": 26,
    "invisible": false
  },
  {
    "infected": 66971,
    "recovered": 20008,
    "latitude": 45.6667,
    "pop": 10040000,
    "longitude": 9.5,
    "name": "Lombardia",
    "country": "IT",
    "lastUpdated": "2020-04-21T11:01:07.915Z",
    "dead": 12376,
    "id": "6ZHcvMIzVWIaRnc4R3Qp",
    "sick": 34587,
    "invisible": false
  },
  {
    "latitude": 46.0569,
    "pop": 2067000,
    "longitude": 14.5058,
    "name": "Slovenia",
    "country": "SI",
    "lastUpdated": "2020-04-21T11:08:06.786Z",
    "dead": 77,
    "id": "6ahNiyKDSDAftCctgLH3",
    "infected": 1335,
    "recovered": 193,
    "sick": 1065,
    "invisible": false
  },
  {
    "infected": 13,
    "recovered": 0,
    "latitude": -27.3667908,
    "pop": 300000,
    "longitude": -70.331398,
    "name": "Atacama",
    "country": "CL",
    "lastUpdated": "2020-04-21T11:07:13.352Z",
    "dead": 0,
    "id": "6nyns7UGGgkU7pxrHf8i",
    "sick": 13,
    "invisible": false
  },
  {
    "lastUpdated": "2020-04-21T11:08:06.792Z",
    "dead": 1,
    "id": "6pBi38TUgYfFm0bry2uh",
    "infected": 120,
    "recovered": 7,
    "latitude": -0.8037,
    "pop": 2025000,
    "longitude": 11.6094,
    "name": "Gabon",
    "country": "GA",
    "sick": 112,
    "invisible": false
  },
  {
    "longitude": -100.9792,
    "name": "San Luis Potosí",
    "country": "MX",
    "lastUpdated": "2020-04-21T11:10:08.970Z",
    "dead": 5,
    "id": "6vjIVg1gSANFZghV7xtS",
    "infected": 69,
    "recovered": 0,
    "latitude": 22.1498,
    "pop": 2831900,
    "sick": 64,
    "invisible": false
  },
  {
    "infected": 6,
    "recovered": 5,
    "latitude": 17.901672,
    "pop": 9131,
    "longitude": -62.818544,
    "name": "Saint-Barthélémy",
    "country": "FR",
    "lastUpdated": "2020-04-21T11:08:06.806Z",
    "dead": 0,
    "id": "78Ox26bNHDA2Pk2b3Uwn",
    "sick": 1,
    "invisible": false
  },
  {
    "pop": 2305000,
    "longitude": 18.633,
    "name": "Pomorskie",
    "country": "PL",
    "lastUpdated": "2020-04-21T10:50:09.059Z",
    "dead": 2,
    "id": "7JDx6UJiwGSJyL1fChaJ",
    "infected": 219,
    "recovered": 0,
    "latitude": 54.367,
    "sick": 217,
    "invisible": false
  },
  {
    "latitude": 35.2923,
    "pop": 84690,
    "longitude": -2.9381,
    "name": "Melilla",
    "country": "ES",
    "lastUpdated": "2020-04-21T11:11:09.051Z",
    "dead": 2,
    "id": "7UASdZTZ1nPzzBwSTEA9",
    "infected": 105,
    "recovered": 46,
    "sick": 57,
    "invisible": false
  },
  {
    "longitude": -61.7964,
    "name": "Antigua and Barbuda",
    "country": "AG",
    "lastUpdated": "2020-04-21T11:08:06.801Z",
    "dead": 3,
    "id": "7hVFcEV7nV0MrQr3LHrl",
    "infected": 23,
    "recovered": 3,
    "latitude": 17.0608,
    "pop": 102012,
    "sick": 17,
    "invisible": false
  },
  {
    "latitude": 48.7904,
    "pop": 13000000,
    "longitude": 11.4979,
    "name": "Bayern",
    "country": "DE",
    "lastUpdated": "2020-04-21T11:00:10.074Z",
    "dead": 1447,
    "id": "7kCrrlOBE3jN6FtOVNUB",
    "infected": 39013,
    "recovered": 21620,
    "sick": 15946,
    "invisible": false
  },
  {
    "latitude": 47.4979,
    "pop": 9773000,
    "longitude": 19.0402,
    "name": "Hungary",
    "country": "HU",
    "lastUpdated": "2020-04-21T11:08:06.784Z",
    "dead": 213,
    "id": "7rYC2iFB50c55Ihgbs4Q",
    "infected": 2098,
    "recovered": 287,
    "sick": 1598,
    "invisible": false
  },
  {
    "recovered": 32,
    "latitude": 10.9685,
    "pop": 2400000,
    "longitude": -74.7813,
    "name": "Barranquilla D.E.",
    "country": "CO",
    "lastUpdated": "2020-04-21T10:31:12.456Z",
    "dead": 3,
    "id": "7tqLvLyXcBDK808nJv0m",
    "infected": 80,
    "sick": 45,
    "invisible": false
  },
  {
    "lastUpdated": "2020-04-21T11:08:06.786Z",
    "dead": 42,
    "id": "8C0d7WVCjyUGtnc2gUAR",
    "infected": 1163,
    "recovered": 305,
    "latitude": 7.3697,
    "pop": 24050000,
    "longitude": 12.3547,
    "name": "Cameroon",
    "country": "CM",
    "sick": 816,
    "invisible": false
  },
  {
    "infected": 4169,
    "recovered": 1474,
    "latitude": 50.8503,
    "pop": 1209000,
    "longitude": 4.3517,
    "name": "Brussels",
    "country": "BE",
    "lastUpdated": "2020-04-21T10:59:11.009Z",
    "dead": 942,
    "id": "8DOZWbN6bDdgaLXVlUEu",
    "sick": 1753,
    "invisible": false
  },
  {
    "lastUpdated": "2020-04-21T11:08:06.788Z",
    "dead": 34,
    "id": "8RihJrXw4NQXPxaRxr1u",
    "infected": 598,
    "recovered": 37,
    "latitude": -16.2902,
    "pop": 11050000,
    "longitude": -63.5887,
    "name": "Bolivia",
    "country": "BO",
    "sick": 527,
    "invisible": false
  },
  {
    "latitude": 12.9843,
    "pop": 109897,
    "longitude": -61.2872,
    "name": "St. Vincent Grenadines",
    "country": "VC",
    "lastUpdated": "2020-04-21T11:08:06.804Z",
    "dead": 0,
    "id": "8ZTySQROQejkDAad0qxQ",
    "infected": 12,
    "recovered": 2,
    "sick": 10,
    "invisible": false
  },
  {
    "infected": 9125,
    "recovered": 801,
    "latitude": 1.352083,
    "pop": 5621000,
    "longitude": 103.819839,
    "name": "Singapore",
    "country": "SG",
    "lastUpdated": "2020-04-21T11:08:06.781Z",
    "dead": 11,
    "id": "8pA3fM4xC2c2wv1b4TnE",
    "sick": 8313,
    "invisible": false
  },
  {
    "latitude": 47.2184,
    "pop": 3787000,
    "longitude": -1.5536,
    "name": "Pays de la Loire",
    "country": "FR",
    "lastUpdated": "2020-04-21T08:35:04.902Z",
    "dead": 268,
    "id": "98hwAoohgWEOQVa3NlM5",
    "infected": 2840,
    "recovered": 957,
    "sick": 1615,
    "invisible": false
  },
  {
    "infected": 63,
    "recovered": 0,
    "latitude": 19.30754,
    "pop": 952300,
    "longitude": -90.19885,
    "name": "Campeche",
    "country": "MX",
    "lastUpdated": "2020-04-21T11:10:08.968Z",
    "dead": 4,
    "id": "9DAvxOObTqIvMOU93nlY",
    "sick": 59,
    "invisible": false
  },
  {
    "infected": 107,
    "recovered": 8,
    "latitude": 12.8628,
    "pop": 40530000,
    "longitude": 30.2176,
    "name": "Sudan",
    "country": "SD",
    "lastUpdated": "2020-04-21T11:08:06.792Z",
    "dead": 12,
    "id": "9DPOkpIqrFy9mR4e9fuv",
    "sick": 87,
    "invisible": false
  },
  {
    "latitude": 45.943161,
    "pop": 19530000,
    "longitude": 24.966761,
    "name": "Romania",
    "country": "RO",
    "lastUpdated": "2020-04-21T11:08:06.781Z",
    "dead": 482,
    "id": "9QcETqEcM2fTv9zRvx5T",
    "infected": 9242,
    "recovered": 2153,
    "sick": 6607,
    "invisible": false
  },
  {
    "infected": 10,
    "recovered": 6,
    "latitude": 12.136389,
    "pop": 6218000,
    "longitude": -86.251389,
    "name": "Nicaragua",
    "country": "NI",
    "lastUpdated": "2020-04-21T11:08:06.804Z",
    "dead": 2,
    "id": "9Y5wmCqNCC6ZrenM31uA",
    "sick": 2,
    "invisible": false
  },
  {
    "infected": 246,
    "recovered": 56,
    "latitude": 17.5706921,
    "pop": 18540000,
    "longitude": -3.996166,
    "name": "Mali",
    "country": "ML",
    "lastUpdated": "2020-04-21T11:08:06.791Z",
    "dead": 14,
    "id": "9dIzxqDSVqPyINkHqwGv",
    "sick": 176,
    "invisible": false
  },
  {
    "infected": 4014,
    "recovered": 2000,
    "latitude": 61.92411,
    "pop": 5513000,
    "longitude": 25.748152,
    "name": "Finland",
    "country": "FI",
    "lastUpdated": "2020-04-21T11:08:06.783Z",
    "dead": 98,
    "id": "9p6OCdZbUUwBLA60Gk3W",
    "sick": 1916,
    "invisible": false
  },
  {
    "lastUpdated": "2020-04-21T11:14:21.481Z",
    "dead": 42,
    "id": "A84CwQ52kA46Hr7pn6Bm",
    "infected": 1447,
    "recovered": 0,
    "latitude": 43.311643,
    "pop": 1356000,
    "longitude": -71.590315,
    "name": "New Hampshire",
    "country": "US",
    "sick": 1405,
    "invisible": false
  },
  {
    "longitude": -71.412257,
    "name": "Rhode Island",
    "country": "US",
    "lastUpdated": "2020-04-21T11:14:21.480Z",
    "dead": 155,
    "id": "AEUWUHS65qvjEslew11c",
    "infected": 5090,
    "recovered": 0,
    "latitude": 41.823261,
    "pop": 1057000,
    "sick": 4935,
    "invisible": false
  },
  {
    "id": "AJ9jQ0iyKsafsmf5yHAR",
    "infected": 22867,
    "recovered": 6266,
    "latitude": 44.498955,
    "pop": 4453000,
    "longitude": 11.327591,
    "name": "Emilia-Romagna",
    "country": "IT",
    "lastUpdated": "2020-04-21T11:01:07.914Z",
    "dead": 3079,
    "sick": 13522,
    "invisible": false
  },
  {
    "infected": 2348,
    "recovered": 1111,
    "latitude": 49.3964,
    "pop": 990509,
    "longitude": 7.023,
    "name": "Saarland",
    "country": "DE",
    "lastUpdated": "2020-04-21T11:00:10.076Z",
    "dead": 102,
    "id": "AKjFRQGnzuuZQhv5Qwx7",
    "sick": 1135,
    "invisible": false
  },
  {
    "latitude": -35.717,
    "pop": 1125002,
    "longitude": -71.167,
    "name": "Maule",
    "country": "CL",
    "lastUpdated": "2020-04-21T11:07:13.353Z",
    "dead": 10,
    "id": "APTPgjAsjFi0nsGyJV7M",
    "infected": 304,
    "recovered": 0,
    "sick": 294,
    "invisible": false
  },
  {
    "latitude": 71.7069,
    "pop": 56171,
    "longitude": -42.6043,
    "name": "Greenland",
    "country": "GL",
    "lastUpdated": "2020-04-21T11:08:06.804Z",
    "dead": 0,
    "id": "APaZzlGCEeuoLBtzTJMe",
    "infected": 11,
    "recovered": 11,
    "sick": 0,
    "invisible": false
  },
  {
    "infected": 721,
    "recovered": 0,
    "latitude": 45.65107,
    "pop": 971395,
    "longitude": -63.582687,
    "name": "Nova Scotia",
    "country": "CA",
    "lastUpdated": "2020-04-21T11:06:08.674Z",
    "dead": 9,
    "id": "AVCpxeh0fuH2WrHWNDYH",
    "sick": 712,
    "invisible": false
  },
  {
    "longitude": -109.128641,
    "name": "Montana",
    "country": "US",
    "lastUpdated": "2020-04-21T11:14:21.483Z",
    "dead": 10,
    "id": "AcULcZBozObOhwuRKMjJ",
    "infected": 433,
    "recovered": 0,
    "latitude": 47.012918,
    "pop": 1062000,
    "sick": 423,
    "invisible": false
  },
  {
    "lastUpdated": "2020-04-21T10:38:10.977Z",
    "dead": 1,
    "id": "AmBYm5J6E9Cuez1FQjiN",
    "infected": 937,
    "recovered": 936,
    "latitude": 27.285971,
    "pop": 45200000,
    "longitude": 116.01609,
    "name": "Jiangxi",
    "country": "CN",
    "sick": 0,
    "invisible": false
  },
  {
    "latitude": 52.1307,
    "pop": 3136000,
    "longitude": -3.7837,
    "name": "Wales",
    "country": "GB",
    "lastUpdated": "2020-04-21T11:09:26.150Z",
    "dead": 584,
    "id": "AoLhHdTydeWTfmp9koEX",
    "infected": 7546,
    "recovered": 0,
    "sick": 6962,
    "invisible": false
  },
  {
    "lastUpdated": "2020-04-21T11:08:06.784Z",
    "dead": 384,
    "id": "AwN0CScPDApcLFgz6e3z",
    "infected": 2718,
    "recovered": 1099,
    "latitude": 28.033886,
    "pop": 41320000,
    "longitude": 1.659626,
    "name": "Algeria",
    "country": "DZ",
    "sick": 1235,
    "invisible": false
  },
  {
    "recovered": 771,
    "latitude": 45.099998,
    "pop": 4076000,
    "longitude": 15.2,
    "name": "Croatia",
    "country": "HR",
    "lastUpdated": "2020-04-21T11:08:06.785Z",
    "dead": 47,
    "id": "B82Ef45M8cDu4q7VsSHF",
    "infected": 1881,
    "sick": 1063,
    "invisible": false
  },
  {
    "infected": 655,
    "recovered": 124,
    "latitude": 17.6077881,
    "pop": 23716000,
    "longitude": 8.081666,
    "name": "Niger",
    "country": "NE",
    "lastUpdated": "2020-04-21T11:08:06.787Z",
    "dead": 20,
    "id": "BENubqQInFUJzhpZTsLT",
    "sick": 511,
    "invisible": false
  },
  {
    "latitude": 39.509109,
    "pop": 6043000,
    "longitude": -76.98432,
    "name": "Maryland",
    "country": "US",
    "lastUpdated": "2020-04-21T11:14:21.478Z",
    "dead": 582,
    "id": "BF51mWl51fgEcyBpCSzb",
    "infected": 13684,
    "recovered": 0,
    "sick": 13102,
    "invisible": false
  },
  {
    "infected": 6264,
    "recovered": 514,
    "latitude": 53.709808,
    "pop": 9508000,
    "longitude": 27.953388,
    "name": "Belarus",
    "country": "BY",
    "lastUpdated": "2020-04-21T11:08:06.783Z",
    "dead": 51,
    "id": "BGg6yVU5VP71B8NXU0oh",
    "sick": 5699,
    "invisible": false
  },
  {
    "lastUpdated": "2020-04-21T08:34:50.769Z",
    "dead": 283,
    "id": "BGtoyzb7y54LVlJ91rbf",
    "infected": 2509,
    "recovered": 821,
    "latitude": 48.8799,
    "pop": 3319000,
    "longitude": 0.1713,
    "name": "Normandie",
    "country": "FR",
    "sick": 1405,
    "invisible": false
  },
  {
    "recovered": 0,
    "latitude": 50.7772,
    "pop": 5616000,
    "longitude": -3.9995,
    "name": "South West",
    "country": "GB",
    "lastUpdated": "2020-04-21T11:09:26.151Z",
    "dead": 0,
    "id": "BQqMOlPFD36ZEDTGd3WC",
    "infected": 4861,
    "sick": 4861,
    "invisible": false
  },
  {
    "latitude": 34.048927,
    "pop": 7172000,
    "longitude": -111.093735,
    "name": "Arizona",
    "country": "US",
    "lastUpdated": "2020-04-21T11:14:21.480Z",
    "dead": 191,
    "id": "BTEESCuD2ZbS1afunR2A",
    "infected": 5068,
    "recovered": 0,
    "sick": 4877,
    "invisible": false
  },
  {
    "lastUpdated": "2020-04-21T10:50:09.058Z",
    "dead": 4,
    "id": "BZwZOAlDJ8AIiaRVLyC9",
    "infected": 279,
    "recovered": 0,
    "latitude": 53.428543,
    "pop": 1676000,
    "longitude": 14.552812,
    "name": "Zachodniopomorskie",
    "country": "PL",
    "sick": 275,
    "invisible": false
  },
  {
    "lastUpdated": "2020-04-21T11:07:13.353Z",
    "dead": 0,
    "id": "BbiuZcm8oURX7cZwaa5U",
    "invisible": true,
    "infected": 0,
    "recovered": 4476,
    "latitude": -33.4489,
    "longitude": -70.6693,
    "name": "Unknown Chile region",
    "country": "CL",
    "sick": 0
  },
  {
    "longitude": 34.3015,
    "name": "Malawi",
    "country": "MW",
    "lastUpdated": "2020-04-21T11:08:06.802Z",
    "dead": 2,
    "id": "BfT8o5DaEixC6JIZ28kY",
    "infected": 17,
    "recovered": 3,
    "latitude": -13.2543,
    "pop": 18620000,
    "sick": 12,
    "invisible": false
  },
  {
    "latitude": -3.3730559,
    "pop": 10860000,
    "longitude": 29.9188862,
    "name": "Burundi",
    "country": "BI",
    "lastUpdated": "2020-04-21T11:08:06.806Z",
    "dead": 1,
    "id": "BnpMamidC5yYzeK8tPUL",
    "infected": 5,
    "recovered": 4,
    "sick": 0,
    "invisible": false
  },
  {
    "infected": 2030,
    "recovered": 0,
    "latitude": 52.257,
    "pop": 5385000,
    "longitude": 21.002,
    "name": "Mazowieckie",
    "country": "PL",
    "lastUpdated": "2020-04-21T10:50:09.051Z",
    "dead": 116,
    "id": "BrToMzyq8y2xdwXn75kM",
    "sick": 1914,
    "invisible": false
  },
  {
    "lastUpdated": "2020-04-21T11:16:09.838Z",
    "dead": 0,
    "id": "C25xSDm4iYibX5RYML14",
    "infected": 4,
    "recovered": 0,
    "latitude": -1.333845,
    "pop": 74751,
    "longitude": -71.347573,
    "name": "Amazonas (Colombia)",
    "country": "CO",
    "sick": 4,
    "invisible": false
  },
  {
    "infected": 253311,
    "recovered": 0,
    "latitude": 40.719042,
    "pop": 19540000,
    "longitude": -73.982597,
    "name": "New York",
    "country": "US",
    "lastUpdated": "2020-04-21T11:14:21.467Z",
    "dead": 18822,
    "id": "C3BCUzV80z9GfiuByIcr",
    "sick": 234489,
    "invisible": false
  },
  {
    "lastUpdated": "2020-04-21T11:08:06.782Z",
    "dead": 196,
    "id": "C6S76AggdWVU8G22jFHQ",
    "infected": 6914,
    "recovered": 1597,
    "latitude": 49.731626,
    "pop": 10650000,
    "longitude": 15.359413,
    "name": "Czechia",
    "country": "CZ",
    "sick": 5121,
    "invisible": false
  },
  {
    "lastUpdated": "2020-04-21T11:08:06.785Z",
    "dead": 7,
    "id": "C7cj4nwRITs13KnaJrQ2",
    "infected": 1907,
    "recovered": 769,
    "latitude": 26.0667,
    "pop": 1493000,
    "longitude": 50.557701,
    "name": "Bahrain",
    "country": "BH",
    "sick": 1131,
    "invisible": false
  },
  {
    "infected": 19,
    "recovered": 1,
    "latitude": 10.4113,
    "pop": 1285400,
    "longitude": -74.4057,
    "name": "Magdalena",
    "country": "CO",
    "lastUpdated": "2020-04-21T11:16:09.837Z",
    "dead": 2,
    "id": "CA9LaAl3bNaeAqBuozn4",
    "sick": 16,
    "invisible": false
  },
  {
    "latitude": 26.909979,
    "pop": 3073500,
    "longitude": -101.430756,
    "name": "Coahuila",
    "country": "MX",
    "lastUpdated": "2020-04-21T11:10:08.968Z",
    "dead": 23,
    "id": "CCUFp4urvgXPo5unfMGy",
    "infected": 266,
    "recovered": 0,
    "sick": 243,
    "invisible": false
  },
  {
    "latitude": 27.0238,
    "pop": 68890000,
    "longitude": 74.2179,
    "name": "Rajasthan",
    "country": "IN",
    "lastUpdated": "2020-04-21T11:11:06.825Z",
    "dead": 25,
    "id": "CKZCZTPlrcq5fbfUPA9k",
    "infected": 1659,
    "recovered": 205,
    "sick": 1429,
    "invisible": false
  },
  {
    "infected": 225,
    "recovered": 48,
    "latitude": 13.803,
    "pop": 6378000,
    "longitude": -88.9053,
    "name": "El Salvador",
    "country": "SV",
    "lastUpdated": "2020-04-21T11:08:06.791Z",
    "dead": 7,
    "id": "Cgvmtle61ehMvCzRzYx7",
    "sick": 170,
    "invisible": false
  },
  {
    "infected": 1401,
    "recovered": 609,
    "latitude": 40.259003,
    "pop": 2973000,
    "longitude": 44.818474,
    "name": "Armenia",
    "country": "AM",
    "lastUpdated": "2020-04-21T11:08:06.786Z",
    "dead": 24,
    "id": "DCJCtZoBTWQ4mzdDNljD",
    "sick": 768,
    "invisible": false
  },
  {
    "pop": 1278000,
    "longitude": -73.368,
    "name": "Boyacá",
    "country": "CO",
    "lastUpdated": "2020-04-21T11:16:09.835Z",
    "dead": 1,
    "id": "DJJraANgQbEqz1wBBtZz",
    "infected": 33,
    "recovered": 7,
    "latitude": 5.535,
    "sick": 25,
    "invisible": false
  },
  {
    "id": "DPwBt2aJuwF0O71vwfM9",
    "infected": 14328,
    "recovered": 0,
    "latitude": 53.6221,
    "pop": 7300000,
    "longitude": -2.5945,
    "name": "North West",
    "country": "GB",
    "lastUpdated": "2020-04-21T11:09:26.151Z",
    "dead": 0,
    "sick": 14328,
    "invisible": false
  },
  {
    "infected": 86,
    "recovered": 37,
    "latitude": 32.3213844,
    "pop": 65440,
    "longitude": -64.75737,
    "name": "Bermuda",
    "country": "BM",
    "lastUpdated": "2020-04-21T11:08:06.798Z",
    "dead": 5,
    "id": "DZyTD0Mu5WIcK6yTcJ91",
    "sick": 44,
    "invisible": false
  },
  {
    "id": "DaMrRSIGJXIG36nW0Pnc",
    "infected": 11,
    "recovered": 0,
    "latitude": 21.694,
    "pop": 35446,
    "longitude": -71.7979,
    "name": "Turks and Caicos",
    "country": "TC",
    "lastUpdated": "2020-04-21T11:08:06.804Z",
    "dead": 1,
    "sick": 10,
    "invisible": false
  },
  {
    "pop": 2035000,
    "longitude": -3.0977,
    "name": "Castilla La Mancha",
    "country": "ES",
    "lastUpdated": "2020-04-21T11:11:09.048Z",
    "dead": 2075,
    "id": "Dbng0NBTH41EEwBxhMzE",
    "infected": 17045,
    "recovered": 4242,
    "latitude": 39.2796,
    "sick": 10728,
    "invisible": false
  },
  {
    "infected": 684,
    "recovered": 0,
    "latitude": 50.023,
    "pop": 3361000,
    "longitude": 20.006,
    "name": "Małopolskie",
    "country": "PL",
    "lastUpdated": "2020-04-21T10:50:09.058Z",
    "dead": 20,
    "id": "DcQ3D0WkacXEbv6iznRB",
    "sick": 664,
    "invisible": false
  },
  {
    "id": "DdBt8qsG6A3g92oOR3ow",
    "infected": 45,
    "recovered": 24,
    "latitude": 22.192039,
    "pop": 622567,
    "longitude": 113.551262,
    "name": "Macao",
    "country": "MO",
    "lastUpdated": "2020-04-21T11:08:06.800Z",
    "dead": 0,
    "sick": 21,
    "invisible": false
  },
  {
    "lastUpdated": "2020-04-21T11:11:06.827Z",
    "dead": 1,
    "id": "Dh0O1vmhrVfmsCsfZCUg",
    "infected": 12,
    "recovered": 0,
    "latitude": 25.467,
    "pop": 2651000,
    "longitude": 91.3662,
    "name": "Meghalaya",
    "country": "IN",
    "sick": 11,
    "invisible": false
  },
  {
    "lastUpdated": "2020-04-21T11:14:21.483Z",
    "dead": 2,
    "id": "DrGzziUglmBognCGY7R2",
    "infected": 429,
    "recovered": 0,
    "latitude": 42.962334,
    "pop": 577737,
    "longitude": -107.534868,
    "name": "Wyoming",
    "country": "US",
    "sick": 427,
    "invisible": false
  },
  {
    "infected": 2245,
    "recovered": 577,
    "latitude": 37.9838,
    "pop": 10740000,
    "longitude": 23.7275,
    "name": "Greece",
    "country": "GR",
    "lastUpdated": "2020-04-21T11:08:06.784Z",
    "dead": 116,
    "id": "Dtr1lap1RpJpXJdXGJiW",
    "sick": 1552,
    "invisible": false
  },
  {
    "lastUpdated": "2020-04-21T11:08:06.788Z",
    "dead": 6,
    "id": "EKTfs8e7M6DXzI1HqyyX",
    "infected": 425,
    "recovered": 217,
    "latitude": 25.03841,
    "pop": 23780000,
    "longitude": 121.563698,
    "name": "Taiwan",
    "country": "TW",
    "sick": 202,
    "invisible": false
  },
  {
    "infected": 662,
    "recovered": 124,
    "latitude": 10.327273,
    "pop": 4906000,
    "longitude": -84.387618,
    "name": "Costa Rica",
    "country": "CR",
    "lastUpdated": "2020-04-21T11:08:06.787Z",
    "dead": 6,
    "id": "EQzJvzVHKjs8kLmK7BMu",
    "sick": 532,
    "invisible": false
  },
  {
    "infected": 2066,
    "recovered": 131,
    "latitude": 22.2587,
    "pop": 62700000,
    "longitude": 71.1924,
    "name": "Gujarat",
    "country": "IN",
    "lastUpdated": "2020-04-21T11:11:06.825Z",
    "dead": 77,
    "id": "ERwk9R9en4m9WbdoMbIg",
    "sick": 1858,
    "invisible": false
  },
  {
    "infected": 26,
    "recovered": 14,
    "latitude": 30.7333,
    "pop": 1055000,
    "longitude": 76.7794,
    "name": "Chandigarh",
    "country": "IN",
    "lastUpdated": "2020-04-21T11:11:06.827Z",
    "dead": 0,
    "id": "Esl5UlCVB9s8pmGB5Ofr",
    "sick": 12,
    "invisible": false
  },
  {
    "infected": 325,
    "recovered": 0,
    "latitude": 51.24,
    "pop": 2148000,
    "longitude": 22.653,
    "name": "Lubelskie",
    "country": "PL",
    "lastUpdated": "2020-04-21T10:50:09.058Z",
    "dead": 10,
    "id": "Esy1La2CxwH5uB8bGVWZ",
    "sick": 315,
    "invisible": false
  },
  {
    "lastUpdated": "2020-04-21T11:14:21.482Z",
    "dead": 63,
    "id": "F4rPrEVGAIMM5rfPEMv4",
    "infected": 1252,
    "recovered": 0,
    "latitude": 18.200178,
    "pop": 3195000,
    "longitude": -66.664513,
    "name": "Puerto Rico",
    "country": "PR",
    "sick": 1189,
    "invisible": false
  },
  {
    "latitude": 4.862437,
    "pop": 2919000,
    "longitude": -74.058655,
    "name": "Cundinamarca",
    "country": "CO",
    "lastUpdated": "2020-04-21T11:16:09.833Z",
    "dead": 6,
    "id": "F7MED5VwEhi3JvJu6KjB",
    "infected": 158,
    "recovered": 33,
    "sick": 119,
    "invisible": false
  },
  {
    "infected": 1092,
    "recovered": 150,
    "latitude": 33.93911,
    "pop": 35530000,
    "longitude": 67.709953,
    "name": "Afghanistan",
    "country": "AF",
    "lastUpdated": "2020-04-21T11:08:06.786Z",
    "dead": 36,
    "id": "FCDmlmnIIswd8bQiUjfN",
    "sick": 906,
    "invisible": false
  },
  {
    "infected": 579,
    "recovered": 570,
    "latitude": 29.431585,
    "pop": 30480000,
    "longitude": 106.912254,
    "name": "Chongqing",
    "country": "CN",
    "lastUpdated": "2020-04-21T10:38:10.976Z",
    "dead": 6,
    "id": "FErOU1m4Tj7jIkRam3vF",
    "sick": 3,
    "invisible": false
  },
  {
    "longitude": 47.481766,
    "name": "Kuwait",
    "country": "KW",
    "lastUpdated": "2020-04-21T11:08:06.785Z",
    "dead": 11,
    "id": "FZsUkhxBEgqsPb4eO0PN",
    "infected": 2080,
    "recovered": 412,
    "latitude": 29.311661,
    "pop": 4137000,
    "sick": 1657,
    "invisible": false
  },
  {
    "recovered": 0,
    "latitude": -10.9111,
    "pop": 2278308,
    "longitude": -37.0717,
    "name": "Sergipe",
    "country": "BR",
    "lastUpdated": "2020-04-21T11:16:10.054Z",
    "dead": 5,
    "id": "FboWeolpM62SZCLwdilT",
    "infected": 86,
    "sick": 81,
    "invisible": false
  },
  {
    "lastUpdated": "2020-04-21T11:11:06.825Z",
    "dead": 17,
    "id": "FeS45oMNC27pI17F0xEV",
    "infected": 1520,
    "recovered": 457,
    "latitude": 11.1271,
    "pop": 67860000,
    "longitude": 78.6569,
    "name": "Tamil Nadu",
    "country": "IN",
    "sick": 1046,
    "invisible": false
  },
  {
    "infected": 4964,
    "recovered": 416,
    "latitude": 18.947829,
    "pop": 10770000,
    "longitude": -70.430399,
    "name": "Dominican Republic",
    "country": "DO",
    "lastUpdated": "2020-04-21T11:08:06.783Z",
    "dead": 235,
    "id": "FuiVEJvWb0QMCpxJ3563",
    "sick": 4313,
    "invisible": false
  },
  {
    "infected": 872,
    "recovered": 186,
    "latitude": 18.1124,
    "pop": 35190000,
    "longitude": 79.0193,
    "name": "Telengana",
    "country": "IN",
    "lastUpdated": "2020-04-21T11:11:06.825Z",
    "dead": 23,
    "id": "FyC551oNwmENxbr9Yght",
    "sick": 663,
    "invisible": false
  },
  {
    "infected": 1199,
    "recovered": 258,
    "latitude": 48.669,
    "pop": 5450000,
    "longitude": 19.699,
    "name": "Slovakia",
    "country": "SK",
    "lastUpdated": "2020-04-21T11:08:06.786Z",
    "dead": 14,
    "id": "FzIDXoqWnTI3nUfhPyT2",
    "sick": 927,
    "invisible": false
  },
  {
    "infected": 9216,
    "recovered": 2066,
    "latitude": 30.37532,
    "pop": 197000000,
    "longitude": 69.345116,
    "name": "Pakistan",
    "country": "PK",
    "lastUpdated": "2020-04-21T11:08:06.781Z",
    "dead": 192,
    "id": "GAp7Wb6IMhdgbvEtMza9",
    "sick": 6958,
    "invisible": false
  },
  {
    "infected": 250,
    "recovered": 38,
    "latitude": 31.1471,
    "pop": 27980000,
    "longitude": 75.3412,
    "name": "Punjab",
    "country": "IN",
    "lastUpdated": "2020-04-21T11:11:06.826Z",
    "dead": 16,
    "id": "GGru8cG08mANO8XDDUtZ",
    "sick": 196,
    "invisible": false
  },
  {
    "recovered": 1360,
    "latitude": 23.424076,
    "pop": 9400000,
    "longitude": 53.847816,
    "name": "United Arab Emirates",
    "country": "AE",
    "lastUpdated": "2020-04-21T11:08:06.782Z",
    "dead": 43,
    "id": "GHzBIsHy2GiBc5JV2HMs",
    "infected": 7265,
    "sick": 5862,
    "invisible": false
  },
  {
    "recovered": 0,
    "latitude": 37.0902,
    "longitude": -95.7129,
    "name": "Grand Princess",
    "country": "US",
    "lastUpdated": "2020-04-21T11:14:21.483Z",
    "dead": 3,
    "id": "GLViSIjDjwvptOphedAu",
    "invisible": true,
    "infected": 103,
    "sick": 100
  },
  {
    "lastUpdated": "2020-04-21T11:09:26.151Z",
    "dead": 0,
    "id": "GPtoS0Yy2EnNafpmmTqY",
    "infected": 21654,
    "recovered": 0,
    "latitude": 51.5074,
    "pop": 10100000,
    "longitude": -0.1278,
    "name": "London",
    "country": "GB",
    "sick": 21654,
    "invisible": false
  },
  {
    "infected": 33866,
    "recovered": 0,
    "latitude": 36.621981,
    "pop": 39560000,
    "longitude": -119.339046,
    "name": "California",
    "country": "US",
    "lastUpdated": "2020-04-21T11:14:21.477Z",
    "dead": 1229,
    "id": "Gh46r6vuaY7fbGt3IboN",
    "sick": 32637,
    "invisible": false
  },
  {
    "latitude": 35.87189,
    "pop": 3943000,
    "longitude": -97.145514,
    "name": "Oklahoma",
    "country": "US",
    "lastUpdated": "2020-04-21T11:14:21.481Z",
    "dead": 143,
    "id": "GpF8ULuKOQiFDCUHN44h",
    "infected": 2680,
    "recovered": 0,
    "sick": 2537,
    "invisible": false
  },
  {
    "infected": 2394,
    "recovered": 605,
    "latitude": 46.5,
    "pop": 520891,
    "longitude": 11.35,
    "name": "P.A. Bolzano",
    "country": "IT",
    "lastUpdated": "2020-04-21T11:01:07.913Z",
    "dead": 249,
    "id": "Gzx6GX1qhBm714BkEC6l",
    "sick": 1540,
    "invisible": false
  },
  {
    "latitude": 42.83263,
    "pop": 24710000,
    "longitude": 113.750972,
    "name": "Inner Mongolia",
    "country": "CN",
    "lastUpdated": "2020-04-21T10:38:10.975Z",
    "dead": 1,
    "id": "H3JeVigVbo5CSYfZG4WI",
    "infected": 194,
    "recovered": 108,
    "sick": 85,
    "invisible": false
  },
  {
    "infected": 3830,
    "recovered": 0,
    "latitude": 39.74536,
    "pop": 3034000,
    "longitude": -116.724977,
    "name": "Nevada",
    "country": "US",
    "lastUpdated": "2020-04-21T11:14:21.480Z",
    "dead": 163,
    "id": "H3bDg4eV30up4WWrIDAS",
    "sick": 3667,
    "invisible": false
  },
  {
    "latitude": -3.731862,
    "pop": 9075649,
    "longitude": -38.526669,
    "name": "Ceará",
    "country": "BR",
    "lastUpdated": "2020-04-21T11:16:10.050Z",
    "dead": 198,
    "id": "HEMWNnFxeFEoeOCBOLJD",
    "infected": 3482,
    "recovered": 0,
    "sick": 3284,
    "invisible": false
  },
  {
    "lastUpdated": "2020-04-21T11:11:06.826Z",
    "dead": 17,
    "id": "HN5mGmxlqlSeFSNeu1K5",
    "infected": 415,
    "recovered": 112,
    "latitude": 15.3173,
    "pop": 64060000,
    "longitude": 75.7139,
    "name": "Karnataka",
    "country": "IN",
    "sick": 286,
    "invisible": false
  },
  {
    "infected": 6,
    "recovered": 2,
    "latitude": 27.5142,
    "pop": 807610,
    "longitude": 90.4336,
    "name": "Bhutan",
    "country": "BT",
    "lastUpdated": "2020-04-21T11:08:06.805Z",
    "dead": 0,
    "id": "HRDpwyxpqW9RN0xLFyNu",
    "sick": 4,
    "invisible": false
  },
  {
    "latitude": 41.3775,
    "pop": 32390000,
    "longitude": 64.5853,
    "name": "Uzbekistan",
    "country": "UZ",
    "lastUpdated": "2020-04-21T11:08:06.785Z",
    "dead": 5,
    "id": "HRTA10dtrruDEwjJEGMp",
    "infected": 1657,
    "recovered": 261,
    "sick": 1391,
    "invisible": false
  },
  {
    "lastUpdated": "2020-04-21T11:14:21.481Z",
    "dead": 58,
    "id": "HSSFomRju0doHhWgW8On",
    "infected": 1971,
    "recovered": 0,
    "latitude": 34.138916,
    "pop": 2095000,
    "longitude": -105.576255,
    "name": "New Mexico",
    "country": "US",
    "sick": 1913,
    "invisible": false
  },
  {
    "lastUpdated": "2020-04-21T11:07:13.353Z",
    "dead": 3,
    "id": "HZkACHjW7NlYjg8vEMj2",
    "infected": 162,
    "recovered": 0,
    "latitude": -40.231,
    "pop": 412812,
    "longitude": -72.3311,
    "name": "Los Ríos",
    "country": "CL",
    "sick": 159,
    "invisible": false
  },
  {
    "latitude": 53.6127,
    "pop": 1635000,
    "longitude": 12.4296,
    "name": "Mecklenburg-Vorpommern",
    "country": "DE",
    "lastUpdated": "2020-04-21T11:00:10.075Z",
    "dead": 16,
    "id": "He1gSS1v50t06i3YrqvB",
    "infected": 655,
    "recovered": 464,
    "sick": 175,
    "invisible": false
  },
  {
    "recovered": 287,
    "latitude": 42.25,
    "pop": 1315000,
    "longitude": 13.75,
    "name": "Abruzzo",
    "country": "IT",
    "lastUpdated": "2020-04-21T11:01:07.908Z",
    "dead": 263,
    "id": "I9EqrZfbPnkioNU4wZGz",
    "infected": 2612,
    "sick": 2062,
    "invisible": false
  },
  {
    "lastUpdated": "2020-04-21T10:38:10.975Z",
    "dead": 8,
    "id": "IAX0OQLVnUwU7FX0ENF1",
    "infected": 1582,
    "recovered": 1501,
    "latitude": 23.363855,
    "pop": 113460000,
    "longitude": 113.373448,
    "name": "Guangdong",
    "country": "CN",
    "sick": 73,
    "invisible": false
  },
  {
    "latitude": 33.875408,
    "pop": 94000000,
    "longitude": 113.484016,
    "name": "Henan",
    "country": "CN",
    "lastUpdated": "2020-04-21T10:38:10.977Z",
    "dead": 22,
    "id": "IFuMrMvSjoiX5agYvllh",
    "infected": 1276,
    "recovered": 1254,
    "sick": 0,
    "invisible": false
  },
  {
    "latitude": 37.2,
    "pop": 451000,
    "longitude": -8.16667,
    "name": "Algarve",
    "country": "PT",
    "lastUpdated": "2020-04-21T11:04:01.621Z",
    "dead": 11,
    "id": "IHqRHC8K3OZPN8gniM7V",
    "infected": 311,
    "recovered": 0,
    "sick": 300,
    "invisible": false
  },
  {
    "infected": 15,
    "recovered": 0,
    "latitude": 3.883,
    "pop": 333194,
    "longitude": -77.0197,
    "name": "Buenaventura D.E.",
    "country": "CO",
    "lastUpdated": "2020-04-21T11:16:09.837Z",
    "dead": 1,
    "id": "IKWjRUo0SYgHQKdWjTvq",
    "sick": 14,
    "invisible": false
  },
  {
    "infected": 5251,
    "recovered": 0,
    "latitude": 52.87,
    "pop": 4811000,
    "longitude": -0.995,
    "name": "East Midlands",
    "country": "GB",
    "lastUpdated": "2020-04-21T11:09:26.151Z",
    "dead": 0,
    "id": "INyu1R48Ppv8cfW4Nuz4",
    "sick": 5251,
    "invisible": false
  },
  {
    "infected": 95,
    "recovered": 0,
    "latitude": 22.017,
    "pop": 1342600,
    "longitude": -102.317,
    "name": "Aguascalientes",
    "country": "MX",
    "lastUpdated": "2020-04-21T11:10:08.975Z",
    "dead": 4,
    "id": "ISRKMzEDojyrZ9iyWwex",
    "sick": 91,
    "invisible": false
  },
  {
    "recovered": 0,
    "latitude": 25.686613,
    "pop": 5321300,
    "longitude": -100.316116,
    "name": "Nuevo León",
    "country": "MX",
    "lastUpdated": "2020-04-21T11:10:08.974Z",
    "dead": 7,
    "id": "IdKbgzgKLpjBFh4UPOwu",
    "infected": 283,
    "sick": 276,
    "invisible": false
  },
  {
    "latitude": 28.632996,
    "pop": 3826900,
    "longitude": -106.069099,
    "name": "Chihuahua",
    "country": "MX",
    "lastUpdated": "2020-04-21T11:10:08.967Z",
    "dead": 36,
    "id": "IhhiYI6T0TX4CYVPcnmH",
    "infected": 171,
    "recovered": 0,
    "sick": 135,
    "invisible": false
  },
  {
    "longitude": -72.57,
    "name": "Ñuble",
    "country": "CL",
    "lastUpdated": "2020-04-21T11:07:13.353Z",
    "dead": 13,
    "id": "ImnOiVx9Cb8Nw7cbRcQ7",
    "infected": 687,
    "recovered": 0,
    "latitude": -36.7,
    "pop": 480600,
    "sick": 674,
    "invisible": false
  },
  {
    "pop": 10980000,
    "longitude": -73.0513,
    "name": "Haiti",
    "country": "HT",
    "lastUpdated": "2020-04-21T11:08:06.800Z",
    "dead": 3,
    "id": "InZ38sIqyK7FN7XAOZoX",
    "infected": 57,
    "recovered": 0,
    "latitude": 19.0558,
    "sick": 54,
    "invisible": false
  },
  {
    "id": "IvQkDJkTAsoIqPRAU25n",
    "infected": 19398,
    "recovered": 0,
    "latitude": 32.528564,
    "pop": 10520000,
    "longitude": -83.280125,
    "name": "Georgia (US)",
    "country": "US",
    "lastUpdated": "2020-04-21T11:14:21.478Z",
    "dead": 774,
    "sick": 18624,
    "invisible": false
  },
  {
    "infected": 1445,
    "recovered": 1006,
    "latitude": -42.8285,
    "pop": 4794000,
    "longitude": 172.488081,
    "name": "New Zealand",
    "country": "NZ",
    "lastUpdated": "2020-04-21T11:08:06.785Z",
    "dead": 13,
    "id": "IvVhpOoGpH6JVkGyUhXN",
    "sick": 426,
    "invisible": false
  },
  {
    "latitude": 28.218,
    "pop": 1255000,
    "longitude": 94.7278,
    "name": "Arunachal Pradesh",
    "country": "IN",
    "lastUpdated": "2020-04-21T11:11:06.827Z",
    "dead": 0,
    "id": "IwYKiIVY18NGwdGQFGWW",
    "infected": 1,
    "recovered": 1,
    "sick": 0,
    "invisible": false
  },
  {
    "recovered": 117,
    "latitude": 6.4238,
    "pop": 31980000,
    "longitude": -66.5897,
    "name": "Venezuela",
    "country": "VE",
    "lastUpdated": "2020-04-21T11:08:06.790Z",
    "dead": 10,
    "id": "J3mZXlfEnnJx4CDZLvRG",
    "infected": 285,
    "sick": 158,
    "invisible": false
  },
  {
    "latitude": 35.1264,
    "pop": 1170000,
    "longitude": 33.4299,
    "name": "Cyprus",
    "country": "CY",
    "lastUpdated": "2020-04-21T11:08:06.787Z",
    "dead": 12,
    "id": "JQByE4l2OA6sGOqIcWrM",
    "infected": 772,
    "recovered": 81,
    "sick": 679,
    "invisible": false
  },
  {
    "pop": 99020000,
    "longitude": 85.3131,
    "name": "Bihar",
    "country": "IN",
    "lastUpdated": "2020-04-21T11:11:06.826Z",
    "dead": 2,
    "id": "JR7hOGked7CZtIs2nCV5",
    "infected": 113,
    "recovered": 42,
    "latitude": 25.0961,
    "sick": 69,
    "invisible": false
  },
  {
    "latitude": 14.628434,
    "pop": 17250000,
    "longitude": -90.522713,
    "name": "Guatemala",
    "country": "GT",
    "lastUpdated": "2020-04-21T11:08:06.789Z",
    "dead": 7,
    "id": "JUWE6bG3b5oL7fKQMSvv",
    "infected": 294,
    "recovered": 24,
    "sick": 263,
    "invisible": false
  },
  {
    "latitude": 49.8153,
    "pop": 602005,
    "longitude": 6.1296,
    "name": "Luxembourg",
    "country": "LU",
    "lastUpdated": "2020-04-21T11:08:06.783Z",
    "dead": 75,
    "id": "JcFsHSn2WvZ5LJW42ovG",
    "infected": 3558,
    "recovered": 637,
    "sick": 2846,
    "invisible": false
  },
  {
    "infected": 13,
    "recovered": 1,
    "latitude": 8.8,
    "pop": 2049000,
    "longitude": -74.167,
    "name": "Bolívar",
    "country": "CO",
    "lastUpdated": "2020-04-21T11:16:09.836Z",
    "dead": 2,
    "id": "JmOyaFe25yZCIV64JbZj",
    "sick": 10,
    "invisible": false
  },
  {
    "infected": 786,
    "recovered": 0,
    "latitude": 31.4,
    "pop": 3648100,
    "longitude": -115.783,
    "name": "Baja California",
    "country": "MX",
    "lastUpdated": "2020-04-21T11:10:08.965Z",
    "dead": 83,
    "id": "Jp9ePErcc8i1aOozEAMf",
    "sick": 703,
    "invisible": false
  },
  {
    "latitude": 8.7479801,
    "pop": 1786500,
    "longitude": -75.8814316,
    "name": "Córdoba",
    "country": "CO",
    "lastUpdated": "2020-04-21T11:16:09.836Z",
    "dead": 2,
    "id": "Jr8syCB0lydmPDXw8Q6N",
    "infected": 20,
    "recovered": 3,
    "sick": 15,
    "invisible": false
  },
  {
    "latitude": 8.6195,
    "pop": 7798000,
    "longitude": 0.8248,
    "name": "Togo",
    "country": "TG",
    "lastUpdated": "2020-04-21T11:08:06.799Z",
    "dead": 6,
    "id": "JrBbirlBKGdWSdcDt7PF",
    "infected": 84,
    "recovered": 53,
    "sick": 25,
    "invisible": false
  },
  {
    "lastUpdated": "2020-04-21T11:08:06.786Z",
    "dead": 45,
    "id": "JzZ8sbqzjutThVjkPKPL",
    "infected": 966,
    "recovered": 170,
    "latitude": 42.7339,
    "pop": 7050000,
    "longitude": 25.4858,
    "name": "Bulgaria",
    "country": "BG",
    "sick": 751,
    "invisible": false
  },
  {
    "lastUpdated": "2020-04-21T10:50:09.059Z",
    "dead": 4,
    "id": "KGrK7gafkeWjmU6sHQd2",
    "infected": 230,
    "recovered": 0,
    "latitude": 50.823,
    "pop": 1263000,
    "longitude": 20.709,
    "name": "Świętokrzyskie",
    "country": "PL",
    "sick": 226,
    "invisible": false
  },
  {
    "id": "KLXicxFogWnu0dLp4bNK",
    "infected": 6669,
    "recovered": 2216,
    "latitude": 44.5,
    "pop": 1557000,
    "longitude": 8.833,
    "name": "Liguria",
    "country": "IT",
    "lastUpdated": "2020-04-21T11:01:07.914Z",
    "dead": 957,
    "sick": 3496,
    "invisible": false
  },
  {
    "latitude": 10.4631,
    "pop": 1201000,
    "longitude": -73.2532,
    "name": "Cesar",
    "country": "CO",
    "lastUpdated": "2020-04-21T11:16:09.835Z",
    "dead": 0,
    "id": "KpOz3WmiZkrXUMlUJNlV",
    "infected": 35,
    "recovered": 18,
    "sick": 17,
    "invisible": false
  },
  {
    "lastUpdated": "2020-04-21T11:01:07.915Z",
    "dead": 667,
    "id": "KrLrJbpDqqiXgUPGCCW9",
    "infected": 8507,
    "recovered": 1272,
    "latitude": 43.4167,
    "pop": 3737000,
    "longitude": 11,
    "name": "Toscana",
    "country": "IT",
    "sick": 6568,
    "invisible": false
  },
  {
    "lastUpdated": "2020-04-21T11:08:06.789Z",
    "dead": 7,
    "id": "KsWzJO06cf0d6LJ4ZNh9",
    "infected": 309,
    "recovered": 100,
    "latitude": 7.873054,
    "pop": 21440000,
    "longitude": 80.771797,
    "name": "Sri Lanka",
    "country": "LK",
    "sick": 202,
    "invisible": false
  },
  {
    "latitude": 15.9129,
    "pop": 49670000,
    "longitude": 79.74,
    "name": "Andhra Pradesh",
    "country": "IN",
    "lastUpdated": "2020-04-21T11:11:06.826Z",
    "dead": 22,
    "id": "KtQIo2DoqjELtPAlyDVO",
    "infected": 757,
    "recovered": 96,
    "sick": 639,
    "invisible": false
  },
  {
    "lastUpdated": "2020-04-21T11:08:06.778Z",
    "dead": 456,
    "id": "KwOuGBKSMRlmwftxAvLX",
    "infected": 52763,
    "recovered": 3873,
    "latitude": 61.52401,
    "pop": 144500000,
    "longitude": 105.318756,
    "name": "Russia",
    "country": "RU",
    "sick": 48434,
    "invisible": false
  },
  {
    "infected": 37,
    "recovered": 19,
    "latitude": 18.0708,
    "pop": 32125,
    "longitude": -63.0501,
    "name": "Saint-Martin",
    "country": "FR",
    "lastUpdated": "2020-04-21T11:08:06.800Z",
    "dead": 2,
    "id": "LBUtrLDKJiupXjlUNTUe",
    "sick": 16,
    "invisible": false
  },
  {
    "infected": 81,
    "recovered": 55,
    "latitude": 47.166,
    "pop": 38557,
    "longitude": 9.5554,
    "name": "Liechtenstein",
    "country": "LI",
    "lastUpdated": "2020-04-21T11:08:06.799Z",
    "dead": 1,
    "id": "LTGEU2E9MFkrCcFhZYVk",
    "sick": 25,
    "invisible": false
  },
  {
    "latitude": 9.9456,
    "pop": 12720000,
    "longitude": -9.6966,
    "name": "Guinea",
    "country": "GN",
    "lastUpdated": "2020-04-21T11:08:06.787Z",
    "dead": 5,
    "id": "LU2QWt5ao8IJa8evNYVV",
    "infected": 622,
    "recovered": 122,
    "sick": 495,
    "invisible": false
  },
  {
    "infected": 152,
    "recovered": 0,
    "latitude": 29.6667,
    "pop": 3062000,
    "longitude": -110.5,
    "name": "Sonora",
    "country": "MX",
    "lastUpdated": "2020-04-21T11:10:08.968Z",
    "dead": 16,
    "id": "LYCBHrA9ms6GcxpLGPCT",
    "sick": 136,
    "invisible": false
  },
  {
    "id": "LglKINHyQpYpFxjckbQ6",
    "infected": 10,
    "recovered": 6,
    "latitude": 3.9193051,
    "pop": 563402,
    "longitude": -56.0277824,
    "name": "Suriname",
    "country": "SR",
    "lastUpdated": "2020-04-21T11:08:06.805Z",
    "dead": 1,
    "sick": 3,
    "invisible": false
  },
  {
    "infected": 316,
    "recovered": 0,
    "latitude": 52.9399,
    "pop": 1174000,
    "longitude": -106.4509,
    "name": "Saskatchewan",
    "country": "CA",
    "lastUpdated": "2020-04-21T11:06:08.674Z",
    "dead": 4,
    "id": "LkIDKY0CMAqzbwBHyYCP",
    "sick": 312,
    "invisible": false
  },
  {
    "latitude": 24.2155,
    "pop": 636442,
    "longitude": -12.8858,
    "name": "Western Sahara",
    "country": "EH",
    "lastUpdated": "2020-04-21T11:08:06.806Z",
    "dead": 0,
    "id": "LooNn6RuMiDhQnwa9svw",
    "infected": 6,
    "recovered": 0,
    "sick": 6,
    "invisible": false
  },
  {
    "infected": 2365,
    "recovered": 616,
    "latitude": 43.363129,
    "pop": 1022000,
    "longitude": -5.951843,
    "name": "Principado de Asturias",
    "country": "ES",
    "lastUpdated": "2020-04-21T11:11:09.048Z",
    "dead": 202,
    "id": "Lsga7AvYNnY0qQ5gEfV8",
    "sick": 1547,
    "invisible": false
  },
  {
    "latitude": 39.4937,
    "pop": 1065000,
    "longitude": -6.0679,
    "name": "Extremadura",
    "country": "ES",
    "lastUpdated": "2020-04-21T11:11:09.051Z",
    "dead": 397,
    "id": "LuEErlF7dVKI0eJsRjFm",
    "infected": 3196,
    "recovered": 921,
    "sick": 1878,
    "invisible": false
  },
  {
    "latitude": 21.0186,
    "pop": 5965000,
    "longitude": -101.2591,
    "name": "Guanajuato",
    "country": "MX",
    "lastUpdated": "2020-04-21T11:10:08.968Z",
    "dead": 10,
    "id": "M3wdiueFtwrUHiQ2rOXA",
    "infected": 181,
    "recovered": 0,
    "sick": 171,
    "invisible": false
  },
  {
    "infected": 3050,
    "recovered": 0,
    "latitude": 37.8393,
    "pop": 4468000,
    "longitude": -84.27,
    "name": "Kentucky",
    "country": "US",
    "lastUpdated": "2020-04-21T11:14:21.480Z",
    "dead": 154,
    "id": "MC8MXFw9iXYybnF8v7e6",
    "sick": 2896,
    "invisible": false
  },
  {
    "longitude": -3.436,
    "name": "Unknown UK region or state",
    "country": "GB",
    "lastUpdated": "2020-04-21T11:09:26.152Z",
    "dead": 14828,
    "id": "MEjlm8VYdGA28TTTnQmf",
    "invisible": true,
    "infected": 16886,
    "recovered": 0,
    "latitude": 55.3781,
    "sick": 2058
  },
  {
    "lastUpdated": "2020-04-21T11:04:01.620Z",
    "dead": 424,
    "id": "MG4e9tulLJ010SZJvbYN",
    "infected": 12543,
    "recovered": 0,
    "latitude": 41.3006,
    "pop": 3689000,
    "longitude": -7.7441,
    "name": "Norte",
    "country": "PT",
    "sick": 12119,
    "invisible": false
  },
  {
    "recovered": 0,
    "latitude": 56.4907,
    "pop": 5450000,
    "longitude": -4.2026,
    "name": "Scotland",
    "country": "GB",
    "lastUpdated": "2020-04-21T11:09:26.149Z",
    "dead": 903,
    "id": "MObRYyIriHG337L8FyFC",
    "infected": 8450,
    "sick": 7547,
    "invisible": false
  },
  {
    "pop": 6692000,
    "longitude": -86.1349,
    "name": "Indiana",
    "country": "US",
    "lastUpdated": "2020-04-21T11:14:21.479Z",
    "dead": 577,
    "id": "MOxDkmQ4wBi1CuAdVxDE",
    "infected": 11688,
    "recovered": 0,
    "latitude": 40.2672,
    "sick": 11111,
    "invisible": false
  },
  {
    "pop": 24290000,
    "longitude": -5.5471,
    "name": "Ivory Coast",
    "country": "CI",
    "lastUpdated": "2020-04-21T11:08:06.787Z",
    "dead": 10,
    "id": "MdQOfc1gNh2DOqwSP6UV",
    "infected": 879,
    "recovered": 287,
    "latitude": 7.54,
    "sick": 582,
    "invisible": false
  },
  {
    "infected": 30282,
    "recovered": 18234,
    "latitude": 51.4332,
    "pop": 17910000,
    "longitude": 7.6616,
    "name": "Nordrhein-Westfalen",
    "country": "DE",
    "lastUpdated": "2020-04-21T11:00:10.075Z",
    "dead": 939,
    "id": "MjpYq3zQyAvSQlVVYjD2",
    "sick": 11109,
    "invisible": false
  },
  {
    "latitude": 37.330509,
    "pop": 6301000,
    "longitude": 105.977203,
    "name": "Ningxia",
    "country": "CN",
    "lastUpdated": "2020-04-21T10:38:10.977Z",
    "dead": 0,
    "id": "MntmjjuHljarCdt6aIeE",
    "infected": 75,
    "recovered": 75,
    "sick": 0,
    "invisible": false
  },
  {
    "infected": 902,
    "recovered": 0,
    "latitude": -3.20166586,
    "pop": 8513497,
    "longitude": -52.203499186,
    "name": "Pará",
    "country": "BR",
    "lastUpdated": "2020-04-21T11:16:10.053Z",
    "dead": 35,
    "id": "MuEB2UgkId5crsxi9zQT",
    "sick": 867,
    "invisible": false
  },
  {
    "id": "N3XsRBwJSsNclkEf7Zz5",
    "infected": 29843,
    "recovered": 16337,
    "latitude": 48.6616,
    "pop": 11020000,
    "longitude": 9.3501,
    "name": "Baden-Württemberg",
    "country": "DE",
    "lastUpdated": "2020-04-21T11:00:10.069Z",
    "dead": 1093,
    "sick": 12413,
    "invisible": false
  },
  {
    "latitude": 44.696652,
    "pop": 3507000,
    "longitude": 17.824332,
    "name": "Bosnia and Herzegovina",
    "country": "BA",
    "lastUpdated": "2020-04-21T11:08:06.786Z",
    "dead": 51,
    "id": "N7c13sCQF0G789XAVazJ",
    "infected": 1342,
    "recovered": 437,
    "sick": 854,
    "invisible": false
  },
  {
    "infected": 197,
    "recovered": 140,
    "latitude": 37.242565,
    "pop": 36500000,
    "longitude": 111.856857,
    "name": "Shanxi",
    "country": "CN",
    "lastUpdated": "2020-04-21T10:38:10.975Z",
    "dead": 0,
    "id": "NBRIGIRrJB1Ry8prDNAC",
    "sick": 57,
    "invisible": false
  },
  {
    "pop": 10380000,
    "longitude": -79.0193,
    "name": "North Carolina",
    "country": "US",
    "lastUpdated": "2020-04-21T11:14:21.479Z",
    "dead": 220,
    "id": "NC64Qp5kTqAfiTuR27k8",
    "infected": 6979,
    "recovered": 0,
    "latitude": 35.7596,
    "sick": 6759,
    "invisible": false
  },
  {
    "id": "NJjo2gfBvnbK4xatrsUz",
    "infected": 2454,
    "recovered": 1280,
    "latitude": 52.4125,
    "pop": 2504000,
    "longitude": 12.5316,
    "name": "Brandenburg",
    "country": "DE",
    "lastUpdated": "2020-04-21T11:00:10.075Z",
    "dead": 95,
    "sick": 1079,
    "invisible": false
  },
  {
    "id": "NLLL6pJhJSw0lrDMD4uP",
    "infected": 14,
    "recovered": 0,
    "latitude": 15.0979,
    "pop": 55144,
    "longitude": -145.6739,
    "name": "Northern Mariana Islands",
    "country": "MP",
    "lastUpdated": "2020-04-21T11:14:21.484Z",
    "dead": 2,
    "sick": 12,
    "invisible": false
  },
  {
    "longitude": 79.0193,
    "name": "Uttarakhand",
    "country": "IN",
    "lastUpdated": "2020-04-21T11:11:06.826Z",
    "dead": 0,
    "id": "NMeZEcGToxXfpi16PfFV",
    "infected": 46,
    "recovered": 18,
    "latitude": 30.0668,
    "pop": 10080000,
    "sick": 28,
    "invisible": false
  },
  {
    "pop": 6243000,
    "longitude": 9.1624,
    "name": "Hessen",
    "country": "DE",
    "lastUpdated": "2020-04-21T11:00:10.075Z",
    "dead": 255,
    "id": "Nk5vPgUIXsWVfbWZf15O",
    "infected": 7266,
    "recovered": 2999,
    "latitude": 50.6521,
    "sick": 4012,
    "invisible": false
  },
  {
    "lastUpdated": "2020-04-21T11:08:06.787Z",
    "dead": 5,
    "id": "NmmMKy0YqA8StHdGzB5N",
    "infected": 748,
    "recovered": 88,
    "latitude": 56.96776,
    "pop": 1920000,
    "longitude": 25.837107,
    "name": "Latvia",
    "country": "LV",
    "sick": 655,
    "invisible": false
  },
  {
    "recovered": 0,
    "latitude": -8.472372,
    "pop": 9496294,
    "longitude": -37.946777,
    "name": "Pernambuco",
    "country": "BR",
    "lastUpdated": "2020-04-21T11:16:10.053Z",
    "dead": 234,
    "id": "NyGlFL1gATK1Omv9qtcC",
    "infected": 2690,
    "sick": 2456,
    "invisible": false
  },
  {
    "infected": 99,
    "recovered": 7,
    "latitude": 6.4281,
    "pop": 4732000,
    "longitude": -9.4295,
    "name": "Liberia",
    "country": "LR",
    "lastUpdated": "2020-04-21T11:08:06.792Z",
    "dead": 8,
    "id": "O4g88K49HKEZLFXm5gxb",
    "sick": 84,
    "invisible": false
  },
  {
    "infected": 4439,
    "recovered": 0,
    "latitude": 34.003307,
    "pop": 5084000,
    "longitude": -80.525613,
    "name": "South Carolina",
    "country": "US",
    "lastUpdated": "2020-04-21T11:14:21.480Z",
    "dead": 124,
    "id": "ONU4CK8QjViFHKg2w5if",
    "sick": 4315,
    "invisible": false
  },
  {
    "latitude": 33.51822,
    "pop": 2987000,
    "longitude": -89.582775,
    "name": "Mississippi",
    "country": "US",
    "lastUpdated": "2020-04-21T11:14:21.480Z",
    "dead": 169,
    "id": "OYa0jFzdbAgo8zUsRv6q",
    "infected": 4512,
    "recovered": 0,
    "sick": 4343,
    "invisible": false
  },
  {
    "id": "OcXNp9kNVSwrRlG3bNVN",
    "infected": 875,
    "recovered": 0,
    "latitude": 45.2538,
    "pop": 1338000,
    "longitude": -69.4455,
    "name": "Maine",
    "country": "US",
    "lastUpdated": "2020-04-21T11:14:21.482Z",
    "dead": 35,
    "sick": 840,
    "invisible": false
  },
  {
    "id": "OnOseaqWdnuP18oruABW",
    "infected": 202,
    "recovered": 67,
    "latitude": -41.915264,
    "pop": 515000,
    "longitude": 146.725256,
    "name": "Tasmania",
    "country": "AU",
    "lastUpdated": "2020-04-21T11:06:08.674Z",
    "dead": 7,
    "sick": 128,
    "invisible": false
  },
  {
    "infected": 181,
    "recovered": 0,
    "latitude": -16.35,
    "pop": 3441998,
    "longitude": -56.666668,
    "name": "Mato Grosso",
    "country": "BR",
    "lastUpdated": "2020-04-21T11:16:10.050Z",
    "dead": 6,
    "id": "P0GHFGUt1pkKTk5PM8uz",
    "sick": 175,
    "invisible": false
  },
  {
    "infected": 66,
    "recovered": 7,
    "latitude": 19.3133,
    "pop": 61559,
    "longitude": -81.2546,
    "name": "Cayman Islands",
    "country": "KY",
    "lastUpdated": "2020-04-21T11:08:06.799Z",
    "dead": 1,
    "id": "P4mwRFLbrvT0t75uD8Wo",
    "sick": 58,
    "invisible": false
  },
  {
    "infected": 11,
    "recovered": 2,
    "latitude": 16.7424984,
    "pop": 5900,
    "longitude": -62.1873665,
    "name": "Montserrat",
    "country": "MS",
    "lastUpdated": "2020-04-21T11:08:06.804Z",
    "dead": 0,
    "id": "PEDkeFMTOZpvHiSVxBk7",
    "sick": 9,
    "invisible": false
  },
  {
    "infected": 147,
    "recovered": 80,
    "latitude": -1.9403,
    "pop": 12210000,
    "longitude": 29.8739,
    "name": "Rwanda",
    "country": "RW",
    "lastUpdated": "2020-04-21T11:08:06.792Z",
    "dead": 0,
    "id": "PEcgZGEkyhABztt1Ufgc",
    "sick": 67,
    "invisible": false
  },
  {
    "latitude": 46.7296,
    "pop": 5611000,
    "longitude": -94.6859,
    "name": "Minnesota",
    "country": "US",
    "lastUpdated": "2020-04-21T11:14:21.481Z",
    "dead": 143,
    "id": "PJvVYosLIhbcRZYnKX1R",
    "infected": 2470,
    "recovered": 0,
    "sick": 2327,
    "invisible": false
  },
  {
    "id": "PTwQr9ijo0TBBsPH2sdJ",
    "infected": 31508,
    "recovered": 0,
    "latitude": 40.6331,
    "pop": 12740000,
    "longitude": -89.3985,
    "name": "Illinois",
    "country": "US",
    "lastUpdated": "2020-04-21T11:14:21.478Z",
    "dead": 1349,
    "sick": 30159,
    "invisible": false
  },
  {
    "latitude": 13.909444,
    "pop": 178844,
    "longitude": -60.978893,
    "name": "Saint Lucia",
    "country": "LC",
    "lastUpdated": "2020-04-21T11:08:06.803Z",
    "dead": 0,
    "id": "PjLqCeFdyzdZNcZxMkK1",
    "infected": 15,
    "recovered": 13,
    "sick": 2,
    "invisible": false
  },
  {
    "lastUpdated": "2020-04-21T11:11:09.051Z",
    "dead": 397,
    "id": "PmUlsNx2uFLU797wwU39",
    "infected": 4781,
    "recovered": 1190,
    "latitude": 42.6954,
    "pop": 649900,
    "longitude": -1.6761,
    "name": "Comunidad Foral de Navarra",
    "country": "ES",
    "sick": 3194,
    "invisible": false
  },
  {
    "lastUpdated": "2020-04-21T11:08:06.787Z",
    "dead": 38,
    "id": "Pr76V4raf108uSRoEXac",
    "infected": 884,
    "recovered": 148,
    "latitude": 34.201507,
    "pop": 11530000,
    "longitude": 9.460554,
    "name": "Tunisia",
    "country": "TN",
    "sick": 698,
    "invisible": false
  },
  {
    "infected": 24,
    "recovered": 8,
    "latitude": -26.5225,
    "pop": 1367000,
    "longitude": 31.4659,
    "name": "Eswatini",
    "country": "SZ",
    "lastUpdated": "2020-04-21T11:08:06.801Z",
    "dead": 1,
    "id": "PuQgOd9KWiMzGZXm11sR",
    "sick": 15,
    "invisible": false
  },
  {
    "latitude": -37.009609,
    "pop": 6359000,
    "longitude": 143.94853,
    "name": "Victoria",
    "country": "AU",
    "lastUpdated": "2020-04-21T11:06:08.673Z",
    "dead": 14,
    "id": "Q18mrGvFWTLX2BU9SqhQ",
    "infected": 1336,
    "recovered": 1172,
    "sick": 150,
    "invisible": false
  },
  {
    "lastUpdated": "2020-04-21T11:00:10.076Z",
    "dead": 78,
    "id": "Q39XkabIYxt15mHINzTa",
    "infected": 2423,
    "recovered": 1700,
    "latitude": 54.2194,
    "pop": 2890000,
    "longitude": 9.6961,
    "name": "Schleswig-Holstein",
    "country": "DE",
    "sick": 645,
    "invisible": false
  },
  {
    "infected": 889,
    "recovered": 0,
    "latitude": -27.953491,
    "pop": 11329605,
    "longitude": -52.031696,
    "name": "Rio Grande do Sul",
    "country": "BR",
    "lastUpdated": "2020-04-21T11:16:10.053Z",
    "dead": 27,
    "id": "QGpQNhuoVTUPHXvS7qcu",
    "sick": 862,
    "invisible": false
  },
  {
    "latitude": 58.595272,
    "pop": 1328000,
    "longitude": 25.013607,
    "name": "Estonia",
    "country": "EE",
    "lastUpdated": "2020-04-21T11:08:06.785Z",
    "dead": 43,
    "id": "QR9go2hQKXjty7JHUYe4",
    "infected": 1552,
    "recovered": 169,
    "sick": 1340,
    "invisible": false
  },
  {
    "latitude": -20.318,
    "pop": 3972388,
    "longitude": -40.336,
    "name": "Espírito Santo",
    "country": "BR",
    "lastUpdated": "2020-04-21T11:16:10.050Z",
    "dead": 33,
    "id": "QaWDLKH8SuwD0Qxq6c38",
    "infected": 1168,
    "recovered": 0,
    "sick": 1135,
    "invisible": false
  },
  {
    "latitude": 20.3333,
    "pop": 8222700,
    "longitude": -103.6667,
    "name": "Jalisco",
    "country": "MX",
    "lastUpdated": "2020-04-21T11:10:08.974Z",
    "dead": 13,
    "id": "Qkho455pBwx88Gohs3hL",
    "infected": 216,
    "recovered": 0,
    "sick": 203,
    "invisible": false
  },
  {
    "pop": 8251000,
    "longitude": 143.9555,
    "name": "Papua New Guinea",
    "country": "PG",
    "lastUpdated": "2020-04-21T11:08:06.805Z",
    "dead": 0,
    "id": "QlZrE4nosm5WfdA2aCDg",
    "infected": 7,
    "recovered": 0,
    "latitude": -6.315,
    "sick": 7,
    "invisible": false
  },
  {
    "pop": 107268,
    "longitude": -64.8963,
    "name": "U.S. Virgin Islands",
    "country": "US",
    "lastUpdated": "2020-04-21T11:14:21.484Z",
    "dead": 3,
    "id": "QqhD3YDMKXojvQY3Yu41",
    "infected": 53,
    "recovered": 0,
    "latitude": 18.3358,
    "sick": 50,
    "invisible": false
  },
  {
    "recovered": 8,
    "latitude": 15.414999,
    "pop": 71937,
    "longitude": -61.3709755,
    "name": "Dominica",
    "country": "DM",
    "lastUpdated": "2020-04-21T11:08:06.803Z",
    "dead": 0,
    "id": "Qy2qW2ep5wltnYjPJBxh",
    "infected": 16,
    "sick": 8,
    "invisible": false
  },
  {
    "infected": 10,
    "recovered": 2,
    "latitude": 5.167,
    "pop": 344027,
    "longitude": -72.167,
    "name": "Casanare",
    "country": "CO",
    "lastUpdated": "2020-04-21T11:16:09.835Z",
    "dead": 0,
    "id": "R3IHMWqIUhOJJTlrmbUZ",
    "sick": 8,
    "invisible": false
  },
  {
    "infected": 4658,
    "recovered": 204,
    "latitude": 8.538,
    "pop": 4099000,
    "longitude": -80.7821,
    "name": "Panama",
    "country": "PA",
    "lastUpdated": "2020-04-21T11:08:06.783Z",
    "dead": 136,
    "id": "R8YCgephnxTufvcPWMgx",
    "sick": 4318,
    "invisible": false
  },
  {
    "lastUpdated": "2020-04-21T11:08:06.788Z",
    "dead": 46,
    "id": "RA2SE0p2bVhqo0P2hzGY",
    "infected": 494,
    "recovered": 29,
    "latitude": 15.2,
    "pop": 9265000,
    "longitude": -86.2419,
    "name": "Honduras",
    "country": "HN",
    "sick": 419,
    "invisible": false
  },
  {
    "lastUpdated": "2020-04-21T11:07:13.345Z",
    "dead": 2,
    "id": "RBt9RiwP7WUbMnJfD0lo",
    "infected": 161,
    "recovered": 0,
    "latitude": -18.4745998,
    "pop": 224500,
    "longitude": -70.2979202,
    "name": "Arica y Parinacota",
    "country": "CL",
    "sick": 159,
    "invisible": false
  },
  {
    "infected": 2775,
    "recovered": 1346,
    "latitude": 45.633331,
    "pop": 1216000,
    "longitude": 13.8,
    "name": "Friuli Venezia Giulia",
    "country": "IT",
    "lastUpdated": "2020-04-21T11:01:07.914Z",
    "dead": 239,
    "id": "RCrDBCdBNYzgLNr0aB2H",
    "sick": 1190,
    "invisible": false
  },
  {
    "infected": 3159,
    "recovered": 0,
    "latitude": 41.878,
    "pop": 3156000,
    "longitude": -93.0977,
    "name": "Iowa",
    "country": "US",
    "lastUpdated": "2020-04-21T11:14:21.480Z",
    "dead": 79,
    "id": "RX0KDu1AFrlCsrRso0nb",
    "sick": 3080,
    "invisible": false
  },
  {
    "infected": 1682,
    "recovered": 267,
    "latitude": 4.624335,
    "pop": 7413000,
    "longitude": -74.063644,
    "name": "Bogotá D.C.",
    "country": "CO",
    "lastUpdated": "2020-04-21T11:16:09.776Z",
    "dead": 73,
    "id": "RZ6PCe5TZsO15JjDObwO",
    "sick": 1342,
    "invisible": false
  },
  {
    "id": "RaJxbzlnRFTuj4B8IbpC",
    "infected": 51,
    "recovered": 15,
    "latitude": 26.3351002,
    "pop": 6846000,
    "longitude": 17.2283306,
    "name": "Libya",
    "country": "LY",
    "lastUpdated": "2020-04-21T11:08:06.800Z",
    "dead": 1,
    "sick": 35,
    "invisible": false
  },
  {
    "lastUpdated": "2020-04-21T11:14:21.481Z",
    "dead": 102,
    "id": "Rf4uvBfP3GRDSHdZElRd",
    "infected": 2065,
    "recovered": 0,
    "latitude": 39.0119,
    "pop": 2912000,
    "longitude": -98.4842,
    "name": "Kansas",
    "country": "US",
    "sick": 1963,
    "invisible": false
  },
  {
    "lastUpdated": "2020-04-21T08:37:49.117Z",
    "dead": 2515,
    "id": "RmEgf1xeclWt7XCF9oiR",
    "infected": 18922,
    "recovered": 6219,
    "latitude": 48.6998,
    "pop": 5518000,
    "longitude": 6.1878,
    "name": "Grand Est",
    "country": "FR",
    "sick": 10188,
    "invisible": false
  },
  {
    "infected": 12884,
    "recovered": 2427,
    "latitude": 50.4176,
    "pop": 3644000,
    "longitude": 4.451,
    "name": "Wallonia",
    "country": "BE",
    "lastUpdated": "2020-04-21T10:59:11.015Z",
    "dead": 2092,
    "id": "RryHraSohKQLAsdr1dHO",
    "sick": 8365,
    "invisible": false
  },
  {
    "longitude": -85.3232,
    "name": "Ontario",
    "country": "CA",
    "lastUpdated": "2020-04-21T11:06:08.671Z",
    "dead": 647,
    "id": "Rx4TuyMpfGb3S8wYJX0x",
    "infected": 12286,
    "recovered": 0,
    "latitude": 51.2538,
    "pop": 14570000,
    "sick": 11639,
    "invisible": false
  },
  {
    "infected": 16259,
    "recovered": 5429,
    "latitude": 41.652779,
    "pop": 2408000,
    "longitude": -4.723611,
    "name": "Castilla y León",
    "country": "ES",
    "lastUpdated": "2020-04-21T11:11:09.049Z",
    "dead": 1521,
    "id": "S8ewN4zaYp8mjtuqqOTw",
    "sick": 9309,
    "invisible": false
  },
  {
    "infected": 163,
    "recovered": 73,
    "latitude": 14.652027,
    "pop": 376480,
    "longitude": -61.011715,
    "name": "Martinique",
    "country": "FR",
    "lastUpdated": "2020-04-21T11:08:06.791Z",
    "dead": 14,
    "id": "SDdefnq1bc3ZNr7SpEsW",
    "sick": 76,
    "invisible": false
  },
  {
    "latitude": 7.9465,
    "pop": 28830000,
    "longitude": -1.0232,
    "name": "Ghana",
    "country": "GH",
    "lastUpdated": "2020-04-21T11:08:06.786Z",
    "dead": 9,
    "id": "SG9VWLOV3x2JsTkXmVSz",
    "infected": 1042,
    "recovered": 99,
    "sick": 934,
    "invisible": false
  },
  {
    "lastUpdated": "2020-04-21T11:08:06.779Z",
    "dead": 1436,
    "id": "SGe9sCPayMqh6RsGFaBA",
    "infected": 27944,
    "recovered": 18600,
    "latitude": 46.818188,
    "pop": 8570000,
    "longitude": 8.227512,
    "name": "Switzerland",
    "country": "CH",
    "sick": 7908,
    "invisible": false
  },
  {
    "lastUpdated": "2020-04-21T11:06:08.661Z",
    "dead": 939,
    "id": "SHoOE3NiJgWAlDVBzwYH",
    "infected": 19319,
    "recovered": 0,
    "latitude": 46.8139,
    "pop": 8485000,
    "longitude": -71.208,
    "name": "Quebec",
    "country": "CA",
    "sick": 18380,
    "invisible": false
  },
  {
    "infected": 598,
    "recovered": 123,
    "latitude": 42.6026,
    "pop": 1831000,
    "longitude": 20.903,
    "name": "Kosovo",
    "country": "XK",
    "lastUpdated": "2020-04-21T10:40:10.428Z",
    "dead": 15,
    "id": "SMWvuMMuKp2QK7O2tNia",
    "sick": 460,
    "invisible": false
  },
  {
    "latitude": 15.2993,
    "pop": 1817000,
    "longitude": 74.124,
    "name": "Goa",
    "country": "IN",
    "lastUpdated": "2020-04-21T11:11:06.827Z",
    "dead": 0,
    "id": "SPcujsH2YlUaoAr8AiWF",
    "infected": 7,
    "recovered": 7,
    "sick": 0,
    "invisible": false
  },
  {
    "latitude": -16.328547,
    "pop": 6921161,
    "longitude": -48.953403,
    "name": "Goiás",
    "country": "BR",
    "lastUpdated": "2020-04-21T11:16:10.050Z",
    "dead": 19,
    "id": "SV5AMF59J61Vt4cXWLgy",
    "infected": 403,
    "recovered": 0,
    "sick": 384,
    "invisible": false
  },
  {
    "infected": 1038,
    "recovered": 135,
    "latitude": 39,
    "pop": 1957000,
    "longitude": 16.5,
    "name": "Calabria",
    "country": "IT",
    "lastUpdated": "2020-04-21T11:01:07.913Z",
    "dead": 75,
    "id": "SZdF624x0v1LlyzZjKFu",
    "sick": 828,
    "invisible": false
  },
  {
    "lastUpdated": "2020-04-21T11:14:21.481Z",
    "dead": 33,
    "id": "SakhKQzKu1LRI8laqdQq",
    "infected": 1648,
    "recovered": 0,
    "latitude": 41.4925,
    "pop": 1929000,
    "longitude": -99.9018,
    "name": "Nebraska",
    "country": "US",
    "sick": 1615,
    "invisible": false
  },
  {
    "recovered": 238,
    "latitude": -21.1151,
    "pop": 859959,
    "longitude": 55.5364,
    "name": "La Réunion",
    "country": "FR",
    "lastUpdated": "2020-04-21T11:08:06.789Z",
    "dead": 0,
    "id": "SgHzWAAYK1j2sipovxM6",
    "infected": 408,
    "sick": 170,
    "invisible": false
  },
  {
    "latitude": 12.565679,
    "pop": 16010000,
    "longitude": 104.990967,
    "name": "Cambodia",
    "country": "KH",
    "lastUpdated": "2020-04-21T11:08:06.792Z",
    "dead": 0,
    "id": "SioMALgUbo7peXmbco2f",
    "infected": 122,
    "recovered": 110,
    "sick": 12,
    "invisible": false
  },
  {
    "recovered": 0,
    "latitude": 13.4443,
    "pop": 164229,
    "longitude": 144.7937,
    "name": "Guam",
    "country": "GU",
    "lastUpdated": "2020-04-21T11:14:21.483Z",
    "dead": 5,
    "id": "SsWhuEElU7dCTTuH5fdQ",
    "infected": 136,
    "sick": 131,
    "invisible": false
  },
  {
    "infected": 0,
    "recovered": 1297,
    "latitude": 51.9189,
    "longitude": 19.1344,
    "name": "Unknown Poland region",
    "country": "PL",
    "lastUpdated": "2020-04-21T11:08:06.781Z",
    "dead": 0,
    "id": "SuCr5emUaJ9RHTll1P1p",
    "invisible": true,
    "sick": 0
  },
  {
    "recovered": 35,
    "latitude": -4.0383,
    "pop": 81340000,
    "longitude": 21.7587,
    "name": "DR Congo",
    "country": "CD",
    "lastUpdated": "2020-04-21T11:08:06.789Z",
    "dead": 25,
    "id": "T3iRf8mTUTAzbKrORTap",
    "infected": 350,
    "sick": 290,
    "invisible": false
  },
  {
    "latitude": 23.635796,
    "pop": 32940000,
    "longitude": 44.344334,
    "name": "Saudi Arabia",
    "country": "SA",
    "lastUpdated": "2020-04-21T11:08:06.781Z",
    "dead": 103,
    "id": "T7NffoeCgTUpAbOHvYwP",
    "infected": 10484,
    "recovered": 1490,
    "sick": 8891,
    "invisible": false
  },
  {
    "lastUpdated": "2020-04-21T11:11:09.052Z",
    "dead": 294,
    "id": "TNDTapyb0k3l7Mds9q9R",
    "infected": 3763,
    "recovered": 1866,
    "latitude": 42.2871,
    "pop": 315700,
    "longitude": -2.5396,
    "name": "La Rioja",
    "country": "ES",
    "sick": 1603,
    "invisible": false
  },
  {
    "infected": 191,
    "recovered": 0,
    "latitude": 20.400417,
    "pop": 2207200,
    "longitude": -89.134857,
    "name": "Yucatán",
    "country": "MX",
    "lastUpdated": "2020-04-21T11:10:08.968Z",
    "dead": 14,
    "id": "TQCWbhIpJQBQxBjhCGVJ",
    "sick": 177,
    "invisible": false
  },
  {
    "longitude": 114.650692,
    "name": "Brunei",
    "country": "BN",
    "lastUpdated": "2020-04-21T11:08:06.792Z",
    "dead": 1,
    "id": "TQZmzsLhJqjtCSExAkCP",
    "infected": 138,
    "recovered": 116,
    "latitude": 4.506106,
    "pop": 428697,
    "sick": 21,
    "invisible": false
  },
  {
    "latitude": 45.4471,
    "pop": 8027000,
    "longitude": 4.3853,
    "name": "Auvergne-Rhône-Alpes",
    "country": "FR",
    "lastUpdated": "2020-04-21T08:38:06.942Z",
    "dead": 1062,
    "id": "TT0MKODSjrxHvG19xZCa",
    "infected": 11220,
    "recovered": 3904,
    "sick": 6254,
    "invisible": false
  },
  {
    "id": "TeoNTu4aw5riC04sTd73",
    "infected": 161,
    "recovered": 0,
    "latitude": 38.5667,
    "pop": 758700,
    "longitude": -7.9,
    "name": "Alentejo",
    "country": "PT",
    "lastUpdated": "2020-04-21T11:04:01.621Z",
    "dead": 0,
    "sick": 161,
    "invisible": false
  },
  {
    "infected": 10112,
    "recovered": 0,
    "latitude": 39.318928,
    "pop": 5696000,
    "longitude": -105.461392,
    "name": "Colorado",
    "country": "US",
    "lastUpdated": "2020-04-21T11:14:21.479Z",
    "dead": 449,
    "id": "Th4dlpXXmSDgi1OHs36P",
    "sick": 9663,
    "invisible": false
  },
  {
    "recovered": 357,
    "latitude": 12.2383,
    "pop": 19190000,
    "longitude": -1.5616,
    "name": "Burkina Faso",
    "country": "BF",
    "lastUpdated": "2020-04-21T11:08:06.788Z",
    "dead": 38,
    "id": "Tup6oDCHj6DgqZR3nQ3x",
    "infected": 581,
    "sick": 186,
    "invisible": false
  },
  {
    "latitude": 12.104818,
    "pop": 112381,
    "longitude": -61.670761,
    "name": "Grenada",
    "country": "GD",
    "lastUpdated": "2020-04-21T11:08:06.803Z",
    "dead": 0,
    "id": "TvqURPN5xzVBXsmGP46N",
    "infected": 14,
    "recovered": 6,
    "sick": 8,
    "invisible": false
  },
  {
    "latitude": 55.675758,
    "pop": 5603000,
    "longitude": 12.56902,
    "name": "Denmark",
    "country": "DK",
    "lastUpdated": "2020-04-21T11:08:06.782Z",
    "dead": 364,
    "id": "Ty1AY3VLPJcRZgdBIERx",
    "infected": 7695,
    "recovered": 4312,
    "sick": 3019,
    "invisible": false
  },
  {
    "infected": 7031,
    "recovered": 0,
    "latitude": 53.9062,
    "pop": 5486000,
    "longitude": -1.0334,
    "name": "Yorkshire and The Humber",
    "country": "GB",
    "lastUpdated": "2020-04-21T11:09:26.152Z",
    "dead": 0,
    "id": "U0N7cIPJXAc4T6uKV60c",
    "sick": 7031,
    "invisible": false
  },
  {
    "infected": 787,
    "recovered": 765,
    "latitude": 36.395859,
    "pop": 100472400,
    "longitude": 118.769882,
    "name": "Shandong",
    "country": "CN",
    "lastUpdated": "2020-04-21T10:38:10.976Z",
    "dead": 7,
    "id": "U0tkTJ9CGsBuFJ2Gdoum",
    "sick": 15,
    "invisible": false
  },
  {
    "lastUpdated": "2020-04-21T11:08:06.788Z",
    "dead": 39,
    "id": "U12rMD5GDW58Q0lIwrB1",
    "infected": 462,
    "recovered": 61,
    "latitude": 43.94236,
    "pop": 33400,
    "longitude": 12.457777,
    "name": "San Marino",
    "country": "SM",
    "sick": 362,
    "invisible": false
  },
  {
    "infected": 11135,
    "recovered": 1239,
    "latitude": 36.204823,
    "pop": 126800000,
    "longitude": 138.25293,
    "name": "Japan",
    "country": "JP",
    "lastUpdated": "2020-04-21T11:08:06.781Z",
    "dead": 263,
    "id": "U13Gy4BpRLAZ95bPmBXd",
    "sick": 9633,
    "invisible": false
  },
  {
    "latitude": 1.3733,
    "pop": 42860000,
    "longitude": 32.2903,
    "name": "Uganda",
    "country": "UG",
    "lastUpdated": "2020-04-21T11:08:06.800Z",
    "dead": 0,
    "id": "UCZXEgnHtxUoChWLR6fQ",
    "infected": 56,
    "recovered": 38,
    "sick": 18,
    "invisible": false
  },
  {
    "infected": 24,
    "recovered": 6,
    "latitude": -11.2027,
    "pop": 29780000,
    "longitude": 17.8739,
    "name": "Angola",
    "country": "AO",
    "lastUpdated": "2020-04-21T11:08:06.801Z",
    "dead": 2,
    "id": "UIbrFy6kiTTF0D37Kqmp",
    "sick": 16,
    "invisible": false
  },
  {
    "id": "URKMlJ7OTNldjpaxFbjE",
    "infected": 1837,
    "recovered": 650,
    "latitude": 48.202,
    "pop": 3329000,
    "longitude": -2.9326,
    "name": "Bretagne",
    "country": "FR",
    "lastUpdated": "2020-04-21T08:38:16.639Z",
    "dead": 189,
    "sick": 998,
    "invisible": false
  },
  {
    "pop": 1822000,
    "longitude": 9.9937,
    "name": "Hamburg",
    "country": "DE",
    "lastUpdated": "2020-04-21T11:00:10.075Z",
    "dead": 91,
    "id": "UfFaUECHINUutv1M9tzq",
    "infected": 4368,
    "recovered": 2500,
    "latitude": 53.5511,
    "sick": 1777,
    "invisible": false
  },
  {
    "infected": 36,
    "recovered": 0,
    "latitude": 22.774916,
    "pop": 1615000,
    "longitude": -102.586899,
    "name": "Zacatecas",
    "country": "MX",
    "lastUpdated": "2020-04-21T11:10:08.968Z",
    "dead": 2,
    "id": "UflxTAb4FnAwve7c5MbY",
    "sick": 34,
    "invisible": false
  },
  {
    "latitude": -20.4427795,
    "pop": 2748023,
    "longitude": -54.646389,
    "name": "Mato Grosso do Sul",
    "country": "BR",
    "lastUpdated": "2020-04-21T11:16:10.051Z",
    "dead": 5,
    "id": "UlA1ubOUhPtf9jjKxxhF",
    "infected": 171,
    "recovered": 0,
    "sick": 166,
    "invisible": false
  },
  {
    "latitude": -19.4914,
    "pop": 211945,
    "longitude": 132.551,
    "name": "Northern Territory",
    "country": "AU",
    "lastUpdated": "2020-04-21T11:06:08.675Z",
    "dead": 0,
    "id": "UrF45V1VqMo6YBib2KlL",
    "infected": 27,
    "recovered": 11,
    "sick": 16,
    "invisible": false
  },
  {
    "lastUpdated": "2020-04-21T11:08:06.799Z",
    "dead": 10,
    "id": "UsxgpiuFCtlR2CW1UUFm",
    "infected": 67,
    "recovered": 12,
    "latitude": 18.0424805,
    "pop": 41109,
    "longitude": -63.0548286,
    "name": "Sint Maarten",
    "country": "SX",
    "sick": 45,
    "invisible": false
  },
  {
    "latitude": 52.4751,
    "pop": 5908000,
    "longitude": -1.8298,
    "name": "West Midlands",
    "country": "GB",
    "lastUpdated": "2020-04-21T11:09:26.152Z",
    "dead": 0,
    "id": "UzOGOMitJmaFTdh2FbvI",
    "infected": 9787,
    "recovered": 0,
    "sick": 9787,
    "invisible": false
  },
  {
    "lastUpdated": "2020-04-21T11:11:06.827Z",
    "dead": 0,
    "id": "V1qE740s3EUGyKGr6SVv",
    "infected": 7,
    "recovered": 4,
    "latitude": 11.943179,
    "pop": 241773,
    "longitude": 79.808206,
    "name": "Puducherry",
    "country": "IN",
    "sick": 3,
    "invisible": false
  },
  {
    "lastUpdated": "2020-04-21T11:07:13.353Z",
    "dead": 0,
    "id": "V9QxUhV4DyYK7iElEhXV",
    "infected": 7,
    "recovered": 0,
    "latitude": -45.5687,
    "pop": 25569,
    "longitude": -72.0597,
    "name": "Aysén",
    "country": "CL",
    "sick": 7,
    "invisible": false
  },
  {
    "infected": 1087,
    "recovered": 285,
    "latitude": 21.5218,
    "pop": 11480000,
    "longitude": -77.7812,
    "name": "Cuba",
    "country": "CU",
    "lastUpdated": "2020-04-21T11:08:06.786Z",
    "dead": 36,
    "id": "VAG9AcMABTf8oIAfELPh",
    "sick": 766,
    "invisible": false
  },
  {
    "latitude": 25.181129,
    "pop": 45970000,
    "longitude": 101.864143,
    "name": "Yunnan",
    "country": "CN",
    "lastUpdated": "2020-04-21T10:38:10.976Z",
    "dead": 2,
    "id": "VIf8T8PD3ZzlzAm5eBCX",
    "infected": 184,
    "recovered": 178,
    "sick": 4,
    "invisible": false
  },
  {
    "infected": 2160,
    "recovered": 0,
    "latitude": -3.4653,
    "pop": 4080611,
    "longitude": -62.2159,
    "name": "Amazonas",
    "country": "BR",
    "lastUpdated": "2020-04-21T11:16:10.049Z",
    "dead": 185,
    "id": "VZQiSdZ7cUHgUZWgpNTP",
    "sick": 1975,
    "invisible": false
  },
  {
    "infected": 1294,
    "recovered": 140,
    "latitude": 26.8467,
    "pop": 204200000,
    "longitude": 80.9462,
    "name": "Uttar Pradesh",
    "country": "IN",
    "lastUpdated": "2020-04-21T11:11:06.825Z",
    "dead": 18,
    "id": "VcKcLdCkC6YpPfIDnRVD",
    "sick": 1136,
    "invisible": false
  },
  {
    "latitude": 64.8255,
    "pop": 44826,
    "longitude": -124.8457,
    "name": "Northwest Territories",
    "country": "CA",
    "lastUpdated": "2020-04-21T11:06:08.677Z",
    "dead": 0,
    "id": "Vd3lLgrNsr81plzTgZkz",
    "infected": 5,
    "recovered": 0,
    "sick": 5,
    "invisible": false
  },
  {
    "pop": 1188000,
    "longitude": 3.838942,
    "name": "Islas Baleares",
    "country": "ES",
    "lastUpdated": "2020-04-21T11:11:09.048Z",
    "dead": 161,
    "id": "VyW0IR9vLMdgnKz1cC7j",
    "infected": 1808,
    "recovered": 1005,
    "latitude": 39.999079,
    "sick": 642,
    "invisible": false
  },
  {
    "lastUpdated": "2020-04-21T08:38:25.607Z",
    "dead": 312,
    "id": "WAnbFrEjtZDTCIYBt8rz",
    "infected": 4165,
    "recovered": 1728,
    "latitude": 43.8927,
    "pop": 5893000,
    "longitude": 3.2828,
    "name": "Occitanie",
    "country": "FR",
    "sick": 2125,
    "invisible": false
  },
  {
    "infected": 342,
    "recovered": 76,
    "latitude": 40.5,
    "pop": 567118,
    "longitude": 16.5,
    "name": "Basilicata",
    "country": "IT",
    "lastUpdated": "2020-04-21T11:01:07.913Z",
    "dead": 24,
    "id": "WD502XimGXnWzqYg7zxL",
    "sick": 242,
    "invisible": false
  },
  {
    "infected": 2,
    "recovered": 2,
    "latitude": 24.6637,
    "pop": 2722000,
    "longitude": 93.9063,
    "name": "Manipur",
    "country": "IN",
    "lastUpdated": "2020-04-21T11:11:06.827Z",
    "dead": 0,
    "id": "WKsJQmcpWKxnp0nCwN77",
    "sick": 0,
    "invisible": false
  },
  {
    "latitude": -9.933,
    "pop": 1757589,
    "longitude": -63.067,
    "name": "Rondônia",
    "country": "BR",
    "lastUpdated": "2020-04-21T11:16:10.053Z",
    "dead": 4,
    "id": "WRqKCfMIJFjrjXLMud70",
    "infected": 160,
    "recovered": 0,
    "sick": 156,
    "invisible": false
  },
  {
    "infected": 3300,
    "recovered": 1055,
    "latitude": -30.5595,
    "pop": 56720000,
    "longitude": 22.9375,
    "name": "South Africa",
    "country": "ZA",
    "lastUpdated": "2020-04-21T11:08:06.783Z",
    "dead": 58,
    "id": "Whrue10NtwIObLvFFyBr",
    "sick": 2187,
    "invisible": false
  },
  {
    "longitude": -15.3101387,
    "name": "Gambia",
    "country": "GM",
    "lastUpdated": "2020-04-21T11:08:06.804Z",
    "dead": 1,
    "id": "Wk811YwpQxsOCfz8As86",
    "infected": 10,
    "recovered": 2,
    "latitude": 13.443182,
    "pop": 2101000,
    "sick": 7,
    "invisible": false
  },
  {
    "lastUpdated": "2020-04-21T11:10:08.973Z",
    "dead": 55,
    "id": "WpCXuQjYFLbozSpEhbrZ",
    "infected": 901,
    "recovered": 0,
    "latitude": 19.352498,
    "pop": 17666800,
    "longitude": -99.625164,
    "name": "Estado de México",
    "country": "MX",
    "sick": 846,
    "invisible": false
  },
  {
    "id": "WpLayPPLIJ7VcHZdQaoM",
    "infected": 3382,
    "recovered": 87,
    "latitude": 23.685,
    "pop": 164700000,
    "longitude": 90.3563,
    "name": "Bangladesh",
    "country": "BD",
    "lastUpdated": "2020-04-21T11:08:06.783Z",
    "dead": 110,
    "sick": 3185,
    "invisible": false
  },
  {
    "recovered": 0,
    "latitude": 20.836,
    "pop": 2100000,
    "longitude": -99.8508,
    "name": "Querétaro",
    "country": "MX",
    "lastUpdated": "2020-04-21T11:10:08.966Z",
    "dead": 6,
    "id": "Wt97UDm6jfYef6WBrS2w",
    "infected": 87,
    "sick": 81,
    "invisible": false
  },
  {
    "latitude": 45.5,
    "pop": 4905000,
    "longitude": 11.75,
    "name": "Veneto",
    "country": "IT",
    "lastUpdated": "2020-04-21T11:01:07.916Z",
    "dead": 1112,
    "id": "X2iRhHF6f9pUnJcxPc3J",
    "infected": 16127,
    "recovered": 4954,
    "sick": 10061,
    "invisible": false
  },
  {
    "infected": 23,
    "recovered": 1,
    "latitude": -8.556856,
    "pop": 1311000,
    "longitude": 125.56031,
    "name": "Timor-Leste",
    "country": "TL",
    "lastUpdated": "2020-04-21T11:08:06.801Z",
    "dead": 0,
    "id": "X3GMAVINj2GDzIRVfo7n",
    "sick": 22,
    "invisible": false
  },
  {
    "recovered": 14,
    "latitude": 34.152588,
    "pop": 274289,
    "longitude": 77.577049,
    "name": "Ladakh",
    "country": "IN",
    "lastUpdated": "2020-04-21T11:11:06.827Z",
    "dead": 0,
    "id": "X3PZqaJxtnlxcgP4tzya",
    "infected": 18,
    "sick": 4,
    "invisible": false
  },
  {
    "infected": 355,
    "recovered": 341,
    "latitude": 25.92448,
    "pop": 38560000,
    "longitude": 118.278992,
    "name": "Fujian",
    "country": "CN",
    "lastUpdated": "2020-04-21T10:38:10.976Z",
    "dead": 1,
    "id": "XBBw0iMPrmiEu3qogkbi",
    "sick": 13,
    "invisible": false
  },
  {
    "latitude": -52.368,
    "pop": 166533,
    "longitude": -70.9863,
    "name": "Magallanes",
    "country": "CL",
    "lastUpdated": "2020-04-21T11:07:13.353Z",
    "dead": 6,
    "id": "XIYUg6ShQvWyEAJfyJzC",
    "infected": 566,
    "recovered": 0,
    "sick": 560,
    "invisible": false
  },
  {
    "infected": 107,
    "recovered": 0,
    "latitude": 37.794597,
    "pop": 246746,
    "longitude": -25.506134,
    "name": "Açores",
    "country": "PT",
    "lastUpdated": "2020-04-21T11:04:01.621Z",
    "dead": 6,
    "id": "XhM7BCQK50gGQ2wIUtDq",
    "sick": 101,
    "invisible": false
  },
  {
    "latitude": -32.5228,
    "pop": 3457000,
    "longitude": -55.7658,
    "name": "Uruguay",
    "country": "UY",
    "lastUpdated": "2020-04-21T11:08:06.788Z",
    "dead": 11,
    "id": "XrsuLstdybIqIvv0E0aJ",
    "infected": 535,
    "recovered": 313,
    "sick": 211,
    "invisible": false
  },
  {
    "longitude": 9.0129,
    "name": "Corse",
    "country": "FR",
    "lastUpdated": "2020-04-21T08:38:30.470Z",
    "dead": 47,
    "id": "YGXgIObKVabP2CYEdcb9",
    "infected": 382,
    "recovered": 152,
    "latitude": 42.0396,
    "pop": 339178,
    "sick": 183,
    "invisible": false
  },
  {
    "id": "YI9zIOUXJqAcgc0T80yb",
    "infected": 79,
    "recovered": 27,
    "latitude": 2.916112,
    "pop": 1126000,
    "longitude": -75.28344,
    "name": "Huila",
    "country": "CO",
    "lastUpdated": "2020-04-21T11:16:09.833Z",
    "dead": 5,
    "sick": 47,
    "invisible": false
  },
  {
    "longitude": 35.2332,
    "name": "Palestine",
    "country": "PS",
    "lastUpdated": "2020-04-21T11:08:06.788Z",
    "dead": 4,
    "id": "YMzKw0SnXG71VT7H1jff",
    "infected": 461,
    "recovered": 71,
    "latitude": 31.9522,
    "pop": 5052000,
    "sick": 386,
    "invisible": false
  },
  {
    "latitude": 17.97,
    "pop": 2460900,
    "longitude": -92.5867,
    "name": "Tabasco",
    "country": "MX",
    "lastUpdated": "2020-04-21T11:10:08.964Z",
    "dead": 38,
    "id": "YP3nlz6AKyrnCWYb5mHA",
    "infected": 397,
    "recovered": 0,
    "sick": 359,
    "invisible": false
  },
  {
    "infected": 50,
    "recovered": 3,
    "latitude": 11.8037491,
    "pop": 1955000,
    "longitude": -15.1804132,
    "name": "Guinea-Bissau",
    "country": "GW",
    "lastUpdated": "2020-04-21T11:08:06.800Z",
    "dead": 0,
    "id": "YZoy8ReFucvC3IFnWZHn",
    "sick": 47,
    "invisible": false
  },
  {
    "latitude": 64.2008,
    "pop": 737438,
    "longitude": -149.4937,
    "name": "Alaska",
    "country": "US",
    "lastUpdated": "2020-04-21T11:14:21.483Z",
    "dead": 9,
    "id": "YaCODTMD1KKRnrAlkg2u",
    "infected": 321,
    "recovered": 0,
    "sick": 312,
    "invisible": false
  },
  {
    "lastUpdated": "2020-04-21T11:11:09.051Z",
    "dead": 1103,
    "id": "YfA7o2lZP1DhV4JB6Umh",
    "infected": 12810,
    "recovered": 7277,
    "latitude": 42.9896,
    "pop": 2178000,
    "longitude": -2.6189,
    "name": "País Vasco",
    "country": "ES",
    "sick": 4430,
    "invisible": false
  },
  {
    "infected": 69,
    "recovered": 0,
    "latitude": 16.8922,
    "pop": 4091400,
    "longitude": -96.4085,
    "name": "Oaxaca",
    "country": "MX",
    "lastUpdated": "2020-04-21T11:10:08.941Z",
    "dead": 6,
    "id": "YidRsOGDERjtbaIBGCdu",
    "sick": 63,
    "invisible": false
  },
  {
    "recovered": 8213,
    "latitude": 37.568291,
    "pop": 51470000,
    "longitude": 126.99778,
    "name": "South Korea",
    "country": "KR",
    "lastUpdated": "2020-04-21T11:08:06.781Z",
    "dead": 237,
    "id": "Yw9uBekNlefXBcOCNMfP",
    "infected": 10683,
    "sick": 2233,
    "invisible": false
  },
  {
    "recovered": 23,
    "latitude": 13.193887,
    "pop": 285719,
    "longitude": -59.543198,
    "name": "Barbados",
    "country": "BB",
    "lastUpdated": "2020-04-21T11:08:06.799Z",
    "dead": 5,
    "id": "YzZqZMJGvG6joQCdiuXC",
    "infected": 75,
    "sick": 47,
    "invisible": false
  },