[
  {
    "name": "San Andrés",
    "latitude": 12.5847,
    "dead": 0,
    "lastUpdated": "2020-06-30T05:00:06.226Z",
    "recovered": 17,
    "infected": 24,
    "id": "01b09TY4vmuZwzVuiRFK",
    "pop": 72600,
    "country": "CO",
    "longitude": -81.7006,
    "sick": 7,
    "invisible": false
  },
  {
    "latitude": 49.4482,
    "dead": 13,
    "lastUpdated": "2020-06-30T04:36:03.079Z",
    "recovered": 238,
    "infected": 252,
    "id": "0FOJefeLxQYXQ1CnJm9o",
    "pop": 63196,
    "country": "GG",
    "longitude": -2.5895,
    "name": "Guernsey",
    "alwaysShow": false,
    "sick": 1,
    "invisible": false
  },
  {
    "recovered": 4073,
    "infected": 4666,
    "state": "72",
    "id": "0GJcws44NSPsDHAuxJhW",
    "pop": 5827000,
    "country": "IT",
    "longitude": 14.333333,
    "name": "Campania",
    "latitude": 41.066666,
    "dead": 431,
    "lastUpdated": "2020-06-30T05:01:09.999Z",
    "sick": 162,
    "invisible": false
  },
  {
    "id": "0HDQbiHe462xMCUV5HiI",
    "pop": 383870,
    "country": "CL",
    "longitude": -70.14222,
    "name": "Tarapacá",
    "latitude": -20.2167,
    "dead": 91,
    "lastUpdated": "2020-06-30T05:21:04.080Z",
    "recovered": 0,
    "infected": 5974,
    "sick": 5883,
    "invisible": false
  },
  {
    "lastUpdated": "2020-06-30T05:11:01.141Z",
    "recovered": 4946,
    "infected": 7065,
    "id": "0VG7S6aaK4eSo59fL9JO",
    "pop": 45990000,
    "country": "IN",
    "longitude": 85.0985,
    "name": "Odisha",
    "latitude": 20.9517,
    "dead": 30,
    "sick": 2089,
    "invisible": false
  },
  {
    "country": "MX",
    "longitude": -98.8582,
    "name": "Hidalgo",
    "latitude": 20.4737,
    "dead": 629,
    "lastUpdated": "2020-06-30T05:02:01.678Z",
    "recovered": 0,
    "infected": 3782,
    "id": "0XmCRqiK2ZaehoEJvfer",
    "pop": 2990300,
    "sick": 3153,
    "invisible": false
  },
  {
    "name": "Andaman and Nicobar Islands",
    "latitude": 11.7401,
    "dead": 0,
    "lastUpdated": "2020-06-30T05:11:01.143Z",
    "recovered": 45,
    "infected": 97,
    "id": "0jStOpTUNRaQYJqgmRoK",
    "pop": 427246,
    "country": "IN",
    "longitude": 92.6586,
    "sick": 52,
    "invisible": false
  },
  {
    "country": "QA",
    "longitude": 51.145517,
    "name": "Qatar",
    "latitude": 25.315058,
    "dead": 113,
    "lastUpdated": "2020-06-30T05:16:02.709Z",
    "recovered": 80170,
    "infected": 95106,
    "id": "0m4aECS0Z2DGFEr8ldgI",
    "pop": 2639000,
    "sick": 14823,
    "invisible": false
  },
  {
    "lastUpdated": "2020-06-30T05:11:01.140Z",
    "recovered": 11719,
    "infected": 17907,
    "id": "0n54EMSDJcRoT1QEvw80",
    "pop": 90320000,
    "country": "IN",
    "longitude": 87.855,
    "name": "West Bengal",
    "latitude": 22.9868,
    "dead": 653,
    "sick": 5535,
    "invisible": false
  },
  {
    "country": "IN",
    "longitude": 78.6569,
    "name": "Madhya Pradesh",
    "latitude": 22.9734,
    "dead": 564,
    "lastUpdated": "2020-06-30T05:11:01.140Z",
    "recovered": 10199,
    "infected": 13370,
    "id": "0s18o5DrDAHjbu5MFcrj",
    "pop": 73340000,
    "sick": 2607,
    "invisible": false
  },
  {
    "recovered": 1117177,
    "infected": 0,
    "id": "0tFoopNTs6e4tOoaltu2",
    "country": "US",
    "longitude": -95.7129,
    "invisible": true,
    "name": "Unknown US state",
    "latitude": 37.0902,
    "dead": 0,
    "lastUpdated": "2020-06-30T05:16:02.707Z",
    "sick": 0
  },
  {
    "country": "CN",
    "longitude": 108.472214,
    "name": "Shaanxi",
    "latitude": 35.64249,
    "dead": 3,
    "lastUpdated": "2020-06-30T05:08:09.798Z",
    "recovered": 308,
    "infected": 320,
    "id": "0x2HLhr5z5xAtEdO4iZm",
    "pop": 37330000,
    "sick": 9,
    "invisible": false
  },
  {
    "latitude": 41.643351,
    "dead": 298,
    "lastUpdated": "2020-06-30T05:16:02.715Z",
    "recovered": 2427,
    "infected": 6209,
    "id": "19MvIhipqTyYv1H37Upw",
    "pop": 2077000,
    "country": "MK",
    "longitude": 21.668393,
    "name": "North Macedonia",
    "sick": 3484,
    "invisible": false
  },
  {
    "latitude": 53.1355,
    "dead": 3,
    "lastUpdated": "2020-06-30T05:10:01.318Z",
    "recovered": 0,
    "infected": 261,
    "state": "NL",
    "id": "1DOMOmCWDtva46OVSZLv",
    "pop": 521542,
    "country": "CA",
    "longitude": -57.6604,
    "name": "Newfoundland and Labrador",
    "sick": 258,
    "invisible": false
  },
  {
    "recovered": 18,
    "infected": 18,
    "id": "1Fap7rZu9SIRqf5TG9Dg",
    "pop": 5627000,
    "country": "CN",
    "longitude": 96.779286,
    "name": "Qinghai",
    "latitude": 35.801933,
    "dead": 0,
    "lastUpdated": "2020-06-30T05:08:09.801Z",
    "sick": 0,
    "invisible": false
  },
  {
    "latitude": 23.6345,
    "dead": 0,
    "lastUpdated": "2020-06-30T05:16:02.708Z",
    "recovered": 131264,
    "infected": 0,
    "id": "1YXQMlVL3fUeDZmcVfJw",
    "pop": 126200000,
    "country": "MX",
    "longitude": -102.5528,
    "invisible": true,
    "name": "Unknown Mexico state",
    "sick": 0
  },
  {
    "latitude": 55.0555,
    "dead": 30,
    "lastUpdated": "2020-06-30T05:00:08.255Z",
    "recovered": 1984,
    "infected": 3533,
    "id": "1at5nIap9H51v32otlQl",
    "pop": 1960000,
    "country": "RU",
    "longitude": 73.3167,
    "name": "Omsk Oblast",
    "sick": 1519,
    "invisible": false
  },
  {
    "country": "IT",
    "longitude": 8.206944,
    "name": "Piemonte",
    "latitude": 44.9,
    "dead": 4087,
    "lastUpdated": "2020-06-30T05:01:10.001Z",
    "recovered": 25761,
    "infected": 31338,
    "state": "21",
    "id": "1eTSQyfp8RoDPeFrIwun",
    "pop": 4376000,
    "sick": 1490,
    "invisible": false
  },
  {
    "name": "Lubuskie",
    "latitude": 51.993,
    "dead": 0,
    "lastUpdated": "2020-06-30T05:03:01.249Z",
    "recovered": 0,
    "infected": 149,
    "id": "1j1OurxLTpZYuWIWwQ9F",
    "pop": 1003000,
    "country": "PL",
    "longitude": 15.461,
    "sick": 149,
    "invisible": false
  },
  {
    "country": "MD",
    "longitude": 28.3699,
    "name": "Moldova",
    "latitude": 47.4116,
    "dead": 536,
    "lastUpdated": "2020-06-30T05:16:02.712Z",
    "recovered": 9229,
    "infected": 16357,
    "id": "1qTPB8X3tyLyIdsb5TN3",
    "pop": 3550000,
    "sick": 6592,
    "invisible": false
  },
  {
    "longitude": -95.7129,
    "invisible": true,
    "name": "Federal Bureau of Prisons",
    "latitude": 37.0902,
    "dead": 90,
    "lastUpdated": "2020-06-30T05:17:02.161Z",
    "recovered": 0,
    "infected": 7365,
    "id": "22PJOAThcDFKgSbyQIkD",
    "country": "US",
    "sick": 7275
  },
  {
    "latitude": 30.15336,
    "dead": 0,
    "lastUpdated": "2020-06-30T05:08:09.801Z",
    "recovered": 1,
    "infected": 1,
    "id": "25qIBtsW2nfQj3pwBKg9",
    "pop": 3180000,
    "country": "CN",
    "longitude": 88.787865,
    "name": "Tibet",
    "sick": 0,
    "invisible": false
  },
  {
    "name": "Indonesia",
    "latitude": -1.572184,
    "dead": 2805,
    "lastUpdated": "2020-06-30T05:16:02.710Z",
    "recovered": 23800,
    "infected": 55092,
    "id": "2KHYUb5t3lwzVVmDjwNX",
    "pop": 264000000,
    "country": "ID",
    "longitude": 115.66779,
    "sick": 28487,
    "invisible": false
  },
  {
    "country": "US",
    "longitude": -120.585594,
    "name": "Oregon",
    "latitude": 43.807191,
    "dead": 204,
    "lastUpdated": "2020-06-30T05:17:02.158Z",
    "recovered": 0,
    "infected": 8485,
    "state": "OR",
    "id": "2OrsssmGUs4XCzaZzvTv",
    "pop": 4191000,
    "sick": 8281,
    "invisible": false
  },
  {
    "country": "CL",
    "longitude": -70.400002,
    "name": "Antofagasta",
    "latitude": -23.65,
    "dead": 147,
    "lastUpdated": "2020-06-30T05:21:04.081Z",
    "recovered": 0,
    "infected": 8625,
    "id": "2c5HBZ1ffkCVXnMYUWnY",
    "pop": 425000,
    "sick": 8478,
    "invisible": false
  },
  {
    "name": "Amapá",
    "latitude": 0.035574,
    "dead": 413,
    "lastUpdated": "2020-06-30T05:15:01.807Z",
    "recovered": 0,
    "infected": 28253,
    "state": "AP",
    "id": "2dzhyWsBSPpENWlNew0b",
    "pop": 9029000,
    "country": "BR",
    "longitude": -51.070534,
    "sick": 27840,
    "invisible": false
  },
  {
    "country": "CN",
    "longitude": 126.548103,
    "name": "Jilin",
    "latitude": 43.851921,
    "dead": 2,
    "lastUpdated": "2020-06-30T05:08:09.800Z",
    "recovered": 153,
    "infected": 155,
    "id": "2jxHvSsxdnom0nPNvOT8",
    "pop": 27460000,
    "sick": 0,
    "invisible": false
  },
  {
    "country": "GI",
    "longitude": -5.3536,
    "name": "Gibraltar",
    "latitude": 36.1408,
    "dead": 0,
    "lastUpdated": "2020-06-30T05:16:02.722Z",
    "recovered": 176,
    "infected": 177,
    "id": "2p11BjSAs3wVyymgqBOe",
    "pop": 34571,
    "sick": 1,
    "invisible": false
  },
  {
    "latitude": 47.7516,
    "dead": 545,
    "lastUpdated": "2020-06-30T01:29:26.953Z",
    "recovered": 1942,
    "infected": 4448,
    "id": "2sLNkkHpyaHx7dD3aMDO",
    "pop": 2567000,
    "country": "FR",
    "longitude": 1.6751,
    "name": "Centre-Val de Loire",
    "sick": 1961,
    "invisible": false
  },
  {
    "recovered": 1351,
    "infected": 1440,
    "state": "55",
    "id": "319tiZOMczx1y0DfvOib",
    "pop": 884640,
    "country": "IT",
    "longitude": 12.643751,
    "name": "Umbria",
    "latitude": 42.565044,
    "dead": 80,
    "lastUpdated": "2020-06-30T05:01:10.002Z",
    "sick": 9,
    "invisible": false
  },
  {
    "latitude": 2.43823,
    "dead": 14,
    "lastUpdated": "2020-06-30T02:00:06.224Z",
    "recovered": 148,
    "infected": 352,
    "id": "38T96Q3XNjt5FSJygPed",
    "pop": 1355000,
    "country": "CO",
    "longitude": -76.6131592,
    "name": "Cauca",
    "sick": 190,
    "invisible": false
  },
  {
    "name": "Zambia",
    "latitude": -13.133896,
    "dead": 22,
    "lastUpdated": "2020-06-30T05:16:02.718Z",
    "recovered": 1311,
    "infected": 1568,
    "id": "3IlPjAbP5qVMn1nlgLTJ",
    "pop": 17090000,
    "country": "ZM",
    "longitude": 27.849332,
    "sick": 235,
    "invisible": false
  },
  {
    "longitude": 19.3958,
    "name": "Montenegro",
    "latitude": 42.7044,
    "dead": 11,
    "lastUpdated": "2020-06-30T05:16:02.721Z",
    "recovered": 315,
    "infected": 501,
    "id": "3LstMSN5XMYBkxbe5HN7",
    "pop": 631219,
    "country": "ME",
    "sick": 175,
    "invisible": false
  },
  {
    "name": "Australian Capital Territory",
    "latitude": -35.4735,
    "dead": 3,
    "lastUpdated": "2020-06-30T05:13:26.036Z",
    "recovered": 105,
    "infected": 108,
    "state": "ACT",
    "id": "3OZoQsKrzxZ18EKyfGE6",
    "pop": 418440,
    "country": "AU",
    "longitude": 149.0124,
    "sick": 0,
    "invisible": false
  },
  {
    "recovered": 3041,
    "infected": 4741,
    "id": "3PfzjWjvOkfgxc672BHQ",
    "pop": 608000,
    "country": "RU",
    "longitude": 38.8389,
    "name": "Yaroslavl Oblast",
    "latitude": 57.8992,
    "dead": 19,
    "lastUpdated": "2020-06-30T05:00:08.254Z",
    "sick": 1681,
    "invisible": false
  },
  {
    "latitude": 51.8873,
    "dead": 3,
    "lastUpdated": "2020-06-30T05:00:08.254Z",
    "recovered": 1095,
    "infected": 4361,
    "id": "3PpqgIUJAtzxo1j7z56i",
    "pop": 321000,
    "country": "RU",
    "longitude": 95.626,
    "name": "Tuva",
    "sick": 3263,
    "invisible": false
  },
  {
    "latitude": 26.2006,
    "dead": 11,
    "lastUpdated": "2020-06-30T05:11:01.141Z",
    "recovered": 5334,
    "infected": 7795,
    "id": "3cCbnJCsK7mKlTO08K1o",
    "pop": 30940000,
    "country": "IN",
    "longitude": 92.9376,
    "name": "Assam",
    "sick": 2450,
    "invisible": false
  },
  {
    "latitude": 40.4173,
    "dead": 2850,
    "lastUpdated": "2020-06-30T05:17:02.154Z",
    "recovered": 0,
    "infected": 51655,
    "state": "OH",
    "id": "3fC3bAyIRUquOQOEnQNe",
    "pop": 11690000,
    "country": "US",
    "longitude": -82.9071,
    "name": "Ohio",
    "sick": 48805,
    "invisible": false
  },
  {
    "longitude": -107.5,
    "name": "Sinaloa",
    "latitude": 25,
    "dead": 1257,
    "lastUpdated": "2020-06-30T05:02:01.674Z",
    "recovered": 0,
    "infected": 8139,
    "id": "3kFCzJguabtBvXaHxgiu",
    "pop": 3066400,
    "country": "MX",
    "sick": 6882,
    "invisible": false
  },
  {
    "id": "3mC2LveOpXV8P1PmQGUj",
    "pop": 4708300,
    "country": "CO",
    "longitude": -76.522224,
    "name": "Valle del Cauca",
    "latitude": 3.420556,
    "dead": 312,
    "lastUpdated": "2020-06-30T05:00:06.224Z",
    "recovered": 3691,
    "infected": 8223,
    "sick": 4220,
    "invisible": false
  },
  {
    "country": "MR",
    "longitude": -10.9408,
    "name": "Mauritania",
    "latitude": 21.0079,
    "dead": 128,
    "lastUpdated": "2020-06-30T05:16:02.716Z",
    "recovered": 1497,
    "infected": 4237,
    "id": "4NnFMekRK2m14IlnZZoj",
    "pop": 4420000,
    "sick": 2612,
    "invisible": false
  },
  {
    "state": "BC",
    "id": "4hfZRUoUgI4a3vrG0GBk",
    "pop": 5071000,
    "country": "CA",
    "longitude": -127.6476,
    "name": "British Columbia",
    "latitude": 53.7267,
    "dead": 174,
    "lastUpdated": "2020-06-30T05:10:01.315Z",
    "recovered": 0,
    "infected": 2904,
    "sick": 2730,
    "invisible": false
  },
  {
    "state": "RJ",
    "id": "4kq0z3kh5zt3YAUWxvtE",
    "pop": 17159960,
    "country": "BR",
    "longitude": -43.196388,
    "name": "Rio de Janeiro",
    "latitude": -22.908333,
    "dead": 9848,
    "lastUpdated": "2020-06-30T05:15:01.804Z",
    "recovered": 0,
    "infected": 111883,
    "sick": 102035,
    "invisible": false
  },
  {
    "state": "BA",
    "id": "4yDbkEyqsNzZJjfrciYV",
    "pop": 14812617,
    "country": "BR",
    "longitude": -41.280857,
    "name": "Bahia",
    "latitude": -11.409874,
    "dead": 1800,
    "lastUpdated": "2020-06-30T05:15:01.806Z",
    "recovered": 0,
    "infected": 69467,
    "sick": 67667,
    "invisible": false
  },
  {
    "latitude": 40.3426,
    "dead": 206,
    "lastUpdated": "2020-06-30T05:16:02.712Z",
    "recovered": 9369,
    "infected": 16968,
    "id": "4zqzRm2xHn0CDVOUQJ8p",
    "pop": 9898000,
    "country": "AZ",
    "longitude": 47.93802,
    "name": "Azerbaijan",
    "sick": 7393,
    "invisible": false
  },
  {
    "id": "54cfsdsRF76XVHWtZs19",
    "pop": 3672300,
    "country": "MX",
    "longitude": -97.861099,
    "name": "Tamaulipas",
    "latitude": 22.233105,
    "dead": 426,
    "lastUpdated": "2020-06-30T05:02:01.678Z",
    "recovered": 0,
    "infected": 6523,
    "sick": 6097,
    "invisible": false
  },
  {
    "lastUpdated": "2020-06-30T05:07:13.259Z",
    "recovered": 9320,
    "infected": 34442,
    "state": "VLG",
    "id": "57ydD48mLRD2YoyteJZj",
    "pop": 6596000,
    "country": "BE",
    "longitude": 3.7265,
    "name": "Flanders",
    "latitude": 51.0109,
    "dead": 4890,
    "sick": 20232,
    "invisible": false
  },
  {
    "country": "BS",
    "longitude": -78.035889,
    "name": "Bahamas",
    "latitude": 25.025885,
    "dead": 11,
    "lastUpdated": "2020-06-30T05:16:02.723Z",
    "recovered": 87,
    "infected": 104,
    "id": "5MHegCUO9L3LiAU7DDey",
    "pop": 395361,
    "sick": 6,
    "invisible": false
  },
  {
    "name": "New South Wales",
    "latitude": -31.253218,
    "dead": 49,
    "lastUpdated": "2020-06-30T05:13:26.042Z",
    "recovered": 2784,
    "infected": 3184,
    "state": "NSW",
    "id": "5N16a2OXXRpsEFanw0TC",
    "pop": 7544000,
    "country": "AU",
    "longitude": 146.921097,
    "sick": 351,
    "invisible": false
  },
  {
    "name": "South Sudan",
    "latitude": 6.8769908,
    "dead": 36,
    "lastUpdated": "2020-06-30T05:16:02.717Z",
    "recovered": 246,
    "infected": 1989,
    "id": "5N4PRxsCDzzwk7R200V1",
    "pop": 12580000,
    "country": "SS",
    "longitude": 31.3069782,
    "sick": 1707,
    "invisible": false
  },
  {
    "state": "VC",
    "id": "5Va9A7CXR8AXdUz4HTJj",
    "pop": 4975000,
    "country": "ES",
    "longitude": -0.7533,
    "name": "C. Valenciana",
    "latitude": 39.484,
    "dead": 1432,
    "lastUpdated": "2020-06-30T00:53:18.640Z",
    "recovered": 9970,
    "infected": 15351,
    "sick": 3949,
    "invisible": false
  },
  {
    "latitude": -20.9043045,
    "dead": 0,
    "lastUpdated": "2020-06-30T05:16:02.724Z",
    "recovered": 21,
    "infected": 21,
    "id": "5fg04eyDwFw3kEXnrxez",
    "pop": 280460,
    "country": "NC",
    "longitude": 165.618042,
    "name": "New Caledonia",
    "sick": 0,
    "invisible": false
  },
  {
    "lastUpdated": "2020-06-30T05:16:02.712Z",
    "recovered": 3134,
    "infected": 13248,
    "id": "5gXZIjRgAvd6xWN1LOv8",
    "pop": 29300000,
    "country": "NP",
    "longitude": 84.124008,
    "name": "Nepal",
    "latitude": 28.394857,
    "dead": 29,
    "sick": 10085,
    "invisible": false
  },
  {
    "latitude": 12.879721,
    "dead": 1255,
    "lastUpdated": "2020-06-30T05:16:02.711Z",
    "recovered": 9956,
    "infected": 36438,
    "id": "5pwmh7aSdGRKqRbnuyc0",
    "pop": 104900000,
    "country": "PH",
    "longitude": 121.774017,
    "name": "Philippines",
    "sick": 25227,
    "invisible": false
  },
  {
    "latitude": -17.824858,
    "dead": 7,
    "lastUpdated": "2020-06-30T05:16:02.720Z",
    "recovered": 152,
    "infected": 574,
    "id": "5qtR9nx4BLwu1ODTniaY",
    "pop": 14802190,
    "country": "ZW",
    "longitude": 31.053028,
    "name": "Zimbabwe",
    "sick": 415,
    "invisible": false
  },
  {
    "lastUpdated": "2020-06-30T05:17:02.161Z",
    "state": "NA",
    "id": "5vkKgxTaKq1IH0Go357L",
    "longitude": -109.188,
    "invisible": false,
    "name": "Navajo Nation",
    "dead": 363,
    "latitude": 36.0672,
    "infected": 7469,
    "recovered": 0,
    "pop": 356890,
    "country": "US",
    "sick": 7106
  },
  {
    "lastUpdated": "2020-06-30T05:02:01.677Z",
    "recovered": 0,
    "infected": 47437,
    "id": "61E7TGjUwAo9xu6Y6gAH",
    "pop": 8781300,
    "country": "MX",
    "longitude": -99.177254,
    "name": "Ciudad de México",
    "latitude": 19.432241,
    "dead": 6456,
    "sick": 40981,
    "invisible": false
  },
  {
    "name": "Kaluga Oblast",
    "latitude": 54.3873,
    "dead": 44,
    "lastUpdated": "2020-06-30T05:00:08.252Z",
    "recovered": 3507,
    "infected": 5973,
    "id": "63KYOuWe41mvqWQrJbr2",
    "pop": 1012000,
    "country": "RU",
    "longitude": 35.1889,
    "sick": 2422,
    "invisible": false
  },
  {
    "latitude": 55.621011,
    "dead": 78,
    "lastUpdated": "2020-06-30T05:16:02.718Z",
    "recovered": 1512,
    "infected": 1816,
    "id": "694ON7d0mRJDeM1gHBTR",
    "pop": 2794000,
    "country": "LT",
    "longitude": 23.804991,
    "name": "Lithuania",
    "sick": 226,
    "invisible": false
  },
  {
    "recovered": 0,
    "infected": 22821,
    "state": "EN",
    "id": "6IQAsvrmBv0HPdeTnh4x",
    "pop": 9175000,
    "country": "GB",
    "longitude": -0.5596,
    "name": "South East",
    "latitude": 51.1781,
    "dead": 0,
    "lastUpdated": "2020-06-30T05:13:11.348Z",
    "sick": 22821,
    "invisible": false
  },
  {
    "lastUpdated": "2020-06-30T05:16:02.718Z",
    "recovered": 1105,
    "infected": 1204,
    "id": "6IcHIIH0zXpY0POmBZTv",
    "pop": 7392000,
    "country": "HK",
    "longitude": 114.109497,
    "name": "Hong Kong",
    "latitude": 22.396427,
    "dead": 7,
    "sick": 92,
    "invisible": false
  },
  {
    "longitude": -72.4,
    "name": "Acre",
    "latitude": -8.65,
    "dead": 361,
    "lastUpdated": "2020-06-30T05:15:01.808Z",
    "recovered": 0,
    "infected": 13146,
    "state": "AC",
    "id": "6LQesrx5bHJsVUi1TXBp",
    "pop": 869265,
    "country": "BR",
    "sick": 12785,
    "invisible": false
  },
  {
    "id": "6SlpghTyB6lpMFvx3g9U",
    "pop": 11180000,
    "country": "BJ",
    "longitude": 2.3158,
    "name": "Benin",
    "latitude": 9.3077,
    "dead": 19,
    "lastUpdated": "2020-06-30T05:16:02.718Z",
    "recovered": 323,
    "infected": 1187,
    "sick": 845,
    "invisible": false
  },
  {
    "lastUpdated": "2020-06-30T05:01:10.000Z",
    "recovered": 66376,
    "infected": 93839,
    "state": "25",
    "id": "6ZHcvMIzVWIaRnc4R3Qp",
    "pop": 10040000,
    "country": "IT",
    "longitude": 9.5,
    "name": "Lombardia",
    "latitude": 45.6667,
    "dead": 16640,
    "sick": 10823,
    "invisible": false
  },
  {
    "latitude": 46.0569,
    "dead": 111,
    "lastUpdated": "2020-06-30T05:16:02.718Z",
    "recovered": 1384,
    "infected": 1585,
    "id": "6ahNiyKDSDAftCctgLH3",
    "pop": 2067000,
    "country": "SI",
    "longitude": 14.5058,
    "name": "Slovenia",
    "sick": 90,
    "invisible": false
  },
  {
    "longitude": -70.331398,
    "name": "Atacama",
    "latitude": -27.3667908,
    "dead": 2,
    "lastUpdated": "2020-06-30T05:21:04.081Z",
    "recovered": 0,
    "infected": 1006,
    "id": "6nyns7UGGgkU7pxrHf8i",
    "pop": 300000,
    "country": "CL",
    "sick": 1004,
    "invisible": false
  },
  {
    "id": "6pBi38TUgYfFm0bry2uh",
    "pop": 2025000,
    "country": "GA",
    "longitude": 11.6094,
    "name": "Gabon",
    "latitude": -0.8037,
    "dead": 42,
    "lastUpdated": "2020-06-30T05:16:02.715Z",
    "recovered": 2420,
    "infected": 5394,
    "sick": 2932,
    "invisible": false
  },
  {
    "lastUpdated": "2020-06-30T05:02:01.678Z",
    "recovered": 0,
    "infected": 3018,
    "id": "6vjIVg1gSANFZghV7xtS",
    "pop": 2831900,
    "country": "MX",
    "longitude": -100.9792,
    "name": "San Luis Potosí",
    "latitude": 22.1498,
    "dead": 179,
    "sick": 2839,
    "invisible": false
  },
  {
    "lastUpdated": "2020-06-30T05:16:02.726Z",
    "recovered": 6,
    "infected": 6,
    "id": "78Ox26bNHDA2Pk2b3Uwn",
    "pop": 9131,
    "country": "FR",
    "longitude": -62.818544,
    "name": "Saint-Barthélémy",
    "alwaysShow": true,
    "latitude": 17.901672,
    "dead": 0,
    "sick": 0,
    "invisible": false
  },
  {
    "id": "7JDx6UJiwGSJyL1fChaJ",
    "pop": 2305000,
    "country": "PL",
    "longitude": 18.633,
    "name": "Pomorskie",
    "latitude": 54.367,
    "dead": 38,
    "lastUpdated": "2020-06-30T05:03:01.249Z",
    "recovered": 0,
    "infected": 666,
    "sick": 628,
    "invisible": false
  },
  {
    "country": "ES",
    "longitude": -2.9381,
    "name": "Melilla",
    "latitude": 35.2923,
    "dead": 2,
    "lastUpdated": "2020-06-30T01:00:38.567Z",
    "recovered": 125,
    "infected": 139,
    "state": "ML",
    "id": "7UASdZTZ1nPzzBwSTEA9",
    "pop": 84690,
    "sick": 12,
    "invisible": false
  },
  {
    "id": "7hVFcEV7nV0MrQr3LHrl",
    "pop": 102012,
    "country": "AG",
    "longitude": -61.7964,
    "name": "Antigua and Barbuda",
    "latitude": 17.0608,
    "dead": 3,
    "lastUpdated": "2020-06-30T05:16:02.723Z",
    "recovered": 22,
    "infected": 69,
    "sick": 44,
    "invisible": false
  },
  {
    "name": "Bayern",
    "latitude": 48.7904,
    "dead": 2634,
    "lastUpdated": "2020-06-30T05:00:09.804Z",
    "recovered": 45203,
    "infected": 48675,
    "state": "BY",
    "id": "7kCrrlOBE3jN6FtOVNUB",
    "pop": 13000000,
    "country": "DE",
    "longitude": 11.4979,
    "sick": 838,
    "invisible": false
  },
  {
    "name": "Hungary",
    "latitude": 47.4979,
    "dead": 585,
    "lastUpdated": "2020-06-30T05:16:02.716Z",
    "recovered": 2685,
    "infected": 4145,
    "id": "7rYC2iFB50c55Ihgbs4Q",
    "pop": 9773000,
    "country": "HU",
    "longitude": 19.0402,
    "sick": 875,
    "invisible": false
  },
  {
    "name": "Barranquilla D.E.",
    "latitude": 10.9685,
    "dead": 645,
    "lastUpdated": "2020-06-30T05:00:06.225Z",
    "recovered": 3845,
    "infected": 12360,
    "id": "7tqLvLyXcBDK808nJv0m",
    "pop": 1206000,
    "country": "CO",
    "longitude": -74.7813,
    "sick": 7870,
    "invisible": false
  },
  {
    "latitude": 7.3697,
    "dead": 313,
    "lastUpdated": "2020-06-30T05:16:02.713Z",
    "recovered": 10100,
    "infected": 12592,
    "id": "8C0d7WVCjyUGtnc2gUAR",
    "pop": 24050000,
    "country": "CM",
    "longitude": 12.3547,
    "name": "Cameroon",
    "sick": 2179,
    "invisible": false
  },
  {
    "latitude": 50.8503,
    "dead": 1481,
    "lastUpdated": "2020-06-30T05:07:13.265Z",
    "recovered": 2796,
    "infected": 6291,
    "state": "BRU",
    "id": "8DOZWbN6bDdgaLXVlUEu",
    "pop": 1209000,
    "country": "BE",
    "longitude": 4.3517,
    "name": "Brussels",
    "sick": 2014,
    "invisible": false
  },
  {
    "latitude": -16.2902,
    "dead": 1071,
    "lastUpdated": "2020-06-30T05:16:02.711Z",
    "recovered": 8928,
    "infected": 32125,
    "id": "8RihJrXw4NQXPxaRxr1u",
    "pop": 11050000,
    "country": "BO",
    "longitude": -63.5887,
    "name": "Bolivia",
    "sick": 22126,
    "invisible": false
  },
  {
    "longitude": -61.2872,
    "name": "St. Vincent Grenadines",
    "latitude": 12.9843,
    "dead": 0,
    "lastUpdated": "2020-06-30T05:16:02.724Z",
    "recovered": 29,
    "infected": 29,
    "id": "8ZTySQROQejkDAad0qxQ",
    "pop": 109897,
    "country": "VC",
    "sick": 0,
    "invisible": false
  },
  {
    "lastUpdated": "2020-06-30T05:16:02.710Z",
    "recovered": 37985,
    "infected": 43661,
    "id": "8pA3fM4xC2c2wv1b4TnE",
    "pop": 5621000,
    "country": "SG",
    "longitude": 103.819839,
    "name": "Singapore",
    "latitude": 1.352083,
    "dead": 26,
    "sick": 5650,
    "invisible": false
  },
  {
    "id": "98hwAoohgWEOQVa3NlM5",
    "pop": 3787000,
    "country": "FR",
    "longitude": -1.5536,
    "name": "Pays de la Loire",
    "latitude": 47.2184,
    "dead": 467,
    "lastUpdated": "2020-06-30T01:36:39.804Z",
    "recovered": 2066,
    "infected": 4117,
    "sick": 1584,
    "invisible": false
  },
  {
    "recovered": 0,
    "infected": 1984,
    "id": "9DAvxOObTqIvMOU93nlY",
    "pop": 952300,
    "country": "MX",
    "longitude": -90.19885,
    "name": "Campeche",
    "latitude": 19.30754,
    "dead": 196,
    "lastUpdated": "2020-06-30T05:02:01.678Z",
    "sick": 1788,
    "invisible": false
  },
  {
    "country": "SD",
    "longitude": 30.2176,
    "name": "Sudan",
    "latitude": 12.8628,
    "dead": 572,
    "lastUpdated": "2020-06-30T05:16:02.713Z",
    "recovered": 4014,
    "infected": 9257,
    "id": "9DPOkpIqrFy9mR4e9fuv",
    "pop": 40530000,
    "sick": 4671,
    "invisible": false
  },
  {
    "latitude": 58.5501,
    "dead": 17,
    "lastUpdated": "2020-06-30T05:00:08.257Z",
    "recovered": 879,
    "infected": 1565,
    "id": "9JFYfvpcejMIgYlHpngA",
    "pop": 643000,
    "country": "RU",
    "longitude": 43.9541,
    "name": "Kostroma Oblast",
    "sick": 669,
    "invisible": false
  },
  {
    "longitude": 24.966761,
    "name": "Romania",
    "latitude": 45.943161,
    "dead": 1634,
    "lastUpdated": "2020-06-30T05:16:02.711Z",
    "recovered": 18912,
    "infected": 26582,
    "id": "9QcETqEcM2fTv9zRvx5T",
    "pop": 19530000,
    "country": "RO",
    "sick": 6036,
    "invisible": false
  },
  {
    "id": "9Y5wmCqNCC6ZrenM31uA",
    "pop": 6218000,
    "country": "NI",
    "longitude": -86.251389,
    "name": "Nicaragua",
    "latitude": 12.136389,
    "dead": 74,
    "lastUpdated": "2020-06-30T05:16:02.717Z",
    "recovered": 1238,
    "infected": 2170,
    "sick": 858,
    "invisible": false
  },
  {
    "name": "Mali",
    "latitude": 17.5706921,
    "dead": 115,
    "lastUpdated": "2020-06-30T05:16:02.717Z",
    "recovered": 1447,
    "infected": 2173,
    "id": "9dIzxqDSVqPyINkHqwGv",
    "pop": 18540000,
    "country": "ML",
    "longitude": -3.996166,
    "sick": 611,
    "invisible": false
  },
  {
    "recovered": 6600,
    "infected": 7209,
    "id": "9p6OCdZbUUwBLA60Gk3W",
    "pop": 5513000,
    "country": "FI",
    "longitude": 25.748152,
    "name": "Finland",
    "latitude": 61.92411,
    "dead": 328,
    "lastUpdated": "2020-06-30T05:16:02.714Z",
    "sick": 281,
    "invisible": false
  },
  {
    "lastUpdated": "2020-06-30T05:00:08.252Z",
    "recovered": 3639,
    "infected": 8760,
    "id": "A6Us0fpQVCc85SoIqzg3",
    "pop": 2876000,
    "country": "RU",
    "longitude": 95.1104,
    "name": "Krasnoyarsk Krai",
    "latitude": 64.248,
    "dead": 115,
    "sick": 5006,
    "invisible": false
  },
  {
    "lastUpdated": "2020-06-30T05:17:02.158Z",
    "recovered": 0,
    "infected": 5760,
    "state": "NH",
    "id": "A84CwQ52kA46Hr7pn6Bm",
    "pop": 1356000,
    "country": "US",
    "longitude": -71.590315,
    "name": "New Hampshire",
    "latitude": 43.311643,
    "dead": 367,
    "sick": 5393,
    "invisible": false
  },
  {
    "latitude": 41.823261,
    "dead": 946,
    "lastUpdated": "2020-06-30T05:17:02.156Z",
    "recovered": 0,
    "infected": 16764,
    "state": "RI",
    "id": "AEUWUHS65qvjEslew11c",
    "pop": 1057000,
    "country": "US",
    "longitude": -71.412257,
    "name": "Rhode Island",
    "sick": 15818,
    "invisible": false
  },
  {
    "latitude": 44.498955,
    "dead": 4255,
    "lastUpdated": "2020-06-30T05:01:09.999Z",
    "recovered": 23185,
    "infected": 28472,
    "state": "45",
    "id": "AJ9jQ0iyKsafsmf5yHAR",
    "pop": 4453000,
    "country": "IT",
    "longitude": 11.327591,
    "name": "Emilia-Romagna",
    "sick": 1032,
    "invisible": false
  },
  {
    "country": "DE",
    "longitude": 7.023,
    "name": "Saarland",
    "latitude": 49.3964,
    "dead": 176,
    "lastUpdated": "2020-06-30T05:00:09.805Z",
    "recovered": 2616,
    "infected": 2826,
    "state": "SL",
    "id": "AKjFRQGnzuuZQhv5Qwx7",
    "pop": 990509,
    "sick": 34,
    "invisible": false
  },
  {
    "lastUpdated": "2020-06-30T05:00:08.252Z",
    "recovered": 3675,
    "infected": 7058,
    "id": "AOapJ3gElQApd8Gnt8EL",
    "pop": 3493000,
    "country": "RU",
    "longitude": 60.8789,
    "name": "Chelyabinsk Oblast",
    "latitude": 54.4319,
    "dead": 88,
    "sick": 3295,
    "invisible": false
  },
  {
    "lastUpdated": "2020-06-30T05:21:04.083Z",
    "recovered": 0,
    "infected": 5463,
    "id": "APTPgjAsjFi0nsGyJV7M",
    "pop": 1125002,
    "country": "CL",
    "longitude": -71.167,
    "name": "Maule",
    "latitude": -35.717,
    "dead": 48,
    "sick": 5415,
    "invisible": false
  },
  {
    "longitude": -42.6043,
    "name": "Greenland",
    "latitude": 71.7069,
    "dead": 0,
    "lastUpdated": "2020-06-30T05:16:02.725Z",
    "recovered": 13,
    "infected": 13,
    "id": "APaZzlGCEeuoLBtzTJMe",
    "pop": 56171,
    "country": "GL",
    "sick": 0,
    "invisible": false
  },
  {
    "name": "Buryatia",
    "latitude": 54.8331,
    "dead": 19,
    "lastUpdated": "2020-06-30T05:00:08.256Z",
    "recovered": 1965,
    "infected": 2886,
    "id": "ATxF6ZoDJ2ibdE6ZRYIX",
    "pop": 984000,
    "country": "RU",
    "longitude": 112.4061,
    "sick": 902,
    "invisible": false
  },
  {
    "state": "NS",
    "id": "AVCpxeh0fuH2WrHWNDYH",
    "pop": 971395,
    "country": "CA",
    "longitude": -63.582687,
    "name": "Nova Scotia",
    "latitude": 45.65107,
    "dead": 63,
    "lastUpdated": "2020-06-30T05:10:01.316Z",
    "recovered": 0,
    "infected": 1061,
    "sick": 998,
    "invisible": false
  },
  {
    "name": "Montana",
    "latitude": 47.012918,
    "dead": 22,
    "lastUpdated": "2020-06-30T05:17:02.159Z",
    "recovered": 0,
    "infected": 919,
    "state": "MT",
    "id": "AcULcZBozObOhwuRKMjJ",
    "pop": 1062000,
    "country": "US",
    "longitude": -109.128641,
    "sick": 897,
    "invisible": false
  },
  {
    "latitude": 38.861,
    "dead": 52,
    "lastUpdated": "2020-06-30T05:16:02.715Z",
    "recovered": 4506,
    "infected": 5900,
    "id": "AiIGs3ybYZZhm1ytVopr",
    "pop": 9275000,
    "country": "TJ",
    "longitude": 71.2761,
    "name": "Tajikistan",
    "sick": 1342,
    "invisible": false
  },
  {
    "lastUpdated": "2020-06-30T05:08:09.800Z",
    "recovered": 931,
    "infected": 932,
    "id": "AmBYm5J6E9Cuez1FQjiN",
    "pop": 45200000,
    "country": "CN",
    "longitude": 116.01609,
    "name": "Jiangxi",
    "latitude": 27.285971,
    "dead": 1,
    "sick": 0,
    "invisible": false
  },
  {
    "country": "GB",
    "longitude": -3.7837,
    "name": "Wales",
    "latitude": 52.1307,
    "dead": 1507,
    "lastUpdated": "2020-06-30T05:13:11.347Z",
    "recovered": 0,
    "infected": 15717,
    "state": "WA",
    "id": "AoLhHdTydeWTfmp9koEX",
    "pop": 3136000,
    "sick": 14210,
    "invisible": false
  },
  {
    "lastUpdated": "2020-06-30T05:00:08.256Z",
    "recovered": 1322,
    "infected": 1844,
    "id": "Avls64fLKoEsBFH0Ol0b",
    "pop": 537000,
    "country": "RU",
    "longitude": 90.3982,
    "name": "Khakassia",
    "latitude": 53.0452,
    "dead": 15,
    "sick": 507,
    "invisible": false
  },
  {
    "latitude": 28.033886,
    "dead": 905,
    "lastUpdated": "2020-06-30T05:16:02.712Z",
    "recovered": 9674,
    "infected": 13571,
    "id": "AwN0CScPDApcLFgz6e3z",
    "pop": 41320000,
    "country": "DZ",
    "longitude": 1.659626,
    "name": "Algeria",
    "sick": 2992,
    "invisible": false
  },
  {
    "longitude": 15.2,
    "name": "Croatia",
    "latitude": 45.099998,
    "dead": 107,
    "lastUpdated": "2020-06-30T05:16:02.716Z",
    "recovered": 2155,
    "infected": 2725,
    "id": "B82Ef45M8cDu4q7VsSHF",
    "pop": 4076000,
    "country": "HR",
    "sick": 463,
    "invisible": false
  },
  {
    "latitude": 17.6077881,
    "dead": 67,
    "lastUpdated": "2020-06-30T05:16:02.719Z",
    "recovered": 939,
    "infected": 1075,
    "id": "BENubqQInFUJzhpZTsLT",
    "pop": 23716000,
    "country": "NE",
    "longitude": 8.081666,
    "name": "Niger",
    "sick": 69,
    "invisible": false
  },
  {
    "latitude": 39.509109,
    "dead": 3175,
    "lastUpdated": "2020-06-30T05:17:02.153Z",
    "recovered": 0,
    "infected": 67254,
    "state": "MD",
    "id": "BF51mWl51fgEcyBpCSzb",
    "pop": 6043000,
    "country": "US",
    "longitude": -76.98432,
    "name": "Maryland",
    "sick": 64079,
    "invisible": false
  },
  {
    "name": "Belarus",
    "latitude": 53.709808,
    "dead": 387,
    "lastUpdated": "2020-06-30T05:16:02.709Z",
    "recovered": 45213,
    "infected": 61790,
    "id": "BGg6yVU5VP71B8NXU0oh",
    "pop": 9508000,
    "country": "BY",
    "longitude": 27.953388,
    "sick": 16190,
    "invisible": false
  },
  {
    "country": "FR",
    "longitude": 0.1713,
    "name": "Normandie",
    "latitude": 48.8799,
    "dead": 432,
    "lastUpdated": "2020-06-30T01:34:49.215Z",
    "recovered": 1634,
    "infected": 3502,
    "id": "BGtoyzb7y54LVlJ91rbf",
    "pop": 3319000,
    "sick": 1436,
    "invisible": false
  },
  {
    "country": "GB",
    "longitude": -3.9995,
    "name": "South West",
    "latitude": 50.7772,
    "dead": 0,
    "lastUpdated": "2020-06-30T05:13:11.348Z",
    "recovered": 0,
    "infected": 7952,
    "state": "EN",
    "id": "BQqMOlPFD36ZEDTGd3WC",
    "pop": 5616000,
    "sick": 7952,
    "invisible": false
  },
  {
    "longitude": -111.093735,
    "name": "Arizona",
    "latitude": 34.048927,
    "dead": 1588,
    "lastUpdated": "2020-06-30T05:17:02.153Z",
    "recovered": 0,
    "infected": 76987,
    "state": "AZ",
    "id": "BTEESCuD2ZbS1afunR2A",
    "pop": 7172000,
    "country": "US",
    "sick": 75399,
    "invisible": false
  },
  {
    "name": "Smolensk Oblast",
    "latitude": 54.9883,
    "dead": 65,
    "lastUpdated": "2020-06-30T05:00:08.254Z",
    "recovered": 2283,
    "infected": 4544,
    "id": "BUb7oDHcBM4lQ5cufNoG",
    "pop": 949000,
    "country": "RU",
    "longitude": 32.6677,
    "sick": 2196,
    "invisible": false
  },
  {
    "latitude": 58.4199,
    "dead": 35,
    "lastUpdated": "2020-06-30T05:00:08.255Z",
    "recovered": 2485,
    "infected": 3179,
    "id": "BWojXmuKU3szKlS7CE4k",
    "pop": 1283000,
    "country": "RU",
    "longitude": 50.2097,
    "name": "Kirov Oblast",
    "sick": 659,
    "invisible": false
  },
  {
    "name": "Zachodniopomorskie",
    "latitude": 53.428543,
    "dead": 20,
    "lastUpdated": "2020-06-30T05:03:01.249Z",
    "recovered": 0,
    "infected": 609,
    "id": "BZwZOAlDJ8AIiaRVLyC9",
    "pop": 1676000,
    "country": "PL",
    "longitude": 14.552812,
    "sick": 589,
    "invisible": false
  },
  {
    "latitude": -33.4489,
    "dead": 0,
    "lastUpdated": "2020-06-30T05:16:02.708Z",
    "recovered": 236154,
    "infected": 0,
    "id": "BbiuZcm8oURX7cZwaa5U",
    "country": "CL",
    "longitude": -70.6693,
    "invisible": true,
    "name": "Unknown Chile region",
    "sick": 0
  },
  {
    "lastUpdated": "2020-06-30T05:16:02.719Z",
    "recovered": 260,
    "infected": 1152,
    "id": "BfT8o5DaEixC6JIZ28kY",
    "pop": 18620000,
    "country": "MW",
    "longitude": 34.3015,
    "name": "Malawi",
    "latitude": -13.2543,
    "dead": 13,
    "sick": 879,
    "invisible": false
  },
  {
    "longitude": 29.9188862,
    "name": "Burundi",
    "latitude": -3.3730559,
    "dead": 1,
    "lastUpdated": "2020-06-30T05:16:02.722Z",
    "recovered": 115,
    "infected": 170,
    "id": "BnpMamidC5yYzeK8tPUL",
    "pop": 10860000,
    "country": "BI",
    "sick": 54,
    "invisible": false
  },
  {
    "name": "Mazowieckie",
    "latitude": 52.257,
    "dead": 327,
    "lastUpdated": "2020-06-30T05:03:01.248Z",
    "recovered": 0,
    "infected": 5002,
    "id": "BrToMzyq8y2xdwXn75kM",
    "pop": 5385000,
    "country": "PL",
    "longitude": 21.002,
    "sick": 4675,
    "invisible": false
  },
  {
    "name": "Amazonas (Colombia)",
    "latitude": -1.333845,
    "dead": 89,
    "lastUpdated": "2020-06-30T05:00:06.231Z",
    "recovered": 1914,
    "infected": 2276,
    "id": "C25xSDm4iYibX5RYML14",
    "pop": 74751,
    "country": "CO",
    "longitude": -71.347573,
    "sick": 273,
    "invisible": false
  },
  {
    "lastUpdated": "2020-06-30T05:17:02.149Z",
    "recovered": 0,
    "infected": 417328,
    "state": "NY",
    "id": "C3BCUzV80z9GfiuByIcr",
    "pop": 19540000,
    "country": "US",
    "longitude": -73.982597,
    "name": "New York",
    "latitude": 40.719042,
    "dead": 31496,
    "sick": 385832,
    "invisible": false
  },
  {
    "lastUpdated": "2020-06-30T05:00:06.232Z",
    "recovered": 2,
    "infected": 15,
    "id": "C5YXFiytAc1w9swtVGLz",
    "pop": 42800,
    "country": "CO",
    "longitude": -67.92389,
    "name": "Guainía",
    "latitude": 3.86528,
    "dead": 1,
    "sick": 12,
    "invisible": false
  },
  {
    "longitude": 15.359413,
    "name": "Czechia",
    "latitude": 49.731626,
    "dead": 348,
    "lastUpdated": "2020-06-30T05:16:02.713Z",
    "recovered": 7746,
    "infected": 11805,
    "id": "C6S76AggdWVU8G22jFHQ",
    "pop": 10650000,
    "country": "CZ",
    "sick": 3711,
    "invisible": false
  },
  {
    "latitude": 26.0667,
    "dead": 84,
    "lastUpdated": "2020-06-30T05:16:02.711Z",
    "recovered": 20928,
    "infected": 26239,
    "id": "C7cj4nwRITs13KnaJrQ2",
    "pop": 1493000,
    "country": "BH",
    "longitude": 50.557701,
    "name": "Bahrain",
    "sick": 5227,
    "invisible": false
  },
  {
    "longitude": -74.4057,
    "name": "Magdalena",
    "latitude": 10.4113,
    "dead": 74,
    "lastUpdated": "2020-06-30T05:00:06.226Z",
    "recovered": 342,
    "infected": 810,
    "id": "CA9LaAl3bNaeAqBuozn4",
    "pop": 1285400,
    "country": "CO",
    "sick": 394,
    "invisible": false
  },
  {
    "recovered": 0,
    "infected": 4270,
    "id": "CCUFp4urvgXPo5unfMGy",
    "pop": 3073500,
    "country": "MX",
    "longitude": -101.430756,
    "name": "Coahuila",
    "latitude": 26.909979,
    "dead": 215,
    "lastUpdated": "2020-06-30T05:02:01.677Z",
    "sick": 4055,
    "invisible": false
  },
  {
    "country": "IN",
    "longitude": 74.2179,
    "name": "Rajasthan",
    "latitude": 27.0238,
    "dead": 405,
    "lastUpdated": "2020-06-30T05:11:01.140Z",
    "recovered": 13921,
    "infected": 17660,
    "id": "CKZCZTPlrcq5fbfUPA9k",
    "pop": 68890000,
    "sick": 3334,
    "invisible": false
  },
  {
    "recovered": 279,
    "infected": 617,
    "id": "CX8z9U1iABNBhc1VK2Dy",
    "pop": 218000,
    "country": "RU",
    "longitude": 86.2199,
    "name": "Altai",
    "latitude": 50.6182,
    "dead": 0,
    "lastUpdated": "2020-06-30T05:00:08.257Z",
    "sick": 338,
    "invisible": false
  },
  {
    "recovered": 3648,
    "infected": 6173,
    "id": "Cgvmtle61ehMvCzRzYx7",
    "pop": 6378000,
    "country": "SV",
    "longitude": -88.9053,
    "name": "El Salvador",
    "latitude": 13.803,
    "dead": 164,
    "lastUpdated": "2020-06-30T05:16:02.715Z",
    "sick": 2361,
    "invisible": false
  },
  {
    "latitude": 62.6643,
    "dead": 4,
    "lastUpdated": "2020-06-30T05:00:08.257Z",
    "recovered": 356,
    "infected": 731,
    "id": "D4WkbqyUXY1pazbOxfKx",
    "pop": 144000,
    "country": "RU",
    "longitude": 153.915,
    "name": "Magadan Oblast",
    "sick": 371,
    "invisible": false
  },
  {
    "latitude": 58.897,
    "dead": 14,
    "lastUpdated": "2020-06-30T05:00:08.256Z",
    "recovered": 963,
    "infected": 2197,
    "id": "DAp3PFow4BuCMYWWTo3i",
    "pop": 1078000,
    "country": "RU",
    "longitude": 82.6765,
    "name": "Tomsk Oblast",
    "sick": 1220,
    "invisible": false
  },
  {
    "latitude": 40.259003,
    "dead": 433,
    "lastUpdated": "2020-06-30T05:16:02.711Z",
    "recovered": 13297,
    "infected": 25127,
    "id": "DCJCtZoBTWQ4mzdDNljD",
    "pop": 2973000,
    "country": "AM",
    "longitude": 44.818474,
    "name": "Armenia",
    "sick": 11397,
    "invisible": false
  },
  {
    "longitude": -73.368,
    "name": "Boyacá",
    "latitude": 5.535,
    "dead": 11,
    "lastUpdated": "2020-06-30T05:00:06.226Z",
    "recovered": 216,
    "infected": 359,
    "id": "DJJraANgQbEqz1wBBtZz",
    "pop": 1278000,
    "country": "CO",
    "sick": 132,
    "invisible": false
  },
  {
    "latitude": 54.2369,
    "dead": 26,
    "lastUpdated": "2020-06-30T05:00:08.255Z",
    "recovered": 2158,
    "infected": 3359,
    "id": "DKwy7USk22oXUQGEvO42",
    "pop": 834000,
    "country": "RU",
    "longitude": 44.0684,
    "name": "Mordovia",
    "sick": 1175,
    "invisible": false
  },
  {
    "country": "GB",
    "longitude": -2.5945,
    "name": "North West",
    "latitude": 53.6221,
    "dead": 0,
    "lastUpdated": "2020-06-30T05:13:11.348Z",
    "recovered": 0,
    "infected": 27272,
    "state": "EN",
    "id": "DPwBt2aJuwF0O71vwfM9",
    "pop": 7300000,
    "sick": 27272,
    "invisible": false
  },
  {
    "latitude": 32.3213844,
    "dead": 9,
    "lastUpdated": "2020-06-30T05:16:02.722Z",
    "recovered": 135,
    "infected": 146,
    "id": "DZyTD0Mu5WIcK6yTcJ91",
    "pop": 65440,
    "country": "BM",
    "longitude": -64.75737,
    "name": "Bermuda",
    "sick": 2,
    "invisible": false
  },
  {
    "latitude": 21.694,
    "dead": 1,
    "lastUpdated": "2020-06-30T05:16:02.724Z",
    "recovered": 11,
    "infected": 41,
    "id": "DaMrRSIGJXIG36nW0Pnc",
    "pop": 35446,
    "country": "TC",
    "longitude": -71.7979,
    "name": "Turks and Caicos",
    "sick": 29,
    "invisible": false
  },
  {
    "longitude": -3.0977,
    "name": "Castilla La Mancha",
    "latitude": 39.2796,
    "dead": 3025,
    "lastUpdated": "2020-06-30T00:55:44.131Z",
    "recovered": 6392,
    "infected": 26754,
    "state": "CM",
    "id": "Dbng0NBTH41EEwBxhMzE",
    "pop": 2035000,
    "country": "ES",
    "sick": 17337,
    "invisible": false
  },
  {
    "recovered": 0,
    "infected": 1701,
    "id": "DcQ3D0WkacXEbv6iznRB",
    "pop": 3361000,
    "country": "PL",
    "longitude": 20.006,
    "name": "Malopolskie",
    "latitude": 50.023,
    "dead": 44,
    "lastUpdated": "2020-06-30T05:03:01.249Z",
    "sick": 1657,
    "invisible": false
  },
  {
    "recovered": 45,
    "infected": 46,
    "id": "DdBt8qsG6A3g92oOR3ow",
    "pop": 622567,
    "country": "MO",
    "longitude": 113.551262,
    "name": "Macao",
    "latitude": 22.192039,
    "dead": 0,
    "lastUpdated": "2020-06-30T05:16:02.724Z",
    "sick": 1,
    "invisible": false
  },
  {
    "longitude": 91.3662,
    "name": "Meghalaya",
    "latitude": 25.467,
    "dead": 1,
    "lastUpdated": "2020-06-30T05:11:01.143Z",
    "recovered": 42,
    "infected": 51,
    "id": "Dh0O1vmhrVfmsCsfZCUg",
    "pop": 2651000,
    "country": "IN",
    "sick": 8,
    "invisible": false
  },
  {
    "id": "DqzAhNFTJFQVm88ma21P",
    "pop": 4220000,
    "country": "RU",
    "longitude": 41.8259,
    "name": "Rostov Oblast",
    "latitude": 47.6853,
    "dead": 120,
    "lastUpdated": "2020-06-30T05:00:08.251Z",
    "recovered": 5516,
    "infected": 9517,
    "sick": 3881,
    "invisible": false
  },
  {
    "lastUpdated": "2020-06-30T05:17:02.159Z",
    "recovered": 0,
    "infected": 1450,
    "state": "WY",
    "id": "DrGzziUglmBognCGY7R2",
    "pop": 577737,
    "country": "US",
    "longitude": -107.534868,
    "name": "Wyoming",
    "latitude": 42.962334,
    "dead": 20,
    "sick": 1430,
    "invisible": false
  },
  {
    "lastUpdated": "2020-06-30T05:16:02.716Z",
    "recovered": 1374,
    "infected": 3390,
    "id": "Dtr1lap1RpJpXJdXGJiW",
    "pop": 10740000,
    "country": "GR",
    "longitude": 23.7275,
    "name": "Greece",
    "latitude": 37.9838,
    "dead": 191,
    "sick": 1825,
    "invisible": false
  },
  {
    "country": "RU",
    "longitude": 56.5872,
    "name": "Perm Krai",
    "latitude": 58.8232,
    "dead": 78,
    "lastUpdated": "2020-06-30T05:00:08.255Z",
    "recovered": 2679,
    "infected": 3637,
    "id": "E8vIyXLVNtcY9dxLHICp",
    "pop": 2623000,
    "sick": 880,
    "invisible": false
  },
  {
    "name": "Tyumen Oblast",
    "latitude": 56.9634,
    "dead": 17,
    "lastUpdated": "2020-06-30T05:00:08.256Z",
    "recovered": 1756,
    "infected": 3018,
    "id": "EHKZ6ivhrJUs3XqNDBOw",
    "pop": 3692000,
    "country": "RU",
    "longitude": 66.9483,
    "sick": 1245,
    "invisible": false
  },
  {
    "country": "TW",
    "longitude": 121.563698,
    "name": "Taiwan",
    "latitude": 25.03841,
    "dead": 7,
    "lastUpdated": "2020-06-30T05:16:02.721Z",
    "recovered": 435,
    "infected": 447,
    "id": "EKTfs8e7M6DXzI1HqyyX",
    "pop": 23780000,
    "sick": 5,
    "invisible": false
  },
  {
    "id": "EQzJvzVHKjs8kLmK7BMu",
    "pop": 4906000,
    "country": "CR",
    "longitude": -84.387618,
    "name": "Costa Rica",
    "latitude": 10.327273,
    "dead": 15,
    "lastUpdated": "2020-06-30T05:16:02.716Z",
    "recovered": 1394,
    "infected": 3269,
    "sick": 1860,
    "invisible": false
  },
  {
    "id": "ERwk9R9en4m9WbdoMbIg",
    "pop": 62700000,
    "country": "IN",
    "longitude": 71.1924,
    "name": "Gujarat",
    "latitude": 22.2587,
    "dead": 1828,
    "lastUpdated": "2020-06-30T05:11:01.140Z",
    "recovered": 23248,
    "infected": 32023,
    "sick": 6947,
    "invisible": false
  },
  {
    "longitude": 42.5884,
    "name": "Arkhangelsk Oblast",
    "latitude": 63.2853,
    "dead": 54,
    "lastUpdated": "2020-06-30T05:00:08.253Z",
    "recovered": 2549,
    "infected": 5454,
    "id": "EVMBsgCJedjHy91mDYEC",
    "pop": 1155000,
    "country": "RU",
    "sick": 2851,
    "invisible": false
  },
  {
    "country": "IN",
    "longitude": 76.7794,
    "name": "Chandigarh",
    "latitude": 30.7333,
    "dead": 6,
    "lastUpdated": "2020-06-30T05:11:01.143Z",
    "recovered": 349,
    "infected": 434,
    "id": "Esl5UlCVB9s8pmGB5Ofr",
    "pop": 1055000,
    "sick": 79,
    "invisible": false
  },
  {
    "lastUpdated": "2020-06-30T05:03:01.249Z",
    "recovered": 0,
    "infected": 651,
    "id": "Esy1La2CxwH5uB8bGVWZ",
    "pop": 2148000,
    "country": "PL",
    "longitude": 22.653,
    "name": "Lubelskie",
    "latitude": 51.24,
    "dead": 17,
    "sick": 634,
    "invisible": false
  },
  {
    "alwaysShow": true,
    "dead": 153,
    "latitude": 18.200178,
    "infected": 7250,
    "recovered": 0,
    "pop": 3195000,
    "country": "US",
    "lastUpdated": "2020-06-30T05:17:02.160Z",
    "state": "PR",
    "id": "F4rPrEVGAIMM5rfPEMv4",
    "longitude": -66.664513,
    "name": "Puerto Rico",
    "sick": 7097,
    "invisible": false
  },
  {
    "country": "CO",
    "longitude": -74.058655,
    "name": "Cundinamarca",
    "latitude": 4.862437,
    "dead": 55,
    "lastUpdated": "2020-06-30T05:00:06.225Z",
    "recovered": 1332,
    "infected": 2574,
    "id": "F7MED5VwEhi3JvJu6KjB",
    "pop": 2919000,
    "sick": 1187,
    "invisible": false
  },
  {
    "id": "F8LnLqvuWoWh8awBqiw1",
    "pop": 832322,
    "country": "KM",
    "longitude": 43.3333,
    "name": "Comoros",
    "latitude": -11.6455,
    "dead": 7,
    "lastUpdated": "2020-06-30T05:16:02.721Z",
    "recovered": 161,
    "infected": 272,
    "sick": 104,
    "invisible": false
  },
  {
    "latitude": 33.93911,
    "dead": 733,
    "lastUpdated": "2020-06-30T05:16:02.711Z",
    "recovered": 13934,
    "infected": 31238,
    "id": "FCDmlmnIIswd8bQiUjfN",
    "pop": 35530000,
    "country": "AF",
    "longitude": 67.709953,
    "name": "Afghanistan",
    "sick": 16571,
    "invisible": false
  },
  {
    "latitude": 29.431585,
    "dead": 6,
    "lastUpdated": "2020-06-30T05:08:09.799Z",
    "recovered": 573,
    "infected": 582,
    "id": "FErOU1m4Tj7jIkRam3vF",
    "pop": 30480000,
    "country": "CN",
    "longitude": 106.912254,
    "name": "Chongqing",
    "sick": 3,
    "invisible": false
  },
  {
    "id": "FZsUkhxBEgqsPb4eO0PN",
    "pop": 4137000,
    "country": "KW",
    "longitude": 47.481766,
    "name": "Kuwait",
    "latitude": 29.311661,
    "dead": 350,
    "lastUpdated": "2020-06-30T05:16:02.710Z",
    "recovered": 36313,
    "infected": 45524,
    "sick": 8861,
    "invisible": false
  },
  {
    "lastUpdated": "2020-06-30T05:15:01.807Z",
    "recovered": 0,
    "infected": 24817,
    "state": "SE",
    "id": "FboWeolpM62SZCLwdilT",
    "pop": 2278308,
    "country": "BR",
    "longitude": -37.0717,
    "name": "Sergipe",
    "latitude": -10.9111,
    "dead": 653,
    "sick": 24164,
    "invisible": false
  },
  {
    "lastUpdated": "2020-06-30T05:11:01.140Z",
    "recovered": 47749,
    "infected": 86224,
    "id": "FeS45oMNC27pI17F0xEV",
    "pop": 67860000,
    "country": "IN",
    "longitude": 78.6569,
    "name": "Tamil Nadu",
    "latitude": 11.1271,
    "dead": 1141,
    "sick": 37334,
    "invisible": false
  },
  {
    "latitude": 18.947829,
    "dead": 733,
    "lastUpdated": "2020-06-30T05:16:02.711Z",
    "recovered": 17280,
    "infected": 31816,
    "id": "FuiVEJvWb0QMCpxJ3563",
    "pop": 10770000,
    "country": "DO",
    "longitude": -70.430399,
    "name": "Dominican Republic",
    "sick": 13803,
    "invisible": false
  },
  {
    "recovered": 5582,
    "infected": 15394,
    "id": "FyC551oNwmENxbr9Yght",
    "pop": 35190000,
    "country": "IN",
    "longitude": 79.0193,
    "name": "Telengana",
    "latitude": 18.1124,
    "dead": 253,
    "lastUpdated": "2020-06-30T05:11:01.141Z",
    "sick": 9559,
    "invisible": false
  },
  {
    "id": "FzIDXoqWnTI3nUfhPyT2",
    "pop": 5450000,
    "country": "SK",
    "longitude": 19.699,
    "name": "Slovakia",
    "latitude": 48.669,
    "dead": 28,
    "lastUpdated": "2020-06-30T05:16:02.718Z",
    "recovered": 1464,
    "infected": 1665,
    "sick": 173,
    "invisible": false
  },
  {
    "lastUpdated": "2020-06-30T05:16:02.708Z",
    "recovered": 98503,
    "infected": 209337,
    "id": "GAp7Wb6IMhdgbvEtMza9",
    "pop": 197000000,
    "country": "PK",
    "longitude": 69.345116,
    "name": "Pakistan",
    "latitude": 30.37532,
    "dead": 4304,
    "sick": 106530,
    "invisible": false
  },
  {
    "longitude": 75.3412,
    "name": "Punjab",
    "latitude": 31.1471,
    "dead": 138,
    "lastUpdated": "2020-06-30T05:11:01.141Z",
    "recovered": 3764,
    "infected": 5418,
    "id": "GGru8cG08mANO8XDDUtZ",
    "pop": 27980000,
    "country": "IN",
    "sick": 1516,
    "invisible": false
  },
  {
    "id": "GHzBIsHy2GiBc5JV2HMs",
    "pop": 9400000,
    "country": "AE",
    "longitude": 53.847816,
    "name": "United Arab Emirates",
    "latitude": 23.424076,
    "dead": 314,
    "lastUpdated": "2020-06-30T05:16:02.710Z",
    "recovered": 37076,
    "infected": 48246,
    "sick": 10856,
    "invisible": false
  },
  {
    "lastUpdated": "2020-06-30T05:17:02.162Z",
    "recovered": 0,
    "infected": 103,
    "id": "GLViSIjDjwvptOphedAu",
    "country": "US",
    "longitude": -95.7129,
    "invisible": true,
    "name": "Grand Princess",
    "latitude": 37.0902,
    "dead": 3,
    "sick": 100
  },
  {
    "name": "London",
    "latitude": 51.5074,
    "dead": 0,
    "lastUpdated": "2020-06-30T05:13:11.348Z",
    "recovered": 0,
    "infected": 27651,
    "state": "EN",
    "id": "GPtoS0Yy2EnNafpmmTqY",
    "pop": 10100000,
    "country": "GB",
    "longitude": -0.1278,
    "sick": 27651,
    "invisible": false
  },
  {
    "latitude": 36.621981,
    "dead": 5976,
    "lastUpdated": "2020-06-30T05:17:02.150Z",
    "recovered": 0,
    "infected": 222985,
    "state": "CA",
    "id": "Gh46r6vuaY7fbGt3IboN",
    "pop": 39560000,
    "country": "US",
    "longitude": -119.339046,
    "name": "California",
    "sick": 217009,
    "invisible": false
  },
  {
    "longitude": 72.8397,
    "name": "Dadra and Nagar Haveli",
    "latitude": 20.4283,
    "dead": 0,
    "lastUpdated": "2020-06-30T05:11:01.143Z",
    "recovered": 75,
    "infected": 203,
    "id": "GljWeVnun6o9DeW6rlEm",
    "pop": 343709,
    "country": "IN",
    "sick": 128,
    "invisible": false
  },
  {
    "state": "OK",
    "id": "GpF8ULuKOQiFDCUHN44h",
    "pop": 3943000,
    "country": "US",
    "longitude": -97.145514,
    "name": "Oklahoma",
    "latitude": 35.87189,
    "dead": 385,
    "lastUpdated": "2020-06-30T05:17:02.157Z",
    "recovered": 0,
    "infected": 13172,
    "sick": 12787,
    "invisible": false
  },
  {
    "name": "Arauca",
    "latitude": 6.492,
    "dead": 0,
    "lastUpdated": "2020-06-30T05:00:06.232Z",
    "recovered": 4,
    "infected": 76,
    "id": "Gr09a1wn3BnMqjQbgEun",
    "pop": 256627,
    "country": "CO",
    "longitude": -71.557,
    "sick": 72,
    "invisible": false
  },
  {
    "longitude": 41.483,
    "name": "Ivanovo Oblast",
    "latitude": 57.1057,
    "dead": 43,
    "lastUpdated": "2020-06-30T05:00:08.254Z",
    "recovered": 2869,
    "infected": 4621,
    "id": "GsecjBfopdgTOnyRgtCA",
    "pop": 1014000,
    "country": "RU",
    "sick": 1709,
    "invisible": false
  },
  {
    "lastUpdated": "2020-06-30T05:01:10.001Z",
    "recovered": 2262,
    "infected": 2639,
    "state": "BA",
    "id": "Gzx6GX1qhBm714BkEC6l",
    "pop": 520891,
    "country": "IT",
    "longitude": 11.35,
    "name": "P.A. Bolzano",
    "latitude": 46.5,
    "dead": 292,
    "sick": 85,
    "invisible": false
  },
  {
    "name": "Inner Mongolia",
    "latitude": 42.83263,
    "dead": 1,
    "lastUpdated": "2020-06-30T05:08:09.800Z",
    "recovered": 237,
    "infected": 238,
    "id": "H3JeVigVbo5CSYfZG4WI",
    "pop": 24710000,
    "country": "CN",
    "longitude": 113.750972,
    "sick": 0,
    "invisible": false
  },
  {
    "longitude": -116.724977,
    "name": "Nevada",
    "latitude": 39.74536,
    "dead": 504,
    "lastUpdated": "2020-06-30T05:17:02.156Z",
    "recovered": 0,
    "infected": 17894,
    "state": "NV",
    "id": "H3bDg4eV30up4WWrIDAS",
    "pop": 3034000,
    "country": "US",
    "sick": 17390,
    "invisible": false
  },
  {
    "country": "BR",
    "longitude": -38.526669,
    "name": "Ceará",
    "latitude": -3.731862,
    "dead": 6076,
    "lastUpdated": "2020-06-30T05:15:01.805Z",
    "recovered": 0,
    "infected": 108225,
    "state": "CE",
    "id": "HEMWNnFxeFEoeOCBOLJD",
    "pop": 9075649,
    "sick": 102149,
    "invisible": false
  },
  {
    "longitude": 75.7139,
    "name": "Karnataka",
    "latitude": 15.3173,
    "dead": 226,
    "lastUpdated": "2020-06-30T05:11:01.141Z",
    "recovered": 7685,
    "infected": 14295,
    "id": "HN5mGmxlqlSeFSNeu1K5",
    "pop": 64060000,
    "country": "IN",
    "sick": 6384,
    "invisible": false
  },
  {
    "name": "Bhutan",
    "latitude": 27.5142,
    "dead": 0,
    "lastUpdated": "2020-06-30T05:16:02.723Z",
    "recovered": 44,
    "infected": 77,
    "id": "HRDpwyxpqW9RN0xLFyNu",
    "pop": 807610,
    "country": "BT",
    "longitude": 90.4336,
    "sick": 33,
    "invisible": false
  },
  {
    "name": "Uzbekistan",
    "latitude": 41.3775,
    "dead": 23,
    "lastUpdated": "2020-06-30T05:16:02.714Z",
    "recovered": 5496,
    "infected": 8298,
    "id": "HRTA10dtrruDEwjJEGMp",
    "pop": 32390000,
    "country": "UZ",
    "longitude": 64.5853,
    "sick": 2779,
    "invisible": false
  },
  {
    "name": "New Mexico",
    "latitude": 34.138916,
    "dead": 493,
    "lastUpdated": "2020-06-30T05:17:02.157Z",
    "recovered": 0,
    "infected": 11982,
    "state": "NM",
    "id": "HSSFomRju0doHhWgW8On",
    "pop": 2095000,
    "country": "US",
    "longitude": -105.576255,
    "sick": 11489,
    "invisible": false
  },
  {
    "country": "CL",
    "longitude": -72.3311,
    "name": "Los Ríos",
    "latitude": -40.231,
    "dead": 10,
    "lastUpdated": "2020-06-30T05:21:04.083Z",
    "recovered": 0,
    "infected": 689,
    "id": "HZkACHjW7NlYjg8vEMj2",
    "pop": 412812,
    "sick": 679,
    "invisible": false
  },
  {
    "lastUpdated": "2020-06-30T05:00:09.805Z",
    "recovered": 766,
    "infected": 807,
    "state": "MV",
    "id": "He1gSS1v50t06i3YrqvB",
    "pop": 1635000,
    "country": "DE",
    "longitude": 12.4296,
    "name": "Mecklenburg-Vorpommern",
    "latitude": 53.6127,
    "dead": 21,
    "sick": 20,
    "invisible": false
  },
  {
    "country": "IT",
    "longitude": 13.75,
    "name": "Abruzzo",
    "latitude": 42.25,
    "dead": 462,
    "lastUpdated": "2020-06-30T05:01:09.991Z",
    "recovered": 2543,
    "infected": 3287,
    "state": "65",
    "id": "I9EqrZfbPnkioNU4wZGz",
    "pop": 1315000,
    "sick": 282,
    "invisible": false
  },
  {
    "country": "CN",
    "longitude": 113.373448,
    "name": "Guangdong",
    "latitude": 23.363855,
    "dead": 8,
    "lastUpdated": "2020-06-30T05:08:09.799Z",
    "recovered": 1627,
    "infected": 1641,
    "id": "IAX0OQLVnUwU7FX0ENF1",
    "pop": 113460000,
    "sick": 6,
    "invisible": false
  },
  {
    "name": "Henan",
    "latitude": 33.875408,
    "dead": 22,
    "lastUpdated": "2020-06-30T05:08:09.799Z",
    "recovered": 1254,
    "infected": 1276,
    "id": "IFuMrMvSjoiX5agYvllh",
    "pop": 94000000,
    "country": "CN",
    "longitude": 113.484016,
    "sick": 0,
    "invisible": false
  },
  {
    "lastUpdated": "2020-06-30T05:23:02.074Z",
    "recovered": 0,
    "infected": 615,
    "id": "IHqRHC8K3OZPN8gniM7V",
    "pop": 451000,
    "country": "PT",
    "longitude": -8.16667,
    "name": "Algarve",
    "latitude": 37.2,
    "dead": 15,
    "sick": 600,
    "invisible": false
  },
  {
    "country": "CO",
    "longitude": -77.0197,
    "name": "Buenaventura D.E.",
    "latitude": 3.883,
    "dead": 85,
    "lastUpdated": "2020-06-30T05:00:06.226Z",
    "recovered": 700,
    "infected": 1405,
    "id": "IKWjRUo0SYgHQKdWjTvq",
    "pop": 333194,
    "sick": 620,
    "invisible": false
  },
  {
    "longitude": -0.995,
    "name": "East Midlands",
    "latitude": 52.87,
    "dead": 0,
    "lastUpdated": "2020-06-30T05:13:11.347Z",
    "recovered": 0,
    "infected": 9925,
    "state": "EN",
    "id": "INyu1R48Ppv8cfW4Nuz4",
    "pop": 4811000,
    "country": "GB",
    "sick": 9925,
    "invisible": false
  },
  {
    "name": "Aguascalientes",
    "latitude": 22.017,
    "dead": 151,
    "lastUpdated": "2020-06-30T05:02:01.679Z",
    "recovered": 0,
    "infected": 2990,
    "id": "ISRKMzEDojyrZ9iyWwex",
    "pop": 1342600,
    "country": "MX",
    "longitude": -102.317,
    "sick": 2839,
    "invisible": false
  },
  {
    "latitude": 25.686613,
    "dead": 362,
    "lastUpdated": "2020-06-30T05:02:01.679Z",
    "recovered": 0,
    "infected": 10389,
    "id": "IdKbgzgKLpjBFh4UPOwu",
    "pop": 5321300,
    "country": "MX",
    "longitude": -100.316116,
    "name": "Nuevo León",
    "sick": 10027,
    "invisible": false
  },
  {
    "longitude": -106.069099,
    "name": "Chihuahua",
    "latitude": 28.632996,
    "dead": 636,
    "lastUpdated": "2020-06-30T05:02:01.675Z",
    "recovered": 0,
    "infected": 4443,
    "id": "IhhiYI6T0TX4CYVPcnmH",
    "pop": 3826900,
    "country": "MX",
    "sick": 3807,
    "invisible": false
  },
  {
    "recovered": 0,
    "infected": 2384,
    "id": "ImnOiVx9Cb8Nw7cbRcQ7",
    "pop": 480600,
    "country": "CL",
    "longitude": -72.57,
    "name": "Ñuble",
    "latitude": -36.7,
    "dead": 32,
    "lastUpdated": "2020-06-30T05:21:04.083Z",
    "sick": 2352,
    "invisible": false
  },
  {
    "name": "Haiti",
    "latitude": 19.0558,
    "dead": 105,
    "lastUpdated": "2020-06-30T05:16:02.715Z",
    "recovered": 839,
    "infected": 5933,
    "id": "InZ38sIqyK7FN7XAOZoX",
    "pop": 10980000,
    "country": "HT",
    "longitude": -73.0513,
    "sick": 4989,
    "invisible": false
  },
  {
    "state": "GA",
    "id": "IvQkDJkTAsoIqPRAU25n",
    "pop": 10520000,
    "country": "US",
    "longitude": -83.280125,
    "name": "Georgia (US)",
    "latitude": 32.528564,
    "dead": 2784,
    "lastUpdated": "2020-06-30T05:17:02.151Z",
    "recovered": 0,
    "infected": 79417,
    "sick": 76633,
    "invisible": false
  },
  {
    "country": "NZ",
    "longitude": 172.488081,
    "name": "New Zealand",
    "latitude": -42.8285,
    "dead": 22,
    "lastUpdated": "2020-06-30T05:16:02.718Z",
    "recovered": 1484,
    "infected": 1528,
    "id": "IvVhpOoGpH6JVkGyUhXN",
    "pop": 4794000,
    "sick": 22,
    "invisible": false
  },
  {
    "lastUpdated": "2020-06-30T05:11:01.143Z",
    "recovered": 61,
    "infected": 187,
    "id": "IwYKiIVY18NGwdGQFGWW",
    "pop": 1255000,
    "country": "IN",
    "longitude": 94.7278,
    "name": "Arunachal Pradesh",
    "latitude": 28.218,
    "dead": 1,
    "sick": 125,
    "invisible": false
  },
  {
    "latitude": 6.4238,
    "dead": 48,
    "lastUpdated": "2020-06-30T05:16:02.715Z",
    "recovered": 1649,
    "infected": 5530,
    "id": "J3mZXlfEnnJx4CDZLvRG",
    "pop": 31980000,
    "country": "VE",
    "longitude": -66.5897,
    "name": "Venezuela",
    "sick": 3833,
    "invisible": false
  },
  {
    "recovered": 6,
    "infected": 37,
    "id": "JEMCwkwXK39jd1lZ7VgJ",
    "pop": 107932,
    "country": "CO",
    "longitude": -72.633,
    "name": "Guaviare",
    "latitude": 2.567,
    "dead": 0,
    "lastUpdated": "2020-06-30T05:00:06.232Z",
    "sick": 31,
    "invisible": false
  },
  {
    "id": "JOJVBvOnsLDJPVeYJaI2",
    "pop": 453000,
    "country": "RU",
    "longitude": 40.1754,
    "name": "Adygea",
    "latitude": 44.8229,
    "dead": 12,
    "lastUpdated": "2020-06-30T05:00:08.256Z",
    "recovered": 1291,
    "infected": 1847,
    "sick": 544,
    "invisible": false
  },
  {
    "latitude": 35.1264,
    "dead": 19,
    "lastUpdated": "2020-06-30T05:16:02.719Z",
    "recovered": 833,
    "infected": 996,
    "id": "JQByE4l2OA6sGOqIcWrM",
    "pop": 1170000,
    "country": "CY",
    "longitude": 33.4299,
    "name": "Cyprus",
    "sick": 144,
    "invisible": false
  },
  {
    "country": "IN",
    "longitude": 85.3131,
    "name": "Bihar",
    "latitude": 25.0961,
    "dead": 63,
    "lastUpdated": "2020-06-30T05:11:01.141Z",
    "recovered": 7374,
    "infected": 9618,
    "id": "JR7hOGked7CZtIs2nCV5",
    "pop": 99020000,
    "sick": 2181,
    "invisible": false
  },
  {
    "id": "JUWE6bG3b5oL7fKQMSvv",
    "pop": 17250000,
    "country": "GT",
    "longitude": -90.522713,
    "name": "Guatemala",
    "latitude": 14.628434,
    "dead": 746,
    "lastUpdated": "2020-06-30T05:16:02.712Z",
    "recovered": 3170,
    "infected": 17409,
    "sick": 13493,
    "invisible": false
  },
  {
    "recovered": 3997,
    "infected": 4256,
    "id": "JcFsHSn2WvZ5LJW42ovG",
    "pop": 602005,
    "country": "LU",
    "longitude": 6.1296,
    "name": "Luxembourg",
    "latitude": 49.8153,
    "dead": 110,
    "lastUpdated": "2020-06-30T05:16:02.716Z",
    "sick": 149,
    "invisible": false
  },
  {
    "longitude": -74.167,
    "name": "Bolívar",
    "latitude": 8.8,
    "dead": 41,
    "lastUpdated": "2020-06-30T05:00:06.226Z",
    "recovered": 305,
    "infected": 964,
    "id": "JmOyaFe25yZCIV64JbZj",
    "pop": 2049000,
    "country": "CO",
    "sick": 618,
    "invisible": false
  },
  {
    "longitude": -115.783,
    "name": "Baja California",
    "latitude": 31.4,
    "dead": 1850,
    "lastUpdated": "2020-06-30T05:02:01.673Z",
    "recovered": 0,
    "infected": 8755,
    "id": "Jp9ePErcc8i1aOozEAMf",
    "pop": 3648100,
    "country": "MX",
    "sick": 6905,
    "invisible": false
  },
  {
    "name": "Córdoba",
    "latitude": 8.7479801,
    "dead": 42,
    "lastUpdated": "2020-06-30T05:00:06.226Z",
    "recovered": 212,
    "infected": 744,
    "id": "Jr8syCB0lydmPDXw8Q6N",
    "pop": 1786500,
    "country": "CO",
    "longitude": -75.8814316,
    "sick": 490,
    "invisible": false
  },
  {
    "lastUpdated": "2020-06-30T05:16:02.720Z",
    "recovered": 401,
    "infected": 643,
    "id": "JrBbirlBKGdWSdcDt7PF",
    "pop": 7798000,
    "country": "TG",
    "longitude": 0.8248,
    "name": "Togo",
    "latitude": 8.6195,
    "dead": 14,
    "sick": 228,
    "invisible": false
  },
  {
    "longitude": 25.4858,
    "name": "Bulgaria",
    "latitude": 42.7339,
    "dead": 223,
    "lastUpdated": "2020-06-30T05:16:02.716Z",
    "recovered": 2582,
    "infected": 4831,
    "id": "JzZ8sbqzjutThVjkPKPL",
    "pop": 7050000,
    "country": "BG",
    "sick": 2026,
    "invisible": false
  },
  {
    "country": "PL",
    "longitude": 20.709,
    "name": "Świętokrzyskie",
    "latitude": 50.823,
    "dead": 38,
    "lastUpdated": "2020-06-30T05:03:01.249Z",
    "recovered": 0,
    "infected": 790,
    "id": "KGrK7gafkeWjmU6sHQd2",
    "pop": 1263000,
    "sick": 752,
    "invisible": false
  },
  {
    "id": "KLBR5QHW6DePaGcFxlqH",
    "pop": 4325000,
    "country": "RU",
    "longitude": 61.9316,
    "name": "Sverdlovsk Oblast",
    "latitude": 59.0077,
    "dead": 93,
    "lastUpdated": "2020-06-30T05:00:08.251Z",
    "recovered": 7309,
    "infected": 12516,
    "sick": 5114,
    "invisible": false
  },
  {
    "country": "IT",
    "longitude": 8.833,
    "name": "Liguria",
    "latitude": 44.5,
    "dead": 1558,
    "lastUpdated": "2020-06-30T05:01:10.000Z",
    "recovered": 8139,
    "infected": 9974,
    "state": "42",
    "id": "KLXicxFogWnu0dLp4bNK",
    "pop": 1557000,
    "sick": 277,
    "invisible": false
  },
  {
    "recovered": 2818,
    "infected": 2930,
    "id": "KUnAVGJH6fLwFetE8A2x",
    "pop": 682000,
    "country": "RU",
    "longitude": 47.9608,
    "name": "Mari El Republic",
    "latitude": 56.4385,
    "dead": 23,
    "lastUpdated": "2020-06-30T05:00:08.256Z",
    "sick": 89,
    "invisible": false
  },
  {
    "latitude": 10.4631,
    "dead": 22,
    "lastUpdated": "2020-06-30T05:00:06.226Z",
    "recovered": 410,
    "infected": 994,
    "id": "KpOz3WmiZkrXUMlUJNlV",
    "pop": 1201000,
    "country": "CO",
    "longitude": -73.2532,
    "name": "Cesar",
    "sick": 562,
    "invisible": false
  },
  {
    "recovered": 8817,
    "infected": 10248,
    "state": "52",
    "id": "KrLrJbpDqqiXgUPGCCW9",
    "pop": 3737000,
    "country": "IT",
    "longitude": 11,
    "name": "Toscana",
    "latitude": 43.4167,
    "dead": 1104,
    "lastUpdated": "2020-06-30T05:01:10.002Z",
    "sick": 327,
    "invisible": false
  },
  {
    "country": "LK",
    "longitude": 80.771797,
    "name": "Sri Lanka",
    "latitude": 7.873054,
    "dead": 11,
    "lastUpdated": "2020-06-30T05:16:02.717Z",
    "recovered": 1678,
    "infected": 2039,
    "id": "KsWzJO06cf0d6LJ4ZNh9",
    "pop": 21440000,
    "sick": 350,
    "invisible": false
  },
  {
    "latitude": 15.9129,
    "dead": 180,
    "lastUpdated": "2020-06-30T05:11:01.141Z",
    "recovered": 6232,
    "infected": 13891,
    "id": "KtQIo2DoqjELtPAlyDVO",
    "pop": 49670000,
    "country": "IN",
    "longitude": 79.74,
    "name": "Andhra Pradesh",
    "sick": 7479,
    "invisible": false
  },
  {
    "name": "Saint-Martin",
    "alwaysShow": true,
    "latitude": 18.0708,
    "dead": 3,
    "lastUpdated": "2020-06-30T05:16:02.724Z",
    "recovered": 37,
    "infected": 43,
    "id": "LBUtrLDKJiupXjlUNTUe",
    "pop": 32125,
    "country": "FR",
    "longitude": -63.0501,
    "sick": 3,
    "invisible": false
  },
  {
    "lastUpdated": "2020-06-30T05:00:08.254Z",
    "recovered": 2706,
    "infected": 4480,
    "id": "LD8TNScpLrLRvgpQAn9T",
    "pop": 747000,
    "country": "RU",
    "longitude": 36.9242,
    "name": "Oryol Oblast",
    "latitude": 52.7856,
    "dead": 59,
    "sick": 1715,
    "invisible": false
  },
  {
    "latitude": 47.166,
    "dead": 1,
    "lastUpdated": "2020-06-30T05:16:02.723Z",
    "recovered": 81,
    "infected": 82,
    "id": "LTGEU2E9MFkrCcFhZYVk",
    "pop": 38557,
    "country": "LI",
    "longitude": 9.5554,
    "name": "Liechtenstein",
    "sick": 0,
    "invisible": false
  },
  {
    "name": "Guinea",
    "latitude": 9.9456,
    "dead": 31,
    "lastUpdated": "2020-06-30T05:16:02.715Z",
    "recovered": 4296,
    "infected": 5351,
    "id": "LU2QWt5ao8IJa8evNYVV",
    "pop": 12720000,
    "country": "GN",
    "longitude": -9.6966,
    "sick": 1024,
    "invisible": false
  },
  {
    "longitude": -110.5,
    "name": "Sonora",
    "latitude": 29.6667,
    "dead": 838,
    "lastUpdated": "2020-06-30T05:02:01.676Z",
    "recovered": 0,
    "infected": 8384,
    "id": "LYCBHrA9ms6GcxpLGPCT",
    "pop": 3062000,
    "country": "MX",
    "sick": 7546,
    "invisible": false
  },
  {
    "latitude": 3.9193051,
    "dead": 13,
    "lastUpdated": "2020-06-30T05:16:02.721Z",
    "recovered": 217,
    "infected": 501,
    "id": "LglKINHyQpYpFxjckbQ6",
    "pop": 563402,
    "country": "SR",
    "longitude": -56.0277824,
    "name": "Suriname",
    "sick": 271,
    "invisible": false
  },
  {
    "latitude": 52.9399,
    "dead": 13,
    "lastUpdated": "2020-06-30T05:10:01.317Z",
    "recovered": 0,
    "infected": 779,
    "state": "SK",
    "id": "LkIDKY0CMAqzbwBHyYCP",
    "pop": 1174000,
    "country": "CA",
    "longitude": -106.4509,
    "name": "Saskatchewan",
    "sick": 766,
    "invisible": false
  },
  {
    "latitude": 24.2155,
    "dead": 1,
    "lastUpdated": "2020-06-30T05:16:02.725Z",
    "recovered": 8,
    "infected": 10,
    "id": "LooNn6RuMiDhQnwa9svw",
    "pop": 636442,
    "country": "EH",
    "longitude": -12.8858,
    "name": "Western Sahara",
    "sick": 1,
    "invisible": false
  },
  {
    "lastUpdated": "2020-06-30T01:01:42.648Z",
    "recovered": 1063,
    "infected": 3420,
    "state": "AS",
    "id": "Lsga7AvYNnY0qQ5gEfV8",
    "pop": 1022000,
    "country": "ES",
    "longitude": -5.951843,
    "name": "Principado de Asturias",
    "latitude": 43.363129,
    "dead": 334,
    "sick": 2023,
    "invisible": false
  },
  {
    "state": "EX",
    "id": "LuEErlF7dVKI0eJsRjFm",
    "pop": 1065000,
    "country": "ES",
    "longitude": -6.0679,
    "name": "Extremadura",
    "latitude": 39.4937,
    "dead": 519,
    "lastUpdated": "2020-06-30T00:58:43.957Z",
    "recovered": 2652,
    "infected": 4028,
    "sick": 857,
    "invisible": false
  },
  {
    "name": "Guanajuato",
    "latitude": 21.0186,
    "dead": 540,
    "lastUpdated": "2020-06-30T05:02:01.678Z",
    "recovered": 0,
    "infected": 8693,
    "id": "M3wdiueFtwrUHiQ2rOXA",
    "pop": 5965000,
    "country": "MX",
    "longitude": -101.2591,
    "sick": 8153,
    "invisible": false
  },
  {
    "recovered": 0,
    "infected": 15347,
    "state": "KY",
    "id": "MC8MXFw9iXYybnF8v7e6",
    "pop": 4468000,
    "country": "US",
    "longitude": -84.27,
    "name": "Kentucky",
    "latitude": 37.8393,
    "dead": 560,
    "lastUpdated": "2020-06-30T05:17:02.156Z",
    "sick": 14787,
    "invisible": false
  },
  {
    "name": "Unknown UK region or state",
    "latitude": 55.3781,
    "dead": 39036,
    "lastUpdated": "2020-06-30T05:13:11.349Z",
    "recovered": 0,
    "infected": 121761,
    "id": "MEjlm8VYdGA28TTTnQmf",
    "country": "GB",
    "longitude": -3.436,
    "invisible": true,
    "sick": 82725
  },
  {
    "recovered": 0,
    "infected": 17501,
    "id": "MG4e9tulLJ010SZJvbYN",
    "pop": 3689000,
    "country": "PT",
    "longitude": -7.7441,
    "name": "Norte",
    "latitude": 41.3006,
    "dead": 817,
    "lastUpdated": "2020-06-30T05:23:02.073Z",
    "sick": 16684,
    "invisible": false
  },
  {
    "lastUpdated": "2020-06-30T05:13:11.347Z",
    "recovered": 0,
    "infected": 15818,
    "state": "SC",
    "id": "MObRYyIriHG337L8FyFC",
    "pop": 5450000,
    "country": "GB",
    "longitude": -4.2026,
    "name": "Scotland",
    "latitude": 56.4907,
    "dead": 2482,
    "sick": 13336,
    "invisible": false
  },
  {
    "latitude": 40.2672,
    "dead": 2624,
    "lastUpdated": "2020-06-30T05:17:02.154Z",
    "recovered": 0,
    "infected": 45228,
    "state": "IN",
    "id": "MOxDkmQ4wBi1CuAdVxDE",
    "pop": 6692000,
    "country": "US",
    "longitude": -86.1349,
    "name": "Indiana",
    "sick": 42604,
    "invisible": false
  },
  {
    "lastUpdated": "2020-06-30T05:16:02.713Z",
    "recovered": 3996,
    "infected": 9214,
    "id": "MdQOfc1gNh2DOqwSP6UV",
    "pop": 24290000,
    "country": "CI",
    "longitude": -5.5471,
    "name": "Ivory Coast",
    "latitude": 7.54,
    "dead": 66,
    "sick": 5152,
    "invisible": false
  },
  {
    "recovered": 38556,
    "infected": 43054,
    "state": "NW",
    "id": "MjpYq3zQyAvSQlVVYjD2",
    "pop": 17910000,
    "country": "DE",
    "longitude": 7.6616,
    "name": "Nordrhein-Westfalen",
    "latitude": 51.4332,
    "dead": 1693,
    "lastUpdated": "2020-06-30T05:00:09.805Z",
    "sick": 2805,
    "invisible": false
  },
  {
    "latitude": 37.330509,
    "dead": 0,
    "lastUpdated": "2020-06-30T05:08:09.801Z",
    "recovered": 75,
    "infected": 75,
    "id": "MntmjjuHljarCdt6aIeE",
    "pop": 6301000,
    "country": "CN",
    "longitude": 105.977203,
    "name": "Ningxia",
    "sick": 0,
    "invisible": false
  },
  {
    "country": "BR",
    "longitude": -52.203499186,
    "name": "Pará",
    "latitude": -3.20166586,
    "dead": 4870,
    "lastUpdated": "2020-06-30T05:15:01.805Z",
    "recovered": 0,
    "infected": 101207,
    "state": "PA",
    "id": "MuEB2UgkId5crsxi9zQT",
    "pop": 8513497,
    "sick": 96337,
    "invisible": false
  },
  {
    "lastUpdated": "2020-06-30T05:00:08.255Z",
    "recovered": 2320,
    "infected": 3741,
    "id": "N0KGfqgROVOjAxWcd8wi",
    "pop": 1150000,
    "country": "RU",
    "longitude": 39.2032,
    "name": "Lipetsk Oblast",
    "latitude": 52.5265,
    "dead": 16,
    "sick": 1405,
    "invisible": false
  },
  {
    "latitude": 48.6616,
    "dead": 1885,
    "lastUpdated": "2020-06-30T05:00:09.791Z",
    "recovered": 33342,
    "infected": 36062,
    "state": "BW",
    "id": "N3XsRBwJSsNclkEf7Zz5",
    "pop": 11020000,
    "country": "DE",
    "longitude": 9.3501,
    "name": "Baden-Württemberg",
    "sick": 835,
    "invisible": false
  },
  {
    "longitude": 17.824332,
    "name": "Bosnia and Herzegovina",
    "latitude": 44.696652,
    "dead": 184,
    "lastUpdated": "2020-06-30T05:16:02.716Z",
    "recovered": 2366,
    "infected": 4325,
    "id": "N7c13sCQF0G789XAVazJ",
    "pop": 3507000,
    "country": "BA",
    "sick": 1775,
    "invisible": false
  },
  {
    "latitude": 37.242565,
    "dead": 0,
    "lastUpdated": "2020-06-30T05:08:09.800Z",
    "recovered": 198,
    "infected": 198,
    "id": "NBRIGIRrJB1Ry8prDNAC",
    "pop": 36500000,
    "country": "CN",
    "longitude": 111.856857,
    "name": "Shanxi",
    "sick": 0,
    "invisible": false
  },
  {
    "lastUpdated": "2020-06-30T05:17:02.153Z",
    "recovered": 0,
    "infected": 63734,
    "state": "NC",
    "id": "NC64Qp5kTqAfiTuR27k8",
    "pop": 10380000,
    "country": "US",
    "longitude": -79.0193,
    "name": "North Carolina",
    "latitude": 35.7596,
    "dead": 1366,
    "sick": 62368,
    "invisible": false
  },
  {
    "lastUpdated": "2020-06-30T05:00:09.804Z",
    "recovered": 3184,
    "infected": 3484,
    "state": "BB",
    "id": "NJjo2gfBvnbK4xatrsUz",
    "pop": 2504000,
    "country": "DE",
    "longitude": 12.5316,
    "name": "Brandenburg",
    "latitude": 52.4125,
    "dead": 175,
    "sick": 125,
    "invisible": false
  },
  {
    "lastUpdated": "2020-06-30T05:17:02.160Z",
    "state": "MP",
    "id": "NLLL6pJhJSw0lrDMD4uP",
    "longitude": 145.6739,
    "name": "Northern Mariana Islands",
    "alwaysShow": true,
    "dead": 2,
    "latitude": 15.0979,
    "infected": 31,
    "recovered": 0,
    "pop": 55144,
    "country": "US",
    "sick": 29,
    "invisible": false
  },
  {
    "recovered": 2108,
    "infected": 2831,
    "id": "NMeZEcGToxXfpi16PfFV",
    "pop": 10080000,
    "country": "IN",
    "longitude": 79.0193,
    "name": "Uttarakhand",
    "latitude": 30.0668,
    "dead": 39,
    "lastUpdated": "2020-06-30T05:11:01.142Z",
    "sick": 684,
    "invisible": false
  },
  {
    "longitude": 9.1624,
    "name": "Hessen",
    "latitude": 50.6521,
    "dead": 514,
    "lastUpdated": "2020-06-30T05:00:09.805Z",
    "recovered": 9933,
    "infected": 10820,
    "state": "HE",
    "id": "Nk5vPgUIXsWVfbWZf15O",
    "pop": 6243000,
    "country": "DE",
    "sick": 373,
    "invisible": false
  },
  {
    "recovered": 932,
    "infected": 1117,
    "id": "NmmMKy0YqA8StHdGzB5N",
    "pop": 1920000,
    "country": "LV",
    "longitude": 25.837107,
    "name": "Latvia",
    "latitude": 56.96776,
    "dead": 30,
    "lastUpdated": "2020-06-30T05:16:02.719Z",
    "sick": 155,
    "invisible": false
  },
  {
    "lastUpdated": "2020-06-30T05:15:01.806Z",
    "recovered": 0,
    "infected": 58476,
    "state": "PE",
    "id": "NyGlFL1gATK1Omv9qtcC",
    "pop": 9496294,
    "country": "BR",
    "longitude": -37.946777,
    "name": "Pernambuco",
    "latitude": -8.472372,
    "dead": 4782,
    "sick": 53694,
    "invisible": false
  },
  {
    "recovered": 312,
    "infected": 770,
    "id": "O4g88K49HKEZLFXm5gxb",
    "pop": 4732000,
    "country": "LR",
    "longitude": -9.4295,
    "name": "Liberia",
    "latitude": 6.4281,
    "dead": 36,
    "lastUpdated": "2020-06-30T05:16:02.720Z",
    "sick": 422,
    "invisible": false
  },
  {
    "longitude": 82.6759,
    "name": "Altai Krai",
    "latitude": 51.7936,
    "dead": 31,
    "lastUpdated": "2020-06-30T05:00:08.255Z",
    "recovered": 2766,
    "infected": 3909,
    "id": "O5fNOGWKosps6JTrzkpn",
    "pop": 2350000,
    "country": "RU",
    "sick": 1112,
    "invisible": false
  },
  {
    "longitude": 116.9677,
    "name": "Zabaykalsky Krai",
    "latitude": 53.0929,
    "dead": 41,
    "lastUpdated": "2020-06-30T05:00:08.256Z",
    "recovered": 1854,
    "infected": 3038,
    "id": "O6PDzAxKENYbLsLjPx2K",
    "pop": 1072000,
    "country": "RU",
    "sick": 1143,
    "invisible": false
  },
  {
    "state": "SC",
    "id": "ONU4CK8QjViFHKg2w5if",
    "pop": 5084000,
    "country": "US",
    "longitude": -80.525613,
    "name": "South Carolina",
    "latitude": 34.003307,
    "dead": 720,
    "lastUpdated": "2020-06-30T05:17:02.154Z",
    "recovered": 0,
    "infected": 34644,
    "sick": 33924,
    "invisible": false
  },
  {
    "name": "Mississippi",
    "latitude": 33.51822,
    "dead": 1059,
    "lastUpdated": "2020-06-30T05:17:02.155Z",
    "recovered": 0,
    "infected": 26567,
    "state": "MS",
    "id": "OYa0jFzdbAgo8zUsRv6q",
    "pop": 2987000,
    "country": "US",
    "longitude": -89.582775,
    "sick": 25508,
    "invisible": false
  },
  {
    "latitude": 45.2538,
    "dead": 105,
    "lastUpdated": "2020-06-30T05:17:02.159Z",
    "recovered": 0,
    "infected": 3219,
    "state": "ME",
    "id": "OcXNp9kNVSwrRlG3bNVN",
    "pop": 1338000,
    "country": "US",
    "longitude": -69.4455,
    "name": "Maine",
    "sick": 3114,
    "invisible": false
  },
  {
    "longitude": 44.8203,
    "name": "Ingushetia",
    "latitude": 43.4052,
    "dead": 68,
    "lastUpdated": "2020-06-30T05:00:08.256Z",
    "recovered": 2449,
    "infected": 3020,
    "id": "OlKS5SPydHY2TedStFuf",
    "pop": 488000,
    "country": "RU",
    "sick": 503,
    "invisible": false
  },
  {
    "longitude": 146.725256,
    "name": "Tasmania",
    "latitude": -41.915264,
    "dead": 13,
    "lastUpdated": "2020-06-30T05:13:26.044Z",
    "recovered": 215,
    "infected": 228,
    "state": "TAS",
    "id": "OnOseaqWdnuP18oruABW",
    "pop": 515000,
    "country": "AU",
    "sick": 0,
    "invisible": false
  },
  {
    "state": "MT",
    "id": "P0GHFGUt1pkKTk5PM8uz",
    "pop": 3441998,
    "country": "BR",
    "longitude": -56.666668,
    "name": "Mato Grosso",
    "latitude": -16.35,
    "dead": 582,
    "lastUpdated": "2020-06-30T05:15:01.807Z",
    "recovered": 0,
    "infected": 15086,
    "sick": 14504,
    "invisible": false
  },
  {
    "name": "Vladimir Oblast",
    "latitude": 56.1553,
    "dead": 63,
    "lastUpdated": "2020-06-30T05:00:08.254Z",
    "recovered": 2573,
    "infected": 4314,
    "id": "P2I90oqdFSoVk03AaGo4",
    "pop": 1378000,
    "country": "RU",
    "longitude": 40.5927,
    "sick": 1678,
    "invisible": false
  },
  {
    "lastUpdated": "2020-06-30T05:16:02.722Z",
    "recovered": 189,
    "infected": 199,
    "id": "P4mwRFLbrvT0t75uD8Wo",
    "pop": 61559,
    "country": "KY",
    "longitude": -81.2546,
    "name": "Cayman Islands",
    "latitude": 19.3133,
    "dead": 1,
    "sick": 9,
    "invisible": false
  },
  {
    "latitude": 16.7424984,
    "dead": 1,
    "lastUpdated": "2020-06-30T05:16:02.725Z",
    "recovered": 10,
    "infected": 11,
    "id": "PEDkeFMTOZpvHiSVxBk7",
    "pop": 5900,
    "country": "MS",
    "longitude": -62.1873665,
    "name": "Montserrat",
    "sick": 0,
    "invisible": false
  },
  {
    "latitude": -1.9403,
    "dead": 2,
    "lastUpdated": "2020-06-30T05:16:02.719Z",
    "recovered": 443,
    "infected": 1001,
    "id": "PEcgZGEkyhABztt1Ufgc",
    "pop": 12210000,
    "country": "RW",
    "longitude": 29.8739,
    "name": "Rwanda",
    "sick": 556,
    "invisible": false
  },
  {
    "name": "Bashkortostan",
    "latitude": 54.2312,
    "dead": 18,
    "lastUpdated": "2020-06-30T05:00:08.253Z",
    "recovered": 2870,
    "infected": 5315,
    "id": "PHlHdeqYd6KgxsJGfEz0",
    "pop": 4063000,
    "country": "RU",
    "longitude": 56.1645,
    "sick": 2427,
    "invisible": false
  },
  {
    "recovered": 0,
    "infected": 35861,
    "state": "MN",
    "id": "PJvVYosLIhbcRZYnKX1R",
    "pop": 5611000,
    "country": "US",
    "longitude": -94.6859,
    "name": "Minnesota",
    "latitude": 46.7296,
    "dead": 1470,
    "lastUpdated": "2020-06-30T05:17:02.154Z",
    "sick": 34391,
    "invisible": false
  },
  {
    "latitude": 40.6331,
    "dead": 7103,
    "lastUpdated": "2020-06-30T05:17:02.150Z",
    "recovered": 0,
    "infected": 143514,
    "state": "IL",
    "id": "PTwQr9ijo0TBBsPH2sdJ",
    "pop": 12740000,
    "country": "US",
    "longitude": -89.3985,
    "name": "Illinois",
    "sick": 136411,
    "invisible": false
  },
  {
    "lastUpdated": "2020-06-30T05:16:02.725Z",
    "recovered": 19,
    "infected": 19,
    "id": "PjLqCeFdyzdZNcZxMkK1",
    "pop": 178844,
    "country": "LC",
    "longitude": -60.978893,
    "name": "Saint Lucia",
    "latitude": 13.909444,
    "dead": 0,
    "sick": 0,
    "invisible": false
  },
  {
    "recovered": 3905,
    "infected": 8620,
    "state": "NC",
    "id": "PmUlsNx2uFLU797wwU39",
    "pop": 649900,
    "country": "ES",
    "longitude": -1.6761,
    "name": "Comunidad Foral de Navarra",
    "latitude": 42.6954,
    "dead": 528,
    "lastUpdated": "2020-06-30T00:57:46.675Z",
    "sick": 4187,
    "invisible": false
  },
  {
    "recovered": 1029,
    "infected": 1172,
    "id": "Pr76V4raf108uSRoEXac",
    "pop": 11530000,
    "country": "TN",
    "longitude": 9.460554,
    "name": "Tunisia",
    "latitude": 34.201507,
    "dead": 50,
    "lastUpdated": "2020-06-30T05:16:02.718Z",
    "sick": 93,
    "invisible": false
  },
  {
    "lastUpdated": "2020-06-30T05:16:02.720Z",
    "recovered": 380,
    "infected": 795,
    "id": "PuQgOd9KWiMzGZXm11sR",
    "pop": 1367000,
    "country": "SZ",
    "longitude": 31.4659,
    "name": "Eswatini",
    "latitude": -26.5225,
    "dead": 11,
    "sick": 404,
    "invisible": false
  },
  {
    "longitude": 143.94853,
    "name": "Victoria",
    "latitude": -37.009609,
    "dead": 20,
    "lastUpdated": "2020-06-30T05:13:26.044Z",
    "recovered": 1816,
    "infected": 2099,
    "state": "VIC",
    "id": "Q18mrGvFWTLX2BU9SqhQ",
    "pop": 6359000,
    "country": "AU",
    "sick": 263,
    "invisible": false
  },
  {
    "state": "SH",
    "id": "Q39XkabIYxt15mHINzTa",
    "pop": 2890000,
    "country": "DE",
    "longitude": 9.6961,
    "name": "Schleswig-Holstein",
    "latitude": 54.2194,
    "dead": 157,
    "lastUpdated": "2020-06-30T05:00:09.806Z",
    "recovered": 2973,
    "infected": 3163,
    "sick": 33,
    "invisible": false
  },
  {
    "country": "BR",
    "longitude": -52.031696,
    "name": "Rio Grande do Sul",
    "latitude": -27.953491,
    "dead": 582,
    "lastUpdated": "2020-06-30T05:15:01.807Z",
    "recovered": 0,
    "infected": 25659,
    "state": "RS",
    "id": "QGpQNhuoVTUPHXvS7qcu",
    "pop": 11329605,
    "sick": 25077,
    "invisible": false
  },
  {
    "latitude": 55.5596,
    "dead": 31,
    "lastUpdated": "2020-06-30T05:00:08.253Z",
    "recovered": 2882,
    "infected": 5025,
    "id": "QGyuno7Bc4kwuvGFgMiO",
    "pop": 1231000,
    "country": "RU",
    "longitude": 46.9284,
    "name": "Chuvashia",
    "sick": 2112,
    "invisible": false
  },
  {
    "latitude": 58.595272,
    "dead": 69,
    "lastUpdated": "2020-06-30T05:16:02.718Z",
    "recovered": 1818,
    "infected": 1987,
    "id": "QR9go2hQKXjty7JHUYe4",
    "pop": 1328000,
    "country": "EE",
    "longitude": 25.013607,
    "name": "Estonia",
    "sick": 100,
    "invisible": false
  },
  {
    "recovered": 1549,
    "infected": 3356,
    "id": "QTafh5fpbS8abcuyEjaL",
    "pop": 840000,
    "country": "RU",
    "longitude": 54.8313,
    "name": "Komi Republic",
    "latitude": 63.8631,
    "dead": 30,
    "lastUpdated": "2020-06-30T05:00:08.255Z",
    "sick": 1777,
    "invisible": false
  },
  {
    "longitude": -40.336,
    "name": "Espírito Santo",
    "latitude": -20.318,
    "dead": 1621,
    "lastUpdated": "2020-06-30T05:15:01.806Z",
    "recovered": 0,
    "infected": 45097,
    "state": "ES",
    "id": "QaWDLKH8SuwD0Qxq6c38",
    "pop": 3972388,
    "country": "BR",
    "sick": 43476,
    "invisible": false
  },
  {
    "lastUpdated": "2020-06-30T05:00:08.253Z",
    "recovered": 3514,
    "infected": 5093,
    "id": "Qh73PKA4KWeuPoqZfWXz",
    "pop": 795000,
    "country": "RU",
    "longitude": 35.0884,
    "name": "Murmansk Oblast",
    "latitude": 67.8443,
    "dead": 13,
    "sick": 1566,
    "invisible": false
  },
  {
    "latitude": 20.3333,
    "dead": 662,
    "lastUpdated": "2020-06-30T05:02:01.679Z",
    "recovered": 0,
    "infected": 12231,
    "id": "Qkho455pBwx88Gohs3hL",
    "pop": 8222700,
    "country": "MX",
    "longitude": -103.6667,
    "name": "Jalisco",
    "sick": 11569,
    "invisible": false
  },
  {
    "latitude": -6.315,
    "dead": 0,
    "lastUpdated": "2020-06-30T05:16:02.725Z",
    "recovered": 8,
    "infected": 11,
    "id": "QlZrE4nosm5WfdA2aCDg",
    "pop": 8251000,
    "country": "PG",
    "longitude": 143.9555,
    "name": "Papua New Guinea",
    "sick": 3,
    "invisible": false
  },
  {
    "lastUpdated": "2020-06-30T05:17:02.160Z",
    "state": "VI",
    "id": "QqhD3YDMKXojvQY3Yu41",
    "longitude": -64.8963,
    "name": "U.S. Virgin Islands",
    "alwaysShow": true,
    "dead": 6,
    "latitude": 18.3358,
    "infected": 81,
    "recovered": 0,
    "pop": 107268,
    "country": "US",
    "sick": 75,
    "invisible": false
  },
  {
    "latitude": 15.414999,
    "dead": 0,
    "lastUpdated": "2020-06-30T05:16:02.725Z",
    "recovered": 18,
    "infected": 18,
    "id": "Qy2qW2ep5wltnYjPJBxh",
    "pop": 71937,
    "country": "DM",
    "longitude": -61.3709755,
    "name": "Dominica",
    "sick": 0,
    "invisible": false
  },
  {
    "longitude": -72.167,
    "name": "Casanare",
    "latitude": 5.167,
    "dead": 0,
    "lastUpdated": "2020-06-30T05:00:06.226Z",
    "recovered": 45,
    "infected": 66,
    "id": "R3IHMWqIUhOJJTlrmbUZ",
    "pop": 344027,
    "country": "CO",
    "sick": 21,
    "invisible": false
  },
  {
    "lastUpdated": "2020-06-30T05:16:02.711Z",
    "recovered": 15595,
    "infected": 32785,
    "id": "R8YCgephnxTufvcPWMgx",
    "pop": 4099000,
    "country": "PA",
    "longitude": -80.7821,
    "name": "Panama",
    "latitude": 8.538,
    "dead": 620,
    "sick": 16570,
    "invisible": false
  },
  {
    "latitude": 15.2,
    "dead": 485,
    "lastUpdated": "2020-06-30T05:16:02.712Z",
    "recovered": 1961,
    "infected": 18818,
    "id": "RA2SE0p2bVhqo0P2hzGY",
    "pop": 9265000,
    "country": "HN",
    "longitude": -86.2419,
    "name": "Honduras",
    "sick": 16372,
    "invisible": false
  },
  {
    "latitude": -18.4745998,
    "dead": 20,
    "lastUpdated": "2020-06-30T05:21:04.079Z",
    "recovered": 0,
    "infected": 1685,
    "id": "RBt9RiwP7WUbMnJfD0lo",
    "pop": 224500,
    "country": "CL",
    "longitude": -70.2979202,
    "name": "Arica y Parinacota",
    "sick": 1665,
    "invisible": false
  },
  {
    "recovered": 2927,
    "infected": 3308,
    "state": "36",
    "id": "RCrDBCdBNYzgLNr0aB2H",
    "pop": 1216000,
    "country": "IT",
    "longitude": 13.8,
    "name": "Friuli Venezia Giulia",
    "latitude": 45.633331,
    "dead": 345,
    "lastUpdated": "2020-06-30T05:01:10.000Z",
    "sick": 36,
    "invisible": false
  },
  {
    "lastUpdated": "2020-06-30T05:17:02.155Z",
    "recovered": 0,
    "infected": 28817,
    "state": "IA",
    "id": "RX0KDu1AFrlCsrRso0nb",
    "pop": 3156000,
    "country": "US",
    "longitude": -93.0977,
    "name": "Iowa",
    "latitude": 41.878,
    "dead": 709,
    "sick": 28108,
    "invisible": false
  },
  {
    "country": "CO",
    "longitude": -74.063644,
    "name": "Bogotá D.C.",
    "latitude": 4.624335,
    "dead": 658,
    "lastUpdated": "2020-06-30T05:00:06.222Z",
    "recovered": 12255,
    "infected": 29320,
    "id": "RZ6PCe5TZsO15JjDObwO",
    "pop": 7413000,
    "sick": 16407,
    "invisible": false
  },
  {
    "latitude": 26.3351002,
    "dead": 23,
    "lastUpdated": "2020-06-30T05:16:02.720Z",
    "recovered": 206,
    "infected": 802,
    "id": "RaJxbzlnRFTuj4B8IbpC",
    "pop": 6846000,
    "country": "LY",
    "longitude": 17.2283306,
    "name": "Libya",
    "sick": 573,
    "invisible": false
  },
  {
    "lastUpdated": "2020-06-30T05:17:02.157Z",
    "recovered": 0,
    "infected": 14513,
    "state": "KS",
    "id": "Rf4uvBfP3GRDSHdZElRd",
    "pop": 2912000,
    "country": "US",
    "longitude": -98.4842,
    "name": "Kansas",
    "latitude": 39.0119,
    "dead": 273,
    "sick": 14240,
    "invisible": false
  },
  {
    "longitude": 6.1878,
    "name": "Grand Est",
    "latitude": 48.6998,
    "dead": 3556,
    "lastUpdated": "2020-06-30T01:30:42.353Z",
    "recovered": 12039,
    "infected": 25629,
    "id": "RmEgf1xeclWt7XCF9oiR",
    "pop": 5518000,
    "country": "FR",
    "sick": 10034,
    "invisible": false
  },
  {
    "latitude": 50.4176,
    "dead": 3376,
    "lastUpdated": "2020-06-30T05:07:13.266Z",
    "recovered": 4868,
    "infected": 19287,
    "state": "WAL",
    "id": "RryHraSohKQLAsdr1dHO",
    "pop": 3644000,
    "country": "BE",
    "longitude": 4.451,
    "name": "Wallonia",
    "sick": 11043,
    "invisible": false
  },
  {
    "recovered": 0,
    "infected": 36823,
    "state": "ON",
    "id": "Rx4TuyMpfGb3S8wYJX0x",
    "pop": 14570000,
    "country": "CA",
    "longitude": -85.3232,
    "name": "Ontario",
    "latitude": 51.2538,
    "dead": 2726,
    "lastUpdated": "2020-06-30T05:10:01.313Z",
    "sick": 34097,
    "invisible": false
  },
  {
    "longitude": -4.723611,
    "name": "Castilla y León",
    "latitude": 41.652779,
    "dead": 2784,
    "lastUpdated": "2020-06-30T00:56:18.427Z",
    "recovered": 8716,
    "infected": 25956,
    "state": "CL",
    "id": "S8ewN4zaYp8mjtuqqOTw",
    "pop": 2408000,
    "country": "ES",
    "sick": 14456,
    "invisible": false
  },
  {
    "latitude": 14.652027,
    "dead": 14,
    "lastUpdated": "2020-06-30T05:16:02.721Z",
    "recovered": 98,
    "infected": 242,
    "id": "SDdefnq1bc3ZNr7SpEsW",
    "pop": 376480,
    "country": "FR",
    "longitude": -61.011715,
    "name": "Martinique",
    "alwaysShow": true,
    "sick": 130,
    "invisible": false
  },
  {
    "lastUpdated": "2020-06-30T05:16:02.712Z",
    "recovered": 12994,
    "infected": 17351,
    "id": "SG9VWLOV3x2JsTkXmVSz",
    "pop": 28830000,
    "country": "GH",
    "longitude": -1.0232,
    "name": "Ghana",
    "latitude": 7.9465,
    "dead": 112,
    "sick": 4245,
    "invisible": false
  },
  {
    "latitude": 46.818188,
    "dead": 1962,
    "lastUpdated": "2020-06-30T05:16:02.711Z",
    "recovered": 29100,
    "infected": 31652,
    "id": "SGe9sCPayMqh6RsGFaBA",
    "pop": 8570000,
    "country": "CH",
    "longitude": 8.227512,
    "name": "Switzerland",
    "sick": 590,
    "invisible": false
  },
  {
    "name": "Yakutia",
    "latitude": 66.7613,
    "dead": 29,
    "lastUpdated": "2020-06-30T05:00:08.254Z",
    "recovered": 2866,
    "infected": 4178,
    "id": "SGhKBmmh5hss7hrNR8hK",
    "pop": 964000,
    "country": "RU",
    "longitude": 124.1238,
    "sick": 1283,
    "invisible": false
  },
  {
    "latitude": 46.8139,
    "dead": 5485,
    "lastUpdated": "2020-06-30T05:10:01.313Z",
    "recovered": 0,
    "infected": 55390,
    "state": "QC",
    "id": "SHoOE3NiJgWAlDVBzwYH",
    "pop": 8485000,
    "country": "CA",
    "longitude": -71.208,
    "name": "Quebec",
    "sick": 49905,
    "invisible": false
  },
  {
    "recovered": 1425,
    "infected": 2677,
    "id": "SMWvuMMuKp2QK7O2tNia",
    "pop": 1831000,
    "country": "XK",
    "longitude": 20.903,
    "name": "Kosovo",
    "latitude": 42.6026,
    "dead": 49,
    "lastUpdated": "2020-06-30T05:25:01.710Z",
    "sick": 1203,
    "invisible": false
  },
  {
    "lastUpdated": "2020-06-30T05:00:08.254Z",
    "recovered": 2688,
    "infected": 4226,
    "id": "SNWCQwRwqYfxX8HZndTA",
    "pop": 1913000,
    "country": "RU",
    "longitude": 135,
    "name": "Primorsky Krai",
    "latitude": 45.0526,
    "dead": 42,
    "sick": 1496,
    "invisible": false
  },
  {
    "latitude": 15.2993,
    "dead": 3,
    "lastUpdated": "2020-06-30T05:11:01.142Z",
    "recovered": 524,
    "infected": 1251,
    "id": "SPcujsH2YlUaoAr8AiWF",
    "pop": 1817000,
    "country": "IN",
    "longitude": 74.124,
    "name": "Goa",
    "sick": 724,
    "invisible": false
  },
  {
    "latitude": -16.328547,
    "dead": 437,
    "lastUpdated": "2020-06-30T05:15:01.807Z",
    "recovered": 0,
    "infected": 23007,
    "state": "GO",
    "id": "SV5AMF59J61Vt4cXWLgy",
    "pop": 6921161,
    "country": "BR",
    "longitude": -48.953403,
    "name": "Goiás",
    "sick": 22570,
    "invisible": false
  },
  {
    "latitude": 6.181,
    "dead": 0,
    "lastUpdated": "2020-06-30T05:00:06.232Z",
    "recovered": 1,
    "infected": 1,
    "id": "SYFarIS62W0EW9bOaJmN",
    "pop": 75500,
    "country": "CO",
    "longitude": -68.436,
    "name": "Vichada",
    "sick": 0,
    "invisible": false
  },
  {
    "country": "IT",
    "longitude": 16.5,
    "name": "Calabria",
    "latitude": 39,
    "dead": 97,
    "lastUpdated": "2020-06-30T05:01:09.999Z",
    "recovered": 1057,
    "infected": 1180,
    "state": "78",
    "id": "SZdF624x0v1LlyzZjKFu",
    "pop": 1957000,
    "sick": 26,
    "invisible": false
  },
  {
    "name": "Nebraska",
    "latitude": 41.4925,
    "dead": 267,
    "lastUpdated": "2020-06-30T05:17:02.156Z",
    "recovered": 0,
    "infected": 18899,
    "state": "NE",
    "id": "SakhKQzKu1LRI8laqdQq",
    "pop": 1929000,
    "country": "US",
    "longitude": -99.9018,
    "sick": 18632,
    "invisible": false
  },
  {
    "lastUpdated": "2020-06-30T05:16:02.720Z",
    "recovered": 472,
    "infected": 522,
    "id": "SgHzWAAYK1j2sipovxM6",
    "pop": 859959,
    "country": "FR",
    "longitude": 55.5364,
    "name": "La Réunion",
    "alwaysShow": true,
    "latitude": -21.1151,
    "dead": 2,
    "sick": 48,
    "invisible": false
  },
  {
    "lastUpdated": "2020-06-30T05:16:02.722Z",
    "recovered": 130,
    "infected": 141,
    "id": "SioMALgUbo7peXmbco2f",
    "pop": 16010000,
    "country": "KH",
    "longitude": 104.990967,
    "name": "Cambodia",
    "latitude": 12.565679,
    "dead": 0,
    "sick": 11,
    "invisible": false
  },
  {
    "name": "Guam",
    "alwaysShow": true,
    "dead": 5,
    "latitude": 13.4443,
    "infected": 253,
    "recovered": 0,
    "pop": 164229,
    "country": "US",
    "lastUpdated": "2020-06-30T05:17:02.160Z",
    "state": "GU",
    "id": "SsWhuEElU7dCTTuH5fdQ",
    "longitude": 144.7937,
    "sick": 248,
    "invisible": false
  },
  {
    "longitude": 19.1344,
    "invisible": true,
    "name": "Unknown Poland region",
    "latitude": 51.9189,
    "dead": 0,
    "lastUpdated": "2020-06-30T05:16:02.711Z",
    "recovered": 20897,
    "infected": 0,
    "id": "SuCr5emUaJ9RHTll1P1p",
    "country": "PL",
    "sick": 0
  },
  {
    "latitude": 57.067,
    "dead": 16,
    "lastUpdated": "2020-06-30T05:00:08.257Z",
    "recovered": 1000,
    "infected": 1400,
    "id": "Sx03z01BJCAbrYkWhEaD",
    "pop": 1513000,
    "country": "RU",
    "longitude": 53.0278,
    "name": "Udmurtia",
    "sick": 384,
    "invisible": false
  },
  {
    "latitude": -4.0383,
    "dead": 167,
    "lastUpdated": "2020-06-30T05:16:02.714Z",
    "recovered": 1050,
    "infected": 6939,
    "id": "T3iRf8mTUTAzbKrORTap",
    "pop": 84070000,
    "country": "CD",
    "longitude": 21.7587,
    "name": "DR Congo",
    "sick": 5722,
    "invisible": false
  },
  {
    "latitude": 23.635796,
    "dead": 1599,
    "lastUpdated": "2020-06-30T05:16:02.709Z",
    "recovered": 127118,
    "infected": 186436,
    "id": "T7NffoeCgTUpAbOHvYwP",
    "pop": 32940000,
    "country": "SA",
    "longitude": 44.344334,
    "name": "Saudi Arabia",
    "sick": 57719,
    "invisible": false
  },
  {
    "latitude": 42.2871,
    "dead": 366,
    "lastUpdated": "2020-06-30T01:00:11.806Z",
    "recovered": 3107,
    "infected": 5471,
    "state": "RI",
    "id": "TNDTapyb0k3l7Mds9q9R",
    "pop": 315700,
    "country": "ES",
    "longitude": -2.5396,
    "name": "La Rioja",
    "sick": 1998,
    "invisible": false
  },
  {
    "lastUpdated": "2020-06-30T05:02:01.677Z",
    "recovered": 0,
    "infected": 4223,
    "id": "TQCWbhIpJQBQxBjhCGVJ",
    "pop": 2207200,
    "country": "MX",
    "longitude": -89.134857,
    "name": "Yucatán",
    "latitude": 20.400417,
    "dead": 436,
    "sick": 3787,
    "invisible": false
  },
  {
    "country": "BN",
    "longitude": 114.650692,
    "name": "Brunei",
    "latitude": 4.506106,
    "dead": 3,
    "lastUpdated": "2020-06-30T05:16:02.722Z",
    "recovered": 138,
    "infected": 141,
    "id": "TQZmzsLhJqjtCSExAkCP",
    "pop": 428697,
    "sick": 0,
    "invisible": false
  },
  {
    "longitude": 4.3853,
    "name": "Auvergne-Rhône-Alpes",
    "latitude": 45.4471,
    "dead": 1729,
    "lastUpdated": "2020-06-30T01:27:30.910Z",
    "recovered": 7649,
    "infected": 15169,
    "state": "",
    "id": "TT0MKODSjrxHvG19xZCa",
    "pop": 8027000,
    "country": "FR",
    "sick": 5791,
    "invisible": false
  },
  {
    "name": "Alentejo",
    "latitude": 38.5667,
    "dead": 5,
    "lastUpdated": "2020-06-30T05:23:02.074Z",
    "recovered": 0,
    "infected": 477,
    "id": "TeoNTu4aw5riC04sTd73",
    "pop": 758700,
    "country": "PT",
    "longitude": -7.9,
    "sick": 472,
    "invisible": false
  },