[
  {
    "latitude": 41.066666,
    "pop": 5827000,
    "longitude": 14.333333,
    "name": "Campania",
    "country": "IT",
    "lastUpdated": "2020-04-03T07:40:02.923Z",
    "dead": 167,
    "id": "0GJcws44NSPsDHAuxJhW",
    "infected": 2456,
    "recovered": 149,
    "sick": 2140
  },
  {
    "longitude": 85.0985,
    "name": "Odisha",
    "country": "IN",
    "lastUpdated": "2020-04-03T07:40:01.444Z",
    "dead": 0,
    "id": "0VG7S6aaK4eSo59fL9JO",
    "infected": 5,
    "recovered": 2,
    "latitude": 20.9517,
    "pop": 45990000,
    "sick": 3
  },
  {
    "latitude": 11.7401,
    "pop": 427246,
    "longitude": 92.6586,
    "name": "Andaman and Nicobar Islands",
    "country": "IN",
    "lastUpdated": "2020-04-03T01:40:43.105Z",
    "dead": 0,
    "id": "0jStOpTUNRaQYJqgmRoK",
    "infected": 10,
    "recovered": 1,
    "sick": 9
  },
  {
    "infected": 949,
    "recovered": 72,
    "latitude": 25.315058,
    "pop": 2639000,
    "longitude": 51.145517,
    "name": "Qatar",
    "country": "QA",
    "lastUpdated": "2020-04-03T07:45:04.831Z",
    "dead": 3,
    "id": "0m4aECS0Z2DGFEr8ldgI",
    "sick": 874
  },
  {
    "latitude": 22.9868,
    "pop": 90320000,
    "longitude": 87.855,
    "name": "West Bengal",
    "country": "IN",
    "lastUpdated": "2020-04-03T04:52:04.130Z",
    "dead": 3,
    "id": "0n54EMSDJcRoT1QEvw80",
    "infected": 53,
    "recovered": 6,
    "sick": 44
  },
  {
    "recovered": 0,
    "latitude": 22.9734,
    "pop": 73340000,
    "longitude": 78.6569,
    "name": "Madhya Pradesh",
    "country": "IN",
    "lastUpdated": "2020-04-03T07:40:01.451Z",
    "dead": 8,
    "id": "0s18o5DrDAHjbu5MFcrj",
    "infected": 107,
    "sick": 99
  },
  {
    "dead": 0,
    "lastUpdated": "2020-04-03T07:45:04.898Z",
    "id": "0tFoopNTs6e4tOoaltu2",
    "infected": 0,
    "recovered": 10403,
    "latitude": 37.0902,
    "longitude": -95.7129,
    "name": "Unknown US state",
    "country": "US",
    "sick": 0
  },
  {
    "recovered": 244,
    "latitude": 35.64249,
    "pop": 37330000,
    "longitude": 108.472214,
    "name": "Shaanxi",
    "country": "CN",
    "lastUpdated": "2020-04-03T07:44:13.030Z",
    "dead": 3,
    "id": "0x2HLhr5z5xAtEdO4iZm",
    "infected": 255,
    "sick": 8
  },
  {
    "lastUpdated": "2020-04-03T07:45:04.747Z",
    "dead": 11,
    "id": "19MvIhipqTyYv1H37Upw",
    "infected": 384,
    "recovered": 17,
    "latitude": 41.643351,
    "pop": 2077000,
    "longitude": 21.668393,
    "name": "North Macedonia",
    "country": "MK",
    "sick": 356
  },
  {
    "recovered": 0,
    "latitude": 53.1355,
    "pop": 521542,
    "longitude": -57.6604,
    "name": "Newfoundland and Labrador",
    "country": "CA",
    "lastUpdated": "2020-04-03T07:45:02.530Z",
    "dead": 1,
    "id": "1DOMOmCWDtva46OVSZLv",
    "infected": 183,
    "sick": 182
  },
  {
    "recovered": 18,
    "latitude": 35.801933,
    "pop": 5627000,
    "longitude": 96.779286,
    "name": "Qinghai",
    "country": "CN",
    "lastUpdated": "2020-04-03T07:44:13.643Z",
    "dead": 0,
    "id": "1Fap7rZu9SIRqf5TG9Dg",
    "infected": 18,
    "sick": 0
  },
  {
    "id": "1eTSQyfp8RoDPeFrIwun",
    "infected": 10353,
    "recovered": 571,
    "latitude": 44.9,
    "pop": 4376000,
    "longitude": 8.206944,
    "name": "Piemonte",
    "country": "IT",
    "lastUpdated": "2020-04-03T07:40:02.737Z",
    "dead": 983,
    "sick": 8799
  },
  {
    "infected": 8066,
    "recovered": 127,
    "latitude": -14.235004,
    "pop": 209300000,
    "longitude": -51.925282,
    "name": "Brazil",
    "country": "BR",
    "lastUpdated": "2020-04-03T07:45:04.857Z",
    "dead": 327,
    "id": "1f0YoV0vAcexEhpESyZc",
    "sick": 7612
  },
  {
    "id": "1qTPB8X3tyLyIdsb5TN3",
    "infected": 505,
    "recovered": 23,
    "latitude": 47.4116,
    "pop": 3550000,
    "longitude": 28.3699,
    "name": "Moldova",
    "country": "MD",
    "lastUpdated": "2020-04-03T07:45:04.754Z",
    "dead": 6,
    "sick": 476
  },
  {
    "recovered": 1,
    "latitude": 30.15336,
    "pop": 3180000,
    "longitude": 88.787865,
    "name": "Tibet",
    "country": "CN",
    "lastUpdated": "2020-04-03T07:44:13.730Z",
    "dead": 0,
    "id": "25qIBtsW2nfQj3pwBKg9",
    "infected": 1,
    "sick": 0
  },
  {
    "lastUpdated": "2020-04-03T07:45:04.893Z",
    "dead": 170,
    "id": "2KHYUb5t3lwzVVmDjwNX",
    "infected": 1790,
    "recovered": 112,
    "latitude": -1.572184,
    "pop": 264000000,
    "longitude": 115.66779,
    "name": "Indonesia",
    "country": "ID",
    "sick": 1508
  },
  {
    "infected": 826,
    "recovered": 0,
    "latitude": 43.807191,
    "pop": 4191000,
    "longitude": -120.585594,
    "name": "Oregon",
    "country": "US",
    "lastUpdated": "2020-04-03T07:48:16.204Z",
    "dead": 21,
    "id": "2OrsssmGUs4XCzaZzvTv",
    "sick": 805
  },
  {
    "longitude": 126.548103,
    "name": "Jilin",
    "country": "CN",
    "lastUpdated": "2020-04-03T07:44:13.632Z",
    "dead": 1,
    "id": "2jxHvSsxdnom0nPNvOT8",
    "infected": 98,
    "recovered": 92,
    "latitude": 43.851921,
    "pop": 27460000,
    "sick": 5
  },
  {
    "longitude": -5.3536,
    "name": "Gibraltar",
    "country": "GI",
    "lastUpdated": "2020-04-03T07:45:05.364Z",
    "dead": 0,
    "id": "2p11BjSAs3wVyymgqBOe",
    "infected": 88,
    "recovered": 46,
    "latitude": 36.1408,
    "pop": 34571,
    "sick": 42
  },
  {
    "infected": 1286,
    "recovered": 179,
    "latitude": 47.7516,
    "pop": 2567000,
    "longitude": 1.6751,
    "name": "Centre-Val de Loire",
    "country": "FR",
    "lastUpdated": "2020-04-02T17:47:52.073Z",
    "dead": 84,
    "id": "2sLNkkHpyaHx7dD3aMDO",
    "sick": 1023
  },
  {
    "id": "319tiZOMczx1y0DfvOib",
    "infected": 1128,
    "recovered": 205,
    "latitude": 42.565044,
    "pop": 884640,
    "longitude": 12.643751,
    "name": "Umbria",
    "country": "IT",
    "lastUpdated": "2020-04-03T07:40:02.831Z",
    "dead": 38,
    "sick": 885
  },
  {
    "recovered": 0,
    "latitude": -13.133896,
    "pop": 17090000,
    "longitude": 27.849332,
    "name": "Zambia",
    "country": "ZM",
    "lastUpdated": "2020-04-03T07:45:05.463Z",
    "dead": 1,
    "id": "3IlPjAbP5qVMn1nlgLTJ",
    "infected": 39,
    "sick": 38
  },
  {
    "longitude": 19.3958,
    "name": "Montenegro",
    "country": "ME",
    "lastUpdated": "2020-04-03T07:45:05.354Z",
    "dead": 2,
    "id": "3LstMSN5XMYBkxbe5HN7",
    "infected": 160,
    "recovered": 0,
    "latitude": 42.7044,
    "pop": 631219,
    "sick": 158
  },
  {
    "recovered": 1,
    "latitude": -35.4735,
    "pop": 418440,
    "longitude": 149.0124,
    "name": "Australian Capital Territory",
    "country": "AU",
    "lastUpdated": "2020-04-03T07:42:03.020Z",
    "dead": 0,
    "id": "3OZoQsKrzxZ18EKyfGE6",
    "infected": 91,
    "sick": 90
  },
  {
    "id": "3cCbnJCsK7mKlTO08K1o",
    "infected": 16,
    "recovered": 0,
    "latitude": 26.2006,
    "pop": 30940000,
    "longitude": 92.9376,
    "name": "Assam",
    "country": "IN",
    "lastUpdated": "2020-04-03T07:40:01.571Z",
    "dead": 0,
    "sick": 16
  },
  {
    "longitude": -82.9071,
    "name": "Ohio",
    "country": "US",
    "lastUpdated": "2020-04-03T07:48:16.185Z",
    "dead": 81,
    "id": "3fC3bAyIRUquOQOEnQNe",
    "infected": 2902,
    "recovered": 0,
    "latitude": 40.4173,
    "pop": 11690000,
    "sick": 2821
  },
  {
    "latitude": 21.0079,
    "pop": 4420000,
    "longitude": -10.9408,
    "name": "Mauritania",
    "country": "MR",
    "lastUpdated": "2020-04-03T07:45:05.489Z",
    "dead": 1,
    "id": "4NnFMekRK2m14IlnZZoj",
    "infected": 6,
    "recovered": 2,
    "sick": 3
  },
  {
    "latitude": 53.7267,
    "pop": 5071000,
    "longitude": -127.6476,
    "name": "British Columbia",
    "country": "CA",
    "lastUpdated": "2020-04-03T07:45:02.348Z",
    "dead": 31,
    "id": "4hfZRUoUgI4a3vrG0GBk",
    "infected": 1121,
    "recovered": 0,
    "sick": 1090
  },
  {
    "infected": 9034,
    "recovered": 68,
    "latitude": 41.065877,
    "pop": 10290000,
    "longitude": -7.920053,
    "name": "Portugal",
    "country": "PT",
    "lastUpdated": "2020-04-03T07:45:04.903Z",
    "dead": 209,
    "id": "4rQLxUCMmQLpbi6E9tbH",
    "sick": 8757
  },
  {
    "recovered": 26,
    "latitude": 40.3426,
    "pop": 9898000,
    "longitude": 47.93802,
    "name": "Azerbaijan",
    "country": "AZ",
    "lastUpdated": "2020-04-03T07:45:04.733Z",
    "dead": 5,
    "id": "4zqzRm2xHn0CDVOUQJ8p",
    "infected": 400,
    "sick": 369
  },
  {
    "latitude": 25.025885,
    "pop": 395361,
    "longitude": -78.035889,
    "name": "Bahamas",
    "country": "BS",
    "lastUpdated": "2020-04-03T07:45:05.409Z",
    "dead": 1,
    "id": "5MHegCUO9L3LiAU7DDey",
    "infected": 24,
    "recovered": 1,
    "sick": 22
  },
  {
    "longitude": 146.921097,
    "name": "New South Wales",
    "country": "AU",
    "lastUpdated": "2020-04-03T07:42:03.034Z",
    "dead": 8,
    "id": "5N16a2OXXRpsEFanw0TC",
    "infected": 2389,
    "recovered": 4,
    "latitude": -31.253218,
    "pop": 7544000,
    "sick": 2377
  },
  {
    "latitude": -20.9043045,
    "pop": 280460,
    "longitude": 165.618042,
    "name": "New Caledonia",
    "country": "NC",
    "lastUpdated": "2020-04-03T07:45:05.404Z",
    "dead": 0,
    "id": "5fg04eyDwFw3kEXnrxez",
    "infected": 18,
    "recovered": 1,
    "sick": 17
  },
  {
    "longitude": 84.124008,
    "name": "Nepal",
    "country": "NP",
    "lastUpdated": "2020-04-03T07:45:05.384Z",
    "dead": 0,
    "id": "5gXZIjRgAvd6xWN1LOv8",
    "infected": 6,
    "recovered": 1,
    "latitude": 28.394857,
    "pop": 29300000,
    "sick": 5
  },
  {
    "infected": 2633,
    "recovered": 51,
    "latitude": 12.879721,
    "pop": 104900000,
    "longitude": 121.774017,
    "name": "Philippines",
    "country": "PH",
    "lastUpdated": "2020-04-03T07:45:04.802Z",
    "dead": 107,
    "id": "5pwmh7aSdGRKqRbnuyc0",
    "sick": 2475
  },
  {
    "latitude": -17.824858,
    "pop": 14802190,
    "longitude": 31.053028,
    "name": "Zimbabwe",
    "country": "ZW",
    "lastUpdated": "2020-04-03T07:45:05.254Z",
    "dead": 1,
    "id": "5qtR9nx4BLwu1ODTniaY",
    "infected": 9,
    "recovered": 0,
    "sick": 8
  },
  {
    "id": "694ON7d0mRJDeM1gHBTR",
    "infected": 696,
    "recovered": 7,
    "latitude": 55.621011,
    "pop": 2794000,
    "longitude": 23.804991,
    "name": "Lithuania",
    "country": "LT",
    "lastUpdated": "2020-04-03T07:45:04.916Z",
    "dead": 9,
    "sick": 680
  },
  {
    "latitude": 22.396427,
    "pop": 7392000,
    "longitude": 114.109497,
    "name": "Hong Kong",
    "country": "HK",
    "lastUpdated": "2020-04-03T07:45:04.776Z",
    "dead": 4,
    "id": "6IcHIIH0zXpY0POmBZTv",
    "infected": 802,
    "recovered": 154,
    "sick": 644
  },
  {
    "latitude": 9.3077,
    "pop": 11180000,
    "longitude": 2.3158,
    "name": "Benin",
    "country": "BJ",
    "lastUpdated": "2020-04-03T07:45:05.244Z",
    "dead": 0,
    "id": "6SlpghTyB6lpMFvx3g9U",
    "infected": 13,
    "recovered": 1,
    "sick": 12
  },
  {
    "infected": 46065,
    "recovered": 12229,
    "latitude": 45.6667,
    "pop": 10040000,
    "longitude": 9.5,
    "name": "Lombardia",
    "country": "IT",
    "lastUpdated": "2020-04-03T07:40:02.636Z",
    "dead": 7960,
    "id": "6ZHcvMIzVWIaRnc4R3Qp",
    "sick": 25876
  },
  {
    "longitude": 14.5058,
    "name": "Slovenia",
    "country": "SI",
    "lastUpdated": "2020-04-03T07:45:04.870Z",
    "dead": 17,
    "id": "6ahNiyKDSDAftCctgLH3",
    "infected": 897,
    "recovered": 70,
    "latitude": 46.0569,
    "pop": 2067000,
    "sick": 810
  },
  {
    "latitude": -0.8037,
    "pop": 2025000,
    "longitude": 11.6094,
    "name": "Gabon",
    "country": "GA",
    "lastUpdated": "2020-04-03T07:45:05.247Z",
    "dead": 1,
    "id": "6pBi38TUgYfFm0bry2uh",
    "infected": 21,
    "recovered": 1,
    "sick": 19
  },
  {
    "lastUpdated": "2020-04-03T07:45:05.352Z",
    "dead": 0,
    "id": "78Ox26bNHDA2Pk2b3Uwn",
    "infected": 6,
    "recovered": 1,
    "latitude": 17.901672,
    "pop": 9131,
    "longitude": -62.818544,
    "name": "Saint-Barthélémy",
    "country": "FR",
    "sick": 5
  },
  {
    "lastUpdated": "2020-04-03T07:45:05.475Z",
    "dead": 0,
    "id": "7hVFcEV7nV0MrQr3LHrl",
    "infected": 9,
    "recovered": 0,
    "latitude": 17.0608,
    "pop": 102012,
    "longitude": -61.7964,
    "name": "Antigua and Barbuda",
    "country": "AG",
    "sick": 9
  },
  {
    "latitude": 48.7904,
    "pop": 13000000,
    "longitude": 11.4979,
    "name": "Bayern",
    "country": "DE",
    "lastUpdated": "2020-04-03T07:11:12.985Z",
    "dead": 318,
    "id": "7kCrrlOBE3jN6FtOVNUB",
    "infected": 20466,
    "recovered": 1237,
    "sick": 18911
  },
  {
    "infected": 623,
    "recovered": 43,
    "latitude": 47.4979,
    "pop": 9773000,
    "longitude": 19.0402,
    "name": "Hungary",
    "country": "HU",
    "lastUpdated": "2020-04-03T07:45:04.763Z",
    "dead": 26,
    "id": "7rYC2iFB50c55Ihgbs4Q",
    "sick": 554
  },
  {
    "latitude": 7.3697,
    "pop": 24050000,
    "longitude": 12.3547,
    "name": "Cameroon",
    "country": "CM",
    "lastUpdated": "2020-04-03T07:45:04.925Z",
    "dead": 7,
    "id": "8C0d7WVCjyUGtnc2gUAR",
    "infected": 306,
    "recovered": 10,
    "sick": 289
  },
  {
    "infected": 132,
    "recovered": 1,
    "latitude": -16.2902,
    "pop": 11050000,
    "longitude": -63.5887,
    "name": "Bolivia",
    "country": "BO",
    "lastUpdated": "2020-04-03T07:45:05.206Z",
    "dead": 9,
    "id": "8RihJrXw4NQXPxaRxr1u",
    "sick": 122
  },
  {
    "latitude": 12.9843,
    "pop": 109897,
    "longitude": -61.2872,
    "name": "St. Vincent Grenadines",
    "country": "VC",
    "lastUpdated": "2020-04-03T07:45:04.966Z",
    "dead": 0,
    "id": "8ZTySQROQejkDAad0qxQ",
    "infected": 2,
    "recovered": 1,
    "sick": 1
  },
  {
    "latitude": 1.352083,
    "pop": 5621000,
    "longitude": 103.819839,
    "name": "Singapore",
    "country": "SG",
    "lastUpdated": "2020-04-03T07:45:04.824Z",
    "dead": 5,
    "id": "8pA3fM4xC2c2wv1b4TnE",
    "infected": 1049,
    "recovered": 266,
    "sick": 778
  },
  {
    "longitude": -1.5536,
    "name": "Pays de la Loire",
    "country": "FR",
    "lastUpdated": "2020-04-02T17:47:09.674Z",
    "dead": 92,
    "id": "98hwAoohgWEOQVa3NlM5",
    "infected": 1342,
    "recovered": 338,
    "latitude": 47.2184,
    "pop": 3787000,
    "sick": 912
  },
  {
    "infected": 8,
    "recovered": 2,
    "latitude": 12.8628,
    "pop": 40530000,
    "longitude": 30.2176,
    "name": "Sudan",
    "country": "SD",
    "lastUpdated": "2020-04-03T07:45:05.457Z",
    "dead": 2,
    "id": "9DPOkpIqrFy9mR4e9fuv",
    "sick": 4
  },
  {
    "latitude": 45.943161,
    "pop": 19530000,
    "longitude": 24.966761,
    "name": "Romania",
    "country": "RO",
    "lastUpdated": "2020-04-03T07:45:04.737Z",
    "dead": 116,
    "id": "9QcETqEcM2fTv9zRvx5T",
    "infected": 2738,
    "recovered": 267,
    "sick": 2355
  },
  {
    "latitude": 12.136389,
    "pop": 6218000,
    "longitude": -86.251389,
    "name": "Nicaragua",
    "country": "NI",
    "lastUpdated": "2020-04-03T07:45:05.477Z",
    "dead": 1,
    "id": "9Y5wmCqNCC6ZrenM31uA",
    "infected": 5,
    "recovered": 0,
    "sick": 4
  },
  {
    "id": "9dIzxqDSVqPyINkHqwGv",
    "infected": 36,
    "recovered": 0,
    "latitude": 17.5706921,
    "pop": 18540000,
    "longitude": -3.996166,
    "name": "Mali",
    "country": "ML",
    "lastUpdated": "2020-04-03T07:45:05.420Z",
    "dead": 3,
    "sick": 33
  },
  {
    "recovered": 300,
    "latitude": 61.92411,
    "pop": 5513000,
    "longitude": 25.748152,
    "name": "Finland",
    "country": "FI",
    "lastUpdated": "2020-04-03T07:45:04.725Z",
    "dead": 19,
    "id": "9p6OCdZbUUwBLA60Gk3W",
    "infected": 1615,
    "sick": 1296
  },
  {
    "infected": 479,
    "recovered": 0,
    "latitude": 43.311643,
    "pop": 1356000,
    "longitude": -71.590315,
    "name": "New Hampshire",
    "country": "US",
    "lastUpdated": "2020-04-03T07:48:16.176Z",
    "dead": 5,
    "id": "A84CwQ52kA46Hr7pn6Bm",
    "sick": 474
  },
  {
    "longitude": -71.412257,
    "name": "Rhode Island",
    "country": "US",
    "lastUpdated": "2020-04-03T07:48:16.122Z",
    "dead": 12,
    "id": "AEUWUHS65qvjEslew11c",
    "infected": 657,
    "recovered": 0,
    "latitude": 41.823261,
    "pop": 1057000,
    "sick": 645
  },
  {
    "infected": 15333,
    "recovered": 1663,
    "latitude": 44.498955,
    "pop": 4453000,
    "longitude": 11.327591,
    "name": "Emilia-Romagna",
    "country": "IT",
    "lastUpdated": "2020-04-03T07:40:02.638Z",
    "dead": 1811,
    "id": "AJ9jQ0iyKsafsmf5yHAR",
    "sick": 11859
  },
  {
    "latitude": 49.3964,
    "pop": 990509,
    "longitude": 7.023,
    "name": "Saarland",
    "country": "DE",
    "lastUpdated": "2020-04-03T07:11:12.932Z",
    "dead": 14,
    "id": "AKjFRQGnzuuZQhv5Qwx7",
    "infected": 1252,
    "recovered": 61,
    "sick": 1177
  },
  {
    "lastUpdated": "2020-04-03T07:45:05.433Z",
    "dead": 0,
    "id": "APaZzlGCEeuoLBtzTJMe",
    "infected": 10,
    "recovered": 2,
    "latitude": 71.7069,
    "pop": 56171,
    "longitude": -42.6043,
    "name": "Greenland",
    "country": "GL",
    "sick": 8
  },
  {
    "id": "AVCpxeh0fuH2WrHWNDYH",
    "infected": 193,
    "recovered": 0,
    "latitude": 45.65107,
    "pop": 971395,
    "longitude": -63.582687,
    "name": "Nova Scotia",
    "country": "CA",
    "lastUpdated": "2020-04-03T07:45:02.541Z",
    "dead": 0,
    "sick": 193
  },
  {
    "lastUpdated": "2020-04-03T02:18:20.097Z",
    "dead": 6,
    "id": "AcULcZBozObOhwuRKMjJ",
    "infected": 241,
    "recovered": 0,
    "latitude": 47.012918,
    "pop": 1062000,
    "longitude": -109.128641,
    "name": "Montana",
    "country": "US",
    "sick": 235
  },
  {
    "infected": 937,
    "recovered": 935,
    "latitude": 27.285971,
    "pop": 45200000,
    "longitude": 116.01609,
    "name": "Jiangxi",
    "country": "CN",
    "lastUpdated": "2020-04-03T07:44:13.733Z",
    "dead": 1,
    "id": "AmBYm5J6E9Cuez1FQjiN",
    "sick": 1
  },
  {
    "lastUpdated": "2020-04-03T07:45:04.866Z",
    "dead": 86,
    "id": "AwN0CScPDApcLFgz6e3z",
    "infected": 986,
    "recovered": 61,
    "latitude": 28.033886,
    "pop": 41320000,
    "longitude": 1.659626,
    "name": "Algeria",
    "country": "DZ",
    "sick": 839
  },
  {
    "latitude": 45.099998,
    "pop": 4076000,
    "longitude": 15.2,
    "name": "Croatia",
    "country": "HR",
    "lastUpdated": "2020-04-03T07:45:04.827Z",
    "dead": 7,
    "id": "B82Ef45M8cDu4q7VsSHF",
    "infected": 1011,
    "recovered": 88,
    "sick": 916
  },
  {
    "lastUpdated": "2020-04-03T07:45:05.279Z",
    "dead": 5,
    "id": "BENubqQInFUJzhpZTsLT",
    "infected": 98,
    "recovered": 0,
    "latitude": 17.6077881,
    "pop": 23716000,
    "longitude": 8.081666,
    "name": "Niger",
    "country": "NE",
    "sick": 93
  },
  {
    "latitude": 39.509109,
    "pop": 6043000,
    "longitude": -76.98432,
    "name": "Maryland",
    "country": "US",
    "lastUpdated": "2020-04-03T07:48:16.214Z",
    "dead": 36,
    "id": "BF51mWl51fgEcyBpCSzb",
    "infected": 2331,
    "recovered": 0,
    "sick": 2295
  },
  {
    "infected": 304,
    "recovered": 53,
    "latitude": 53.709808,
    "pop": 9508000,
    "longitude": 27.953388,
    "name": "Belarus",
    "country": "BY",
    "lastUpdated": "2020-04-03T07:45:04.722Z",
    "dead": 4,
    "id": "BGg6yVU5VP71B8NXU0oh",
    "sick": 247
  },
  {
    "recovered": 224,
    "latitude": 48.8799,
    "pop": 3319000,
    "longitude": 0.1713,
    "name": "Normandie",
    "country": "FR",
    "lastUpdated": "2020-04-02T17:47:24.901Z",
    "dead": 81,
    "id": "BGtoyzb7y54LVlJ91rbf",
    "infected": 1312,
    "sick": 1007
  },
  {
    "recovered": 0,
    "latitude": 34.048927,
    "pop": 7172000,
    "longitude": -111.093735,
    "name": "Arizona",
    "country": "US",
    "lastUpdated": "2020-04-03T07:48:16.224Z",
    "dead": 32,
    "id": "BTEESCuD2ZbS1afunR2A",
    "infected": 1598,
    "sick": 1566
  },
  {
    "longitude": 29.9188862,
    "name": "Burundi",
    "country": "BI",
    "lastUpdated": "2020-04-03T07:45:05.485Z",
    "dead": 0,
    "id": "BnpMamidC5yYzeK8tPUL",
    "infected": 3,
    "recovered": 0,
    "latitude": -3.3730559,
    "pop": 10860000,
    "sick": 3
  },
  {
    "latitude": 40.719042,
    "pop": 19540000,
    "longitude": -73.982597,
    "name": "New York",
    "country": "US",
    "lastUpdated": "2020-04-03T07:48:16.139Z",
    "dead": 2468,
    "id": "C3BCUzV80z9GfiuByIcr",
    "infected": 92743,
    "recovered": 0,
    "sick": 90275
  },
  {
    "infected": 3869,
    "recovered": 71,
    "latitude": 49.731626,
    "pop": 10650000,
    "longitude": 15.359413,
    "name": "Czechia",
    "country": "CZ",
    "lastUpdated": "2020-04-03T07:45:04.756Z",
    "dead": 46,
    "id": "C6S76AggdWVU8G22jFHQ",
    "sick": 3752
  },
  {
    "latitude": 26.0667,
    "pop": 1493000,
    "longitude": 50.557701,
    "name": "Bahrain",
    "country": "BH",
    "lastUpdated": "2020-04-03T07:45:04.800Z",
    "dead": 4,
    "id": "C7cj4nwRITs13KnaJrQ2",
    "infected": 643,
    "recovered": 381,
    "sick": 258
  },
  {
    "infected": 154,
    "recovered": 3,
    "latitude": 27.0238,
    "pop": 68890000,
    "longitude": 74.2179,
    "name": "Rajasthan",
    "country": "IN",
    "lastUpdated": "2020-04-03T07:40:01.420Z",
    "dead": 0,
    "id": "CKZCZTPlrcq5fbfUPA9k",
    "sick": 151
  },
  {
    "recovered": 0,
    "latitude": 13.803,
    "pop": 6378000,
    "longitude": -88.9053,
    "name": "El Salvador",
    "country": "SV",
    "lastUpdated": "2020-04-03T07:45:05.372Z",
    "dead": 2,
    "id": "Cgvmtle61ehMvCzRzYx7",
    "infected": 46,
    "sick": 44
  },
  {
    "id": "CrXu6i5Sqx11iwdfHfBs",
    "infected": 33718,
    "recovered": 135,
    "latitude": 52.355518,
    "pop": 66440000,
    "longitude": -1.17432,
    "name": "United Kingdom",
    "country": "GB",
    "lastUpdated": "2020-04-03T07:45:04.810Z",
    "dead": 2921,
    "sick": 30662
  },
  {
    "lastUpdated": "2020-04-03T07:45:04.879Z",
    "dead": 7,
    "id": "DCJCtZoBTWQ4mzdDNljD",
    "infected": 736,
    "recovered": 43,
    "latitude": 40.259003,
    "pop": 2973000,
    "longitude": 44.818474,
    "name": "Armenia",
    "country": "AM",
    "sick": 686
  },
  {
    "lastUpdated": "2020-04-03T07:45:05.213Z",
    "dead": 0,
    "id": "DdBt8qsG6A3g92oOR3ow",
    "infected": 41,
    "recovered": 10,
    "latitude": 22.192039,
    "pop": 622567,
    "longitude": 113.551262,
    "name": "Macao",
    "country": "MO",
    "sick": 31
  },
  {
    "longitude": -107.534868,
    "name": "Wyoming",
    "country": "US",
    "lastUpdated": "2020-04-03T07:48:16.099Z",
    "dead": 0,
    "id": "DrGzziUglmBognCGY7R2",
    "infected": 153,
    "recovered": 0,
    "latitude": 42.962334,
    "pop": 577737,
    "sick": 153
  },
  {
    "infected": 1544,
    "recovered": 61,
    "latitude": 40.6401,
    "pop": 10740000,
    "longitude": 22.9444,
    "name": "Greece",
    "country": "GR",
    "lastUpdated": "2020-04-03T07:45:04.860Z",
    "dead": 53,
    "id": "Dtr1lap1RpJpXJdXGJiW",
    "sick": 1430
  },
  {
    "longitude": 121.563698,
    "name": "Taiwan",
    "country": "TW",
    "lastUpdated": "2020-04-03T07:45:05.182Z",
    "dead": 5,
    "id": "EKTfs8e7M6DXzI1HqyyX",
    "infected": 348,
    "recovered": 50,
    "latitude": 25.03841,
    "pop": 23780000,
    "sick": 293
  },
  {
    "lastUpdated": "2020-04-03T07:45:04.849Z",
    "dead": 2,
    "id": "EQzJvzVHKjs8kLmK7BMu",
    "infected": 396,
    "recovered": 6,
    "latitude": 10.327273,
    "pop": 4906000,
    "longitude": -84.387618,
    "name": "Costa Rica",
    "country": "CR",
    "sick": 388
  },
  {
    "infected": 95,
    "recovered": 10,
    "latitude": 22.2587,
    "pop": 62700000,
    "longitude": 71.1924,
    "name": "Gujarat",
    "country": "IN",
    "lastUpdated": "2020-04-03T07:40:01.400Z",
    "dead": 8,
    "id": "ERwk9R9en4m9WbdoMbIg",
    "sick": 77
  },
  {
    "longitude": 76.7794,
    "name": "Chandigarh",
    "country": "IN",
    "lastUpdated": "2020-04-03T07:40:01.435Z",
    "dead": 0,
    "id": "Esl5UlCVB9s8pmGB5Ofr",
    "infected": 18,
    "recovered": 0,
    "latitude": 30.7333,
    "pop": 1055000,
    "sick": 18
  },
  {
    "infected": 316,
    "recovered": 0,
    "latitude": 18.200178,
    "pop": 3195000,
    "longitude": -66.664513,
    "name": "Puerto Rico",
    "country": "PR",
    "lastUpdated": "2020-04-03T07:48:16.222Z",
    "dead": 12,
    "id": "F4rPrEVGAIMM5rfPEMv4",
    "sick": 304
  },
  {
    "id": "FCDmlmnIIswd8bQiUjfN",
    "infected": 273,
    "recovered": 10,
    "latitude": 33.93911,
    "pop": 35530000,
    "longitude": 67.709953,
    "name": "Afghanistan",
    "country": "AF",
    "lastUpdated": "2020-04-03T07:45:04.844Z",
    "dead": 6,
    "sick": 257
  },
  {
    "id": "FErOU1m4Tj7jIkRam3vF",
    "infected": 579,
    "recovered": 570,
    "latitude": 29.431585,
    "pop": 30480000,
    "longitude": 106.912254,
    "name": "Chongqing",
    "country": "CN",
    "lastUpdated": "2020-04-03T07:44:13.745Z",
    "dead": 6,
    "sick": 3
  },
  {
    "infected": 342,
    "recovered": 81,
    "latitude": 29.311661,
    "pop": 4137000,
    "longitude": 47.481766,
    "name": "Kuwait",
    "country": "KW",
    "lastUpdated": "2020-04-03T07:45:04.819Z",
    "dead": 0,
    "id": "FZsUkhxBEgqsPb4eO0PN",
    "sick": 261
  },
  {
    "lastUpdated": "2020-04-03T07:40:01.424Z",
    "dead": 1,
    "id": "FeS45oMNC27pI17F0xEV",
    "infected": 309,
    "recovered": 6,
    "latitude": 11.1271,
    "pop": 67860000,
    "longitude": 78.6569,
    "name": "Tamil Nadu",
    "country": "IN",
    "sick": 302
  },
  {
    "infected": 1380,
    "recovered": 16,
    "latitude": 18.947829,
    "pop": 10770000,
    "longitude": -70.430399,
    "name": "Dominican Republic",
    "country": "DO",
    "lastUpdated": "2020-04-03T07:45:04.718Z",
    "dead": 60,
    "id": "FuiVEJvWb0QMCpxJ3563",
    "sick": 1304
  },
  {
    "id": "FyC551oNwmENxbr9Yght",
    "infected": 107,
    "recovered": 1,
    "latitude": 18.1124,
    "pop": 35190000,
    "longitude": 79.0193,
    "name": "Telengana",
    "country": "IN",
    "lastUpdated": "2020-04-03T07:37:04.730Z",
    "dead": 3,
    "sick": 103
  },
  {
    "recovered": 5,
    "latitude": 48.669,
    "pop": 5450000,
    "longitude": 19.699,
    "name": "Slovakia",
    "country": "SK",
    "lastUpdated": "2020-04-03T07:45:04.784Z",
    "dead": 1,
    "id": "FzIDXoqWnTI3nUfhPyT2",
    "infected": 426,
    "sick": 420
  },
  {
    "recovered": 126,
    "latitude": 30.37532,
    "pop": 197000000,
    "longitude": 69.345116,
    "name": "Pakistan",
    "country": "PK",
    "lastUpdated": "2020-04-03T07:45:04.767Z",
    "dead": 35,
    "id": "GAp7Wb6IMhdgbvEtMza9",
    "infected": 2450,
    "sick": 2289
  },
  {
    "infected": 47,
    "recovered": 1,
    "latitude": 31.1471,
    "pop": 27980000,
    "longitude": 75.3412,
    "name": "Punjab",
    "country": "IN",
    "lastUpdated": "2020-04-03T07:40:01.582Z",
    "dead": 5,
    "id": "GGru8cG08mANO8XDDUtZ",
    "sick": 41
  },
  {
    "latitude": 23.424076,
    "pop": 9400000,
    "longitude": 53.847816,
    "name": "United Arab Emirates",
    "country": "AE",
    "lastUpdated": "2020-04-03T07:45:04.872Z",
    "dead": 8,
    "id": "GHzBIsHy2GiBc5JV2HMs",
    "infected": 1024,
    "recovered": 96,
    "sick": 920
  },
  {
    "longitude": -119.339046,
    "name": "California",
    "country": "US",
    "lastUpdated": "2020-04-03T07:48:16.220Z",
    "dead": 244,
    "id": "Gh46r6vuaY7fbGt3IboN",
    "infected": 11126,
    "recovered": 0,
    "latitude": 36.621981,
    "pop": 39560000,
    "sick": 10882
  },
  {
    "infected": 881,
    "recovered": 0,
    "latitude": 35.87189,
    "pop": 3943000,
    "longitude": -97.145514,
    "name": "Oklahoma",
    "country": "US",
    "lastUpdated": "2020-04-03T07:48:16.106Z",
    "dead": 34,
    "id": "GpF8ULuKOQiFDCUHN44h",
    "sick": 847
  },
  {
    "lastUpdated": "2020-04-03T07:40:02.730Z",
    "dead": 129,
    "id": "Gzx6GX1qhBm714BkEC6l",
    "infected": 1479,
    "recovered": 190,
    "latitude": 46.5,
    "pop": 520891,
    "longitude": 11.35,
    "name": "P.A. Bolzano",
    "country": "IT",
    "sick": 1160
  },
  {
    "infected": 117,
    "recovered": 74,
    "latitude": 42.83263,
    "pop": 24710000,
    "longitude": 113.750972,
    "name": "Inner Mongolia",
    "country": "CN",
    "lastUpdated": "2020-04-03T07:44:13.743Z",
    "dead": 1,
    "id": "H3JeVigVbo5CSYfZG4WI",
    "sick": 42
  },
  {
    "lastUpdated": "2020-04-03T07:48:16.156Z",
    "dead": 38,
    "id": "H3bDg4eV30up4WWrIDAS",
    "infected": 1484,
    "recovered": 0,
    "latitude": 39.74536,
    "pop": 3034000,
    "longitude": -116.724977,
    "name": "Nevada",
    "country": "US",
    "sick": 1446
  },
  {
    "infected": 125,
    "recovered": 11,
    "latitude": 15.3173,
    "pop": 64060000,
    "longitude": 75.7139,
    "name": "Karnataka",
    "country": "IN",
    "lastUpdated": "2020-04-03T07:40:01.432Z",
    "dead": 3,
    "id": "HN5mGmxlqlSeFSNeu1K5",
    "sick": 111
  },
  {
    "lastUpdated": "2020-04-03T07:45:05.320Z",
    "dead": 0,
    "id": "HRDpwyxpqW9RN0xLFyNu",
    "infected": 5,
    "recovered": 2,
    "latitude": 27.5142,
    "pop": 807610,
    "longitude": 90.4336,
    "name": "Bhutan",
    "country": "BT",
    "sick": 3
  },
  {
    "recovered": 25,
    "latitude": 41.3775,
    "pop": 32390000,
    "longitude": 64.5853,
    "name": "Uzbekistan",
    "country": "UZ",
    "lastUpdated": "2020-04-03T07:45:04.846Z",
    "dead": 2,
    "id": "HRTA10dtrruDEwjJEGMp",
    "infected": 221,
    "sick": 194
  },
  {
    "id": "HSSFomRju0doHhWgW8On",
    "infected": 403,
    "recovered": 0,
    "latitude": 34.138916,
    "pop": 2095000,
    "longitude": -105.576255,
    "name": "New Mexico",
    "country": "US",
    "lastUpdated": "2020-04-03T07:48:16.228Z",
    "dead": 7,
    "sick": 396
  },
  {
    "lastUpdated": "2020-04-03T07:11:12.976Z",
    "dead": 4,
    "id": "He1gSS1v50t06i3YrqvB",
    "infected": 468,
    "recovered": 50,
    "latitude": 53.6127,
    "pop": 1635000,
    "longitude": 12.4296,
    "name": "Mecklenburg-Vorpommern",
    "country": "DE",
    "sick": 414
  },
  {
    "latitude": 23.634501,
    "pop": 129200000,
    "longitude": -102.552788,
    "name": "Mexico",
    "country": "MX",
    "lastUpdated": "2020-04-03T02:30:04.230Z",
    "dead": 50,
    "id": "I4OJ6z9Vjs1byOcbsJrd",
    "infected": 1510,
    "recovered": 35,
    "sick": 1425
  },
  {
    "latitude": 42.25,
    "pop": 1315000,
    "longitude": 13.75,
    "name": "Abruzzo",
    "country": "IT",
    "lastUpdated": "2020-04-03T07:40:02.722Z",
    "dead": 133,
    "id": "I9EqrZfbPnkioNU4wZGz",
    "infected": 1497,
    "recovered": 113,
    "sick": 1251
  },
  {
    "recovered": 1368,
    "latitude": 23.363855,
    "pop": 113460000,
    "longitude": 113.373448,
    "name": "Guangdong",
    "country": "CN",
    "lastUpdated": "2020-04-03T05:29:11.137Z",
    "dead": 8,
    "id": "IAX0OQLVnUwU7FX0ENF1",
    "infected": 1515,
    "sick": 139
  },
  {
    "recovered": 1251,
    "latitude": 33.875408,
    "pop": 94000000,
    "longitude": 113.484016,
    "name": "Henan",
    "country": "CN",
    "lastUpdated": "2020-04-03T07:44:13.750Z",
    "dead": 22,
    "id": "IFuMrMvSjoiX5agYvllh",
    "infected": 1276,
    "sick": 3
  },
  {
    "infected": 18,
    "recovered": 1,
    "latitude": 19.0558,
    "pop": 10980000,
    "longitude": -73.0513,
    "name": "Haiti",
    "country": "HT",
    "lastUpdated": "2020-04-03T07:45:05.447Z",
    "dead": 0,
    "id": "InZ38sIqyK7FN7XAOZoX",
    "sick": 17
  },
  {
    "lastUpdated": "2020-04-03T07:48:16.136Z",
    "dead": 176,
    "id": "IvQkDJkTAsoIqPRAU25n",
    "infected": 5444,
    "recovered": 0,
    "latitude": 32.528564,
    "pop": 10520000,
    "longitude": -83.280125,
    "name": "Georgia (US)",
    "country": "US",
    "sick": 5268
  },
  {
    "longitude": 172.488081,
    "name": "New Zealand",
    "country": "NZ",
    "lastUpdated": "2020-04-03T07:45:04.798Z",
    "dead": 1,
    "id": "IvVhpOoGpH6JVkGyUhXN",
    "infected": 868,
    "recovered": 103,
    "latitude": -42.8285,
    "pop": 4794000,
    "sick": 764
  },
  {
    "infected": 146,
    "recovered": 43,
    "latitude": 6.4238,
    "pop": 31980000,
    "longitude": -66.5897,
    "name": "Venezuela",
    "country": "VE",
    "lastUpdated": "2020-04-03T07:45:05.215Z",
    "dead": 5,
    "id": "J3mZXlfEnnJx4CDZLvRG",
    "sick": 98
  },
  {
    "infected": 356,
    "recovered": 28,
    "latitude": 35.1264,
    "pop": 1170000,
    "longitude": 33.4299,
    "name": "Cyprus",
    "country": "CY",
    "lastUpdated": "2020-04-03T07:45:04.803Z",
    "dead": 10,
    "id": "JQByE4l2OA6sGOqIcWrM",
    "sick": 318
  },
  {
    "id": "JR7hOGked7CZtIs2nCV5",
    "infected": 29,
    "recovered": 3,
    "latitude": 25.0961,
    "pop": 99020000,
    "longitude": 85.3131,
    "name": "Bihar",
    "country": "IN",
    "lastUpdated": "2020-04-03T07:40:01.539Z",
    "dead": 1,
    "sick": 25
  },
  {
    "latitude": 14.628434,
    "pop": 16910000,
    "longitude": -90.522713,
    "name": "Guatemala",
    "country": "GT",
    "lastUpdated": "2020-04-03T07:45:05.449Z",
    "dead": 1,
    "id": "JUWE6bG3b5oL7fKQMSvv",
    "infected": 47,
    "recovered": 12,
    "sick": 34
  },
  {
    "longitude": 6.1296,
    "name": "Luxembourg",
    "country": "LU",
    "lastUpdated": "2020-04-03T07:45:05.177Z",
    "dead": 30,
    "id": "JcFsHSn2WvZ5LJW42ovG",
    "infected": 2487,
    "recovered": 80,
    "latitude": 49.8153,
    "pop": 602005,
    "sick": 2377
  },
  {
    "id": "JrBbirlBKGdWSdcDt7PF",
    "infected": 39,
    "recovered": 17,
    "latitude": 8.6195,
    "pop": 7798000,
    "longitude": 0.8248,
    "name": "Togo",
    "country": "TG",
    "lastUpdated": "2020-04-03T07:45:05.301Z",
    "dead": 2,
    "sick": 20
  },
  {
    "recovered": 30,
    "latitude": 42.7339,
    "pop": 7050000,
    "longitude": 25.4858,
    "name": "Bulgaria",
    "country": "BG",
    "lastUpdated": "2020-04-03T07:45:04.654Z",
    "dead": 12,
    "id": "JzZ8sbqzjutThVjkPKPL",
    "infected": 477,
    "sick": 435
  },
  {
    "lastUpdated": "2020-04-03T07:40:02.732Z",
    "dead": 488,
    "id": "KLXicxFogWnu0dLp4bNK",
    "infected": 3782,
    "recovered": 634,
    "latitude": 44.5,
    "pop": 1557000,
    "longitude": 8.833,
    "name": "Liguria",
    "country": "IT",
    "sick": 2660
  },
  {
    "id": "KrLrJbpDqqiXgUPGCCW9",
    "infected": 5273,
    "recovered": 216,
    "latitude": 43.4167,
    "pop": 3737000,
    "longitude": 11,
    "name": "Toscana",
    "country": "IT",
    "lastUpdated": "2020-04-03T07:40:02.620Z",
    "dead": 268,
    "sick": 4789
  },
  {
    "recovered": 22,
    "latitude": 7.873054,
    "pop": 21440000,
    "longitude": 80.771797,
    "name": "Sri Lanka",
    "country": "LK",
    "lastUpdated": "2020-04-03T07:45:05.393Z",
    "dead": 4,
    "id": "KsWzJO06cf0d6LJ4ZNh9",
    "infected": 151,
    "sick": 125
  },
  {
    "longitude": 79.74,
    "name": "Andhra Pradesh",
    "country": "IN",
    "lastUpdated": "2020-04-03T07:37:04.826Z",
    "dead": 1,
    "id": "KtQIo2DoqjELtPAlyDVO",
    "infected": 132,
    "recovered": 1,
    "latitude": 15.9129,
    "pop": 49670000,
    "sick": 130
  },
  {
    "latitude": 61.52401,
    "pop": 144500000,
    "longitude": 105.318756,
    "name": "Russia",
    "country": "RU",
    "lastUpdated": "2020-04-03T07:45:04.703Z",
    "dead": 34,
    "id": "KwOuGBKSMRlmwftxAvLX",
    "infected": 4149,
    "recovered": 281,
    "sick": 3834
  },
  {
    "recovered": 2,
    "latitude": 18.0708,
    "pop": 32125,
    "longitude": -63.0501,
    "name": "Saint-Martin",
    "country": "FR",
    "lastUpdated": "2020-04-02T17:48:06.336Z",
    "dead": 2,
    "id": "LBUtrLDKJiupXjlUNTUe",
    "infected": 21,
    "sick": 17
  },
  {
    "lastUpdated": "2020-04-03T07:45:05.356Z",
    "dead": 0,
    "id": "LTGEU2E9MFkrCcFhZYVk",
    "infected": 75,
    "recovered": 0,
    "latitude": 47.166,
    "pop": 38557,
    "longitude": 9.5554,
    "name": "Liechtenstein",
    "country": "LI",
    "sick": 75
  },
  {
    "id": "LU2QWt5ao8IJa8evNYVV",
    "infected": 52,
    "recovered": 0,
    "latitude": 9.9456,
    "pop": 12720000,
    "longitude": -9.6966,
    "name": "Guinea",
    "country": "GN",
    "lastUpdated": "2020-04-03T07:45:05.359Z",
    "dead": 0,
    "sick": 52
  },
  {
    "latitude": 3.9193051,
    "pop": 563402,
    "longitude": -56.0277824,
    "name": "Suriname",
    "country": "SR",
    "lastUpdated": "2020-04-03T07:45:05.346Z",
    "dead": 0,
    "id": "LglKINHyQpYpFxjckbQ6",
    "infected": 10,
    "recovered": 0,
    "sick": 10
  },
  {
    "id": "LkIDKY0CMAqzbwBHyYCP",
    "infected": 206,
    "recovered": 0,
    "latitude": 52.9399,
    "pop": 1174000,
    "longitude": -106.4509,
    "name": "Saskatchewan",
    "country": "CA",
    "lastUpdated": "2020-04-03T07:45:02.538Z",
    "dead": 3,
    "sick": 203
  },
  {
    "recovered": 0,
    "latitude": 37.8393,
    "pop": 4468000,
    "longitude": -84.27,
    "name": "Kentucky",
    "country": "US",
    "lastUpdated": "2020-04-03T07:48:16.151Z",
    "dead": 31,
    "id": "MC8MXFw9iXYybnF8v7e6",
    "infected": 770,
    "sick": 739
  },
  {
    "infected": 3039,
    "recovered": 0,
    "latitude": 40.2672,
    "pop": 6692000,
    "longitude": -86.1349,
    "name": "Indiana",
    "country": "US",
    "lastUpdated": "2020-04-03T07:48:16.196Z",
    "dead": 78,
    "id": "MOxDkmQ4wBi1CuAdVxDE",
    "sick": 2961
  },
  {
    "id": "MdQOfc1gNh2DOqwSP6UV",
    "infected": 194,
    "recovered": 15,
    "latitude": 7.54,
    "pop": 24290000,
    "longitude": -5.5471,
    "name": "Ivory Coast",
    "country": "CI",
    "lastUpdated": "2020-04-03T07:45:04.877Z",
    "dead": 1,
    "sick": 178
  },
  {
    "recovered": 5004,
    "latitude": 51.4332,
    "pop": 17910000,
    "longitude": 7.6616,
    "name": "Nordrhein-Westfalen",
    "country": "DE",
    "lastUpdated": "2020-04-03T07:11:12.982Z",
    "dead": 227,
    "id": "MjpYq3zQyAvSQlVVYjD2",
    "infected": 18581,
    "sick": 13350
  },
  {
    "infected": 75,
    "recovered": 75,
    "latitude": 37.330509,
    "pop": 6301000,
    "longitude": 105.977203,
    "name": "Ningxia",
    "country": "CN",
    "lastUpdated": "2020-04-03T07:44:13.720Z",
    "dead": 0,
    "id": "MntmjjuHljarCdt6aIeE",
    "sick": 0
  },
  {
    "lastUpdated": "2020-04-03T07:11:12.965Z",
    "dead": 307,
    "id": "N3XsRBwJSsNclkEf7Zz5",
    "infected": 17479,
    "recovered": 2073,
    "latitude": 48.6616,
    "pop": 11020000,
    "longitude": 9.3501,
    "name": "Baden-Württemberg",
    "country": "DE",
    "sick": 15099
  },
  {
    "lastUpdated": "2020-04-03T07:45:04.753Z",
    "dead": 16,
    "id": "N7c13sCQF0G789XAVazJ",
    "infected": 543,
    "recovered": 27,
    "latitude": 44.696652,
    "pop": 3507000,
    "longitude": 17.824332,
    "name": "Bosnia and Herzegovina",
    "country": "BA",
    "sick": 500
  },
  {
    "recovered": 133,
    "latitude": 37.242565,
    "pop": 36500000,
    "longitude": 111.856857,
    "name": "Shanxi",
    "country": "CN",
    "lastUpdated": "2020-04-03T07:44:13.724Z",
    "dead": 0,
    "id": "NBRIGIRrJB1Ry8prDNAC",
    "infected": 137,
    "sick": 4
  },
  {
    "longitude": -79.0193,
    "name": "North Carolina",
    "country": "US",
    "lastUpdated": "2020-04-03T03:48:19.649Z",
    "dead": 21,
    "id": "NC64Qp5kTqAfiTuR27k8",
    "infected": 2042,
    "recovered": 0,
    "latitude": 35.7596,
    "pop": 10380000,
    "sick": 2021
  },
  {
    "infected": 1194,
    "recovered": 137,
    "latitude": 52.4125,
    "pop": 2504000,
    "longitude": 12.5316,
    "name": "Brandenburg",
    "country": "DE",
    "lastUpdated": "2020-04-03T07:11:12.946Z",
    "dead": 13,
    "id": "NJjo2gfBvnbK4xatrsUz",
    "sick": 1044
  },
  {
    "recovered": 2,
    "latitude": 30.0668,
    "pop": 10080000,
    "longitude": 79.0193,
    "name": "Uttarakhand",
    "country": "IN",
    "lastUpdated": "2020-04-03T07:40:01.409Z",
    "dead": 0,
    "id": "NMeZEcGToxXfpi16PfFV",
    "infected": 10,
    "sick": 8
  },
  {
    "lastUpdated": "2020-04-03T07:11:12.973Z",
    "dead": 38,
    "id": "Nk5vPgUIXsWVfbWZf15O",
    "infected": 4097,
    "recovered": 500,
    "latitude": 50.6521,
    "pop": 6243000,
    "longitude": 9.1624,
    "name": "Hessen",
    "country": "DE",
    "sick": 3559
  },
  {
    "lastUpdated": "2020-04-03T07:45:04.715Z",
    "dead": 0,
    "id": "NmmMKy0YqA8StHdGzB5N",
    "infected": 493,
    "recovered": 31,
    "latitude": 56.96776,
    "pop": 1920000,
    "longitude": 25.837107,
    "name": "Latvia",
    "country": "LV",
    "sick": 462
  },
  {
    "latitude": 6.4281,
    "pop": 4732000,
    "longitude": -9.4295,
    "name": "Liberia",
    "country": "LR",
    "lastUpdated": "2020-04-03T07:45:05.481Z",
    "dead": 0,
    "id": "O4g88K49HKEZLFXm5gxb",
    "infected": 6,
    "recovered": 0,
    "sick": 6
  },
  {
    "latitude": 34.003307,
    "pop": 5084000,
    "longitude": -80.525613,
    "name": "South Carolina",
    "country": "US",
    "lastUpdated": "2020-04-03T07:48:16.178Z",
    "dead": 31,
    "id": "ONU4CK8QjViFHKg2w5if",
    "infected": 1554,
    "recovered": 0,
    "sick": 1523
  },
  {
    "latitude": 33.51822,
    "pop": 2987000,
    "longitude": -89.582775,
    "name": "Mississippi",
    "country": "US",
    "lastUpdated": "2020-04-03T07:48:16.141Z",
    "dead": 26,
    "id": "OYa0jFzdbAgo8zUsRv6q",
    "infected": 1177,
    "recovered": 0,
    "sick": 1151
  },
  {
    "lastUpdated": "2020-04-03T07:48:16.200Z",
    "dead": 7,
    "id": "OcXNp9kNVSwrRlG3bNVN",
    "infected": 376,
    "recovered": 0,
    "latitude": 45.2538,
    "pop": 1338000,
    "longitude": -69.4455,
    "name": "Maine",
    "country": "US",
    "sick": 369
  },
  {
    "latitude": -41.915264,
    "pop": 515000,
    "longitude": 146.725256,
    "name": "Tasmania",
    "country": "AU",
    "lastUpdated": "2020-04-03T07:42:03.027Z",
    "dead": 0,
    "id": "OnOseaqWdnuP18oruABW",
    "infected": 73,
    "recovered": 3,
    "sick": 70
  },
  {
    "infected": 28,
    "recovered": 0,
    "latitude": 19.3133,
    "pop": 61559,
    "longitude": -81.2546,
    "name": "Cayman Islands",
    "country": "KY",
    "lastUpdated": "2020-04-03T07:45:05.378Z",
    "dead": 1,
    "id": "P4mwRFLbrvT0t75uD8Wo",
    "sick": 27
  },
  {
    "lastUpdated": "2020-04-03T07:45:05.389Z",
    "dead": 0,
    "id": "PEDkeFMTOZpvHiSVxBk7",
    "infected": 5,
    "recovered": 0,
    "latitude": 16.7424984,
    "pop": 5900,
    "longitude": -62.1873665,
    "name": "Montserrat",
    "country": "MS",
    "sick": 5
  },
  {
    "latitude": -1.9403,
    "pop": 12210000,
    "longitude": 29.8739,
    "name": "Rwanda",
    "country": "RW",
    "lastUpdated": "2020-04-03T07:45:05.203Z",
    "dead": 0,
    "id": "PEcgZGEkyhABztt1Ufgc",
    "infected": 84,
    "recovered": 0,
    "sick": 84
  },
  {
    "infected": 742,
    "recovered": 0,
    "latitude": 46.7296,
    "pop": 5611000,
    "longitude": -94.6859,
    "name": "Minnesota",
    "country": "US",
    "lastUpdated": "2020-04-03T07:48:16.120Z",
    "dead": 18,
    "id": "PJvVYosLIhbcRZYnKX1R",
    "sick": 724
  },
  {
    "longitude": -89.3985,
    "name": "Illinois",
    "country": "US",
    "lastUpdated": "2020-04-03T03:18:17.256Z",
    "dead": 168,
    "id": "PTwQr9ijo0TBBsPH2sdJ",
    "infected": 7697,
    "recovered": 2,
    "latitude": 40.6331,
    "pop": 12740000,
    "sick": 7527
  },
  {
    "latitude": 13.909444,
    "pop": 178844,
    "longitude": -60.978893,
    "name": "Saint Lucia",
    "country": "LC",
    "lastUpdated": "2020-04-03T07:45:05.333Z",
    "dead": 0,
    "id": "PjLqCeFdyzdZNcZxMkK1",
    "infected": 13,
    "recovered": 1,
    "sick": 12
  },
  {
    "latitude": 34.201507,
    "pop": 11530000,
    "longitude": 9.460554,
    "name": "Tunisia",
    "country": "TN",
    "lastUpdated": "2020-04-03T07:45:04.829Z",
    "dead": 14,
    "id": "Pr76V4raf108uSRoEXac",
    "infected": 455,
    "recovered": 5,
    "sick": 436
  },
  {
    "longitude": 31.4659,
    "name": "Eswatini",
    "country": "SZ",
    "lastUpdated": "2020-04-03T07:45:05.400Z",
    "dead": 0,
    "id": "PuQgOd9KWiMzGZXm11sR",
    "infected": 9,
    "recovered": 0,
    "latitude": -26.5225,
    "pop": 1367000,
    "sick": 9
  },
  {
    "infected": 1085,
    "recovered": 171,
    "latitude": -37.009609,
    "pop": 6359000,
    "longitude": 143.94853,
    "name": "Victoria",
    "country": "AU",
    "lastUpdated": "2020-04-03T07:42:03.038Z",
    "dead": 4,
    "id": "Q18mrGvFWTLX2BU9SqhQ",
    "sick": 910
  },
  {
    "latitude": 54.2194,
    "pop": 2890000,
    "longitude": 9.6961,
    "name": "Schleswig-Holstein",
    "country": "DE",
    "lastUpdated": "2020-04-03T07:11:12.919Z",
    "dead": 17,
    "id": "Q39XkabIYxt15mHINzTa",
    "infected": 1448,
    "recovered": 77,
    "sick": 1354
  },
  {
    "latitude": 58.595272,
    "pop": 1328000,
    "longitude": 25.013607,
    "name": "Estonia",
    "country": "EE",
    "lastUpdated": "2020-04-03T07:45:04.759Z",
    "dead": 11,
    "id": "QR9go2hQKXjty7JHUYe4",
    "infected": 858,
    "recovered": 45,
    "sick": 802
  },
  {
    "latitude": -6.315,
    "pop": 8251000,
    "longitude": 143.9555,
    "name": "Papua New Guinea",
    "country": "PG",
    "lastUpdated": "2020-04-03T07:45:04.994Z",
    "dead": 0,
    "id": "QlZrE4nosm5WfdA2aCDg",
    "infected": 1,
    "recovered": 0,
    "sick": 1
  },
  {
    "infected": 37,
    "recovered": 0,
    "latitude": 18.3358,
    "pop": 107268,
    "longitude": -64.8963,
    "name": "U.S. Virgin Islands",
    "country": "US",
    "lastUpdated": "2020-04-03T07:48:16.084Z",
    "dead": 0,
    "id": "QqhD3YDMKXojvQY3Yu41",
    "sick": 37
  },
  {
    "longitude": -61.3709755,
    "name": "Dominica",
    "country": "DM",
    "lastUpdated": "2020-04-03T07:45:05.426Z",
    "dead": 0,
    "id": "Qy2qW2ep5wltnYjPJBxh",
    "infected": 12,
    "recovered": 0,
    "latitude": 15.414999,
    "pop": 71937,
    "sick": 12
  },
  {
    "lastUpdated": "2020-04-03T07:25:08.667Z",
    "dead": 37,
    "id": "R8YCgephnxTufvcPWMgx",
    "infected": 1475,
    "recovered": 10,
    "latitude": 8.538,
    "pop": 4099000,
    "longitude": -80.7821,
    "name": "Panama",
    "country": "PA",
    "sick": 1428
  },
  {
    "recovered": 3,
    "latitude": 15.2,
    "pop": 9265000,
    "longitude": -86.2419,
    "name": "Honduras",
    "country": "HN",
    "lastUpdated": "2020-04-03T07:45:05.472Z",
    "dead": 15,
    "id": "RA2SE0p2bVhqo0P2hzGY",
    "infected": 222,
    "sick": 204
  },
  {
    "lastUpdated": "2020-04-03T07:40:02.920Z",
    "dead": 129,
    "id": "RCrDBCdBNYzgLNr0aB2H",
    "infected": 1799,
    "recovered": 376,
    "latitude": 45.633331,
    "pop": 1216000,
    "longitude": 13.8,
    "name": "Friuli Venezia Giulia",
    "country": "IT",
    "sick": 1294
  },
  {
    "latitude": 41.878,
    "pop": 3156000,
    "longitude": -93.0977,
    "name": "Iowa",
    "country": "US",
    "lastUpdated": "2020-04-03T07:48:16.109Z",
    "dead": 11,
    "id": "RX0KDu1AFrlCsrRso0nb",
    "infected": 614,
    "recovered": 0,
    "sick": 603
  },
  {
    "id": "RaJxbzlnRFTuj4B8IbpC",
    "infected": 11,
    "recovered": 0,
    "latitude": 26.3351002,
    "pop": 6846000,
    "longitude": 17.2283306,
    "name": "Libya",
    "country": "LY",
    "lastUpdated": "2020-04-03T07:45:05.380Z",
    "dead": 1,
    "sick": 10
  },
  {
    "infected": 558,
    "recovered": 0,
    "latitude": 39.0119,
    "pop": 2912000,
    "longitude": -98.4842,
    "name": "Kansas",
    "country": "US",
    "lastUpdated": "2020-04-03T07:48:16.161Z",
    "dead": 14,
    "id": "Rf4uvBfP3GRDSHdZElRd",
    "sick": 544
  },
  {
    "lastUpdated": "2020-04-02T17:42:01.574Z",
    "dead": 1178,
    "id": "RmEgf1xeclWt7XCF9oiR",
    "infected": 10845,
    "recovered": 2227,
    "latitude": 48.6998,
    "pop": 5518000,
    "longitude": 6.1878,
    "name": "Grand Est",
    "country": "FR",
    "sick": 7440
  },
  {
    "recovered": 0,
    "latitude": 51.2538,
    "pop": 14570000,
    "longitude": -85.3232,
    "name": "Ontario",
    "country": "CA",
    "lastUpdated": "2020-04-03T07:45:02.342Z",
    "dead": 53,
    "id": "Rx4TuyMpfGb3S8wYJX0x",
    "infected": 2793,
    "sick": 2740
  },
  {
    "lastUpdated": "2020-04-02T17:40:57.700Z",
    "dead": 3,
    "id": "SDdefnq1bc3ZNr7SpEsW",
    "infected": 158,
    "recovered": 27,
    "latitude": 14.652027,
    "pop": 376480,
    "longitude": -61.011715,
    "name": "Martinique",
    "country": "FR",
    "sick": 128
  },
  {
    "lastUpdated": "2020-04-03T07:45:04.905Z",
    "dead": 5,
    "id": "SG9VWLOV3x2JsTkXmVSz",
    "infected": 204,
    "recovered": 31,
    "latitude": 7.9465,
    "pop": 28830000,
    "longitude": -1.0232,
    "name": "Ghana",
    "country": "GH",
    "sick": 168
  },
  {
    "recovered": 4013,
    "latitude": 46.818188,
    "pop": 8570000,
    "longitude": 8.227512,
    "name": "Switzerland",
    "country": "CH",
    "lastUpdated": "2020-04-03T07:45:04.717Z",
    "dead": 536,
    "id": "SGe9sCPayMqh6RsGFaBA",
    "infected": 18827,
    "sick": 14278
  },
  {
    "recovered": 0,
    "latitude": 46.8139,
    "pop": 8485000,
    "longitude": -71.208,
    "name": "Quebec",
    "country": "CA",
    "lastUpdated": "2020-04-03T07:45:02.333Z",
    "dead": 36,
    "id": "SHoOE3NiJgWAlDVBzwYH",
    "infected": 5518,
    "sick": 5482
  },
  {
    "infected": 126,
    "recovered": 10,
    "latitude": 42.6026,
    "pop": 1831000,
    "longitude": 20.903,
    "name": "Kosovo",
    "country": "XK",
    "lastUpdated": "2020-04-03T07:29:08.728Z",
    "dead": 1,
    "id": "SMWvuMMuKp2QK7O2tNia",
    "sick": 115
  },
  {
    "infected": 6,
    "recovered": 0,
    "latitude": 15.2993,
    "pop": 1817000,
    "longitude": 74.124,
    "name": "Goa",
    "country": "IN",
    "lastUpdated": "2020-04-03T07:40:01.551Z",
    "dead": 0,
    "id": "SPcujsH2YlUaoAr8AiWF",
    "sick": 6
  },
  {
    "infected": 691,
    "recovered": 23,
    "latitude": 39,
    "pop": 1957000,
    "longitude": 16.5,
    "name": "Calabria",
    "country": "IT",
    "lastUpdated": "2020-04-03T07:40:02.836Z",
    "dead": 41,
    "id": "SZdF624x0v1LlyzZjKFu",
    "sick": 627
  },
  {
    "infected": 255,
    "recovered": 0,
    "latitude": 41.4925,
    "pop": 1929000,
    "longitude": -99.9018,
    "name": "Nebraska",
    "country": "US",
    "lastUpdated": "2020-04-03T07:48:16.171Z",
    "dead": 6,
    "id": "SakhKQzKu1LRI8laqdQq",
    "sick": 249
  },
  {
    "infected": 308,
    "recovered": 40,
    "latitude": -21.1151,
    "pop": 859959,
    "longitude": 55.5364,
    "name": "La Réunion",
    "country": "FR",
    "lastUpdated": "2020-04-03T07:45:04.816Z",
    "dead": 0,
    "id": "SgHzWAAYK1j2sipovxM6",
    "sick": 268
  },
  {
    "infected": 114,
    "recovered": 35,
    "latitude": 12.565679,
    "pop": 16010000,
    "longitude": 104.990967,
    "name": "Cambodia",
    "country": "KH",
    "lastUpdated": "2020-04-03T07:45:05.493Z",
    "dead": 0,
    "id": "SioMALgUbo7peXmbco2f",
    "sick": 79
  },
  {
    "longitude": 144.7937,
    "name": "Guam",
    "country": "GU",
    "lastUpdated": "2020-04-03T07:48:16.113Z",
    "dead": 3,
    "id": "SsWhuEElU7dCTTuH5fdQ",
    "infected": 82,
    "recovered": 0,
    "latitude": 13.4443,
    "pop": 164229,
    "sick": 79
  },
  {
    "id": "T3iRf8mTUTAzbKrORTap",
    "infected": 134,
    "recovered": 3,
    "latitude": -4.0383,
    "pop": 81340000,
    "longitude": 21.7587,
    "name": "DR Congo",
    "country": "CD",
    "lastUpdated": "2020-04-03T07:45:05.424Z",
    "dead": 13,
    "sick": 118
  },
  {
    "infected": 1885,
    "recovered": 328,
    "latitude": 23.635796,
    "pop": 32940000,
    "longitude": 44.344334,
    "name": "Saudi Arabia",
    "country": "SA",
    "lastUpdated": "2020-04-03T07:45:04.751Z",
    "dead": 21,
    "id": "T7NffoeCgTUpAbOHvYwP",
    "sick": 1536
  },
  {
    "longitude": 114.650692,
    "name": "Brunei",
    "country": "BN",
    "lastUpdated": "2020-04-03T07:45:05.357Z",
    "dead": 1,
    "id": "TQZmzsLhJqjtCSExAkCP",
    "infected": 133,
    "recovered": 56,
    "latitude": 4.506106,
    "pop": 428697,
    "sick": 76
  },
  {
    "recovered": 1374,
    "latitude": 45.4471,
    "pop": 8027000,
    "longitude": 4.3853,
    "name": "Auvergne-Rhône-Alpes",
    "country": "FR",
    "lastUpdated": "2020-04-02T17:43:05.190Z",
    "dead": 404,
    "id": "TT0MKODSjrxHvG19xZCa",
    "infected": 6101,
    "sick": 4323
  },
  {
    "infected": 3728,
    "recovered": 0,
    "latitude": 39.318928,
    "pop": 5696000,
    "longitude": -105.461392,
    "name": "Colorado",
    "country": "US",
    "lastUpdated": "2020-04-03T01:18:16.838Z",
    "dead": 98,
    "id": "Th4dlpXXmSDgi1OHs36P",
    "sick": 3630
  },
  {
    "id": "Tup6oDCHj6DgqZR3nQ3x",
    "infected": 288,
    "recovered": 50,
    "latitude": 12.2383,
    "pop": 19190000,
    "longitude": -1.5616,
    "name": "Burkina Faso",
    "country": "BF",
    "lastUpdated": "2020-04-03T07:45:04.752Z",
    "dead": 16,
    "sick": 222
  },
  {
    "infected": 10,
    "recovered": 0,
    "latitude": 12.104818,
    "pop": 112381,
    "longitude": -61.670761,
    "name": "Grenada",
    "country": "GD",
    "lastUpdated": "2020-04-03T07:45:05.445Z",
    "dead": 0,
    "id": "TvqURPN5xzVBXsmGP46N",
    "sick": 10
  },
  {
    "recovered": 1089,
    "latitude": 55.675758,
    "pop": 5603000,
    "longitude": 12.56902,
    "name": "Denmark",
    "country": "DK",
    "lastUpdated": "2020-04-03T07:45:04.806Z",
    "dead": 123,
    "id": "Ty1AY3VLPJcRZgdBIERx",
    "infected": 3386,
    "sick": 2174
  },
  {
    "longitude": 118.769882,
    "name": "Shandong",
    "country": "CN",
    "lastUpdated": "2020-04-03T07:44:13.740Z",
    "dead": 7,
    "id": "U0tkTJ9CGsBuFJ2Gdoum",
    "infected": 778,
    "recovered": 754,
    "latitude": 36.395859,
    "pop": 100472400,
    "sick": 17
  },
  {
    "infected": 245,
    "recovered": 21,
    "latitude": 43.94236,
    "pop": 33400,
    "longitude": 12.457777,
    "name": "San Marino",
    "country": "SM",
    "lastUpdated": "2020-04-03T07:45:04.727Z",
    "dead": 30,
    "id": "U12rMD5GDW58Q0lIwrB1",
    "sick": 194
  },
  {
    "latitude": 36.204823,
    "pop": 126800000,
    "longitude": 138.25293,
    "name": "Japan",
    "country": "JP",
    "lastUpdated": "2020-04-03T07:45:04.883Z",
    "dead": 63,
    "id": "U13Gy4BpRLAZ95bPmBXd",
    "infected": 2617,
    "recovered": 472,
    "sick": 2082
  },
  {
    "latitude": 1.3733,
    "pop": 42860000,
    "longitude": 32.2903,
    "name": "Uganda",
    "country": "UG",
    "lastUpdated": "2020-04-03T07:45:05.363Z",
    "dead": 0,
    "id": "UCZXEgnHtxUoChWLR6fQ",
    "infected": 45,
    "recovered": 0,
    "sick": 45
  },
  {
    "latitude": -11.2027,
    "pop": 29780000,
    "longitude": 17.8739,
    "name": "Angola",
    "country": "AO",
    "lastUpdated": "2020-04-03T07:45:05.422Z",
    "dead": 2,
    "id": "UIbrFy6kiTTF0D37Kqmp",
    "infected": 8,
    "recovered": 1,
    "sick": 5
  },
  {
    "infected": 915,
    "recovered": 227,
    "latitude": 48.202,
    "pop": 3329000,
    "longitude": -2.9326,
    "name": "Bretagne",
    "country": "FR",
    "lastUpdated": "2020-04-02T17:44:57.356Z",
    "dead": 63,
    "id": "URKMlJ7OTNldjpaxFbjE",
    "sick": 625
  },
  {
    "infected": 2557,
    "recovered": 1000,
    "latitude": 53.5511,
    "pop": 1822000,
    "longitude": 9.9937,
    "name": "Hamburg",
    "country": "DE",
    "lastUpdated": "2020-04-03T07:11:12.926Z",
    "dead": 14,
    "id": "UfFaUECHINUutv1M9tzq",
    "sick": 1543
  },
  {
    "infected": 21,
    "recovered": 0,
    "latitude": -19.4914,
    "pop": 211945,
    "longitude": 132.551,
    "name": "Northern Territory",
    "country": "AU",
    "lastUpdated": "2020-04-03T07:42:03.030Z",
    "dead": 0,
    "id": "UrF45V1VqMo6YBib2KlL",
    "sick": 21
  },
  {
    "latitude": 18.0424805,
    "pop": 41109,
    "longitude": -63.0548286,
    "name": "Sint Maarten",
    "country": "SX",
    "lastUpdated": "2020-04-03T07:45:05.454Z",
    "dead": 1,
    "id": "UsxgpiuFCtlR2CW1UUFm",
    "infected": 18,
    "recovered": 6,
    "sick": 11
  },
  {
    "lastUpdated": "2020-04-03T07:37:04.719Z",
    "dead": 0,
    "id": "V1qE740s3EUGyKGr6SVv",
    "infected": 3,
    "recovered": 1,
    "latitude": 11.943179,
    "pop": 241773,
    "longitude": 79.808206,
    "name": "Puducherry",
    "country": "IN",
    "sick": 2
  },
  {
    "latitude": 3.527606,
    "pop": 49070000,
    "longitude": -72.998674,
    "name": "Colombia",
    "country": "CO",
    "lastUpdated": "2020-04-03T07:45:04.818Z",
    "dead": 19,
    "id": "VAAmtxtDuCY0o55zRsOh",
    "infected": 1161,
    "recovered": 55,
    "sick": 1087
  },
  {
    "latitude": 21.5218,
    "pop": 11480000,
    "longitude": -77.7812,
    "name": "Cuba",
    "country": "CU",
    "lastUpdated": "2020-04-03T07:45:04.782Z",
    "dead": 6,
    "id": "VAG9AcMABTf8oIAfELPh",
    "infected": 233,
    "recovered": 13,
    "sick": 214
  },
  {
    "infected": 184,
    "recovered": 172,
    "latitude": 25.181129,
    "pop": 45970000,
    "longitude": 101.864143,
    "name": "Yunnan",
    "country": "CN",
    "lastUpdated": "2020-04-03T07:44:13.650Z",
    "dead": 2,
    "id": "VIf8T8PD3ZzlzAm5eBCX",
    "sick": 10
  },
  {
    "latitude": 26.8467,
    "pop": 204200000,
    "longitude": 80.9462,
    "name": "Uttar Pradesh",
    "country": "IN",
    "lastUpdated": "2020-04-03T07:40:01.414Z",
    "dead": 2,
    "id": "VcKcLdCkC6YpPfIDnRVD",
    "infected": 172,
    "recovered": 17,
    "sick": 153
  },
  {
    "lastUpdated": "2020-04-03T07:45:02.549Z",
    "dead": 0,
    "id": "Vd3lLgrNsr81plzTgZkz",
    "infected": 2,
    "recovered": 0,
    "latitude": 64.8255,
    "pop": 44826,
    "longitude": -124.8457,
    "name": "Northwest Territories",
    "country": "CA",
    "sick": 2
  },
  {
    "id": "WAnbFrEjtZDTCIYBt8rz",
    "infected": 2275,
    "recovered": 597,
    "latitude": 43.8927,
    "pop": 5893000,
    "longitude": 3.2828,
    "name": "Occitanie",
    "country": "FR",
    "lastUpdated": "2020-04-02T17:45:32.525Z",
    "dead": 119,
    "sick": 1559
  },
  {
    "recovered": 3,
    "latitude": 40.5,
    "pop": 567118,
    "longitude": 16.5,
    "name": "Basilicata",
    "country": "IT",
    "lastUpdated": "2020-04-03T07:40:02.735Z",
    "dead": 10,
    "id": "WD502XimGXnWzqYg7zxL",
    "infected": 246,
    "sick": 233
  },
  {
    "latitude": 24.6637,
    "pop": 2722000,
    "longitude": 93.9063,
    "name": "Manipur",
    "country": "IN",
    "lastUpdated": "2020-04-03T07:40:01.417Z",
    "dead": 0,
    "id": "WKsJQmcpWKxnp0nCwN77",
    "infected": 2,
    "recovered": 0,
    "sick": 2
  },
  {
    "infected": 1462,
    "recovered": 95,
    "latitude": -30.5595,
    "pop": 56720000,
    "longitude": 22.9375,
    "name": "South Africa",
    "country": "ZA",
    "lastUpdated": "2020-04-03T07:45:04.770Z",
    "dead": 5,
    "id": "Whrue10NtwIObLvFFyBr",
    "sick": 1362
  },
  {
    "infected": 4,
    "recovered": 2,
    "latitude": 13.443182,
    "pop": 2101000,
    "longitude": -15.3101387,
    "name": "Gambia",
    "country": "GM",
    "lastUpdated": "2020-04-03T07:45:05.226Z",
    "dead": 1,
    "id": "Wk811YwpQxsOCfz8As86",
    "sick": 1
  },
  {
    "recovered": 26,
    "latitude": 23.685,
    "pop": 164700000,
    "longitude": 90.3563,
    "name": "Bangladesh",
    "country": "BD",
    "lastUpdated": "2020-04-03T07:45:05.187Z",
    "dead": 6,
    "id": "WpLayPPLIJ7VcHZdQaoM",
    "infected": 61,
    "sick": 29
  },
  {
    "infected": 10111,
    "recovered": 1001,
    "latitude": 45.5,
    "pop": 4905000,
    "longitude": 11.75,
    "name": "Veneto",
    "country": "IT",
    "lastUpdated": "2020-04-03T07:40:02.834Z",
    "dead": 532,
    "id": "X2iRhHF6f9pUnJcxPc3J",
    "sick": 8578
  },
  {
    "recovered": 0,
    "latitude": -8.556856,
    "pop": 1311000,
    "longitude": 125.56031,
    "name": "Timor-Leste",
    "country": "TL",
    "lastUpdated": "2020-04-03T07:45:05.012Z",
    "dead": 0,
    "id": "X3GMAVINj2GDzIRVfo7n",
    "infected": 1,
    "sick": 1
  },
  {
    "infected": 14,
    "recovered": 3,
    "latitude": 34.152588,
    "pop": 274289,
    "longitude": 77.577049,
    "name": "Ladakh",
    "country": "IN",
    "lastUpdated": "2020-04-03T07:37:04.816Z",
    "dead": 0,
    "id": "X3PZqaJxtnlxcgP4tzya",
    "sick": 11
  },
  {
    "id": "XBBw0iMPrmiEu3qogkbi",
    "infected": 349,
    "recovered": 300,
    "latitude": 25.92448,
    "pop": 38560000,
    "longitude": 118.278992,
    "name": "Fujian",
    "country": "CN",
    "lastUpdated": "2020-04-03T07:44:13.737Z",
    "dead": 1,
    "sick": 48
  },
  {
    "longitude": -55.7658,
    "name": "Uruguay",
    "country": "UY",
    "lastUpdated": "2020-04-03T07:45:04.797Z",
    "dead": 4,
    "id": "XrsuLstdybIqIvv0E0aJ",
    "infected": 369,
    "recovered": 68,
    "latitude": -32.5228,
    "pop": 3457000,
    "sick": 297
  },
  {
    "latitude": 42.0396,
    "pop": 339178,
    "longitude": 9.0129,
    "name": "Corse",
    "country": "FR",
    "lastUpdated": "2020-04-02T17:46:28.011Z",
    "dead": 23,
    "id": "YGXgIObKVabP2CYEdcb9",
    "infected": 291,
    "recovered": 102,
    "sick": 166
  },
  {
    "infected": 161,
    "recovered": 18,
    "latitude": 31.9522,
    "pop": 5052000,
    "longitude": 35.2332,
    "name": "Palestine",
    "country": "PS",
    "lastUpdated": "2020-04-03T07:45:05.418Z",
    "dead": 1,
    "id": "YMzKw0SnXG71VT7H1jff",
    "sick": 142
  },
  {
    "id": "YZoy8ReFucvC3IFnWZHn",
    "infected": 9,
    "recovered": 0,
    "latitude": 11.8037491,
    "pop": 1955000,
    "longitude": -15.1804132,
    "name": "Guinea-Bissau",
    "country": "GW",
    "lastUpdated": "2020-04-03T07:45:05.431Z",
    "dead": 0,
    "sick": 9
  },
  {
    "latitude": 64.2008,
    "pop": 737438,
    "longitude": -149.4937,
    "name": "Alaska",
    "country": "US",
    "lastUpdated": "2020-04-03T07:48:16.163Z",
    "dead": 3,
    "id": "YaCODTMD1KKRnrAlkg2u",
    "infected": 147,
    "recovered": 0,
    "sick": 144
  },
  {
    "recovered": 6021,
    "latitude": 37.568291,
    "pop": 51470000,
    "longitude": 126.99778,
    "name": "South Korea",
    "country": "KR",
    "lastUpdated": "2020-04-03T07:45:04.859Z",
    "dead": 174,
    "id": "Yw9uBekNlefXBcOCNMfP",
    "infected": 10062,
    "sick": 3867
  },
  {
    "latitude": 13.193887,
    "pop": 285719,
    "longitude": -59.543198,
    "name": "Barbados",
    "country": "BB",
    "lastUpdated": "2020-04-03T07:45:05.407Z",
    "dead": 0,
    "id": "YzZqZMJGvG6joQCdiuXC",
    "infected": 46,
    "recovered": 0,
    "sick": 46
  },
  {
    "infected": 2946,
    "recovered": 56,
    "latitude": 52.2297,
    "pop": 37980000,
    "longitude": 21.0122,
    "name": "Poland",
    "country": "PL",
    "lastUpdated": "2020-04-03T07:45:04.856Z",
    "dead": 57,
    "id": "ZAZNuCK1VweBaTLCFzCk",
    "sick": 2833
  },
  {
    "recovered": 0,
    "latitude": -17.713371,
    "pop": 905502,
    "longitude": 178.065033,
    "name": "Fiji",
    "country": "FJ",
    "lastUpdated": "2020-04-03T07:45:05.415Z",
    "dead": 0,
    "id": "ZmzOT0sJgfWXEpRImItC",
    "infected": 7,
    "sick": 7
  },
  {
    "lastUpdated": "2020-04-03T07:48:16.167Z",
    "dead": 112,
    "id": "Zqy0gftQzocR49jEJNMl",
    "infected": 3824,
    "recovered": 0,
    "latitude": 41.6032,
    "pop": 3573000,
    "longitude": -73.0877,
    "name": "Connecticut",
    "country": "US",
    "sick": 3712
  },
  {
    "lastUpdated": "2020-04-03T07:40:02.623Z",
    "dead": 503,
    "id": "Zwbjs4XN7P9s849Q3zFj",
    "infected": 4098,
    "recovered": 40,
    "latitude": 43.616943,
    "pop": 1532000,
    "longitude": 13.516667,
    "name": "Marche",
    "country": "IT",
    "sick": 3555
  },
  {
    "recovered": 129,
    "latitude": 51.011,
    "pop": 2137000,
    "longitude": 10.8453,
    "name": "Thüringen",
    "country": "DE",
    "lastUpdated": "2020-04-03T07:37:02.232Z",
    "dead": 6,
    "id": "a9OgUWo6ZSWA3HyF0xnj",
    "infected": 840,
    "sick": 705
  },
  {
    "infected": 396,
    "recovered": 6,
    "latitude": -30.000233,
    "pop": 1677000,
    "longitude": 136.209152,
    "name": "South Australia",
    "country": "AU",
    "lastUpdated": "2020-04-03T07:42:03.017Z",
    "dead": 0,
    "id": "a9p9pAOsjg1WAjPGc2a6",
    "sick": 390
  },
  {
    "latitude": 37.9643,
    "pop": 6126000,
    "longitude": -91.8318,
    "name": "Missouri",
    "country": "US",
    "lastUpdated": "2020-04-03T07:48:16.181Z",
    "dead": 22,
    "id": "aPubGfQ8ToSEuKJldKRT",
    "infected": 1860,
    "recovered": 0,
    "sick": 1838
  },
  {
    "infected": 254,
    "recovered": 252,
    "latitude": 23.64407,
    "pop": 48380000,
    "longitude": 108.26651,
    "name": "Guangxi",
    "country": "CN",
    "lastUpdated": "2020-04-03T07:44:13.718Z",
    "dead": 2,
    "id": "aTa8MiBjtH3iY0SRs2HQ",
    "sick": 0
  },
  {
    "infected": 8,
    "recovered": 0,
    "latitude": 6.6111,
    "pop": 4659000,
    "longitude": 20.9394,
    "name": "CAR",
    "country": "CF",
    "lastUpdated": "2020-04-03T07:45:05.413Z",
    "dead": 0,
    "id": "adcBUeAYp6ey0ZXCzKNs",
    "sick": 8
  },
  {
    "longitude": -78.6569,
    "name": "Virginia",
    "country": "US",
    "lastUpdated": "2020-04-03T07:48:16.206Z",
    "dead": 41,
    "id": "afeZTVC1J1SMMNFxkrcc",
    "infected": 1706,
    "recovered": 0,
    "latitude": 37.4316,
    "pop": 8518000,
    "sick": 1665
  },
  {
    "lastUpdated": "2020-04-03T07:44:13.726Z",
    "dead": 8,
    "id": "alj4hkxg9cjrTxOzwFKt",
    "infected": 583,
    "recovered": 434,
    "latitude": 39.904202,
    "pop": 21540000,
    "longitude": 116.407394,
    "name": "Beijing",
    "country": "CN",
    "sick": 141
  },
  {
    "recovered": 202,
    "latitude": 33.22319,
    "pop": 38270000,
    "longitude": 43.679291,
    "name": "Iraq",
    "country": "IQ",
    "lastUpdated": "2020-04-03T07:45:04.773Z",
    "dead": 54,
    "id": "b7TwXX46FA0EmH1CjHET",
    "infected": 772,
    "sick": 516
  },
  {
    "infected": 195,
    "recovered": 55,
    "latitude": 14.457474,
    "pop": 15850000,
    "longitude": -14.358636,
    "name": "Senegal",
    "country": "SN",
    "lastUpdated": "2020-04-03T07:45:04.918Z",
    "dead": 1,
    "id": "b9p1JhVml3GGC7iiPmKv",
    "sick": 139
  },
  {
    "recovered": 4,
    "latitude": -0.0236,
    "pop": 49700000,
    "longitude": 37.9062,
    "name": "Kenya",
    "country": "KE",
    "lastUpdated": "2020-04-03T07:45:05.417Z",
    "dead": 3,
    "id": "bVHiTolbUJGHIeVht3eG",
    "infected": 110,
    "sick": 103
  },
  {
    "recovered": 0,
    "latitude": 39.561889,
    "pop": 8909000,
    "longitude": -74.672169,
    "name": "New Jersey",
    "country": "US",
    "lastUpdated": "2020-04-03T07:48:16.189Z",
    "dead": 537,
    "id": "bYp4RRHv19M7lYtSzQeV",
    "infected": 25590,
    "sick": 25053
  },
  {
    "longitude": 101.6869,
    "name": "Malaysia",
    "country": "MY",
    "lastUpdated": "2020-04-03T07:45:04.908Z",
    "dead": 50,
    "id": "bdqD4kpdqGgUaX70Tm2Q",
    "infected": 3116,
    "recovered": 767,
    "latitude": 3.139,
    "pop": 31620000,
    "sick": 2299
  },
  {
    "id": "bignnyt2A8BBx8VNo32p",
    "infected": 5568,
    "recovered": 103,
    "latitude": 60.128162,
    "pop": 10120000,
    "longitude": 18.643501,
    "name": "Sweden",
    "country": "SE",
    "lastUpdated": "2020-04-03T07:45:04.695Z",
    "dead": 308,
    "sick": 5157
  },
  {
    "latitude": 23.6102,
    "pop": 31900000,
    "longitude": 85.2799,
    "name": "Jharkhand",
    "country": "IN",
    "lastUpdated": "2020-04-03T07:40:01.440Z",
    "dead": 0,
    "id": "bo2XnTYrVRoaktD5uF93",
    "infected": 2,
    "recovered": 0,
    "sick": 2
  },
  {
    "longitude": -62.754593,
    "name": "Saint Kitts and Nevis",
    "country": "KN",
    "lastUpdated": "2020-04-03T07:45:05.450Z",
    "dead": 0,
    "id": "bor36ktvkrB3iSxlsegc",
    "infected": 9,
    "recovered": 0,
    "latitude": 17.363747,
    "pop": 53100,
    "sick": 9
  },
  {
    "infected": 277,
    "recovered": 76,
    "latitude": 40.973765,
    "pop": 2877000,
    "longitude": 20.010162,
    "name": "Albania",
    "country": "AL",
    "lastUpdated": "2020-04-03T07:45:04.835Z",
    "dead": 16,
    "id": "cCGmFmwHOoBrEpvG3qBP",
    "sick": 185
  },
  {
    "latitude": 16.871311,
    "pop": 55901000,
    "longitude": 96.199379,
    "name": "Myanmar",
    "country": "MM",
    "lastUpdated": "2020-04-03T07:45:05.436Z",
    "dead": 1,
    "id": "cIbchhSBTuxXmXYgpkdB",
    "infected": 20,
    "recovered": 0,
    "sick": 19
  },
  {
    "recovered": 0,
    "latitude": -25.953724,
    "pop": 29670000,
    "longitude": 32.588711,
    "name": "Mozambique",
    "country": "MZ",
    "lastUpdated": "2020-04-03T07:45:05.387Z",
    "dead": 0,
    "id": "cO8TChMvQvAtoZMNurTQ",
    "infected": 10,
    "sick": 10
  },
  {
    "latitude": 46.8625,
    "pop": 3076000,
    "longitude": 103.8467,
    "name": "Mongolia",
    "country": "MN",
    "lastUpdated": "2020-04-03T07:45:05.441Z",
    "dead": 0,
    "id": "cPxONYsVo6BgvCW9HUeQ",
    "infected": 14,
    "recovered": 2,
    "sick": 12
  },
  {
    "longitude": -19.020836,
    "name": "Iceland",
    "country": "IS",
    "lastUpdated": "2020-04-03T07:45:04.884Z",
    "dead": 4,
    "id": "cPxe7nsRnOf6aOPqHElJ",
    "infected": 1319,
    "recovered": 284,
    "latitude": 64.963051,
    "pop": 364260,
    "sick": 1031
  },
  {
    "infected": 6857,
    "recovered": 338,
    "latitude": 31.046051,
    "pop": 8712000,
    "longitude": 34.851612,
    "name": "Israel",
    "country": "IL",
    "lastUpdated": "2020-04-03T07:45:04.923Z",
    "dead": 36,
    "id": "cX891t0ONLNFj0MYq6La",
    "sick": 6483
  },
  {
    "id": "cc7s6hYGQ2MovBBBgkKb",
    "infected": 55,
    "recovered": 15,
    "latitude": 4.749531,
    "pop": 290691,
    "longitude": -53.112909,
    "name": "Guyane",
    "country": "FR",
    "lastUpdated": "2020-04-02T17:41:24.592Z",
    "dead": 0,
    "sick": 40
  },
  {
    "infected": 179,
    "recovered": 91,
    "latitude": 61.8926,
    "pop": 49290,
    "longitude": -6.9118,
    "name": "Faeroe Islands",
    "country": "FO",
    "lastUpdated": "2020-04-03T07:45:05.282Z",
    "dead": 0,
    "id": "cgzd5EM8PZv5ziJtTz1w",
    "sick": 88
  },
  {
    "infected": 7345,
    "recovered": 0,
    "latitude": 41.2033,
    "pop": 12810000,
    "longitude": -77.1945,
    "name": "Pennsylvania",
    "country": "US",
    "lastUpdated": "2020-04-03T07:48:16.153Z",
    "dead": 92,
    "id": "chj2FF3zb4Xxcop9RHre",
    "sick": 7253
  },
  {
    "recovered": 495,
    "latitude": 45.7087,
    "pop": 5987000,
    "longitude": 0.6269,
    "name": "Nouvelle-Aquitaine",
    "country": "FR",
    "lastUpdated": "2020-04-02T17:46:51.086Z",
    "dead": 94,
    "id": "cpf3Y5PQTYywIm3PrpIQ",
    "infected": 1715,
    "sick": 1126
  },
  {
    "id": "d0ExINgPaWUBm3l4ioJL",
    "infected": 112065,
    "recovered": 26743,
    "latitude": 40.463669,
    "pop": 46660000,
    "longitude": -3.74922,
    "name": "Spain",
    "country": "ES",
    "lastUpdated": "2020-04-03T07:45:04.808Z",
    "dead": 10348,
    "sick": 74974
  },
  {
    "id": "dedMXSYR2k92wkSXNZqn",
    "infected": 428,
    "recovered": 10,
    "latitude": 42.50837,
    "pop": 76965,
    "longitude": 1.517155,
    "name": "Andorra",
    "country": "AD",
    "lastUpdated": "2020-04-03T07:45:04.914Z",
    "dead": 15,
    "sick": 403
  },
  {
    "lastUpdated": "2020-04-03T07:48:16.193Z",
    "dead": 12,
    "id": "dzCgqYduzyncjNKU9z6G",
    "infected": 393,
    "recovered": 0,
    "latitude": 38.831163,
    "pop": 967171,
    "longitude": -75.375673,
    "name": "Delaware",
    "country": "US",
    "sick": 381
  },
  {
    "infected": 18135,
    "recovered": 415,
    "latitude": 38.9637,
    "pop": 80810000,
    "longitude": 35.2433,
    "name": "Turkey",
    "country": "TR",
    "lastUpdated": "2020-04-03T07:45:04.789Z",
    "dead": 356,
    "id": "dzIcCaUZlbIXuRw0SyDE",
    "sick": 17364
  },
  {
    "id": "e3BtI12qbqhE8jypOoZu",
    "infected": 11199,
    "recovered": 1749,
    "latitude": 47.516232,
    "pop": 8822000,
    "longitude": 14.550072,
    "name": "Austria",
    "country": "AT",
    "lastUpdated": "2020-04-03T07:45:04.781Z",
    "dead": 158,
    "sick": 9292
  },
  {
    "recovered": 1473,
    "latitude": 52.6367,
    "pop": 7963000,
    "longitude": 9.8451,
    "name": "Niedersachsen",
    "country": "DE",
    "lastUpdated": "2020-04-03T07:11:12.314Z",
    "dead": 75,
    "id": "e3CJgTO8wVbBQZaxqNze",
    "infected": 5400,
    "sick": 3852
  },
  {
    "latitude": 41.097481,
    "pop": 43900000,
    "longitude": 122.310669,
    "name": "Liaoning",
    "country": "CN",
    "lastUpdated": "2020-04-03T07:44:13.647Z",
    "dead": 2,
    "id": "e7P83iImanpd9r36oXK3",
    "infected": 141,
    "recovered": 124,
    "sick": 15
  },
  {
    "longitude": 121.473701,
    "name": "Shanghai",
    "country": "CN",
    "lastUpdated": "2020-04-03T07:44:13.747Z",
    "dead": 6,
    "id": "e9pQqQa7CEblCYoDtfKo",
    "infected": 526,
    "recovered": 348,
    "latitude": 31.230391,
    "pop": 24240000,
    "sick": 172
  },
  {
    "latitude": 42.407211,
    "pop": 6902000,
    "longitude": -71.382439,
    "name": "Massachusetts",
    "country": "US",
    "lastUpdated": "2020-04-03T07:48:16.097Z",
    "dead": 154,
    "id": "eCKDGssww4pF7NrxOySu",
    "infected": 8966,
    "recovered": 0,
    "sick": 8812
  },
  {
    "latitude": 43.740451,
    "pop": 38695,
    "longitude": 7.432032,
    "name": "Monaco",
    "country": "MC",
    "lastUpdated": "2020-04-03T07:45:05.403Z",
    "dead": 1,
    "id": "eLgKPNUwYM5MNDAtF6ql",
    "infected": 60,
    "recovered": 2,
    "sick": 57
  },
  {
    "latitude": 47.2805,
    "pop": 2686000,
    "longitude": 4.9994,
    "name": "Bourgogne-Franche-Comté",
    "country": "FR",
    "lastUpdated": "2020-04-02T17:44:21.324Z",
    "dead": 271,
    "id": "ejrjMKfHexGnK52FS9Aa",
    "infected": 2642,
    "recovered": 746,
    "sick": 1625
  },
  {
    "latitude": 48.0196,
    "pop": 18040000,
    "longitude": 66.9237,
    "name": "Kazakhstan",
    "country": "KZ",
    "lastUpdated": "2020-04-03T07:45:04.853Z",
    "dead": 3,
    "id": "etrmrftkQg6Kbd9seAga",
    "infected": 448,
    "recovered": 28,
    "sick": 417
  },
  {
    "id": "eyK5bxFkwdoAouIBvLFM",
    "infected": 555,
    "recovered": 537,
    "latitude": 30.14208,
    "pop": 81100000,
    "longitude": 102.960701,
    "name": "Sichuan",
    "country": "CN",
    "lastUpdated": "2020-04-03T07:44:13.658Z",
    "dead": 3,
    "sick": 15
  },
  {
    "id": "f9kmlhYtc3WA3kjbWszW",
    "infected": 231,
    "recovered": 57,
    "latitude": 21.473534,
    "pop": 4636000,
    "longitude": 55.975414,
    "name": "Oman",
    "country": "OM",
    "lastUpdated": "2020-04-03T07:45:05.458Z",
    "dead": 1,
    "sick": 173
  },
  {
    "lastUpdated": "2020-04-03T07:45:05.374Z",
    "dead": 2,
    "id": "fEyJ83bQtvcaes8KLhVx",
    "infected": 22,
    "recovered": 2,
    "latitude": -0.228021,
    "pop": 81340000,
    "longitude": 15.8276587,
    "name": "Congo",
    "country": "CG",
    "sick": 18
  },
  {
    "infected": 2564,
    "recovered": 62,
    "latitude": 51.1045,
    "pop": 4081000,
    "longitude": 13.2017,
    "name": "Sachsen",
    "country": "DE",
    "lastUpdated": "2020-04-03T07:11:12.990Z",
    "dead": 22,
    "id": "fGqVm2khm3IBRs709S1f",
    "sick": 2480
  },
  {
    "infected": 8,
    "recovered": 0,
    "latitude": 15.4542,
    "pop": 14900000,
    "longitude": 18.7322,
    "name": "Chad",
    "country": "TD",
    "lastUpdated": "2020-04-03T07:45:05.439Z",
    "dead": 0,
    "id": "fJc9CaZGR1OCHaW8Tn4V",
    "sick": 8
  },
  {
    "id": "fK06AziL8wyrcoz7rsmJ",
    "infected": 299,
    "recovered": 45,
    "latitude": 31.295929,
    "pop": 9702000,
    "longitude": 36.691952,
    "name": "Jordan",
    "country": "JO",
    "lastUpdated": "2020-04-03T07:45:04.812Z",
    "dead": 5,
    "sick": 249
  },
  {
    "id": "fNganaGVPifA4QahEQPS",
    "infected": 9008,
    "recovered": 0,
    "latitude": 27.716933,
    "pop": 21300000,
    "longitude": -81.555239,
    "name": "Florida",
    "country": "US",
    "lastUpdated": "2020-04-03T07:48:16.128Z",
    "dead": 144,
    "sick": 8864
  },
  {
    "latitude": 35.452016,
    "longitude": 139.664285,
    "name": "Diamond Princess (Cruise)",
    "country": "ZZ",
    "dead": 10,
    "lastUpdated": "2020-04-03T01:32:59.449Z",
    "id": "fNnE9CD0SttEVrCUo1Ym",
    "infected": 712,
    "recovered": 587,
    "sick": 115
  },
  {
    "id": "fOlU5JggPKOO8jbHh5GD",
    "infected": 2003,
    "recovered": 229,
    "latitude": 46.0679,
    "pop": 538223,
    "longitude": 11.1211,
    "name": "P.A. Trento",
    "country": "IT",
    "lastUpdated": "2020-04-03T07:40:02.829Z",
    "dead": 187,
    "sick": 1587
  },
  {
    "infected": 3223,
    "recovered": 1369,
    "latitude": 52.52,
    "pop": 3748000,
    "longitude": 13.405,
    "name": "Berlin",
    "country": "DE",
    "lastUpdated": "2020-04-03T07:11:12.351Z",
    "dead": 20,
    "id": "ffKhENYKy3bwsyBLiYtE",
    "sick": 1834
  },
  {
    "infected": 67802,
    "recovered": 63612,
    "latitude": 31.160629,
    "pop": 58500000,
    "longitude": 112.255402,
    "name": "Hubei",
    "country": "CN",
    "lastUpdated": "2020-04-03T07:44:13.041Z",
    "dead": 3203,
    "id": "fiJ14DCxw15e3SMemh8R",
    "sick": 987
  },
  {
    "infected": 942,
    "recovered": 19,
    "latitude": 50.4501,
    "pop": 42220000,
    "longitude": 30.5234,
    "name": "Ukraine",
    "country": "UA",
    "lastUpdated": "2020-04-03T07:45:04.730Z",
    "dead": 23,
    "id": "flbZ2kaR5kBuV8XZ2Nsu",
    "sick": 900
  },
  {
    "latitude": 41.2044,
    "pop": 6202000,
    "longitude": 74.7661,
    "name": "Kyrgyzstan",
    "country": "KG",
    "lastUpdated": "2020-04-03T07:45:05.212Z",
    "dead": 1,
    "id": "fst48lrFxiMJbQPf4nur",
    "infected": 130,
    "recovered": 5,
    "sick": 124
  },
  {
    "id": "g0lRMtEJbucWIGqSPn0I",
    "infected": 14697,
    "recovered": 250,
    "latitude": 52.132633,
    "pop": 17180000,
    "longitude": 5.291266,
    "name": "Netherlands",
    "country": "NL",
    "lastUpdated": "2020-04-03T07:45:04.900Z",
    "dead": 1339,
    "sick": 13108
  },
  {
    "infected": 683,
    "recovered": 0,
    "latitude": 34.69522,
    "pop": 3014000,
    "longitude": -92.288012,
    "name": "Arkansas",
    "country": "US",
    "lastUpdated": "2020-04-03T07:48:16.159Z",
    "dead": 12,
    "id": "gIdgxJZfTl2QOSYEwMAz",
    "sick": 671
  },
  {
    "latitude": 4.8604159,
    "pop": 777859,
    "longitude": -58.9301796,
    "name": "Guyana",
    "country": "GY",
    "lastUpdated": "2020-04-03T07:45:05.482Z",
    "dead": 4,
    "id": "gXd2X2PjmGP0XVwxpWqT",
    "infected": 19,
    "recovered": 0,
    "sick": 15
  },
  {
    "infected": 165,
    "recovered": 0,
    "latitude": 43.9695,
    "pop": 882235,
    "longitude": -99.9018,
    "name": "South Dakota",
    "country": "US",
    "lastUpdated": "2020-04-03T07:48:16.149Z",
    "dead": 2,
    "id": "gYDsNgvuvtbg8t77w6FS",
    "sick": 163
  },
  {
    "infected": 196,
    "recovered": 2,
    "latitude": 35.894231,
    "pop": 493559,
    "longitude": 14.432846,
    "name": "Malta",
    "country": "MT",
    "lastUpdated": "2020-04-03T07:45:05.461Z",
    "dead": 0,
    "id": "h9UqxYZ5xC4JZrmdDz0q",
    "sick": 194
  },
  {
    "recovered": 8,
    "latitude": 28.7041,
    "pop": 18980000,
    "longitude": 77.1025,
    "name": "Delhi",
    "country": "IN",
    "lastUpdated": "2020-04-03T07:40:01.396Z",
    "dead": 4,
    "id": "hqwsh1rmvkWI3LFUVuMk",
    "infected": 293,
    "sick": 281
  },
  {
    "lastUpdated": "2020-04-03T07:44:13.663Z",
    "dead": 2,
    "id": "iGkTscdD0XyHFSP23Qrp",
    "infected": 138,
    "recovered": 127,
    "latitude": 35.751835,
    "pop": 25580000,
    "longitude": 104.28611,
    "name": "Gansu",
    "country": "CN",
    "sick": 9
  },
  {
    "lastUpdated": "2020-04-03T07:45:05.502Z",
    "dead": 2,
    "id": "iHf1IZQP3CA3sT2erzyh",
    "infected": 16,
    "recovered": 0,
    "latitude": 34.8021,
    "pop": 18270000,
    "longitude": 38.9968,
    "name": "Syria",
    "country": "SY",
    "sick": 14
  },
  {
    "id": "idymmgoqLHImnBdyC7r7",
    "infected": 286,
    "recovered": 28,
    "latitude": 10.8505,
    "pop": 34800000,
    "longitude": 76.2711,
    "name": "Kerala",
    "country": "IN",
    "lastUpdated": "2020-04-03T07:40:01.416Z",
    "dead": 2,
    "sick": 256
  },
  {
    "infected": 128,
    "recovered": 28,
    "latitude": 16.265,
    "pop": 395700,
    "longitude": -61.551,
    "name": "Guadeloupe",
    "country": "FR",
    "lastUpdated": "2020-04-02T17:48:24.965Z",
    "dead": 7,
    "id": "j8eMjjqNAqHAJhAKdBYN",
    "sick": 93
  },
  {
    "infected": 3276,
    "recovered": 298,
    "latitude": 50.1183,
    "pop": 4074000,
    "longitude": 7.309,
    "name": "Rheinland-Pfalz",
    "country": "DE",
    "lastUpdated": "2020-04-03T00:11:12.363Z",
    "dead": 31,
    "id": "jKn2pIFlIBScjb47GjRX",
    "sick": 2947
  },
  {
    "infected": 179,
    "recovered": 140,
    "latitude": 39.343357,
    "pop": 15000000,
    "longitude": 117.361649,
    "name": "Tianjin",
    "country": "CN",
    "lastUpdated": "2020-04-03T07:44:12.968Z",
    "dead": 3,
    "id": "jMlHjIOb7eMPSxFBrmG1",
    "sick": 36
  },
  {
    "id": "jOc8JUDWxCmquh49oZxV",
    "infected": 3,
    "recovered": 0,
    "latitude": 17.1898766,
    "pop": 397000,
    "longitude": -88.4976501,
    "name": "Belize",
    "country": "BZ",
    "lastUpdated": "2020-04-03T07:45:05.349Z",
    "dead": 0,
    "sick": 3
  },
  {
    "id": "jPC0eOG50FWknCDe3K6P",
    "infected": 338,
    "recovered": 0,
    "latitude": 44.5588,
    "pop": 629299,
    "longitude": -72.5778,
    "name": "Vermont",
    "country": "US",
    "lastUpdated": "2020-04-03T07:48:16.187Z",
    "dead": 17,
    "sick": 321
  },
  {
    "latitude": 53.3498,
    "pop": 4830000,
    "longitude": -6.2603,
    "name": "Ireland",
    "country": "IE",
    "lastUpdated": "2020-04-03T07:45:04.823Z",
    "dead": 98,
    "id": "jpVXEDCyfyq26gPoCtHL",
    "infected": 3849,
    "recovered": 5,
    "sick": 3746
  },
  {
    "infected": 6,
    "recovered": 0,
    "latitude": 64.2823,
    "pop": 35874,
    "longitude": -135,
    "name": "Yukon",
    "country": "CA",
    "lastUpdated": "2020-04-03T07:45:02.523Z",
    "dead": 0,
    "id": "k73gNv36u1SmziUF6mUw",
    "sick": 6
  },
  {
    "latitude": 40.078072,
    "pop": 1648000,
    "longitude": 9.283447,
    "name": "Sardegna",
    "country": "IT",
    "lastUpdated": "2020-04-03T07:40:02.723Z",
    "dead": 40,
    "id": "kF99avagXvBfZTHv9ETi",
    "infected": 794,
    "recovered": 36,
    "sick": 718
  },
  {
    "infected": 40,
    "recovered": 0,
    "latitude": 11.572076,
    "pop": 956985,
    "longitude": 43.145645,
    "name": "Djibouti",
    "country": "DJ",
    "lastUpdated": "2020-04-03T07:45:05.219Z",
    "dead": 0,
    "id": "l4nYeaqwy2yrEVqnijFj",
    "sick": 40
  },
  {
    "latitude": 44.0682,
    "pop": 1754000,
    "longitude": -114.742,
    "name": "Idaho",
    "country": "US",
    "lastUpdated": "2020-04-03T07:48:16.210Z",
    "dead": 9,
    "id": "l7fHSKOmcaRX3tq9FCT6",
    "infected": 891,
    "recovered": 0,
    "sick": 882
  },
  {
    "infected": 2077,
    "recovered": 69,
    "latitude": 40.816666,
    "pop": 4048000,
    "longitude": 16.549999,
    "name": "Puglia",
    "country": "IT",
    "lastUpdated": "2020-04-03T07:40:02.542Z",
    "dead": 144,
    "id": "lAKH5Wfg4GhaM54VElFN",
    "sick": 1864
  },
  {
    "latitude": 10.6918,
    "pop": 1369000,
    "longitude": -61.2225,
    "name": "Trinidad and Tobago",
    "country": "TT",
    "lastUpdated": "2020-04-03T07:45:05.232Z",
    "dead": 6,
    "id": "lfLdfRP7hyiA6MVnQqqn",
    "infected": 97,
    "recovered": 1,
    "sick": 90
  },
  {
    "id": "lgqPuia1S3ApA5Lsl2la",
    "infected": 6,
    "recovered": 0,
    "latitude": 16.5388,
    "pop": 546388,
    "longitude": -23.0418,
    "name": "Cape Verde",
    "country": "CV",
    "lastUpdated": "2020-04-03T07:45:05.242Z",
    "dead": 1,
    "sick": 5
  },
  {
    "recovered": 73,
    "latitude": 42.524635,
    "pop": 21810000,
    "longitude": 87.539589,
    "name": "Xinjiang",
    "country": "CN",
    "lastUpdated": "2020-04-03T07:44:13.615Z",
    "dead": 3,
    "id": "lhPjpn6CzqTRDN0RW8uE",
    "infected": 76,
    "sick": 0
  },
  {
    "latitude": 3.2028,
    "pop": 436330,
    "longitude": 73.2207,
    "name": "Maldives",
    "country": "MV",
    "lastUpdated": "2020-04-03T07:45:05.434Z",
    "dead": 0,
    "id": "m45gI2UbWMuTrOnTtp9k",
    "infected": 19,
    "recovered": 13,
    "sick": 6
  },
  {
    "infected": 7,
    "recovered": 0,
    "latitude": 41.9029,
    "pop": 1000,
    "longitude": 12.4534,
    "name": "Vatican City",
    "country": "VA",
    "lastUpdated": "2020-04-03T07:45:05.484Z",
    "dead": 0,
    "id": "mF7rVMdVnazAuw8G22xs",
    "sick": 7
  },
  {
    "latitude": 19.7515,
    "pop": 114200000,
    "longitude": 75.7139,
    "name": "Maharashtra",
    "country": "IN",
    "lastUpdated": "2020-04-03T07:40:01.436Z",
    "dead": 21,
    "id": "mJtdLs4ub6CkcAOeMWUm",
    "infected": 423,
    "recovered": 42,
    "sick": 360
  },
  {
    "id": "mSACWVbCy5QE7ciLA93J",
    "infected": 3404,
    "recovered": 335,
    "latitude": -33.4489,
    "pop": 18050000,
    "longitude": -70.6693,
    "name": "Chile",
    "country": "CL",
    "lastUpdated": "2020-04-03T07:45:04.901Z",
    "dead": 18,
    "sick": 3051
  },
  {
    "lastUpdated": "2020-04-03T07:45:05.331Z",
    "dead": 1,
    "id": "mnew3ojzmWV0dWSPfCQ9",
    "infected": 20,
    "recovered": 2,
    "latitude": -6.369,
    "pop": 57310000,
    "longitude": 34.8888,
    "name": "Tanzania",
    "country": "TZ",
    "sick": 17
  },
  {
    "recovered": 0,
    "latitude": 15.1794,
    "pop": 4475000,
    "longitude": 39.7823,
    "name": "Eritrea",
    "country": "ER",
    "lastUpdated": "2020-04-03T07:45:05.337Z",
    "dead": 0,
    "id": "n6OSwOVBdUie3xeZJmOf",
    "infected": 22,
    "sick": 22
  },
  {
    "infected": 2847,
    "recovered": 0,
    "latitude": 35.693323,
    "pop": 6770000,
    "longitude": -86.605748,
    "name": "Tennessee",
    "country": "US",
    "lastUpdated": "2020-04-03T03:18:17.206Z",
    "dead": 36,
    "id": "nLhJXE2apq8yNNj363ai",
    "sick": 2811
  },
  {
    "lastUpdated": "2020-04-03T07:45:05.341Z",
    "dead": 0,
    "id": "nZzFt6liil98URpNfQyX",
    "infected": 10,
    "recovered": 0,
    "latitude": 19.8562698,
    "pop": 7247000,
    "longitude": 102.4954987,
    "name": "Laos",
    "country": "LA",
    "sick": 10
  },
  {
    "infected": 10,
    "recovered": 0,
    "latitude": -4.6796,
    "pop": 95843,
    "longitude": 55.492,
    "name": "Seychelles",
    "country": "SC",
    "lastUpdated": "2020-04-03T07:45:05.499Z",
    "dead": 0,
    "id": "oB5fSyjWJ0FbNAkssuci",
    "sick": 10
  },
  {
    "recovered": 34,
    "latitude": 31.893778,
    "pop": 35740000,
    "longitude": -6.196132,
    "name": "Morocco",
    "country": "MA",
    "lastUpdated": "2020-04-03T07:45:04.880Z",
    "dead": 47,
    "id": "oJ5vSDE9vgXC2PG8LElp",
    "infected": 735,
    "sick": 654
  },
  {
    "lastUpdated": "2020-04-02T17:42:45.018Z",
    "dead": 370,
    "id": "ofWLu9EuQoK2nHjwU1mA",
    "infected": 4142,
    "recovered": 857,
    "latitude": 50.4801,
    "pop": 5978000,
    "longitude": 2.7937,
    "name": "Hauts-de-France",
    "country": "FR",
    "sick": 2915
  },
  {
    "recovered": 1,
    "latitude": 31.1048,
    "pop": 6856000,
    "longitude": 77.1734,
    "name": "Himachal Pradesh",
    "country": "IN",
    "lastUpdated": "2020-04-03T07:40:01.428Z",
    "dead": 1,
    "id": "oqLEd2Z9P3FJeQsfIk8e",
    "infected": 6,
    "sick": 4
  },
  {
    "lastUpdated": "2020-04-03T07:42:03.121Z",
    "dead": 2,
    "id": "oxz2l1rJipCsfMfy8Mmk",
    "infected": 873,
    "recovered": 8,
    "latitude": -20.917574,
    "pop": 5071000,
    "longitude": 142.702789,
    "name": "Queensland",
    "country": "AU",
    "sick": 863
  },
  {
    "lastUpdated": "2020-04-03T07:44:13.641Z",
    "dead": 13,
    "id": "p1aZboN4BtRJe7hPl8cw",
    "infected": 489,
    "recovered": 469,
    "latitude": 47.121647,
    "pop": 38310000,
    "longitude": 128.738235,
    "name": "Heilongjiang",
    "country": "CN",
    "sick": 7
  },
  {
    "longitude": 117.252747,
    "name": "Anhui",
    "country": "CN",
    "lastUpdated": "2020-04-03T07:44:13.043Z",
    "dead": 6,
    "id": "pFhBwPnGGpQ6DLppJ6YS",
    "infected": 990,
    "recovered": 984,
    "latitude": 32.026379,
    "pop": 62000000,
    "sick": 0
  },
  {
    "recovered": 1,
    "latitude": 2.046934,
    "pop": 14740000,
    "longitude": 45.318161,
    "name": "Somalia",
    "country": "SO",
    "lastUpdated": "2020-04-03T07:45:05.391Z",
    "dead": 0,
    "id": "pHrUAOBW5WDdMsVWpEEi",
    "infected": 5,
    "sick": 4
  },
  {
    "latitude": 21.2787,
    "pop": 25550000,
    "longitude": 81.8661,
    "name": "Chhattisgarh",
    "country": "IN",
    "lastUpdated": "2020-04-03T07:40:01.545Z",
    "dead": 0,
    "id": "pu6AXEsDnpmmqnhajobN",
    "infected": 9,
    "recovered": 3,
    "sick": 6
  },
  {
    "id": "q5cfvHprVTraL1yXnhDx",
    "infected": 653,
    "recovered": 0,
    "latitude": 38.9072,
    "pop": 633427,
    "longitude": -77.0369,
    "name": "Washington, D.C.",
    "country": "US",
    "lastUpdated": "2020-04-03T07:48:16.091Z",
    "dead": 12,
    "sick": 641
  },
  {
    "latitude": 56.1304,
    "longitude": -106.3468,
    "name": "Unknown Canadian province",
    "country": "CA",
    "dead": 0,
    "lastUpdated": "2020-03-30T14:58:07.823Z",
    "id": "qAbgEfrtA8NbQkzMFkEk",
    "infected": 0,
    "recovered": 573,
    "sick": 0
  },
  {
    "lastUpdated": "2020-04-03T07:42:02.933Z",
    "dead": 2,
    "id": "qnQ0dkxAxnDP01YpdZgk",
    "infected": 422,
    "recovered": 1,
    "latitude": -26.190439,
    "pop": 2589000,
    "longitude": 123.325947,
    "name": "Western Australia",
    "country": "AU",
    "sick": 419
  },
  {
    "id": "qpAxVz0garcS0gNZxtOw",
    "infected": 15348,
    "recovered": 2495,
    "latitude": 50.503887,
    "pop": 11400000,
    "longitude": 4.469936,
    "name": "Belgium",
    "country": "BE",
    "lastUpdated": "2020-04-03T07:45:04.771Z",
    "dead": 1011,
    "sick": 11842
  },
  {
    "latitude": 39,
    "pop": 1806000,
    "longitude": -80.5,
    "name": "West Virginia",
    "country": "US",
    "lastUpdated": "2020-04-03T07:48:16.183Z",
    "dead": 2,
    "id": "qrYN2o4c4gAK3ffF5JIw",
    "infected": 217,
    "recovered": 0,
    "sick": 215
  },
  {
    "longitude": -100,
    "name": "Texas",
    "country": "US",
    "lastUpdated": "2020-04-03T07:48:16.111Z",
    "dead": 86,
    "id": "qsrWiq0qCmIG66hpWojP",
    "infected": 5253,
    "recovered": 0,
    "latitude": 31,
    "pop": 28700000,
    "sick": 5167
  },
  {
    "latitude": 43.9352,
    "pop": 5059000,
    "longitude": 6.0679,
    "name": "Provence-Alpes-Côte d’Azur",
    "country": "FR",
    "lastUpdated": "2020-04-02T17:45:16.548Z",
    "dead": 141,
    "id": "qyX9xXEuKg3co8yKe3Fl",
    "infected": 3600,
    "recovered": 1075,
    "sick": 2384
  },
  {
    "latitude": 30.9843,
    "pop": 4660000,
    "longitude": -91.9623,
    "name": "Louisiana",
    "country": "US",
    "lastUpdated": "2020-04-03T07:48:16.116Z",
    "dead": 310,
    "id": "qzuktS0qQVU4PEookjss",
    "infected": 9159,
    "recovered": 0,
    "sick": 8849
  },
  {
    "longitude": 92.9376,
    "name": "Mizoram",
    "country": "IN",
    "lastUpdated": "2020-04-03T07:40:01.575Z",
    "dead": 0,
    "id": "r54PtV0VHsIOc0YPTyhd",
    "infected": 1,
    "recovered": 0,
    "latitude": 23.1645,
    "pop": 1116000,
    "sick": 1
  },
  {
    "lastUpdated": "2020-04-03T07:45:05.453Z",
    "dead": 0,
    "id": "rKbrli0DkAmp1UpbrqHQ",
    "infected": 60,
    "recovered": 1,
    "latitude": 12.5211,
    "pop": 105264,
    "longitude": -69.9683,
    "name": "Aruba",
    "country": "AW",
    "sick": 59
  },
  {
    "id": "rKnSEyG03ak4YmGzonlg",
    "infected": 233,
    "recovered": 85,
    "latitude": 14.058324,
    "pop": 95540000,
    "longitude": 108.277199,
    "name": "Vietnam",
    "country": "VN",
    "lastUpdated": "2020-04-03T07:45:04.795Z",
    "dead": 0,
    "sick": 148
  },
  {
    "recovered": 1,
    "latitude": 1.6508009,
    "pop": 1268000,
    "longitude": 10.2678947,
    "name": "Equatorial Guinea",
    "country": "GQ",
    "lastUpdated": "2020-04-03T07:45:05.410Z",
    "dead": 0,
    "id": "rS04qvFoAknfeZsL2w5f",
    "infected": 15,
    "sick": 14
  },
  {
    "recovered": 10,
    "latitude": -12.8275,
    "pop": 270372,
    "longitude": 45.1662,
    "name": "Mayotte",
    "country": "FR",
    "lastUpdated": "2020-04-02T17:48:35.369Z",
    "dead": 2,
    "id": "rUQ6Z3pmWTPVlqEUSmN7",
    "infected": 116,
    "sick": 104
  },
  {
    "latitude": 29.159849,
    "pop": 57370000,
    "longitude": 120.326447,
    "name": "Zhejiang",
    "country": "CN",
    "lastUpdated": "2020-04-03T07:44:13.636Z",
    "dead": 1,
    "id": "rgBVJ4hPofqjjchnroiY",
    "infected": 1260,
    "recovered": 1228,
    "sick": 31
  },
  {
    "latitude": 45.734955,
    "pop": 126202,
    "longitude": 7.313076,
    "name": "Valle d'Aosta",
    "country": "IT",
    "lastUpdated": "2020-04-03T07:40:02.719Z",
    "dead": 63,
    "id": "rqbHQdev461heM0vyE9L",
    "infected": 668,
    "recovered": 49,
    "sick": 556
  },
  {
    "latitude": 60.472023,
    "pop": 5368000,
    "longitude": 8.468946,
    "name": "Norway",
    "country": "NO",
    "lastUpdated": "2020-04-03T07:45:04.862Z",
    "dead": 50,
    "id": "rxSafpWsyKhfkV0HTtb4",
    "infected": 5218,
    "recovered": 32,
    "sick": 5136
  },
  {
    "lastUpdated": "2020-04-03T07:45:02.340Z",
    "dead": 13,
    "id": "sBFMOzZJdrdXdyLZpweO",
    "infected": 969,
    "recovered": 0,
    "latitude": 53.9333,
    "pop": 4371000,
    "longitude": -116.5765,
    "name": "Alberta",
    "country": "CA",
    "sick": 956
  },
  {
    "longitude": 109.949684,
    "name": "Hainan",
    "country": "CN",
    "lastUpdated": "2020-04-03T07:44:13.735Z",
    "dead": 6,
    "id": "sKNhMvgXeyivpNFg02RA",
    "infected": 168,
    "recovered": 162,
    "latitude": 19.566395,
    "pop": 9258000,
    "sick": 0
  },
  {
    "infected": 1414,
    "recovered": 537,
    "latitude": -10.33755,
    "pop": 32170000,
    "longitude": -75.630295,
    "name": "Peru",
    "country": "PE",
    "lastUpdated": "2020-04-03T07:45:04.851Z",
    "dead": 55,
    "id": "sLL1jETcJYjT6g5bfcEG",
    "sick": 822
  },
  {
    "latitude": 37.89566,
    "pop": 74700000,
    "longitude": 114.904221,
    "name": "Hebei",
    "country": "CN",
    "lastUpdated": "2020-04-03T07:44:13.628Z",
    "dead": 6,
    "id": "sgsBhTwHxF1VVnqXbXXp",
    "infected": 326,
    "recovered": 310,
    "sick": 10
  },
  {
    "infected": 148,
    "recovered": 27,
    "latitude": 42.3154,
    "pop": 3717000,
    "longitude": 43.3569,
    "name": "Georgia",
    "country": "GE",
    "lastUpdated": "2020-04-03T07:45:05.223Z",
    "dead": 0,
    "id": "sjW9OwjFqrOvjVHRXWoR",
    "sick": 121
  },
  {
    "latitude": -23.4425,
    "pop": 6811000,
    "longitude": -58.4438,
    "name": "Paraguay",
    "country": "PY",
    "lastUpdated": "2020-04-03T07:45:05.196Z",
    "dead": 3,
    "id": "t2fq7L9UcXfhuXfQNVRj",
    "infected": 92,
    "recovered": 4,
    "sick": 85
  },
  {
    "infected": 1088,
    "recovered": 0,
    "latitude": 39.147061,
    "pop": 3161000,
    "longitude": -111.596466,
    "name": "Utah",
    "country": "US",
    "lastUpdated": "2020-04-03T07:48:16.202Z",
    "dead": 7,
    "id": "tSmr8vNsiDhhpXMSBsms",
    "sick": 1081
  },
  {
    "infected": 1019,
    "recovered": 1014,
    "latitude": 27.3818,
    "pop": 67370000,
    "longitude": 111.510681,
    "name": "Hunan",
    "country": "CN",
    "lastUpdated": "2020-04-03T07:44:13.728Z",
    "dead": 4,
    "id": "tdNRDDrgvBQqqwzdFGh4",
    "sick": 1
  },
  {
    "longitude": 107.290283,
    "name": "Guizhou",
    "country": "CN",
    "lastUpdated": "2020-04-03T07:44:13.722Z",
    "dead": 2,
    "id": "tyY4QSHWG9sXqSO9jm0Y",
    "infected": 147,
    "recovered": 144,
    "latitude": 26.842964,
    "pop": 34750000,
    "sick": 1
  },
  {
    "infected": 169,
    "recovered": 0,
    "latitude": -20.2067,
    "pop": 1265000,
    "longitude": 57.6755,
    "name": "Mauritius",
    "country": "MU",
    "lastUpdated": "2020-04-03T07:45:05.265Z",
    "dead": 7,
    "id": "uZg9Xtu4zR5tp12TMpOQ",
    "sick": 162
  },
  {
    "lastUpdated": "2020-04-03T07:40:01.553Z",
    "dead": 0,
    "id": "ubUuY89n0cXVgahI4Ytp",
    "infected": 49,
    "recovered": 27,
    "latitude": 29.0588,
    "pop": 25350000,
    "longitude": 76.0856,
    "name": "Haryana",
    "country": "IN",
    "sick": 22
  },
  {
    "infected": 165,
    "recovered": 21,
    "latitude": 41.6667,
    "pop": 308493,
    "longitude": 14.5,
    "name": "Molise",
    "country": "IT",
    "lastUpdated": "2020-04-03T07:40:02.545Z",
    "dead": 11,
    "id": "ueDdQxnY3NvbnoCcPaDH",
    "sick": 133
  },
  {
    "recovered": 632,
    "latitude": 32.93708,
    "pop": 80400000,
    "longitude": 119.151932,
    "name": "Jiangsu",
    "country": "CN",
    "lastUpdated": "2020-04-03T07:44:13.038Z",
    "dead": 0,
    "id": "uvxN28EpGmRq3K9REtBP",
    "infected": 651,
    "sick": 19
  },
  {
    "id": "uxAceZxiizwmo60pyyGn",
    "infected": 860,
    "recovered": 79,
    "latitude": 51.9503,
    "pop": 2277000,
    "longitude": 11.6923,
    "name": "Sachsen-Anhalt",
    "country": "DE",
    "lastUpdated": "2020-04-03T07:11:12.980Z",
    "dead": 11,
    "sick": 770
  },
  {
    "infected": 70,
    "recovered": 3,
    "latitude": 33.7782,
    "pop": 12550000,
    "longitude": 76.5762,
    "name": "Jammu and Kashmir",
    "country": "IN",
    "lastUpdated": "2020-04-03T07:40:01.430Z",
    "dead": 2,
    "id": "v5wfBhxjYTpTMaKko6AW",
    "sick": 65
  },
  {
    "lastUpdated": "2020-04-03T07:45:04.738Z",
    "dead": 58,
    "id": "v8JcH4FHH7BDpJlNNHjv",
    "infected": 865,
    "recovered": 201,
    "latitude": 26.820553,
    "pop": 97550000,
    "longitude": 30.802498,
    "name": "Egypt",
    "country": "EG",
    "sick": 606
  },
  {
    "recovered": 0,
    "latitude": 47.288374,
    "pop": 7536000,
    "longitude": -119.928431,
    "name": "Washington",
    "country": "US",
    "lastUpdated": "2020-04-03T07:48:16.143Z",
    "dead": 272,
    "id": "vCUVQn7RK8pkw5y2rvYN",
    "infected": 6595,
    "sick": 6323
  },
  {
    "lastUpdated": "2020-04-03T07:45:05.471Z",
    "dead": 3,
    "id": "vMGALmMJbagxGIbLyFfS",
    "infected": 47,
    "recovered": 2,
    "latitude": 18.1096,
    "pop": 2890000,
    "longitude": -77.2975,
    "name": "Jamaica",
    "country": "JM",
    "sick": 42
  },
  {
    "latitude": 32.3182,
    "pop": 4888000,
    "longitude": -86.9023,
    "name": "Alabama",
    "country": "US",
    "lastUpdated": "2020-04-03T07:48:16.230Z",
    "dead": 32,
    "id": "vSMJR4m49MZM15umlC9B",
    "infected": 1270,
    "recovered": 0,
    "sick": 1238
  },
  {
    "latitude": 48.8499,
    "pop": 12210000,
    "longitude": 2.637,
    "name": "Ile-de-France",
    "country": "FR",
    "lastUpdated": "2020-04-02T17:42:22.337Z",
    "dead": 1571,
    "id": "vSwFXxTSLgzsG25zOJUy",
    "infected": 21869,
    "recovered": 3887,
    "sick": 16411
  },
  {
    "latitude": 46.5107,
    "pop": 156947,
    "longitude": -63.4168,
    "name": "Prince Edward Island",
    "country": "CA",
    "lastUpdated": "2020-04-03T07:45:02.451Z",
    "dead": 0,
    "id": "vjK6292ALJl5wq8XHw3P",
    "infected": 22,
    "recovered": 0,
    "sick": 22
  },
  {
    "infected": 50468,
    "recovered": 16711,
    "latitude": 32.42791,
    "pop": 81160000,
    "longitude": 53.688046,
    "name": "Iran",
    "country": "IR",
    "lastUpdated": "2020-04-03T07:45:04.693Z",
    "dead": 3160,
    "id": "vkkXVaqUswO5JsMZx0mX",
    "sick": 30597
  },