[
  {
    "latitude": 12.5847,
    "pop": 72600,
    "longitude": -81.7006,
    "name": "San Andrés",
    "country": "CO",
    "lastUpdated": "2020-05-04T17:03:11.624Z",
    "dead": 0,
    "id": "01b09TY4vmuZwzVuiRFK",
    "infected": 6,
    "recovered": 4,
    "sick": 2,
    "invisible": false
  },
  {
    "longitude": -2.5895,
    "name": "Guernsey",
    "country": "GG",
    "lastUpdated": "2020-05-04T17:14:11.019Z",
    "dead": 13,
    "id": "0FOJefeLxQYXQ1CnJm9o",
    "infected": 252,
    "recovered": 217,
    "latitude": 49.4482,
    "pop": 63196,
    "sick": 22,
    "invisible": false
  },
  {
    "latitude": 41.066666,
    "pop": 5827000,
    "longitude": 14.333333,
    "name": "Campania",
    "country": "IT",
    "lastUpdated": "2020-05-04T17:31:08.276Z",
    "dead": 366,
    "id": "0GJcws44NSPsDHAuxJhW",
    "infected": 4498,
    "recovered": 1421,
    "sick": 2711,
    "invisible": false
  },
  {
    "infected": 295,
    "recovered": 0,
    "latitude": -20.2167,
    "pop": 383870,
    "longitude": -70.14222,
    "name": "Tarapacá",
    "country": "CL",
    "lastUpdated": "2020-05-04T17:41:05.916Z",
    "dead": 1,
    "id": "0HDQbiHe462xMCUV5HiI",
    "sick": 294,
    "invisible": false
  },
  {
    "infected": 169,
    "recovered": 60,
    "latitude": 20.9517,
    "pop": 45990000,
    "longitude": 85.0985,
    "name": "Odisha",
    "country": "IN",
    "lastUpdated": "2020-05-04T17:41:01.749Z",
    "dead": 1,
    "id": "0VG7S6aaK4eSo59fL9JO",
    "sick": 108,
    "invisible": false
  },
  {
    "lastUpdated": "2020-05-04T17:32:15.862Z",
    "dead": 42,
    "id": "0XmCRqiK2ZaehoEJvfer",
    "infected": 312,
    "recovered": 0,
    "latitude": 20.4737,
    "pop": 2990300,
    "longitude": -98.8582,
    "name": "Hidalgo",
    "country": "MX",
    "sick": 270,
    "invisible": false
  },
  {
    "recovered": 32,
    "latitude": 11.7401,
    "pop": 427246,
    "longitude": 92.6586,
    "name": "Andaman and Nicobar Islands",
    "country": "IN",
    "lastUpdated": "2020-05-04T17:41:01.750Z",
    "dead": 0,
    "id": "0jStOpTUNRaQYJqgmRoK",
    "infected": 33,
    "sick": 1,
    "invisible": false
  },
  {
    "lastUpdated": "2020-05-04T17:40:04.344Z",
    "dead": 12,
    "id": "0m4aECS0Z2DGFEr8ldgI",
    "infected": 16191,
    "recovered": 1810,
    "latitude": 25.315058,
    "pop": 2639000,
    "longitude": 51.145517,
    "name": "Qatar",
    "country": "QA",
    "sick": 14369,
    "invisible": false
  },
  {
    "infected": 1259,
    "recovered": 218,
    "latitude": 22.9868,
    "pop": 90320000,
    "longitude": 87.855,
    "name": "West Bengal",
    "country": "IN",
    "lastUpdated": "2020-05-04T17:41:01.748Z",
    "dead": 133,
    "id": "0n54EMSDJcRoT1QEvw80",
    "sick": 908,
    "invisible": false
  },
  {
    "id": "0s18o5DrDAHjbu5MFcrj",
    "infected": 2942,
    "recovered": 856,
    "latitude": 22.9734,
    "pop": 73340000,
    "longitude": 78.6569,
    "name": "Madhya Pradesh",
    "country": "IN",
    "lastUpdated": "2020-05-04T17:41:01.748Z",
    "dead": 165,
    "sick": 1921,
    "invisible": false
  },
  {
    "invisible": true,
    "infected": 0,
    "recovered": 181526,
    "latitude": 37.0902,
    "longitude": -95.7129,
    "name": "Unknown US state",
    "country": "US",
    "lastUpdated": "2020-05-04T17:40:04.332Z",
    "dead": 0,
    "id": "0tFoopNTs6e4tOoaltu2",
    "sick": 0
  },
  {
    "infected": 306,
    "recovered": 263,
    "latitude": 35.64249,
    "pop": 37330000,
    "longitude": 108.472214,
    "name": "Shaanxi",
    "country": "CN",
    "lastUpdated": "2020-05-04T17:08:18.127Z",
    "dead": 3,
    "id": "0x2HLhr5z5xAtEdO4iZm",
    "sick": 40,
    "invisible": false
  },
  {
    "infected": 1518,
    "recovered": 992,
    "latitude": 41.643351,
    "pop": 2077000,
    "longitude": 21.668393,
    "name": "North Macedonia",
    "country": "MK",
    "lastUpdated": "2020-05-04T17:40:04.354Z",
    "dead": 85,
    "id": "19MvIhipqTyYv1H37Upw",
    "sick": 441,
    "invisible": false
  },
  {
    "lastUpdated": "2020-05-04T17:27:08.569Z",
    "dead": 3,
    "id": "1DOMOmCWDtva46OVSZLv",
    "infected": 259,
    "recovered": 0,
    "latitude": 53.1355,
    "pop": 521542,
    "longitude": -57.6604,
    "name": "Newfoundland and Labrador",
    "country": "CA",
    "sick": 256,
    "invisible": false
  },
  {
    "id": "1Fap7rZu9SIRqf5TG9Dg",
    "infected": 18,
    "recovered": 18,
    "latitude": 35.801933,
    "pop": 5627000,
    "longitude": 96.779286,
    "name": "Qinghai",
    "country": "CN",
    "lastUpdated": "2020-05-04T17:08:18.133Z",
    "dead": 0,
    "sick": 0,
    "invisible": false
  },
  {
    "infected": 0,
    "recovered": 13447,
    "latitude": 23.6345,
    "pop": 126200000,
    "longitude": -102.5528,
    "name": "Unknown Mexico state",
    "country": "MX",
    "lastUpdated": "2020-05-04T17:40:04.340Z",
    "dead": 0,
    "id": "1YXQMlVL3fUeDZmcVfJw",
    "invisible": true,
    "sick": 0
  },
  {
    "lastUpdated": "2020-05-04T17:31:08.277Z",
    "dead": 3186,
    "id": "1eTSQyfp8RoDPeFrIwun",
    "infected": 27622,
    "recovered": 8874,
    "latitude": 44.9,
    "pop": 4376000,
    "longitude": 8.206944,
    "name": "Piemonte",
    "country": "IT",
    "sick": 15562,
    "invisible": false
  },
  {
    "infected": 90,
    "recovered": 0,
    "latitude": 51.993,
    "pop": 1003000,
    "longitude": 15.461,
    "name": "Lubuskie",
    "country": "PL",
    "lastUpdated": "2020-05-04T17:33:01.628Z",
    "dead": 0,
    "id": "1j1OurxLTpZYuWIWwQ9F",
    "sick": 90,
    "invisible": false
  },
  {
    "recovered": 1423,
    "latitude": 47.4116,
    "pop": 3550000,
    "longitude": 28.3699,
    "name": "Moldova",
    "country": "MD",
    "lastUpdated": "2020-05-04T17:40:04.351Z",
    "dead": 132,
    "id": "1qTPB8X3tyLyIdsb5TN3",
    "infected": 4248,
    "sick": 2693,
    "invisible": false
  },
  {
    "invisible": true,
    "infected": 2276,
    "recovered": 0,
    "latitude": 37.0902,
    "longitude": -95.7129,
    "name": "Federal Bureau of Prisons",
    "country": "US",
    "lastUpdated": "2020-05-04T17:39:06.304Z",
    "dead": 38,
    "id": "22PJOAThcDFKgSbyQIkD",
    "sick": 2238
  },
  {
    "id": "25qIBtsW2nfQj3pwBKg9",
    "infected": 1,
    "recovered": 1,
    "latitude": 30.15336,
    "pop": 3180000,
    "longitude": 88.787865,
    "name": "Tibet",
    "country": "CN",
    "lastUpdated": "2020-05-04T17:08:18.133Z",
    "dead": 0,
    "sick": 0,
    "invisible": false
  },
  {
    "longitude": 115.66779,
    "name": "Indonesia",
    "country": "ID",
    "lastUpdated": "2020-05-04T17:40:04.345Z",
    "dead": 864,
    "id": "2KHYUb5t3lwzVVmDjwNX",
    "infected": 11587,
    "recovered": 1954,
    "latitude": -1.572184,
    "pop": 264000000,
    "sick": 8769,
    "invisible": false
  },
  {
    "lastUpdated": "2020-05-04T17:39:06.300Z",
    "dead": 109,
    "id": "2OrsssmGUs4XCzaZzvTv",
    "infected": 2680,
    "recovered": 0,
    "latitude": 43.807191,
    "pop": 4191000,
    "longitude": -120.585594,
    "name": "Oregon",
    "country": "US",
    "sick": 2571,
    "invisible": false
  },
  {
    "latitude": -23.65,
    "pop": 425000,
    "longitude": -70.400002,
    "name": "Antofagasta",
    "country": "CL",
    "lastUpdated": "2020-05-04T17:41:05.916Z",
    "dead": 7,
    "id": "2c5HBZ1ffkCVXnMYUWnY",
    "infected": 760,
    "recovered": 0,
    "sick": 753,
    "invisible": false
  },
  {
    "infected": 1482,
    "recovered": 0,
    "latitude": 0.035574,
    "pop": 9029000,
    "longitude": -51.070534,
    "name": "Amapá",
    "country": "BR",
    "lastUpdated": "2020-05-04T17:41:09.528Z",
    "dead": 43,
    "id": "2dzhyWsBSPpENWlNew0b",
    "sick": 1439,
    "invisible": false
  },
  {
    "recovered": 103,
    "latitude": 43.851921,
    "pop": 27460000,
    "longitude": 126.548103,
    "name": "Jilin",
    "country": "CN",
    "lastUpdated": "2020-05-04T17:08:18.128Z",
    "dead": 1,
    "id": "2jxHvSsxdnom0nPNvOT8",
    "infected": 112,
    "sick": 8,
    "invisible": false
  },
  {
    "latitude": 36.1408,
    "pop": 34571,
    "longitude": -5.3536,
    "name": "Gibraltar",
    "country": "GI",
    "lastUpdated": "2020-05-04T17:40:04.385Z",
    "dead": 0,
    "id": "2p11BjSAs3wVyymgqBOe",
    "infected": 144,
    "recovered": 133,
    "sick": 11,
    "invisible": false
  },
  {
    "latitude": 47.7516,
    "pop": 2567000,
    "longitude": 1.6751,
    "name": "Centre-Val de Loire",
    "country": "FR",
    "lastUpdated": "2020-05-04T06:48:18.201Z",
    "dead": 401,
    "id": "2sLNkkHpyaHx7dD3aMDO",
    "infected": 3716,
    "recovered": 1232,
    "sick": 2083,
    "invisible": false
  },
  {
    "latitude": 42.565044,
    "pop": 884640,
    "longitude": 12.643751,
    "name": "Umbria",
    "country": "IT",
    "lastUpdated": "2020-05-04T17:31:08.277Z",
    "dead": 70,
    "id": "319tiZOMczx1y0DfvOib",
    "infected": 1394,
    "recovered": 1143,
    "sick": 181,
    "invisible": false
  },
  {
    "infected": 35,
    "recovered": 13,
    "latitude": 2.43823,
    "pop": 1355000,
    "longitude": -76.6131592,
    "name": "Cauca",
    "country": "CO",
    "lastUpdated": "2020-05-04T17:03:11.624Z",
    "dead": 4,
    "id": "38T96Q3XNjt5FSJygPed",
    "sick": 18,
    "invisible": false
  },
  {
    "id": "3IlPjAbP5qVMn1nlgLTJ",
    "infected": 137,
    "recovered": 78,
    "latitude": -13.133896,
    "pop": 17090000,
    "longitude": 27.849332,
    "name": "Zambia",
    "country": "ZM",
    "lastUpdated": "2020-05-04T17:40:04.386Z",
    "dead": 3,
    "sick": 56,
    "invisible": false
  },
  {
    "longitude": 19.3958,
    "name": "Montenegro",
    "country": "ME",
    "lastUpdated": "2020-05-04T17:40:04.383Z",
    "dead": 8,
    "id": "3LstMSN5XMYBkxbe5HN7",
    "infected": 323,
    "recovered": 253,
    "latitude": 42.7044,
    "pop": 631219,
    "sick": 62,
    "invisible": false
  },
  {
    "infected": 107,
    "recovered": 103,
    "latitude": -35.4735,
    "pop": 418440,
    "longitude": 149.0124,
    "name": "Australian Capital Territory",
    "country": "AU",
    "lastUpdated": "2020-05-04T17:02:27.041Z",
    "dead": 3,
    "id": "3OZoQsKrzxZ18EKyfGE6",
    "sick": 1,
    "invisible": false
  },
  {
    "infected": 43,
    "recovered": 33,
    "latitude": 26.2006,
    "pop": 30940000,
    "longitude": 92.9376,
    "name": "Assam",
    "country": "IN",
    "lastUpdated": "2020-05-04T17:41:01.750Z",
    "dead": 1,
    "id": "3cCbnJCsK7mKlTO08K1o",
    "sick": 9,
    "invisible": false
  },
  {
    "recovered": 0,
    "latitude": 40.4173,
    "pop": 11690000,
    "longitude": -82.9071,
    "name": "Ohio",
    "country": "US",
    "lastUpdated": "2020-05-04T17:39:06.298Z",
    "dead": 1040,
    "id": "3fC3bAyIRUquOQOEnQNe",
    "infected": 19916,
    "sick": 18876,
    "invisible": false
  },
  {
    "recovered": 0,
    "latitude": 25,
    "pop": 3066400,
    "longitude": -107.5,
    "name": "Sinaloa",
    "country": "MX",
    "lastUpdated": "2020-05-04T17:32:15.860Z",
    "dead": 170,
    "id": "3kFCzJguabtBvXaHxgiu",
    "infected": 1119,
    "sick": 949,
    "invisible": false
  },
  {
    "lastUpdated": "2020-05-04T17:03:11.617Z",
    "dead": 61,
    "id": "3mC2LveOpXV8P1PmQGUj",
    "infected": 1023,
    "recovered": 235,
    "latitude": 3.420556,
    "pop": 4708300,
    "longitude": -76.522224,
    "name": "Valle del Cauca",
    "country": "CO",
    "sick": 727,
    "invisible": false
  },
  {
    "latitude": 21.0079,
    "pop": 4420000,
    "longitude": -10.9408,
    "name": "Mauritania",
    "country": "MR",
    "lastUpdated": "2020-05-04T17:40:04.397Z",
    "dead": 1,
    "id": "4NnFMekRK2m14IlnZZoj",
    "infected": 8,
    "recovered": 6,
    "sick": 1,
    "invisible": false
  },
  {
    "longitude": -127.6476,
    "name": "British Columbia",
    "country": "CA",
    "lastUpdated": "2020-05-04T17:27:08.568Z",
    "dead": 114,
    "id": "4hfZRUoUgI4a3vrG0GBk",
    "infected": 2171,
    "recovered": 0,
    "latitude": 53.7267,
    "pop": 5071000,
    "sick": 2057,
    "invisible": false
  },
  {
    "recovered": 0,
    "latitude": -22.908333,
    "pop": 17159960,
    "longitude": -43.196388,
    "name": "Rio de Janeiro",
    "country": "BR",
    "lastUpdated": "2020-05-04T17:41:09.529Z",
    "dead": 1019,
    "id": "4kq0z3kh5zt3YAUWxvtE",
    "infected": 11139,
    "sick": 10120,
    "invisible": false
  },
  {
    "latitude": -11.409874,
    "pop": 14812617,
    "longitude": -41.280857,
    "name": "Bahia",
    "country": "BR",
    "lastUpdated": "2020-05-04T17:41:09.528Z",
    "dead": 123,
    "id": "4yDbkEyqsNzZJjfrciYV",
    "infected": 3495,
    "recovered": 0,
    "sick": 3372,
    "invisible": false
  },
  {
    "longitude": 47.93802,
    "name": "Azerbaijan",
    "country": "AZ",
    "lastUpdated": "2020-05-04T17:40:04.353Z",
    "dead": 26,
    "id": "4zqzRm2xHn0CDVOUQJ8p",
    "infected": 1984,
    "recovered": 1480,
    "latitude": 40.3426,
    "pop": 9898000,
    "sick": 478,
    "invisible": false
  },
  {
    "id": "54cfsdsRF76XVHWtZs19",
    "infected": 595,
    "recovered": 0,
    "latitude": 22.233105,
    "pop": 3672300,
    "longitude": -97.861099,
    "name": "Tamaulipas",
    "country": "MX",
    "lastUpdated": "2020-05-04T17:32:15.861Z",
    "dead": 29,
    "sick": 566,
    "invisible": false
  },
  {
    "infected": 27742,
    "recovered": 6936,
    "latitude": 51.0109,
    "pop": 6596000,
    "longitude": 3.7265,
    "name": "Flanders",
    "country": "BE",
    "lastUpdated": "2020-05-04T17:26:11.356Z",
    "dead": 3950,
    "id": "57ydD48mLRD2YoyteJZj",
    "sick": 16856,
    "invisible": false
  },
  {
    "id": "5MHegCUO9L3LiAU7DDey",
    "infected": 83,
    "recovered": 24,
    "latitude": 25.025885,
    "pop": 395361,
    "longitude": -78.035889,
    "name": "Bahamas",
    "country": "BS",
    "lastUpdated": "2020-05-04T17:40:04.389Z",
    "dead": 11,
    "sick": 48,
    "invisible": false
  },
  {
    "infected": 3033,
    "recovered": 2328,
    "latitude": -31.253218,
    "pop": 7544000,
    "longitude": 146.921097,
    "name": "New South Wales",
    "country": "AU",
    "lastUpdated": "2020-05-04T17:02:27.067Z",
    "dead": 42,
    "id": "5N16a2OXXRpsEFanw0TC",
    "sick": 663,
    "invisible": false
  },
  {
    "latitude": 6.8769908,
    "pop": 12580000,
    "longitude": 31.3069782,
    "name": "South Sudan",
    "country": "SS",
    "lastUpdated": "2020-05-04T17:40:04.390Z",
    "dead": 0,
    "id": "5N4PRxsCDzzwk7R200V1",
    "infected": 46,
    "recovered": 0,
    "sick": 46,
    "invisible": false
  },
  {
    "lastUpdated": "2020-05-04T17:32:09.178Z",
    "dead": 1269,
    "id": "5Va9A7CXR8AXdUz4HTJj",
    "infected": 12834,
    "recovered": 7506,
    "latitude": 39.484,
    "pop": 4975000,
    "longitude": -0.7533,
    "name": "C. Valenciana",
    "country": "ES",
    "sick": 4059,
    "invisible": false
  },
  {
    "lastUpdated": "2020-05-04T17:40:04.395Z",
    "dead": 0,
    "id": "5fg04eyDwFw3kEXnrxez",
    "infected": 18,
    "recovered": 17,
    "latitude": -20.9043045,
    "pop": 280460,
    "longitude": 165.618042,
    "name": "New Caledonia",
    "country": "NC",
    "sick": 1,
    "invisible": false
  },
  {
    "infected": 75,
    "recovered": 16,
    "latitude": 28.394857,
    "pop": 29300000,
    "longitude": 84.124008,
    "name": "Nepal",
    "country": "NP",
    "lastUpdated": "2020-05-04T17:40:04.390Z",
    "dead": 0,
    "id": "5gXZIjRgAvd6xWN1LOv8",
    "sick": 59,
    "invisible": false
  },
  {
    "id": "5pwmh7aSdGRKqRbnuyc0",
    "infected": 9485,
    "recovered": 1315,
    "latitude": 12.879721,
    "pop": 104900000,
    "longitude": 121.774017,
    "name": "Philippines",
    "country": "PH",
    "lastUpdated": "2020-05-04T17:40:04.345Z",
    "dead": 623,
    "sick": 7547,
    "invisible": false
  },
  {
    "latitude": -17.824858,
    "pop": 14802190,
    "longitude": 31.053028,
    "name": "Zimbabwe",
    "country": "ZW",
    "lastUpdated": "2020-05-04T17:40:04.394Z",
    "dead": 4,
    "id": "5qtR9nx4BLwu1ODTniaY",
    "infected": 34,
    "recovered": 5,
    "sick": 25,
    "invisible": false
  },
  {
    "latitude": 36.0672,
    "pop": 356890,
    "longitude": -109.188,
    "name": "Navajo Nation",
    "country": "US",
    "lastUpdated": "2020-05-04T17:39:06.304Z",
    "dead": 73,
    "id": "5vkKgxTaKq1IH0Go357L",
    "invisible": true,
    "infected": 2373,
    "recovered": 0,
    "sick": 2300
  },
  {
    "longitude": -99.177254,
    "name": "Ciudad de México",
    "country": "MX",
    "lastUpdated": "2020-05-04T17:32:15.861Z",
    "dead": 472,
    "id": "61E7TGjUwAo9xu6Y6gAH",
    "infected": 6417,
    "recovered": 0,
    "latitude": 19.432241,
    "pop": 8781300,
    "sick": 5945,
    "invisible": false
  },
  {
    "recovered": 638,
    "latitude": 55.621011,
    "pop": 2794000,
    "longitude": 23.804991,
    "name": "Lithuania",
    "country": "LT",
    "lastUpdated": "2020-05-04T17:40:04.354Z",
    "dead": 46,
    "id": "694ON7d0mRJDeM1gHBTR",
    "infected": 1419,
    "sick": 735,
    "invisible": false
  },
  {
    "longitude": -0.5596,
    "name": "South East",
    "country": "GB",
    "lastUpdated": "2020-05-04T17:40:18.507Z",
    "dead": 0,
    "id": "6IQAsvrmBv0HPdeTnh4x",
    "infected": 17756,
    "recovered": 0,
    "latitude": 51.1781,
    "pop": 9175000,
    "sick": 17756,
    "invisible": false
  },
  {
    "latitude": 22.396427,
    "pop": 7392000,
    "longitude": 114.109497,
    "name": "Hong Kong",
    "country": "HK",
    "lastUpdated": "2020-05-04T17:40:04.355Z",
    "dead": 4,
    "id": "6IcHIIH0zXpY0POmBZTv",
    "infected": 1041,
    "recovered": 900,
    "sick": 137,
    "invisible": false
  },
  {
    "latitude": -8.65,
    "pop": 869265,
    "longitude": -72.4,
    "name": "Acre",
    "country": "BR",
    "lastUpdated": "2020-05-04T17:41:09.521Z",
    "dead": 24,
    "id": "6LQesrx5bHJsVUi1TXBp",
    "infected": 657,
    "recovered": 0,
    "sick": 633,
    "invisible": false
  },
  {
    "id": "6SlpghTyB6lpMFvx3g9U",
    "infected": 96,
    "recovered": 50,
    "latitude": 9.3077,
    "pop": 11180000,
    "longitude": 2.3158,
    "name": "Benin",
    "country": "BJ",
    "lastUpdated": "2020-05-04T17:40:04.389Z",
    "dead": 2,
    "sick": 44,
    "invisible": false
  },
  {
    "lastUpdated": "2020-05-04T17:31:08.276Z",
    "dead": 14294,
    "id": "6ZHcvMIzVWIaRnc4R3Qp",
    "infected": 78105,
    "recovered": 26504,
    "latitude": 45.6667,
    "pop": 10040000,
    "longitude": 9.5,
    "name": "Lombardia",
    "country": "IT",
    "sick": 37307,
    "invisible": false
  },
  {
    "latitude": 46.0569,
    "pop": 2067000,
    "longitude": 14.5058,
    "name": "Slovenia",
    "country": "SI",
    "lastUpdated": "2020-05-04T17:40:04.354Z",
    "dead": 97,
    "id": "6ahNiyKDSDAftCctgLH3",
    "infected": 1439,
    "recovered": 241,
    "sick": 1101,
    "invisible": false
  },
  {
    "recovered": 0,
    "latitude": -27.3667908,
    "pop": 300000,
    "longitude": -70.331398,
    "name": "Atacama",
    "country": "CL",
    "lastUpdated": "2020-05-04T17:41:05.916Z",
    "dead": 0,
    "id": "6nyns7UGGgkU7pxrHf8i",
    "infected": 70,
    "sick": 70,
    "invisible": false
  },
  {
    "latitude": -0.8037,
    "pop": 2025000,
    "longitude": 11.6094,
    "name": "Gabon",
    "country": "GA",
    "lastUpdated": "2020-05-04T17:40:04.383Z",
    "dead": 5,
    "id": "6pBi38TUgYfFm0bry2uh",
    "infected": 335,
    "recovered": 85,
    "sick": 245,
    "invisible": false
  },
  {
    "recovered": 0,
    "latitude": 22.1498,
    "pop": 2831900,
    "longitude": -100.9792,
    "name": "San Luis Potosí",
    "country": "MX",
    "lastUpdated": "2020-05-04T17:32:15.862Z",
    "dead": 9,
    "id": "6vjIVg1gSANFZghV7xtS",
    "infected": 155,
    "sick": 146,
    "invisible": false
  },
  {
    "latitude": 17.901672,
    "pop": 9131,
    "longitude": -62.818544,
    "name": "Saint-Barthélémy",
    "country": "FR",
    "lastUpdated": "2020-05-04T17:40:04.397Z",
    "dead": 0,
    "id": "78Ox26bNHDA2Pk2b3Uwn",
    "infected": 6,
    "recovered": 6,
    "sick": 0,
    "invisible": false
  },
  {
    "recovered": 0,
    "latitude": 54.367,
    "pop": 2305000,
    "longitude": 18.633,
    "name": "Pomorskie",
    "country": "PL",
    "lastUpdated": "2020-05-04T17:33:01.623Z",
    "dead": 18,
    "id": "7JDx6UJiwGSJyL1fChaJ",
    "infected": 444,
    "sick": 426,
    "invisible": false
  },
  {
    "infected": 131,
    "recovered": 101,
    "latitude": 35.2923,
    "pop": 84690,
    "longitude": -2.9381,
    "name": "Melilla",
    "country": "ES",
    "lastUpdated": "2020-05-04T17:32:09.177Z",
    "dead": 2,
    "id": "7UASdZTZ1nPzzBwSTEA9",
    "sick": 28,
    "invisible": false
  },
  {
    "id": "7hVFcEV7nV0MrQr3LHrl",
    "infected": 25,
    "recovered": 15,
    "latitude": 17.0608,
    "pop": 102012,
    "longitude": -61.7964,
    "name": "Antigua and Barbuda",
    "country": "AG",
    "lastUpdated": "2020-05-04T17:40:04.394Z",
    "dead": 3,
    "sick": 7,
    "invisible": false
  },
  {
    "longitude": 11.4979,
    "name": "Bayern",
    "country": "DE",
    "lastUpdated": "2020-05-04T17:30:03.001Z",
    "dead": 2077,
    "id": "7kCrrlOBE3jN6FtOVNUB",
    "infected": 43969,
    "recovered": 34230,
    "latitude": 48.7904,
    "pop": 13000000,
    "sick": 7662,
    "invisible": false
  },
  {
    "id": "7rYC2iFB50c55Ihgbs4Q",
    "infected": 3035,
    "recovered": 630,
    "latitude": 47.4979,
    "pop": 9773000,
    "longitude": 19.0402,
    "name": "Hungary",
    "country": "HU",
    "lastUpdated": "2020-05-04T17:40:04.351Z",
    "dead": 351,
    "sick": 2054,
    "invisible": false
  },
  {
    "longitude": -74.7813,
    "name": "Barranquilla D.E.",
    "country": "CO",
    "lastUpdated": "2020-05-04T17:03:11.623Z",
    "dead": 11,
    "id": "7tqLvLyXcBDK808nJv0m",
    "infected": 248,
    "recovered": 41,
    "latitude": 10.9685,
    "pop": 2400000,
    "sick": 196,
    "invisible": false
  },
  {
    "lastUpdated": "2020-05-04T17:40:04.353Z",
    "dead": 64,
    "id": "8C0d7WVCjyUGtnc2gUAR",
    "infected": 2077,
    "recovered": 953,
    "latitude": 7.3697,
    "pop": 24050000,
    "longitude": 12.3547,
    "name": "Cameroon",
    "country": "CM",
    "sick": 1060,
    "invisible": false
  },
  {
    "latitude": 50.8503,
    "pop": 1209000,
    "longitude": 4.3517,
    "name": "Brussels",
    "country": "BE",
    "lastUpdated": "2020-05-04T17:26:11.350Z",
    "dead": 1227,
    "id": "8DOZWbN6bDdgaLXVlUEu",
    "infected": 5158,
    "recovered": 1959,
    "sick": 1972,
    "invisible": false
  },
  {
    "lastUpdated": "2020-05-04T17:40:04.354Z",
    "dead": 76,
    "id": "8RihJrXw4NQXPxaRxr1u",
    "infected": 1594,
    "recovered": 166,
    "latitude": -16.2902,
    "pop": 11050000,
    "longitude": -63.5887,
    "name": "Bolivia",
    "country": "BO",
    "sick": 1352,
    "invisible": false
  },
  {
    "infected": 17,
    "recovered": 9,
    "latitude": 12.9843,
    "pop": 109897,
    "longitude": -61.2872,
    "name": "St. Vincent Grenadines",
    "country": "VC",
    "lastUpdated": "2020-05-04T17:40:04.395Z",
    "dead": 0,
    "id": "8ZTySQROQejkDAad0qxQ",
    "sick": 8,
    "invisible": false
  },
  {
    "longitude": 103.819839,
    "name": "Singapore",
    "country": "SG",
    "lastUpdated": "2020-05-04T17:40:04.340Z",
    "dead": 18,
    "id": "8pA3fM4xC2c2wv1b4TnE",
    "infected": 18778,
    "recovered": 1457,
    "latitude": 1.352083,
    "pop": 5621000,
    "sick": 17303,
    "invisible": false
  },
  {
    "latitude": 47.2184,
    "pop": 3787000,
    "longitude": -1.5536,
    "name": "Pays de la Loire",
    "country": "FR",
    "lastUpdated": "2020-05-04T06:49:15.475Z",
    "dead": 351,
    "id": "98hwAoohgWEOQVa3NlM5",
    "infected": 3215,
    "recovered": 1291,
    "sick": 1573,
    "invisible": false
  },
  {
    "latitude": 19.30754,
    "pop": 952300,
    "longitude": -90.19885,
    "name": "Campeche",
    "country": "MX",
    "lastUpdated": "2020-05-04T17:32:15.861Z",
    "dead": 22,
    "id": "9DAvxOObTqIvMOU93nlY",
    "infected": 161,
    "recovered": 0,
    "sick": 139,
    "invisible": false
  },
  {
    "lastUpdated": "2020-05-04T17:40:04.356Z",
    "dead": 41,
    "id": "9DPOkpIqrFy9mR4e9fuv",
    "infected": 678,
    "recovered": 61,
    "latitude": 12.8628,
    "pop": 40530000,
    "longitude": 30.2176,
    "name": "Sudan",
    "country": "SD",
    "sick": 576,
    "invisible": false
  },
  {
    "id": "9QcETqEcM2fTv9zRvx5T",
    "infected": 13512,
    "recovered": 5269,
    "latitude": 45.943161,
    "pop": 19530000,
    "longitude": 24.966761,
    "name": "Romania",
    "country": "RO",
    "lastUpdated": "2020-05-04T17:40:04.345Z",
    "dead": 818,
    "sick": 7425,
    "invisible": false
  },
  {
    "infected": 15,
    "recovered": 7,
    "latitude": 12.136389,
    "pop": 6218000,
    "longitude": -86.251389,
    "name": "Nicaragua",
    "country": "NI",
    "lastUpdated": "2020-05-04T17:40:04.396Z",
    "dead": 5,
    "id": "9Y5wmCqNCC6ZrenM31uA",
    "sick": 3,
    "invisible": false
  },
  {
    "infected": 580,
    "recovered": 223,
    "latitude": 17.5706921,
    "pop": 18540000,
    "longitude": -3.996166,
    "name": "Mali",
    "country": "ML",
    "lastUpdated": "2020-05-04T17:40:04.381Z",
    "dead": 29,
    "id": "9dIzxqDSVqPyINkHqwGv",
    "sick": 328,
    "invisible": false
  },
  {
    "lastUpdated": "2020-05-04T17:40:04.350Z",
    "dead": 240,
    "id": "9p6OCdZbUUwBLA60Gk3W",
    "infected": 5327,
    "recovered": 3500,
    "latitude": 61.92411,
    "pop": 5513000,
    "longitude": 25.748152,
    "name": "Finland",
    "country": "FI",
    "sick": 1587,
    "invisible": false
  },
  {
    "latitude": 43.311643,
    "pop": 1356000,
    "longitude": -71.590315,
    "name": "New Hampshire",
    "country": "US",
    "lastUpdated": "2020-05-04T17:39:06.300Z",
    "dead": 86,
    "id": "A84CwQ52kA46Hr7pn6Bm",
    "infected": 2518,
    "recovered": 0,
    "sick": 2432,
    "invisible": false
  },
  {
    "infected": 9652,
    "recovered": 0,
    "latitude": 41.823261,
    "pop": 1057000,
    "longitude": -71.412257,
    "name": "Rhode Island",
    "country": "US",
    "lastUpdated": "2020-05-04T17:39:06.299Z",
    "dead": 341,
    "id": "AEUWUHS65qvjEslew11c",
    "sick": 9311,
    "invisible": false
  },
  {
    "infected": 26175,
    "recovered": 13525,
    "latitude": 44.498955,
    "pop": 4453000,
    "longitude": 11.327591,
    "name": "Emilia-Romagna",
    "country": "IT",
    "lastUpdated": "2020-05-04T17:31:08.276Z",
    "dead": 3666,
    "id": "AJ9jQ0iyKsafsmf5yHAR",
    "sick": 8984,
    "invisible": false
  },
  {
    "infected": 2657,
    "recovered": 2052,
    "latitude": 49.3964,
    "pop": 990509,
    "longitude": 7.023,
    "name": "Saarland",
    "country": "DE",
    "lastUpdated": "2020-05-04T17:30:03.004Z",
    "dead": 142,
    "id": "AKjFRQGnzuuZQhv5Qwx7",
    "sick": 463,
    "invisible": false
  },
  {
    "latitude": -35.717,
    "pop": 1125002,
    "longitude": -71.167,
    "name": "Maule",
    "country": "CL",
    "lastUpdated": "2020-05-04T17:41:05.917Z",
    "dead": 13,
    "id": "APTPgjAsjFi0nsGyJV7M",
    "infected": 399,
    "recovered": 0,
    "sick": 386,
    "invisible": false
  },
  {
    "latitude": 71.7069,
    "pop": 56171,
    "longitude": -42.6043,
    "name": "Greenland",
    "country": "GL",
    "lastUpdated": "2020-05-04T17:40:04.396Z",
    "dead": 0,
    "id": "APaZzlGCEeuoLBtzTJMe",
    "infected": 11,
    "recovered": 11,
    "sick": 0,
    "invisible": false
  },
  {
    "latitude": 45.65107,
    "pop": 971395,
    "longitude": -63.582687,
    "name": "Nova Scotia",
    "country": "CA",
    "lastUpdated": "2020-05-04T17:27:08.568Z",
    "dead": 38,
    "id": "AVCpxeh0fuH2WrHWNDYH",
    "infected": 985,
    "recovered": 0,
    "sick": 947,
    "invisible": false
  },
  {
    "infected": 457,
    "recovered": 0,
    "latitude": 47.012918,
    "pop": 1062000,
    "longitude": -109.128641,
    "name": "Montana",
    "country": "US",
    "lastUpdated": "2020-05-04T17:39:06.302Z",
    "dead": 16,
    "id": "AcULcZBozObOhwuRKMjJ",
    "sick": 441,
    "invisible": false
  },
  {
    "id": "AmBYm5J6E9Cuez1FQjiN",
    "infected": 937,
    "recovered": 936,
    "latitude": 27.285971,
    "pop": 45200000,
    "longitude": 116.01609,
    "name": "Jiangxi",
    "country": "CN",
    "lastUpdated": "2020-05-04T17:08:18.131Z",
    "dead": 1,
    "sick": 0,
    "invisible": false
  },
  {
    "infected": 10524,
    "recovered": 0,
    "latitude": 52.1307,
    "pop": 3136000,
    "longitude": -3.7837,
    "name": "Wales",
    "country": "GB",
    "lastUpdated": "2020-05-04T17:40:18.506Z",
    "dead": 997,
    "id": "AoLhHdTydeWTfmp9koEX",
    "sick": 9527,
    "invisible": false
  },
  {
    "lastUpdated": "2020-05-04T17:40:04.351Z",
    "dead": 465,
    "id": "AwN0CScPDApcLFgz6e3z",
    "infected": 4648,
    "recovered": 1998,
    "latitude": 28.033886,
    "pop": 41320000,
    "longitude": 1.659626,
    "name": "Algeria",
    "country": "DZ",
    "sick": 2185,
    "invisible": false
  },
  {
    "infected": 2101,
    "recovered": 1522,
    "latitude": 45.099998,
    "pop": 4076000,
    "longitude": 15.2,
    "name": "Croatia",
    "country": "HR",
    "lastUpdated": "2020-05-04T17:40:04.353Z",
    "dead": 80,
    "id": "B82Ef45M8cDu4q7VsSHF",
    "sick": 499,
    "invisible": false
  },
  {
    "recovered": 518,
    "latitude": 17.6077881,
    "pop": 23716000,
    "longitude": 8.081666,
    "name": "Niger",
    "country": "NE",
    "lastUpdated": "2020-05-04T17:40:04.355Z",
    "dead": 36,
    "id": "BENubqQInFUJzhpZTsLT",
    "infected": 750,
    "sick": 196,
    "invisible": false
  },
  {
    "infected": 26408,
    "recovered": 0,
    "latitude": 39.509109,
    "pop": 6043000,
    "longitude": -76.98432,
    "name": "Maryland",
    "country": "US",
    "lastUpdated": "2020-05-04T17:39:06.298Z",
    "dead": 1317,
    "id": "BF51mWl51fgEcyBpCSzb",
    "sick": 25091,
    "invisible": false
  },
  {
    "id": "BGg6yVU5VP71B8NXU0oh",
    "infected": 17489,
    "recovered": 3259,
    "latitude": 53.709808,
    "pop": 9508000,
    "longitude": 27.953388,
    "name": "Belarus",
    "country": "BY",
    "lastUpdated": "2020-05-04T17:40:04.343Z",
    "dead": 103,
    "sick": 14127,
    "invisible": false
  },
  {
    "id": "BGtoyzb7y54LVlJ91rbf",
    "infected": 2863,
    "recovered": 1096,
    "latitude": 48.8799,
    "pop": 3319000,
    "longitude": 0.1713,
    "name": "Normandie",
    "country": "FR",
    "lastUpdated": "2020-05-04T06:49:03.315Z",
    "dead": 351,
    "sick": 1416,
    "invisible": false
  },
  {
    "latitude": 50.7772,
    "pop": 5616000,
    "longitude": -3.9995,
    "name": "South West",
    "country": "GB",
    "lastUpdated": "2020-05-04T17:40:18.507Z",
    "dead": 0,
    "id": "BQqMOlPFD36ZEDTGd3WC",
    "infected": 6571,
    "recovered": 0,
    "sick": 6571,
    "invisible": false
  },
  {
    "longitude": -111.093735,
    "name": "Arizona",
    "country": "US",
    "lastUpdated": "2020-05-04T17:39:06.299Z",
    "dead": 362,
    "id": "BTEESCuD2ZbS1afunR2A",
    "infected": 8919,
    "recovered": 0,
    "latitude": 34.048927,
    "pop": 7172000,
    "sick": 8557,
    "invisible": false
  },
  {
    "longitude": 14.552812,
    "name": "Zachodniopomorskie",
    "country": "PL",
    "lastUpdated": "2020-05-04T17:33:01.624Z",
    "dead": 14,
    "id": "BZwZOAlDJ8AIiaRVLyC9",
    "infected": 428,
    "recovered": 0,
    "latitude": 53.428543,
    "pop": 1676000,
    "sick": 414,
    "invisible": false
  },
  {
    "lastUpdated": "2020-05-04T17:41:05.918Z",
    "dead": 0,
    "id": "BbiuZcm8oURX7cZwaa5U",
    "invisible": true,
    "infected": 0,
    "recovered": 10415,
    "latitude": -33.4489,
    "longitude": -70.6693,
    "name": "Unknown Chile region",
    "country": "CL",
    "sick": 0
  },
  {
    "recovered": 9,
    "latitude": -13.2543,
    "pop": 18620000,
    "longitude": 34.3015,
    "name": "Malawi",
    "country": "MW",
    "lastUpdated": "2020-05-04T17:40:04.391Z",
    "dead": 3,
    "id": "BfT8o5DaEixC6JIZ28kY",
    "infected": 41,
    "sick": 29,
    "invisible": false
  },
  {
    "lastUpdated": "2020-05-04T17:40:04.396Z",
    "dead": 1,
    "id": "BnpMamidC5yYzeK8tPUL",
    "infected": 15,
    "recovered": 7,
    "latitude": -3.3730559,
    "pop": 10860000,
    "longitude": 29.9188862,
    "name": "Burundi",
    "country": "BI",
    "sick": 7,
    "invisible": false
  },
  {
    "latitude": 52.257,
    "pop": 5385000,
    "longitude": 21.002,
    "name": "Mazowieckie",
    "country": "PL",
    "lastUpdated": "2020-05-04T17:33:01.623Z",
    "dead": 211,
    "id": "BrToMzyq8y2xdwXn75kM",
    "infected": 2553,
    "recovered": 0,
    "sick": 2342,
    "invisible": false
  },
  {
    "recovered": 0,
    "latitude": -1.333845,
    "pop": 74751,
    "longitude": -71.347573,
    "name": "Amazonas (Colombia)",
    "country": "CO",
    "lastUpdated": "2020-05-04T17:03:11.625Z",
    "dead": 9,
    "id": "C25xSDm4iYibX5RYML14",
    "infected": 182,
    "sick": 173,
    "invisible": false
  },
  {
    "infected": 326823,
    "recovered": 0,
    "latitude": 40.719042,
    "pop": 19540000,
    "longitude": -73.982597,
    "name": "New York",
    "country": "US",
    "lastUpdated": "2020-05-04T17:39:06.295Z",
    "dead": 24874,
    "id": "C3BCUzV80z9GfiuByIcr",
    "sick": 301949,
    "invisible": false
  },
  {
    "longitude": 15.359413,
    "name": "Czechia",
    "country": "CZ",
    "lastUpdated": "2020-05-04T17:40:04.345Z",
    "dead": 251,
    "id": "C6S76AggdWVU8G22jFHQ",
    "infected": 7799,
    "recovered": 3786,
    "latitude": 49.731626,
    "pop": 10650000,
    "sick": 3762,
    "invisible": false
  },
  {
    "infected": 3383,
    "recovered": 1718,
    "latitude": 26.0667,
    "pop": 1493000,
    "longitude": 50.557701,
    "name": "Bahrain",
    "country": "BH",
    "lastUpdated": "2020-05-04T17:40:04.351Z",
    "dead": 8,
    "id": "C7cj4nwRITs13KnaJrQ2",
    "sick": 1657,
    "invisible": false
  },
  {
    "lastUpdated": "2020-05-04T17:03:11.625Z",
    "dead": 5,
    "id": "CA9LaAl3bNaeAqBuozn4",
    "infected": 61,
    "recovered": 3,
    "latitude": 10.4113,
    "pop": 1285400,
    "longitude": -74.4057,
    "name": "Magdalena",
    "country": "CO",
    "sick": 53,
    "invisible": false
  },
  {
    "recovered": 0,
    "latitude": 26.909979,
    "pop": 3073500,
    "longitude": -101.430756,
    "name": "Coahuila",
    "country": "MX",
    "lastUpdated": "2020-05-04T17:32:15.861Z",
    "dead": 44,
    "id": "CCUFp4urvgXPo5unfMGy",
    "infected": 480,
    "sick": 436,
    "invisible": false
  },
  {
    "infected": 3061,
    "recovered": 1438,
    "latitude": 27.0238,
    "pop": 68890000,
    "longitude": 74.2179,
    "name": "Rajasthan",
    "country": "IN",
    "lastUpdated": "2020-05-04T17:41:01.748Z",
    "dead": 77,
    "id": "CKZCZTPlrcq5fbfUPA9k",
    "sick": 1546,
    "invisible": false
  },
  {
    "id": "Cgvmtle61ehMvCzRzYx7",
    "infected": 555,
    "recovered": 180,
    "latitude": 13.803,
    "pop": 6378000,
    "longitude": -88.9053,
    "name": "El Salvador",
    "country": "SV",
    "lastUpdated": "2020-05-04T17:40:04.381Z",
    "dead": 12,
    "sick": 363,
    "invisible": false
  },
  {
    "latitude": 40.259003,
    "pop": 2973000,
    "longitude": 44.818474,
    "name": "Armenia",
    "country": "AM",
    "lastUpdated": "2020-05-04T17:40:04.353Z",
    "dead": 39,
    "id": "DCJCtZoBTWQ4mzdDNljD",
    "infected": 2507,
    "recovered": 1071,
    "sick": 1397,
    "invisible": false
  },
  {
    "id": "DJJraANgQbEqz1wBBtZz",
    "infected": 47,
    "recovered": 14,
    "latitude": 5.535,
    "pop": 1278000,
    "longitude": -73.368,
    "name": "Boyacá",
    "country": "CO",
    "lastUpdated": "2020-05-04T17:03:11.625Z",
    "dead": 3,
    "sick": 30,
    "invisible": false
  },
  {
    "infected": 20428,
    "recovered": 0,
    "latitude": 53.6221,
    "pop": 7300000,
    "longitude": -2.5945,
    "name": "North West",
    "country": "GB",
    "lastUpdated": "2020-05-04T17:40:18.507Z",
    "dead": 0,
    "id": "DPwBt2aJuwF0O71vwfM9",
    "sick": 20428,
    "invisible": false
  },
  {
    "recovered": 51,
    "latitude": 32.3213844,
    "pop": 65440,
    "longitude": -64.75737,
    "name": "Bermuda",
    "country": "BM",
    "lastUpdated": "2020-05-04T17:40:04.389Z",
    "dead": 7,
    "id": "DZyTD0Mu5WIcK6yTcJ91",
    "infected": 115,
    "sick": 57,
    "invisible": false
  },
  {
    "lastUpdated": "2020-05-04T17:40:04.396Z",
    "dead": 1,
    "id": "DaMrRSIGJXIG36nW0Pnc",
    "infected": 12,
    "recovered": 6,
    "latitude": 21.694,
    "pop": 35446,
    "longitude": -71.7979,
    "name": "Turks and Caicos",
    "country": "TC",
    "sick": 5,
    "invisible": false
  },
  {
    "longitude": -3.0977,
    "name": "Castilla La Mancha",
    "country": "ES",
    "lastUpdated": "2020-05-04T17:32:09.178Z",
    "dead": 2590,
    "id": "Dbng0NBTH41EEwBxhMzE",
    "infected": 21511,
    "recovered": 5794,
    "latitude": 39.2796,
    "pop": 2035000,
    "sick": 13127,
    "invisible": false
  },
  {
    "latitude": 50.023,
    "pop": 3361000,
    "longitude": 20.006,
    "name": "Malopolskie",
    "country": "PL",
    "lastUpdated": "2020-05-04T17:33:01.623Z",
    "dead": 31,
    "id": "DcQ3D0WkacXEbv6iznRB",
    "infected": 976,
    "recovered": 0,
    "sick": 945,
    "invisible": false
  },
  {
    "id": "DdBt8qsG6A3g92oOR3ow",
    "infected": 45,
    "recovered": 39,
    "latitude": 22.192039,
    "pop": 622567,
    "longitude": 113.551262,
    "name": "Macao",
    "country": "MO",
    "lastUpdated": "2020-05-04T17:40:04.391Z",
    "dead": 0,
    "sick": 6,
    "invisible": false
  },
  {
    "latitude": 25.467,
    "pop": 2651000,
    "longitude": 91.3662,
    "name": "Meghalaya",
    "country": "IN",
    "lastUpdated": "2020-05-04T17:41:01.750Z",
    "dead": 1,
    "id": "Dh0O1vmhrVfmsCsfZCUg",
    "infected": 12,
    "recovered": 10,
    "sick": 1,
    "invisible": false
  },
  {
    "latitude": 42.962334,
    "pop": 577737,
    "longitude": -107.534868,
    "name": "Wyoming",
    "country": "US",
    "lastUpdated": "2020-05-04T17:39:06.302Z",
    "dead": 7,
    "id": "DrGzziUglmBognCGY7R2",
    "infected": 586,
    "recovered": 0,
    "sick": 579,
    "invisible": false
  },
  {
    "infected": 2632,
    "recovered": 1374,
    "latitude": 37.9838,
    "pop": 10740000,
    "longitude": 23.7275,
    "name": "Greece",
    "country": "GR",
    "lastUpdated": "2020-05-04T17:40:04.351Z",
    "dead": 146,
    "id": "Dtr1lap1RpJpXJdXGJiW",
    "sick": 1112,
    "invisible": false
  },
  {
    "infected": 438,
    "recovered": 334,
    "latitude": 25.03841,
    "pop": 23780000,
    "longitude": 121.563698,
    "name": "Taiwan",
    "country": "TW",
    "lastUpdated": "2020-05-04T17:40:04.382Z",
    "dead": 6,
    "id": "EKTfs8e7M6DXzI1HqyyX",
    "sick": 98,
    "invisible": false
  },
  {
    "infected": 742,
    "recovered": 399,
    "latitude": 10.327273,
    "pop": 4906000,
    "longitude": -84.387618,
    "name": "Costa Rica",
    "country": "CR",
    "lastUpdated": "2020-05-04T17:40:04.356Z",
    "dead": 6,
    "id": "EQzJvzVHKjs8kLmK7BMu",
    "sick": 337,
    "invisible": false
  },
  {
    "id": "ERwk9R9en4m9WbdoMbIg",
    "infected": 5804,
    "recovered": 1195,
    "latitude": 22.2587,
    "pop": 62700000,
    "longitude": 71.1924,
    "name": "Gujarat",
    "country": "IN",
    "lastUpdated": "2020-05-04T17:41:01.744Z",
    "dead": 319,
    "sick": 4290,
    "invisible": false
  },
  {
    "lastUpdated": "2020-05-04T17:41:01.749Z",
    "dead": 1,
    "id": "Esl5UlCVB9s8pmGB5Ofr",
    "infected": 102,
    "recovered": 21,
    "latitude": 30.7333,
    "pop": 1055000,
    "longitude": 76.7794,
    "name": "Chandigarh",
    "country": "IN",
    "sick": 80,
    "invisible": false
  },
  {
    "recovered": 0,
    "latitude": 51.24,
    "pop": 2148000,
    "longitude": 22.653,
    "name": "Lubelskie",
    "country": "PL",
    "lastUpdated": "2020-05-04T17:33:01.624Z",
    "dead": 14,
    "id": "Esy1La2CxwH5uB8bGVWZ",
    "infected": 374,
    "sick": 360,
    "invisible": false
  },
  {
    "id": "F4rPrEVGAIMM5rfPEMv4",
    "infected": 1843,
    "recovered": 0,
    "latitude": 18.200178,
    "pop": 3195000,
    "longitude": -66.664513,
    "name": "Puerto Rico",
    "country": "PR",
    "lastUpdated": "2020-05-04T17:39:06.303Z",
    "dead": 97,
    "sick": 1746,
    "invisible": false
  },
  {
    "latitude": 4.862437,
    "pop": 2919000,
    "longitude": -74.058655,
    "name": "Cundinamarca",
    "country": "CO",
    "lastUpdated": "2020-05-04T17:03:11.623Z",
    "dead": 13,
    "id": "F7MED5VwEhi3JvJu6KjB",
    "infected": 246,
    "recovered": 96,
    "sick": 137,
    "invisible": false
  },
  {
    "recovered": 0,
    "latitude": -11.6455,
    "pop": 832322,
    "longitude": 43.3333,
    "name": "Comoros",
    "country": "KM",
    "lastUpdated": "2020-05-04T17:40:04.397Z",
    "dead": 0,
    "id": "F8LnLqvuWoWh8awBqiw1",
    "infected": 3,
    "sick": 3,
    "invisible": false
  },
  {
    "recovered": 397,
    "latitude": 33.93911,
    "pop": 35530000,
    "longitude": 67.709953,
    "name": "Afghanistan",
    "country": "AF",
    "lastUpdated": "2020-05-04T17:40:04.351Z",
    "dead": 90,
    "id": "FCDmlmnIIswd8bQiUjfN",
    "infected": 2894,
    "sick": 2407,
    "invisible": false
  },
  {
    "longitude": 106.912254,
    "name": "Chongqing",
    "country": "CN",
    "lastUpdated": "2020-05-04T17:08:18.132Z",
    "dead": 6,
    "id": "FErOU1m4Tj7jIkRam3vF",
    "infected": 579,
    "recovered": 573,
    "latitude": 29.431585,
    "pop": 30480000,
    "sick": 0,
    "invisible": false
  },
  {
    "longitude": 47.481766,
    "name": "Kuwait",
    "country": "KW",
    "lastUpdated": "2020-05-04T17:40:04.350Z",
    "dead": 40,
    "id": "FZsUkhxBEgqsPb4eO0PN",
    "infected": 5278,
    "recovered": 1947,
    "latitude": 29.311661,
    "pop": 4137000,
    "sick": 3291,
    "invisible": false
  },
  {
    "lastUpdated": "2020-05-04T17:41:09.530Z",
    "dead": 14,
    "id": "FboWeolpM62SZCLwdilT",
    "infected": 730,
    "recovered": 0,
    "latitude": -10.9111,
    "pop": 2278308,
    "longitude": -37.0717,
    "name": "Sergipe",
    "country": "BR",
    "sick": 716,
    "invisible": false
  },
  {
    "id": "FeS45oMNC27pI17F0xEV",
    "infected": 3550,
    "recovered": 1409,
    "latitude": 11.1271,
    "pop": 67860000,
    "longitude": 78.6569,
    "name": "Tamil Nadu",
    "country": "IN",
    "lastUpdated": "2020-05-04T17:41:01.747Z",
    "dead": 31,
    "sick": 2110,
    "invisible": false
  },
  {
    "id": "FuiVEJvWb0QMCpxJ3563",
    "infected": 8235,
    "recovered": 1771,
    "latitude": 18.947829,
    "pop": 10770000,
    "longitude": -70.430399,
    "name": "Dominican Republic",
    "country": "DO",
    "lastUpdated": "2020-05-04T17:40:04.345Z",
    "dead": 346,
    "sick": 6118,
    "invisible": false
  },
  {
    "infected": 1085,
    "recovered": 585,
    "latitude": 18.1124,
    "pop": 35190000,
    "longitude": 79.0193,
    "name": "Telengana",
    "country": "IN",
    "lastUpdated": "2020-05-04T17:41:01.749Z",
    "dead": 29,
    "id": "FyC551oNwmENxbr9Yght",
    "sick": 471,
    "invisible": false
  },
  {
    "infected": 1413,
    "recovered": 643,
    "latitude": 48.669,
    "pop": 5450000,
    "longitude": 19.699,
    "name": "Slovakia",
    "country": "SK",
    "lastUpdated": "2020-05-04T17:40:04.354Z",
    "dead": 25,
    "id": "FzIDXoqWnTI3nUfhPyT2",
    "sick": 745,
    "invisible": false
  },
  {
    "id": "GAp7Wb6IMhdgbvEtMza9",
    "infected": 20941,
    "recovered": 5635,
    "latitude": 30.37532,
    "pop": 197000000,
    "longitude": 69.345116,
    "name": "Pakistan",
    "country": "PK",
    "lastUpdated": "2020-05-04T17:40:04.340Z",
    "dead": 476,
    "sick": 14830,
    "invisible": false
  },
  {
    "recovered": 128,
    "latitude": 31.1471,
    "pop": 27980000,
    "longitude": 75.3412,
    "name": "Punjab",
    "country": "IN",
    "lastUpdated": "2020-05-04T17:41:01.749Z",
    "dead": 23,
    "id": "GGru8cG08mANO8XDDUtZ",
    "infected": 1232,
    "sick": 1081,
    "invisible": false
  },
  {
    "infected": 14163,
    "recovered": 2763,
    "latitude": 23.424076,
    "pop": 9400000,
    "longitude": 53.847816,
    "name": "United Arab Emirates",
    "country": "AE",
    "lastUpdated": "2020-05-04T17:40:04.344Z",
    "dead": 126,
    "id": "GHzBIsHy2GiBc5JV2HMs",
    "sick": 11274,
    "invisible": false
  },
  {
    "lastUpdated": "2020-05-04T17:39:06.304Z",
    "dead": 3,
    "id": "GLViSIjDjwvptOphedAu",
    "invisible": true,
    "infected": 103,
    "recovered": 0,
    "latitude": 37.0902,
    "longitude": -95.7129,
    "name": "Grand Princess",
    "country": "US",
    "sick": 100
  },
  {
    "id": "GPtoS0Yy2EnNafpmmTqY",
    "infected": 24988,
    "recovered": 0,
    "latitude": 51.5074,
    "pop": 10100000,
    "longitude": -0.1278,
    "name": "London",
    "country": "GB",
    "lastUpdated": "2020-05-04T17:40:18.507Z",
    "dead": 0,
    "sick": 24988,
    "invisible": false
  },
  {
    "lastUpdated": "2020-05-04T17:39:06.297Z",
    "dead": 2215,
    "id": "Gh46r6vuaY7fbGt3IboN",
    "infected": 54993,
    "recovered": 0,
    "latitude": 36.621981,
    "pop": 39560000,
    "longitude": -119.339046,
    "name": "California",
    "country": "US",
    "sick": 52778,
    "invisible": false
  },
  {
    "recovered": 0,
    "latitude": 35.87189,
    "pop": 3943000,
    "longitude": -97.145514,
    "name": "Oklahoma",
    "country": "US",
    "lastUpdated": "2020-05-04T17:39:06.300Z",
    "dead": 238,
    "id": "GpF8ULuKOQiFDCUHN44h",
    "infected": 4044,
    "sick": 3806,
    "invisible": false
  },
  {
    "latitude": 46.5,
    "pop": 520891,
    "longitude": 11.35,
    "name": "P.A. Bolzano",
    "country": "IT",
    "lastUpdated": "2020-05-04T17:31:08.275Z",
    "dead": 284,
    "id": "Gzx6GX1qhBm714BkEC6l",
    "infected": 2541,
    "recovered": 1621,
    "sick": 636,
    "invisible": false
  },
  {
    "infected": 201,
    "recovered": 156,
    "latitude": 42.83263,
    "pop": 24710000,
    "longitude": 113.750972,
    "name": "Inner Mongolia",
    "country": "CN",
    "lastUpdated": "2020-05-04T17:08:18.126Z",
    "dead": 1,
    "id": "H3JeVigVbo5CSYfZG4WI",
    "sick": 44,
    "invisible": false
  },
  {
    "id": "H3bDg4eV30up4WWrIDAS",
    "infected": 5491,
    "recovered": 0,
    "latitude": 39.74536,
    "pop": 3034000,
    "longitude": -116.724977,
    "name": "Nevada",
    "country": "US",
    "lastUpdated": "2020-05-04T17:39:06.299Z",
    "dead": 262,
    "sick": 5229,
    "invisible": false
  },
  {
    "lastUpdated": "2020-05-04T17:41:09.528Z",
    "dead": 663,
    "id": "HEMWNnFxeFEoeOCBOLJD",
    "infected": 8370,
    "recovered": 0,
    "latitude": -3.731862,
    "pop": 9075649,
    "longitude": -38.526669,
    "name": "Ceará",
    "country": "BR",
    "sick": 7707,
    "invisible": false
  },
  {
    "infected": 651,
    "recovered": 321,
    "latitude": 15.3173,
    "pop": 64060000,
    "longitude": 75.7139,
    "name": "Karnataka",
    "country": "IN",
    "lastUpdated": "2020-05-04T17:41:01.749Z",
    "dead": 27,
    "id": "HN5mGmxlqlSeFSNeu1K5",
    "sick": 303,
    "invisible": false
  },
  {
    "latitude": 27.5142,
    "pop": 807610,
    "longitude": 90.4336,
    "name": "Bhutan",
    "country": "BT",
    "lastUpdated": "2020-05-04T17:40:04.397Z",
    "dead": 0,
    "id": "HRDpwyxpqW9RN0xLFyNu",
    "infected": 7,
    "recovered": 5,
    "sick": 2,
    "invisible": false
  },
  {
    "infected": 2181,
    "recovered": 1405,
    "latitude": 41.3775,
    "pop": 32390000,
    "longitude": 64.5853,
    "name": "Uzbekistan",
    "country": "UZ",
    "lastUpdated": "2020-05-04T17:40:04.353Z",
    "dead": 10,
    "id": "HRTA10dtrruDEwjJEGMp",
    "sick": 766,
    "invisible": false
  },
  {
    "lastUpdated": "2020-05-04T17:39:06.300Z",
    "dead": 151,
    "id": "HSSFomRju0doHhWgW8On",
    "infected": 3850,
    "recovered": 0,
    "latitude": 34.138916,
    "pop": 2095000,
    "longitude": -105.576255,
    "name": "New Mexico",
    "country": "US",
    "sick": 3699,
    "invisible": false
  },
  {
    "infected": 199,
    "recovered": 0,
    "latitude": -40.231,
    "pop": 412812,
    "longitude": -72.3311,
    "name": "Los Ríos",
    "country": "CL",
    "lastUpdated": "2020-05-04T17:41:05.917Z",
    "dead": 4,
    "id": "HZkACHjW7NlYjg8vEMj2",
    "sick": 195,
    "invisible": false
  },
  {
    "latitude": 53.6127,
    "pop": 1635000,
    "longitude": 12.4296,
    "name": "Mecklenburg-Vorpommern",
    "country": "DE",
    "lastUpdated": "2020-05-04T17:30:03.003Z",
    "dead": 19,
    "id": "He1gSS1v50t06i3YrqvB",
    "infected": 704,
    "recovered": 577,
    "sick": 108,
    "invisible": false
  },
  {
    "recovered": 831,
    "latitude": 42.25,
    "pop": 1315000,
    "longitude": 13.75,
    "name": "Abruzzo",
    "country": "IT",
    "lastUpdated": "2020-05-04T17:31:08.271Z",
    "dead": 332,
    "id": "I9EqrZfbPnkioNU4wZGz",
    "infected": 3000,
    "sick": 1837,
    "invisible": false
  },
  {
    "longitude": 113.373448,
    "name": "Guangdong",
    "country": "CN",
    "lastUpdated": "2020-05-04T17:08:18.128Z",
    "dead": 8,
    "id": "IAX0OQLVnUwU7FX0ENF1",
    "infected": 1588,
    "recovered": 1569,
    "latitude": 23.363855,
    "pop": 113460000,
    "sick": 11,
    "invisible": false
  },
  {
    "infected": 1276,
    "recovered": 1254,
    "latitude": 33.875408,
    "pop": 94000000,
    "longitude": 113.484016,
    "name": "Henan",
    "country": "CN",
    "lastUpdated": "2020-05-04T17:08:18.129Z",
    "dead": 22,
    "id": "IFuMrMvSjoiX5agYvllh",
    "sick": 0,
    "invisible": false
  },
  {
    "longitude": -8.16667,
    "name": "Algarve",
    "country": "PT",
    "lastUpdated": "2020-05-04T17:34:08.591Z",
    "dead": 13,
    "id": "IHqRHC8K3OZPN8gniM7V",
    "infected": 333,
    "recovered": 0,
    "latitude": 37.2,
    "pop": 451000,
    "sick": 320,
    "invisible": false
  },
  {
    "latitude": 3.883,
    "pop": 333194,
    "longitude": -77.0197,
    "name": "Buenaventura D.E.",
    "country": "CO",
    "lastUpdated": "2020-05-04T17:03:11.625Z",
    "dead": 2,
    "id": "IKWjRUo0SYgHQKdWjTvq",
    "infected": 36,
    "recovered": 2,
    "sick": 32,
    "invisible": false
  },
  {
    "longitude": -0.995,
    "name": "East Midlands",
    "country": "GB",
    "lastUpdated": "2020-05-04T17:40:18.507Z",
    "dead": 0,
    "id": "INyu1R48Ppv8cfW4Nuz4",
    "infected": 7143,
    "recovered": 0,
    "latitude": 52.87,
    "pop": 4811000,
    "sick": 7143,
    "invisible": false
  },
  {
    "latitude": 22.017,
    "pop": 1342600,
    "longitude": -102.317,
    "name": "Aguascalientes",
    "country": "MX",
    "lastUpdated": "2020-05-04T17:32:15.862Z",
    "dead": 9,
    "id": "ISRKMzEDojyrZ9iyWwex",
    "infected": 324,
    "recovered": 0,
    "sick": 315,
    "invisible": false
  },
  {
    "latitude": 25.686613,
    "pop": 5321300,
    "longitude": -100.316116,
    "name": "Nuevo León",
    "country": "MX",
    "lastUpdated": "2020-05-04T17:32:15.862Z",
    "dead": 24,
    "id": "IdKbgzgKLpjBFh4UPOwu",
    "infected": 799,
    "recovered": 0,
    "sick": 775,
    "invisible": false
  },
  {
    "recovered": 0,
    "latitude": 28.632996,
    "pop": 3826900,
    "longitude": -106.069099,
    "name": "Chihuahua",
    "country": "MX",
    "lastUpdated": "2020-05-04T17:32:15.860Z",
    "dead": 98,
    "id": "IhhiYI6T0TX4CYVPcnmH",
    "infected": 597,
    "sick": 499,
    "invisible": false
  },
  {
    "recovered": 0,
    "latitude": -36.7,
    "pop": 480600,
    "longitude": -72.57,
    "name": "Ñuble",
    "country": "CL",
    "lastUpdated": "2020-05-04T17:41:05.917Z",
    "dead": 17,
    "id": "ImnOiVx9Cb8Nw7cbRcQ7",
    "infected": 787,
    "sick": 770,
    "invisible": false
  },
  {
    "latitude": 19.0558,
    "pop": 10980000,
    "longitude": -73.0513,
    "name": "Haiti",
    "country": "HT",
    "lastUpdated": "2020-05-04T17:40:04.389Z",
    "dead": 9,
    "id": "InZ38sIqyK7FN7XAOZoX",
    "infected": 88,
    "recovered": 10,
    "sick": 69,
    "invisible": false
  },
  {
    "id": "IvQkDJkTAsoIqPRAU25n",
    "infected": 29103,
    "recovered": 0,
    "latitude": 32.528564,
    "pop": 10520000,
    "longitude": -83.280125,
    "name": "Georgia (US)",
    "country": "US",
    "lastUpdated": "2020-05-04T17:39:06.298Z",
    "dead": 1204,
    "sick": 27899,
    "invisible": false
  },
  {
    "latitude": -42.8285,
    "pop": 4794000,
    "longitude": 172.488081,
    "name": "New Zealand",
    "country": "NZ",
    "lastUpdated": "2020-05-04T17:40:04.354Z",
    "dead": 20,
    "id": "IvVhpOoGpH6JVkGyUhXN",
    "infected": 1487,
    "recovered": 1276,
    "sick": 191,
    "invisible": false
  },
  {
    "longitude": 94.7278,
    "name": "Arunachal Pradesh",
    "country": "IN",
    "lastUpdated": "2020-05-04T17:41:01.751Z",
    "dead": 0,
    "id": "IwYKiIVY18NGwdGQFGWW",
    "infected": 1,
    "recovered": 1,
    "latitude": 28.218,
    "pop": 1255000,
    "sick": 0,
    "invisible": false
  },
  {
    "id": "J3mZXlfEnnJx4CDZLvRG",
    "infected": 357,
    "recovered": 158,
    "latitude": 6.4238,
    "pop": 31980000,
    "longitude": -66.5897,
    "name": "Venezuela",
    "country": "VE",
    "lastUpdated": "2020-05-04T17:40:04.383Z",
    "dead": 10,
    "sick": 189,
    "invisible": false
  },
  {
    "infected": 874,
    "recovered": 296,
    "latitude": 35.1264,
    "pop": 1170000,
    "longitude": 33.4299,
    "name": "Cyprus",
    "country": "CY",
    "lastUpdated": "2020-05-04T17:40:04.355Z",
    "dead": 15,
    "id": "JQByE4l2OA6sGOqIcWrM",
    "sick": 563,
    "invisible": false
  },
  {
    "infected": 528,
    "recovered": 124,
    "latitude": 25.0961,
    "pop": 99020000,
    "longitude": 85.3131,
    "name": "Bihar",
    "country": "IN",
    "lastUpdated": "2020-05-04T17:41:01.749Z",
    "dead": 4,
    "id": "JR7hOGked7CZtIs2nCV5",
    "sick": 400,
    "invisible": false
  },
  {
    "latitude": 14.628434,
    "pop": 17250000,
    "longitude": -90.522713,
    "name": "Guatemala",
    "country": "GT",
    "lastUpdated": "2020-05-04T17:40:04.356Z",
    "dead": 17,
    "id": "JUWE6bG3b5oL7fKQMSvv",
    "infected": 703,
    "recovered": 72,
    "sick": 614,
    "invisible": false
  },
  {
    "lastUpdated": "2020-05-04T17:40:04.351Z",
    "dead": 96,
    "id": "JcFsHSn2WvZ5LJW42ovG",
    "infected": 3828,
    "recovered": 3405,
    "latitude": 49.8153,
    "pop": 602005,
    "longitude": 6.1296,
    "name": "Luxembourg",
    "country": "LU",
    "sick": 327,
    "invisible": false
  },
  {
    "longitude": -74.167,
    "name": "Bolívar",
    "country": "CO",
    "lastUpdated": "2020-05-04T17:03:11.625Z",
    "dead": 3,
    "id": "JmOyaFe25yZCIV64JbZj",
    "infected": 27,
    "recovered": 5,
    "latitude": 8.8,
    "pop": 2049000,
    "sick": 19,
    "invisible": false
  },
  {
    "infected": 1693,
    "recovered": 0,
    "latitude": 31.4,
    "pop": 3648100,
    "longitude": -115.783,
    "name": "Baja California",
    "country": "MX",
    "lastUpdated": "2020-05-04T17:32:15.860Z",
    "dead": 261,
    "id": "Jp9ePErcc8i1aOozEAMf",
    "sick": 1432,
    "invisible": false
  },
  {
    "lastUpdated": "2020-05-04T17:03:11.625Z",
    "dead": 3,
    "id": "Jr8syCB0lydmPDXw8Q6N",
    "infected": 29,
    "recovered": 9,
    "latitude": 8.7479801,
    "pop": 1786500,
    "longitude": -75.8814316,
    "name": "Córdoba",
    "country": "CO",
    "sick": 17,
    "invisible": false
  },
  {
    "longitude": 0.8248,
    "name": "Togo",
    "country": "TG",
    "lastUpdated": "2020-05-04T17:40:04.386Z",
    "dead": 9,
    "id": "JrBbirlBKGdWSdcDt7PF",
    "infected": 126,
    "recovered": 74,
    "latitude": 8.6195,
    "pop": 7798000,
    "sick": 43,
    "invisible": false
  },
  {
    "id": "JzZ8sbqzjutThVjkPKPL",
    "infected": 1652,
    "recovered": 321,
    "latitude": 42.7339,
    "pop": 7050000,
    "longitude": 25.4858,
    "name": "Bulgaria",
    "country": "BG",
    "lastUpdated": "2020-05-04T17:40:04.354Z",
    "dead": 78,
    "sick": 1253,
    "invisible": false
  },
  {
    "infected": 282,
    "recovered": 0,
    "latitude": 50.823,
    "pop": 1263000,
    "longitude": 20.709,
    "name": "Świętokrzyskie",
    "country": "PL",
    "lastUpdated": "2020-05-04T17:33:01.627Z",
    "dead": 8,
    "id": "KGrK7gafkeWjmU6sHQd2",
    "sick": 274,
    "invisible": false
  },
  {
    "longitude": 8.833,
    "name": "Liguria",
    "country": "IT",
    "lastUpdated": "2020-05-04T17:31:08.276Z",
    "dead": 1221,
    "id": "KLXicxFogWnu0dLp4bNK",
    "infected": 8412,
    "recovered": 3683,
    "latitude": 44.5,
    "pop": 1557000,
    "sick": 3508,
    "invisible": false
  },
  {
    "id": "KpOz3WmiZkrXUMlUJNlV",
    "infected": 62,
    "recovered": 29,
    "latitude": 10.4631,
    "pop": 1201000,
    "longitude": -73.2532,
    "name": "Cesar",
    "country": "CO",
    "lastUpdated": "2020-05-04T17:03:11.624Z",
    "dead": 6,
    "sick": 27,
    "invisible": false
  },
  {
    "recovered": 3441,
    "latitude": 43.4167,
    "pop": 3737000,
    "longitude": 11,
    "name": "Toscana",
    "country": "IT",
    "lastUpdated": "2020-05-04T17:31:08.277Z",
    "dead": 881,
    "id": "KrLrJbpDqqiXgUPGCCW9",
    "infected": 9601,
    "sick": 5279,
    "invisible": false
  },
  {
    "lastUpdated": "2020-05-04T17:40:04.356Z",
    "dead": 8,
    "id": "KsWzJO06cf0d6LJ4ZNh9",
    "infected": 732,
    "recovered": 194,
    "latitude": 7.873054,
    "pop": 21440000,
    "longitude": 80.771797,
    "name": "Sri Lanka",
    "country": "LK",
    "sick": 530,
    "invisible": false
  },
  {
    "latitude": 15.9129,
    "pop": 49670000,
    "longitude": 79.74,
    "name": "Andhra Pradesh",
    "country": "IN",
    "lastUpdated": "2020-05-04T17:41:01.748Z",
    "dead": 33,
    "id": "KtQIo2DoqjELtPAlyDVO",
    "infected": 1650,
    "recovered": 524,
    "sick": 1093,
    "invisible": false
  },
  {
    "latitude": 61.52401,
    "pop": 144500000,
    "longitude": 105.318756,
    "name": "Russia",
    "country": "RU",
    "lastUpdated": "2020-05-04T17:40:04.339Z",
    "dead": 1356,
    "id": "KwOuGBKSMRlmwftxAvLX",
    "infected": 145268,
    "recovered": 18095,
    "sick": 125817,
    "invisible": false
  },
  {
    "lastUpdated": "2020-05-04T06:49:36.760Z",
    "dead": 3,
    "id": "LBUtrLDKJiupXjlUNTUe",
    "infected": 38,
    "recovered": 29,
    "latitude": 18.0708,
    "pop": 32125,
    "longitude": -63.0501,
    "name": "Saint-Martin",
    "country": "FR",
    "sick": 6,
    "invisible": false
  },
  {
    "infected": 82,
    "recovered": 55,
    "latitude": 47.166,
    "pop": 38557,
    "longitude": 9.5554,
    "name": "Liechtenstein",
    "country": "LI",
    "lastUpdated": "2020-05-04T17:40:04.390Z",
    "dead": 1,
    "id": "LTGEU2E9MFkrCcFhZYVk",
    "sick": 26,
    "invisible": false
  },
  {
    "lastUpdated": "2020-05-04T17:40:04.354Z",
    "dead": 9,
    "id": "LU2QWt5ao8IJa8evNYVV",
    "infected": 1710,
    "recovered": 450,
    "latitude": 9.9456,
    "pop": 12720000,
    "longitude": -9.6966,
    "name": "Guinea",
    "country": "GN",
    "sick": 1251,
    "invisible": false
  },
  {
    "lastUpdated": "2020-05-04T17:32:15.861Z",
    "dead": 35,
    "id": "LYCBHrA9ms6GcxpLGPCT",
    "infected": 335,
    "recovered": 0,
    "latitude": 29.6667,
    "pop": 3062000,
    "longitude": -110.5,
    "name": "Sonora",
    "country": "MX",
    "sick": 300,
    "invisible": false
  },
  {
    "recovered": 9,
    "latitude": 3.9193051,
    "pop": 563402,
    "longitude": -56.0277824,
    "name": "Suriname",
    "country": "SR",
    "lastUpdated": "2020-05-04T17:40:04.396Z",
    "dead": 1,
    "id": "LglKINHyQpYpFxjckbQ6",
    "infected": 10,
    "sick": 0,
    "invisible": false
  },
  {
    "longitude": -106.4509,
    "name": "Saskatchewan",
    "country": "CA",
    "lastUpdated": "2020-05-04T17:27:08.569Z",
    "dead": 7,
    "id": "LkIDKY0CMAqzbwBHyYCP",
    "infected": 433,
    "recovered": 0,
    "latitude": 52.9399,
    "pop": 1174000,
    "sick": 426,
    "invisible": false
  },
  {
    "infected": 6,
    "recovered": 5,
    "latitude": 24.2155,
    "pop": 636442,
    "longitude": -12.8858,
    "name": "Western Sahara",
    "country": "EH",
    "lastUpdated": "2020-05-04T17:40:04.397Z",
    "dead": 0,
    "id": "LooNn6RuMiDhQnwa9svw",
    "sick": 1,
    "invisible": false
  },
  {
    "longitude": -5.951843,
    "name": "Principado de Asturias",
    "country": "ES",
    "lastUpdated": "2020-05-04T17:32:09.177Z",
    "dead": 284,
    "id": "Lsga7AvYNnY0qQ5gEfV8",
    "infected": 2991,
    "recovered": 917,
    "latitude": 43.363129,
    "pop": 1022000,
    "sick": 1790,
    "invisible": false
  },
  {
    "latitude": 39.4937,
    "pop": 1065000,
    "longitude": -6.0679,
    "name": "Extremadura",
    "country": "ES",
    "lastUpdated": "2020-05-04T17:32:09.177Z",
    "dead": 460,
    "id": "LuEErlF7dVKI0eJsRjFm",
    "infected": 3722,
    "recovered": 2090,
    "sick": 1172,
    "invisible": false
  },
  {
    "lastUpdated": "2020-05-04T17:32:15.861Z",
    "dead": 33,
    "id": "M3wdiueFtwrUHiQ2rOXA",
    "infected": 391,
    "recovered": 0,
    "latitude": 21.0186,
    "pop": 5965000,
    "longitude": -101.2591,
    "name": "Guanajuato",
    "country": "MX",
    "sick": 358,
    "invisible": false
  },
  {
    "latitude": 37.8393,
    "pop": 4468000,
    "longitude": -84.27,
    "name": "Kentucky",
    "country": "US",
    "lastUpdated": "2020-05-04T17:39:06.300Z",
    "dead": 253,
    "id": "MC8MXFw9iXYybnF8v7e6",
    "infected": 5130,
    "recovered": 0,
    "sick": 4877,
    "invisible": false
  },
  {
    "invisible": true,
    "infected": 42974,
    "recovered": 0,
    "latitude": 55.3781,
    "longitude": -3.436,
    "name": "Unknown UK region or state",
    "country": "GB",
    "lastUpdated": "2020-05-04T17:40:18.508Z",
    "dead": 25785,
    "id": "MEjlm8VYdGA28TTTnQmf",
    "sick": 17189
  },
  {
    "latitude": 41.3006,
    "pop": 3689000,
    "longitude": -7.7441,
    "name": "Norte",
    "country": "PT",
    "lastUpdated": "2020-05-04T17:34:08.584Z",
    "dead": 609,
    "id": "MG4e9tulLJ010SZJvbYN",
    "infected": 15141,
    "recovered": 0,
    "sick": 14532,
    "invisible": false
  },
  {
    "latitude": 56.4907,
    "pop": 5450000,
    "longitude": -4.2026,
    "name": "Scotland",
    "country": "GB",
    "lastUpdated": "2020-05-04T17:40:18.506Z",
    "dead": 1571,
    "id": "MObRYyIriHG337L8FyFC",
    "infected": 12266,
    "recovered": 0,
    "sick": 10695,
    "invisible": false
  },
  {
    "infected": 20507,
    "recovered": 0,
    "latitude": 40.2672,
    "pop": 6692000,
    "longitude": -86.1349,
    "name": "Indiana",
    "country": "US",
    "lastUpdated": "2020-05-04T17:39:06.298Z",
    "dead": 1264,
    "id": "MOxDkmQ4wBi1CuAdVxDE",
    "sick": 19243,
    "invisible": false
  },
  {
    "latitude": 7.54,
    "pop": 24290000,
    "longitude": -5.5471,
    "name": "Ivory Coast",
    "country": "CI",
    "lastUpdated": "2020-05-04T17:40:04.355Z",
    "dead": 17,
    "id": "MdQOfc1gNh2DOqwSP6UV",
    "infected": 1398,
    "recovered": 653,
    "sick": 728,
    "invisible": false
  },
  {
    "infected": 33867,
    "recovered": 25840,
    "latitude": 51.4332,
    "pop": 17910000,
    "longitude": 7.6616,
    "name": "Nordrhein-Westfalen",
    "country": "DE",
    "lastUpdated": "2020-05-04T17:30:03.003Z",
    "dead": 1310,
    "id": "MjpYq3zQyAvSQlVVYjD2",
    "sick": 6717,
    "invisible": false
  },
  {
    "lastUpdated": "2020-05-04T17:08:18.133Z",
    "dead": 0,
    "id": "MntmjjuHljarCdt6aIeE",
    "infected": 75,
    "recovered": 75,
    "latitude": 37.330509,
    "pop": 6301000,
    "longitude": 105.977203,
    "name": "Ningxia",
    "country": "CN",
    "sick": 0,
    "invisible": false
  },
  {
    "latitude": -3.20166586,
    "pop": 8513497,
    "longitude": -52.203499186,
    "name": "Pará",
    "country": "BR",
    "lastUpdated": "2020-05-04T17:41:09.529Z",
    "dead": 309,
    "id": "MuEB2UgkId5crsxi9zQT",
    "infected": 3863,
    "recovered": 0,
    "sick": 3554,
    "invisible": false
  },
  {
    "infected": 33465,
    "recovered": 24838,
    "latitude": 48.6616,
    "pop": 11020000,
    "longitude": 9.3501,
    "name": "Baden-Württemberg",
    "country": "DE",
    "lastUpdated": "2020-05-04T17:30:03.000Z",
    "dead": 1482,
    "id": "N3XsRBwJSsNclkEf7Zz5",
    "sick": 7145,
    "invisible": false
  },
  {
    "id": "N7c13sCQF0G789XAVazJ",
    "infected": 1926,
    "recovered": 855,
    "latitude": 44.696652,
    "pop": 3507000,
    "longitude": 17.824332,
    "name": "Bosnia and Herzegovina",
    "country": "BA",
    "lastUpdated": "2020-05-04T17:40:04.354Z",
    "dead": 78,
    "sick": 993,
    "invisible": false
  },
  {
    "latitude": 37.242565,
    "pop": 36500000,
    "longitude": 111.856857,
    "name": "Shanxi",
    "country": "CN",
    "lastUpdated": "2020-05-04T17:08:18.128Z",
    "dead": 0,
    "id": "NBRIGIRrJB1Ry8prDNAC",
    "infected": 198,
    "recovered": 180,
    "sick": 18,
    "invisible": false
  },
  {
    "lastUpdated": "2020-05-04T17:39:06.298Z",
    "dead": 442,
    "id": "NC64Qp5kTqAfiTuR27k8",
    "infected": 11972,
    "recovered": 0,
    "latitude": 35.7596,
    "pop": 10380000,
    "longitude": -79.0193,
    "name": "North Carolina",
    "country": "US",
    "sick": 11530,
    "invisible": false
  },
  {
    "latitude": 52.4125,
    "pop": 2504000,
    "longitude": 12.5316,
    "name": "Brandenburg",
    "country": "DE",
    "lastUpdated": "2020-05-04T17:30:03.002Z",
    "dead": 152,
    "id": "NJjo2gfBvnbK4xatrsUz",
    "infected": 3020,
    "recovered": 2240,
    "sick": 628,
    "invisible": false
  },
  {
    "latitude": 15.0979,
    "pop": 55144,
    "longitude": -145.6739,
    "name": "Northern Mariana Islands",
    "country": "MP",
    "lastUpdated": "2020-05-04T17:39:06.303Z",
    "dead": 2,
    "id": "NLLL6pJhJSw0lrDMD4uP",
    "infected": 14,
    "recovered": 0,
    "sick": 12,
    "invisible": false
  },
  {
    "latitude": 30.0668,
    "pop": 10080000,
    "longitude": 79.0193,
    "name": "Uttarakhand",
    "country": "IN",
    "lastUpdated": "2020-05-04T17:41:01.750Z",
    "dead": 1,
    "id": "NMeZEcGToxXfpi16PfFV",
    "infected": 60,
    "recovered": 39,
    "sick": 20,
    "invisible": false
  },
  {
    "infected": 8580,
    "recovered": 5071,
    "latitude": 50.6521,
    "pop": 6243000,
    "longitude": 9.1624,
    "name": "Hessen",
    "country": "DE",
    "lastUpdated": "2020-05-04T17:30:03.003Z",
    "dead": 379,
    "id": "Nk5vPgUIXsWVfbWZf15O",
    "sick": 3130,
    "invisible": false
  },
  {
    "lastUpdated": "2020-05-04T17:40:04.355Z",
    "dead": 16,
    "id": "NmmMKy0YqA8StHdGzB5N",
    "infected": 896,
    "recovered": 348,
    "latitude": 56.96776,
    "pop": 1920000,
    "longitude": 25.837107,
    "name": "Latvia",
    "country": "LV",
    "sick": 532,
    "invisible": false
  },
  {
    "infected": 8643,
    "recovered": 0,
    "latitude": -8.472372,
    "pop": 9496294,
    "longitude": -37.946777,
    "name": "Pernambuco",
    "country": "BR",
    "lastUpdated": "2020-05-04T17:41:09.529Z",
    "dead": 652,
    "id": "NyGlFL1gATK1Omv9qtcC",
    "sick": 7991,
    "invisible": false
  },
  {
    "infected": 166,
    "recovered": 58,
    "latitude": 6.4281,
    "pop": 4732000,
    "longitude": -9.4295,
    "name": "Liberia",
    "country": "LR",
    "lastUpdated": "2020-05-04T17:40:04.385Z",
    "dead": 18,
    "id": "O4g88K49HKEZLFXm5gxb",
    "sick": 90,
    "invisible": false
  },
  {
    "infected": 6626,
    "recovered": 0,
    "latitude": 34.003307,
    "pop": 5084000,
    "longitude": -80.525613,
    "name": "South Carolina",
    "country": "US",
    "lastUpdated": "2020-05-04T17:39:06.299Z",
    "dead": 275,
    "id": "ONU4CK8QjViFHKg2w5if",
    "sick": 6351,
    "invisible": false
  },
  {
    "infected": 7550,
    "recovered": 0,
    "latitude": 33.51822,
    "pop": 2987000,
    "longitude": -89.582775,
    "name": "Mississippi",
    "country": "US",
    "lastUpdated": "2020-05-04T17:39:06.299Z",
    "dead": 303,
    "id": "OYa0jFzdbAgo8zUsRv6q",
    "sick": 7247,
    "invisible": false
  },
  {
    "latitude": 45.2538,
    "pop": 1338000,
    "longitude": -69.4455,
    "name": "Maine",
    "country": "US",
    "lastUpdated": "2020-05-04T17:39:06.301Z",
    "dead": 57,
    "id": "OcXNp9kNVSwrRlG3bNVN",
    "infected": 1205,
    "recovered": 0,
    "sick": 1148,
    "invisible": false
  },
  {
    "latitude": -41.915264,
    "pop": 515000,
    "longitude": 146.725256,
    "name": "Tasmania",
    "country": "AU",
    "lastUpdated": "2020-05-04T17:02:27.074Z",
    "dead": 13,
    "id": "OnOseaqWdnuP18oruABW",
    "infected": 223,
    "recovered": 164,
    "sick": 46,
    "invisible": false
  },
  {
    "latitude": -16.35,
    "pop": 3441998,
    "longitude": -56.666668,
    "name": "Mato Grosso",
    "country": "BR",
    "lastUpdated": "2020-05-04T17:41:09.529Z",
    "dead": 12,
    "id": "P0GHFGUt1pkKTk5PM8uz",
    "infected": 337,
    "recovered": 0,
    "sick": 325,
    "invisible": false
  },
  {
    "latitude": 19.3133,
    "pop": 61559,
    "longitude": -81.2546,
    "name": "Cayman Islands",
    "country": "KY",
    "lastUpdated": "2020-05-04T17:40:04.390Z",
    "dead": 1,
    "id": "P4mwRFLbrvT0t75uD8Wo",
    "infected": 74,
    "recovered": 10,
    "sick": 63,
    "invisible": false
  },
  {
    "infected": 11,
    "recovered": 7,
    "latitude": 16.7424984,
    "pop": 5900,
    "longitude": -62.1873665,
    "name": "Montserrat",
    "country": "MS",
    "lastUpdated": "2020-05-04T17:40:04.396Z",
    "dead": 1,
    "id": "PEDkeFMTOZpvHiSVxBk7",
    "sick": 3,
    "invisible": false
  },
  {
    "id": "PEcgZGEkyhABztt1Ufgc",
    "infected": 259,
    "recovered": 124,
    "latitude": -1.9403,
    "pop": 12210000,
    "longitude": 29.8739,
    "name": "Rwanda",
    "country": "RW",
    "lastUpdated": "2020-05-04T17:40:04.383Z",
    "dead": 0,
    "sick": 135,
    "invisible": false
  },
  {
    "lastUpdated": "2020-05-04T17:39:06.299Z",
    "dead": 428,
    "id": "PJvVYosLIhbcRZYnKX1R",
    "infected": 7234,
    "recovered": 0,
    "latitude": 46.7296,
    "pop": 5611000,
    "longitude": -94.6859,
    "name": "Minnesota",
    "country": "US",
    "sick": 6806,
    "invisible": false
  },
  {
    "longitude": -89.3985,
    "name": "Illinois",
    "country": "US",
    "lastUpdated": "2020-05-04T17:39:06.297Z",
    "dead": 2618,
    "id": "PTwQr9ijo0TBBsPH2sdJ",
    "infected": 61499,
    "recovered": 0,
    "latitude": 40.6331,
    "pop": 12740000,
    "sick": 58881,
    "invisible": false
  },
  {
    "latitude": 13.909444,
    "pop": 178844,
    "longitude": -60.978893,
    "name": "Saint Lucia",
    "country": "LC",
    "lastUpdated": "2020-05-04T17:40:04.395Z",
    "dead": 0,
    "id": "PjLqCeFdyzdZNcZxMkK1",
    "infected": 18,
    "recovered": 15,
    "sick": 3,
    "invisible": false
  },
  {
    "recovered": 2494,
    "latitude": 42.6954,
    "pop": 649900,
    "longitude": -1.6761,
    "name": "Comunidad Foral de Navarra",
    "country": "ES",
    "lastUpdated": "2020-05-04T17:32:09.178Z",
    "dead": 466,
    "id": "PmUlsNx2uFLU797wwU39",
    "infected": 6447,
    "sick": 3487,
    "invisible": false
  },
  {
    "latitude": 34.201507,
    "pop": 11530000,
    "longitude": 9.460554,
    "name": "Tunisia",
    "country": "TN",
    "lastUpdated": "2020-05-04T17:40:04.355Z",
    "dead": 42,
    "id": "Pr76V4raf108uSRoEXac",
    "infected": 1013,
    "recovered": 328,
    "sick": 643,
    "invisible": false
  },
  {
    "infected": 116,
    "recovered": 12,
    "latitude": -26.5225,
    "pop": 1367000,
    "longitude": 31.4659,
    "name": "Eswatini",
    "country": "SZ",
    "lastUpdated": "2020-05-04T17:40:04.387Z",
    "dead": 1,
    "id": "PuQgOd9KWiMzGZXm11sR",
    "sick": 103,
    "invisible": false
  },
  {
    "infected": 1406,
    "recovered": 1310,
    "latitude": -37.009609,
    "pop": 6359000,
    "longitude": 143.94853,
    "name": "Victoria",
    "country": "AU",
    "lastUpdated": "2020-05-04T17:02:27.075Z",
    "dead": 18,
    "id": "Q18mrGvFWTLX2BU9SqhQ",
    "sick": 78,
    "invisible": false
  },
  {
    "infected": 2802,
    "recovered": 2200,
    "latitude": 54.2194,
    "pop": 2890000,
    "longitude": 9.6961,
    "name": "Schleswig-Holstein",
    "country": "DE",
    "lastUpdated": "2020-05-04T17:30:03.004Z",
    "dead": 127,
    "id": "Q39XkabIYxt15mHINzTa",
    "sick": 475,
    "invisible": false
  },
  {
    "latitude": -27.953491,
    "pop": 11329605,
    "longitude": -52.031696,
    "name": "Rio Grande do Sul",
    "country": "BR",
    "lastUpdated": "2020-05-04T17:41:09.529Z",
    "dead": 65,
    "id": "QGpQNhuoVTUPHXvS7qcu",
    "infected": 1666,
    "recovered": 0,
    "sick": 1601,
    "invisible": false
  },
  {
    "lastUpdated": "2020-05-04T17:40:04.354Z",
    "dead": 55,
    "id": "QR9go2hQKXjty7JHUYe4",
    "infected": 1703,
    "recovered": 259,
    "latitude": 58.595272,
    "pop": 1328000,
    "longitude": 25.013607,
    "name": "Estonia",
    "country": "EE",
    "sick": 1389,
    "invisible": false
  },
  {
    "latitude": -20.318,
    "pop": 3972388,
    "longitude": -40.336,
    "name": "Espírito Santo",
    "country": "BR",
    "lastUpdated": "2020-05-04T17:41:09.528Z",
    "dead": 114,
    "id": "QaWDLKH8SuwD0Qxq6c38",
    "infected": 3086,
    "recovered": 0,
    "sick": 2972,
    "invisible": false
  },
  {
    "lastUpdated": "2020-05-04T17:32:15.862Z",
    "dead": 33,
    "id": "Qkho455pBwx88Gohs3hL",
    "infected": 551,
    "recovered": 0,
    "latitude": 20.3333,
    "pop": 8222700,
    "longitude": -103.6667,
    "name": "Jalisco",
    "country": "MX",
    "sick": 518,
    "invisible": false
  },
  {
    "id": "QlZrE4nosm5WfdA2aCDg",
    "infected": 8,
    "recovered": 6,
    "latitude": -6.315,
    "pop": 8251000,
    "longitude": 143.9555,
    "name": "Papua New Guinea",
    "country": "PG",
    "lastUpdated": "2020-05-04T17:40:04.397Z",
    "dead": 0,
    "sick": 2,
    "invisible": false
  },
  {
    "infected": 66,
    "recovered": 0,
    "latitude": 18.3358,
    "pop": 107268,
    "longitude": -64.8963,
    "name": "U.S. Virgin Islands",
    "country": "US",
    "lastUpdated": "2020-05-04T17:39:06.303Z",
    "dead": 4,
    "id": "QqhD3YDMKXojvQY3Yu41",
    "sick": 62,
    "invisible": false
  },
  {
    "latitude": 15.414999,
    "pop": 71937,
    "longitude": -61.3709755,
    "name": "Dominica",
    "country": "DM",
    "lastUpdated": "2020-05-04T17:40:04.396Z",
    "dead": 0,
    "id": "Qy2qW2ep5wltnYjPJBxh",
    "infected": 16,
    "recovered": 13,
    "sick": 3,
    "invisible": false
  },
  {
    "latitude": 5.167,
    "pop": 344027,
    "longitude": -72.167,
    "name": "Casanare",
    "country": "CO",
    "lastUpdated": "2020-05-04T17:03:11.624Z",
    "dead": 0,
    "id": "R3IHMWqIUhOJJTlrmbUZ",
    "infected": 19,
    "recovered": 6,
    "sick": 13,
    "invisible": false
  },
  {
    "id": "R8YCgephnxTufvcPWMgx",
    "infected": 7197,
    "recovered": 641,
    "latitude": 8.538,
    "pop": 4099000,
    "longitude": -80.7821,
    "name": "Panama",
    "country": "PA",
    "lastUpdated": "2020-05-04T17:40:04.349Z",
    "dead": 200,
    "sick": 6356,
    "invisible": false
  },
  {
    "id": "RA2SE0p2bVhqo0P2hzGY",
    "infected": 1055,
    "recovered": 118,
    "latitude": 15.2,
    "pop": 9265000,
    "longitude": -86.2419,
    "name": "Honduras",
    "country": "HN",
    "lastUpdated": "2020-05-04T17:40:04.355Z",
    "dead": 82,
    "sick": 855,
    "invisible": false
  },
  {
    "infected": 308,
    "recovered": 0,
    "latitude": -18.4745998,
    "pop": 224500,
    "longitude": -70.2979202,
    "name": "Arica y Parinacota",
    "country": "CL",
    "lastUpdated": "2020-05-04T17:41:05.915Z",
    "dead": 4,
    "id": "RBt9RiwP7WUbMnJfD0lo",
    "sick": 304,
    "invisible": false
  },
  {
    "latitude": 45.633331,
    "pop": 1216000,
    "longitude": 13.8,
    "name": "Friuli Venezia Giulia",
    "country": "IT",
    "lastUpdated": "2020-05-04T17:31:08.276Z",
    "dead": 299,
    "id": "RCrDBCdBNYzgLNr0aB2H",
    "infected": 3076,
    "recovered": 1727,
    "sick": 1050,
    "invisible": false
  },
  {
    "longitude": -93.0977,
    "name": "Iowa",
    "country": "US",
    "lastUpdated": "2020-05-04T17:39:06.298Z",
    "dead": 188,
    "id": "RX0KDu1AFrlCsrRso0nb",
    "infected": 9703,
    "recovered": 0,
    "latitude": 41.878,
    "pop": 3156000,
    "sick": 9515,
    "invisible": false
  },
  {
    "recovered": 616,
    "latitude": 4.624335,
    "pop": 7413000,
    "longitude": -74.063644,
    "name": "Bogotá D.C.",
    "country": "CO",
    "lastUpdated": "2020-05-04T17:03:11.575Z",
    "dead": 114,
    "id": "RZ6PCe5TZsO15JjDObwO",
    "infected": 2958,
    "sick": 2228,
    "invisible": false
  },
  {
    "infected": 63,
    "recovered": 22,
    "latitude": 26.3351002,
    "pop": 6846000,
    "longitude": 17.2283306,
    "name": "Libya",
    "country": "LY",
    "lastUpdated": "2020-05-04T17:40:04.390Z",
    "dead": 3,
    "id": "RaJxbzlnRFTuj4B8IbpC",
    "sick": 38,
    "invisible": false
  },
  {
    "latitude": 39.0119,
    "pop": 2912000,
    "longitude": -98.4842,
    "name": "Kansas",
    "country": "US",
    "lastUpdated": "2020-05-04T17:39:06.300Z",
    "dead": 147,
    "id": "Rf4uvBfP3GRDSHdZElRd",
    "infected": 5193,
    "recovered": 0,
    "sick": 5046,
    "invisible": false
  },
  {
    "longitude": 6.1878,
    "name": "Grand Est",
    "country": "FR",
    "lastUpdated": "2020-05-04T06:48:26.207Z",
    "dead": 2953,
    "id": "RmEgf1xeclWt7XCF9oiR",
    "infected": 21328,
    "recovered": 8313,
    "latitude": 48.6998,
    "pop": 5518000,
    "sick": 10062,
    "invisible": false
  },
  {
    "longitude": 4.451,
    "name": "Wallonia",
    "country": "BE",
    "lastUpdated": "2020-05-04T17:26:11.356Z",
    "dead": 2747,
    "id": "RryHraSohKQLAsdr1dHO",
    "infected": 16331,
    "recovered": 3483,
    "latitude": 50.4176,
    "pop": 3644000,
    "sick": 10101,
    "invisible": false
  },
  {
    "id": "Rx4TuyMpfGb3S8wYJX0x",
    "infected": 18633,
    "recovered": 0,
    "latitude": 51.2538,
    "pop": 14570000,
    "longitude": -85.3232,
    "name": "Ontario",
    "country": "CA",
    "lastUpdated": "2020-05-04T17:27:08.566Z",
    "dead": 1340,
    "sick": 17293,
    "invisible": false
  },
  {
    "lastUpdated": "2020-05-04T17:32:09.178Z",
    "dead": 1818,
    "id": "S8ewN4zaYp8mjtuqqOTw",
    "infected": 21379,
    "recovered": 6900,
    "latitude": 41.652779,
    "pop": 2408000,
    "longitude": -4.723611,
    "name": "Castilla y León",
    "country": "ES",
    "sick": 12661,
    "invisible": false
  },
  {
    "latitude": 14.652027,
    "pop": 376480,
    "longitude": -61.011715,
    "name": "Martinique",
    "country": "FR",
    "lastUpdated": "2020-05-04T17:40:04.384Z",
    "dead": 14,
    "id": "SDdefnq1bc3ZNr7SpEsW",
    "infected": 181,
    "recovered": 83,
    "sick": 84,
    "invisible": false
  },
  {
    "latitude": 7.9465,
    "pop": 28830000,
    "longitude": -1.0232,
    "name": "Ghana",
    "country": "GH",
    "lastUpdated": "2020-05-04T17:40:04.353Z",
    "dead": 18,
    "id": "SG9VWLOV3x2JsTkXmVSz",
    "infected": 2169,
    "recovered": 229,
    "sick": 1922,
    "invisible": false
  },
  {
    "lastUpdated": "2020-05-04T17:40:04.340Z",
    "dead": 1779,
    "id": "SGe9sCPayMqh6RsGFaBA",
    "infected": 29981,
    "recovered": 24500,
    "latitude": 46.818188,
    "pop": 8570000,
    "longitude": 8.227512,
    "name": "Switzerland",
    "country": "CH",
    "sick": 3702,
    "invisible": false
  },
  {
    "lastUpdated": "2020-05-04T17:27:08.561Z",
    "dead": 2206,
    "id": "SHoOE3NiJgWAlDVBzwYH",
    "infected": 31873,
    "recovered": 0,
    "latitude": 46.8139,
    "pop": 8485000,
    "longitude": -71.208,
    "name": "Quebec",
    "country": "CA",
    "sick": 29667,
    "invisible": false
  },
  {
    "recovered": 381,
    "latitude": 42.6026,
    "pop": 1831000,
    "longitude": 20.903,
    "name": "Kosovo",
    "country": "XK",
    "lastUpdated": "2020-05-04T17:25:01.506Z",
    "dead": 22,
    "id": "SMWvuMMuKp2QK7O2tNia",
    "infected": 851,
    "sick": 448,
    "invisible": false
  },
  {
    "recovered": 7,
    "latitude": 15.2993,
    "pop": 1817000,
    "longitude": 74.124,
    "name": "Goa",
    "country": "IN",
    "lastUpdated": "2020-05-04T17:41:01.750Z",
    "dead": 0,
    "id": "SPcujsH2YlUaoAr8AiWF",
    "infected": 7,
    "sick": 0,
    "invisible": false
  },
  {
    "lastUpdated": "2020-05-04T17:41:09.528Z",
    "dead": 30,
    "id": "SV5AMF59J61Vt4cXWLgy",
    "infected": 850,
    "recovered": 0,
    "latitude": -16.328547,
    "pop": 6921161,
    "longitude": -48.953403,
    "name": "Goiás",
    "country": "BR",
    "sick": 820,
    "invisible": false
  },
  {
    "infected": 1118,
    "recovered": 356,
    "latitude": 39,
    "pop": 1957000,
    "longitude": 16.5,
    "name": "Calabria",
    "country": "IT",
    "lastUpdated": "2020-05-04T17:31:08.276Z",
    "dead": 88,
    "id": "SZdF624x0v1LlyzZjKFu",
    "sick": 674,
    "invisible": false
  },
  {
    "longitude": -99.9018,
    "name": "Nebraska",
    "country": "US",
    "lastUpdated": "2020-05-04T17:39:06.299Z",
    "dead": 78,
    "id": "SakhKQzKu1LRI8laqdQq",
    "infected": 5910,
    "recovered": 0,
    "latitude": 41.4925,
    "pop": 1929000,
    "sick": 5832,
    "invisible": false
  },
  {
    "infected": 424,
    "recovered": 300,
    "latitude": -21.1151,
    "pop": 859959,
    "longitude": 55.5364,
    "name": "La Réunion",
    "country": "FR",
    "lastUpdated": "2020-05-04T17:40:04.383Z",
    "dead": 0,
    "id": "SgHzWAAYK1j2sipovxM6",
    "sick": 124,
    "invisible": false
  },
  {
    "latitude": 12.565679,
    "pop": 16010000,
    "longitude": 104.990967,
    "name": "Cambodia",
    "country": "KH",
    "lastUpdated": "2020-05-04T17:40:04.386Z",
    "dead": 0,
    "id": "SioMALgUbo7peXmbco2f",
    "infected": 122,
    "recovered": 120,
    "sick": 2,
    "invisible": false
  },
  {
    "infected": 149,
    "recovered": 0,
    "latitude": 13.4443,
    "pop": 164229,
    "longitude": 144.7937,
    "name": "Guam",
    "country": "GU",
    "lastUpdated": "2020-05-04T17:39:06.303Z",
    "dead": 5,
    "id": "SsWhuEElU7dCTTuH5fdQ",
    "sick": 144,
    "invisible": false
  },
  {
    "lastUpdated": "2020-05-04T17:40:04.345Z",
    "dead": 0,
    "id": "SuCr5emUaJ9RHTll1P1p",
    "invisible": true,
    "infected": 0,
    "recovered": 4095,
    "latitude": 51.9189,
    "longitude": 19.1344,
    "name": "Unknown Poland region",
    "country": "PL",
    "sick": 0
  },
  {
    "infected": 682,
    "recovered": 80,
    "latitude": -4.0383,
    "pop": 81340000,
    "longitude": 21.7587,
    "name": "DR Congo",
    "country": "CD",
    "lastUpdated": "2020-05-04T17:40:04.356Z",
    "dead": 34,
    "id": "T3iRf8mTUTAzbKrORTap",
    "sick": 568,
    "invisible": false
  },
  {
    "latitude": 23.635796,
    "pop": 32940000,
    "longitude": 44.344334,
    "name": "Saudi Arabia",
    "country": "SA",
    "lastUpdated": "2020-05-04T17:40:04.340Z",
    "dead": 191,
    "id": "T7NffoeCgTUpAbOHvYwP",
    "infected": 28656,
    "recovered": 4476,
    "sick": 23989,
    "invisible": false
  },
  {
    "lastUpdated": "2020-05-04T17:32:09.178Z",
    "dead": 335,
    "id": "TNDTapyb0k3l7Mds9q9R",
    "infected": 5258,
    "recovered": 2312,
    "latitude": 42.2871,
    "pop": 315700,
    "longitude": -2.5396,
    "name": "La Rioja",
    "country": "ES",
    "sick": 2611,
    "invisible": false
  },
  {
    "id": "TQCWbhIpJQBQxBjhCGVJ",
    "infected": 595,
    "recovered": 0,
    "latitude": 20.400417,
    "pop": 2207200,
    "longitude": -89.134857,
    "name": "Yucatán",
    "country": "MX",
    "lastUpdated": "2020-05-04T17:32:15.861Z",
    "dead": 47,
    "sick": 548,
    "invisible": false
  },
  {
    "id": "TQZmzsLhJqjtCSExAkCP",
    "infected": 138,
    "recovered": 130,
    "latitude": 4.506106,
    "pop": 428697,
    "longitude": 114.650692,
    "name": "Brunei",
    "country": "BN",
    "lastUpdated": "2020-05-04T17:40:04.386Z",
    "dead": 1,
    "sick": 7,
    "invisible": false
  },
  {
    "infected": 12737,
    "recovered": 5162,
    "latitude": 45.4471,
    "pop": 8027000,
    "longitude": 4.3853,
    "name": "Auvergne-Rhône-Alpes",
    "country": "FR",
    "lastUpdated": "2020-05-04T06:48:05.291Z",
    "dead": 1364,
    "id": "TT0MKODSjrxHvG19xZCa",
    "sick": 6211,
    "invisible": false
  },
  {
    "infected": 218,
    "recovered": 0,
    "latitude": 38.5667,
    "pop": 758700,
    "longitude": -7.9,
    "name": "Alentejo",
    "country": "PT",
    "lastUpdated": "2020-05-04T17:34:08.591Z",
    "dead": 1,
    "id": "TeoNTu4aw5riC04sTd73",
    "sick": 217,
    "invisible": false
  },
  {
    "longitude": -105.461392,
    "name": "Colorado",
    "country": "US",
    "lastUpdated": "2020-05-04T17:39:06.298Z",
    "dead": 842,
    "id": "Th4dlpXXmSDgi1OHs36P",
    "infected": 16635,
    "recovered": 0,
    "latitude": 39.318928,
    "pop": 5696000,
    "sick": 15793,
    "invisible": false
  },
  {
    "lastUpdated": "2020-05-04T17:40:04.380Z",
    "dead": 45,
    "id": "Tup6oDCHj6DgqZR3nQ3x",
    "infected": 662,
    "recovered": 540,
    "latitude": 12.2383,
    "pop": 19190000,
    "longitude": -1.5616,
    "name": "Burkina Faso",
    "country": "BF",
    "sick": 77,
    "invisible": false
  },
  {
    "longitude": -61.670761,
    "name": "Grenada",
    "country": "GD",
    "lastUpdated": "2020-05-04T17:40:04.394Z",
    "dead": 0,
    "id": "TvqURPN5xzVBXsmGP46N",
    "infected": 21,
    "recovered": 13,
    "latitude": 12.104818,
    "pop": 112381,
    "sick": 8,
    "invisible": false
  },
  {
    "infected": 9670,
    "recovered": 7088,
    "latitude": 55.675758,
    "pop": 5603000,
    "longitude": 12.56902,
    "name": "Denmark",
    "country": "DK",
    "lastUpdated": "2020-05-04T17:40:04.345Z",
    "dead": 493,
    "id": "Ty1AY3VLPJcRZgdBIERx",
    "sick": 2089,
    "invisible": false
  },
  {
    "latitude": 53.9062,
    "pop": 5486000,
    "longitude": -1.0334,
    "name": "Yorkshire and The Humber",
    "country": "GB",
    "lastUpdated": "2020-05-04T17:40:18.508Z",
    "dead": 0,
    "id": "U0N7cIPJXAc4T6uKV60c",
    "infected": 10982,
    "recovered": 0,
    "sick": 10982,
    "invisible": false
  },
  {
    "lastUpdated": "2020-05-04T17:08:18.128Z",
    "dead": 7,
    "id": "U0tkTJ9CGsBuFJ2Gdoum",
    "infected": 788,
    "recovered": 773,
    "latitude": 36.395859,
    "pop": 100472400,
    "longitude": 118.769882,
    "name": "Shandong",
    "country": "CN",
    "sick": 8,
    "invisible": false
  },
  {
    "recovered": 86,
    "latitude": 43.94236,
    "pop": 33400,
    "longitude": 12.457777,
    "name": "San Marino",
    "country": "SM",
    "lastUpdated": "2020-05-04T17:40:04.381Z",
    "dead": 41,
    "id": "U12rMD5GDW58Q0lIwrB1",
    "infected": 582,
    "sick": 455,
    "invisible": false
  },
  {
    "lastUpdated": "2020-05-04T17:40:04.344Z",
    "dead": 487,
    "id": "U13Gy4BpRLAZ95bPmBXd",
    "infected": 14877,
    "recovered": 3981,
    "latitude": 36.204823,
    "pop": 126800000,
    "longitude": 138.25293,
    "name": "Japan",
    "country": "JP",
    "sick": 10409,
    "invisible": false
  },
  {
    "infected": 89,
    "recovered": 55,
    "latitude": 1.3733,
    "pop": 42860000,
    "longitude": 32.2903,
    "name": "Uganda",
    "country": "UG",
    "lastUpdated": "2020-05-04T17:40:04.389Z",
    "dead": 0,
    "id": "UCZXEgnHtxUoChWLR6fQ",
    "sick": 34,
    "invisible": false
  },
  {
    "longitude": 17.8739,
    "name": "Angola",
    "country": "AO",
    "lastUpdated": "2020-05-04T17:40:04.391Z",
    "dead": 2,
    "id": "UIbrFy6kiTTF0D37Kqmp",
    "infected": 35,
    "recovered": 11,
    "latitude": -11.2027,
    "pop": 29780000,
    "sick": 22,
    "invisible": false
  },
  {
    "latitude": 48.202,
    "pop": 3329000,
    "longitude": -2.9326,
    "name": "Bretagne",
    "country": "FR",
    "lastUpdated": "2020-05-04T06:48:14.014Z",
    "dead": 219,
    "id": "URKMlJ7OTNldjpaxFbjE",
    "infected": 2053,
    "recovered": 862,
    "sick": 972,
    "invisible": false
  },
  {
    "id": "UfFaUECHINUutv1M9tzq",
    "infected": 4843,
    "recovered": 3700,
    "latitude": 53.5511,
    "pop": 1822000,
    "longitude": 9.9937,
    "name": "Hamburg",
    "country": "DE",
    "lastUpdated": "2020-05-04T17:30:03.003Z",
    "dead": 166,
    "sick": 977,
    "invisible": false
  },
  {
    "latitude": 22.774916,
    "pop": 1615000,
    "longitude": -102.586899,
    "name": "Zacatecas",
    "country": "MX",
    "lastUpdated": "2020-05-04T17:32:15.861Z",
    "dead": 15,
    "id": "UflxTAb4FnAwve7c5MbY",
    "infected": 113,
    "recovered": 0,
    "sick": 98,
    "invisible": false
  },
  {
    "latitude": -20.4427795,
    "pop": 2748023,
    "longitude": -54.646389,
    "name": "Mato Grosso do Sul",
    "country": "BR",
    "lastUpdated": "2020-05-04T17:41:09.529Z",
    "dead": 10,
    "id": "UlA1ubOUhPtf9jjKxxhF",
    "infected": 272,
    "recovered": 0,
    "sick": 262,
    "invisible": false
  },
  {
    "longitude": 132.551,
    "name": "Northern Territory",
    "country": "AU",
    "lastUpdated": "2020-05-04T17:02:27.068Z",
    "dead": 0,
    "id": "UrF45V1VqMo6YBib2KlL",
    "infected": 29,
    "recovered": 24,
    "latitude": -19.4914,
    "pop": 211945,
    "sick": 5,
    "invisible": false
  },
  {
    "infected": 76,
    "recovered": 44,
    "latitude": 18.0424805,
    "pop": 41109,
    "longitude": -63.0548286,
    "name": "Sint Maarten",
    "country": "SX",
    "lastUpdated": "2020-05-04T17:40:04.390Z",
    "dead": 13,
    "id": "UsxgpiuFCtlR2CW1UUFm",
    "sick": 19,
    "invisible": false
  },
  {
    "latitude": 52.4751,
    "pop": 5908000,
    "longitude": -1.8298,
    "name": "West Midlands",
    "country": "GB",
    "lastUpdated": "2020-05-04T17:40:18.508Z",
    "dead": 0,
    "id": "UzOGOMitJmaFTdh2FbvI",
    "infected": 13788,
    "recovered": 0,
    "sick": 13788,
    "invisible": false
  },
  {
    "longitude": 79.808206,
    "name": "Puducherry",
    "country": "IN",
    "lastUpdated": "2020-05-04T17:41:01.750Z",
    "dead": 0,
    "id": "V1qE740s3EUGyKGr6SVv",
    "infected": 12,
    "recovered": 6,
    "latitude": 11.943179,
    "pop": 241773,
    "sick": 6,
    "invisible": false
  },
  {
    "infected": 7,
    "recovered": 0,
    "latitude": -45.5687,
    "pop": 25569,
    "longitude": -72.0597,
    "name": "Aysén",
    "country": "CL",
    "lastUpdated": "2020-05-04T17:41:05.918Z",
    "dead": 0,
    "id": "V9QxUhV4DyYK7iElEhXV",
    "sick": 7,
    "invisible": false
  },
  {
    "latitude": 21.5218,
    "pop": 11480000,
    "longitude": -77.7812,
    "name": "Cuba",
    "country": "CU",
    "lastUpdated": "2020-05-04T17:40:04.354Z",
    "dead": 69,
    "id": "VAG9AcMABTf8oIAfELPh",
    "infected": 1668,
    "recovered": 876,
    "sick": 723,
    "invisible": false
  },
  {
    "latitude": 25.181129,
    "pop": 45970000,
    "longitude": 101.864143,
    "name": "Yunnan",
    "country": "CN",
    "lastUpdated": "2020-05-04T17:08:18.129Z",
    "dead": 2,
    "id": "VIf8T8PD3ZzlzAm5eBCX",
    "infected": 185,
    "recovered": 181,
    "sick": 2,
    "invisible": false
  },
  {
    "latitude": -3.4653,
    "pop": 4080611,
    "longitude": -62.2159,
    "name": "Amazonas",
    "country": "BR",
    "lastUpdated": "2020-05-04T17:41:09.528Z",
    "dead": 548,
    "id": "VZQiSdZ7cUHgUZWgpNTP",
    "infected": 6683,
    "recovered": 0,
    "sick": 6135,
    "invisible": false
  },
  {
    "latitude": 26.8467,
    "pop": 204200000,
    "longitude": 80.9462,
    "name": "Uttar Pradesh",
    "country": "IN",
    "lastUpdated": "2020-05-04T17:41:01.748Z",
    "dead": 43,
    "id": "VcKcLdCkC6YpPfIDnRVD",
    "infected": 2766,
    "recovered": 802,
    "sick": 1921,
    "invisible": false
  },
  {
    "lastUpdated": "2020-05-04T17:27:08.572Z",
    "dead": 0,
    "id": "Vd3lLgrNsr81plzTgZkz",
    "infected": 5,
    "recovered": 0,
    "latitude": 64.8255,
    "pop": 44826,
    "longitude": -124.8457,
    "name": "Northwest Territories",
    "country": "CA",
    "sick": 5,
    "invisible": false
  },
  {
    "infected": 1991,
    "recovered": 1294,
    "latitude": 39.999079,
    "pop": 1188000,
    "longitude": 3.838942,
    "name": "Islas Baleares",
    "country": "ES",
    "lastUpdated": "2020-05-04T17:32:09.178Z",
    "dead": 197,
    "id": "VyW0IR9vLMdgnKz1cC7j",
    "sick": 500,
    "invisible": false
  },
  {
    "infected": 4538,
    "recovered": 2125,
    "latitude": 43.8927,
    "pop": 5893000,
    "longitude": 3.2828,
    "name": "Occitanie",
    "country": "FR",
    "lastUpdated": "2020-05-04T06:49:11.588Z",
    "dead": 410,
    "id": "WAnbFrEjtZDTCIYBt8rz",
    "sick": 2003,
    "invisible": false
  },
  {
    "recovered": 188,
    "latitude": 40.5,
    "pop": 567118,
    "longitude": 16.5,
    "name": "Basilicata",
    "country": "IT",
    "lastUpdated": "2020-05-04T17:31:08.275Z",
    "dead": 25,
    "id": "WD502XimGXnWzqYg7zxL",
    "infected": 386,
    "sick": 173,
    "invisible": false
  },
  {
    "infected": 2,
    "recovered": 2,
    "latitude": 24.6637,
    "pop": 2722000,
    "longitude": 93.9063,
    "name": "Manipur",
    "country": "IN",
    "lastUpdated": "2020-05-04T17:41:01.751Z",
    "dead": 0,
    "id": "WKsJQmcpWKxnp0nCwN77",
    "sick": 0,
    "invisible": false
  },
  {
    "infected": 705,
    "recovered": 0,
    "latitude": -9.933,
    "pop": 1757589,
    "longitude": -63.067,
    "name": "Rondônia",
    "country": "BR",
    "lastUpdated": "2020-05-04T17:41:09.530Z",
    "dead": 24,
    "id": "WRqKCfMIJFjrjXLMud70",
    "sick": 681,
    "invisible": false
  },
  {
    "lastUpdated": "2020-05-04T17:40:04.350Z",
    "dead": 131,
    "id": "Whrue10NtwIObLvFFyBr",
    "infected": 6783,
    "recovered": 2549,
    "latitude": -30.5595,
    "pop": 56720000,
    "longitude": 22.9375,
    "name": "South Africa",
    "country": "ZA",
    "sick": 4103,
    "invisible": false
  },
  {
    "infected": 17,
    "recovered": 9,
    "latitude": 13.443182,
    "pop": 2101000,
    "longitude": -15.3101387,
    "name": "Gambia",
    "country": "GM",
    "lastUpdated": "2020-05-04T17:40:04.395Z",
    "dead": 1,
    "id": "Wk811YwpQxsOCfz8As86",
    "sick": 7,
    "invisible": false
  },
  {
    "latitude": 19.352498,
    "pop": 17666800,
    "longitude": -99.625164,
    "name": "Estado de México",
    "country": "MX",
    "lastUpdated": "2020-05-04T17:32:15.862Z",
    "dead": 284,
    "id": "WpCXuQjYFLbozSpEhbrZ",
    "infected": 3893,
    "recovered": 0,
    "sick": 3609,
    "invisible": false
  },
  {
    "recovered": 1209,
    "latitude": 23.685,
    "pop": 164700000,
    "longitude": 90.3563,
    "name": "Bangladesh",
    "country": "BD",
    "lastUpdated": "2020-05-04T17:40:04.345Z",
    "dead": 182,
    "id": "WpLayPPLIJ7VcHZdQaoM",
    "infected": 10143,
    "sick": 8752,
    "invisible": false
  },
  {
    "infected": 177,
    "recovered": 0,
    "latitude": 20.836,
    "pop": 2100000,
    "longitude": -99.8508,
    "name": "Querétaro",
    "country": "MX",
    "lastUpdated": "2020-05-04T17:32:15.860Z",
    "dead": 16,
    "id": "Wt97UDm6jfYef6WBrS2w",
    "sick": 161,
    "invisible": false
  },
  {
    "longitude": 11.75,
    "name": "Veneto",
    "country": "IT",
    "lastUpdated": "2020-05-04T17:31:08.277Z",
    "dead": 1528,
    "id": "X2iRhHF6f9pUnJcxPc3J",
    "infected": 18373,
    "recovered": 9611,
    "latitude": 45.5,
    "pop": 4905000,
    "sick": 7234,
    "invisible": false
  },
  {
    "infected": 24,
    "recovered": 20,
    "latitude": -8.556856,
    "pop": 1311000,
    "longitude": 125.56031,
    "name": "Timor-Leste",
    "country": "TL",
    "lastUpdated": "2020-05-04T17:40:04.394Z",
    "dead": 0,
    "id": "X3GMAVINj2GDzIRVfo7n",
    "sick": 4,
    "invisible": false
  },
  {
    "longitude": 77.577049,
    "name": "Ladakh",
    "country": "IN",
    "lastUpdated": "2020-05-04T17:41:01.750Z",
    "dead": 0,
    "id": "X3PZqaJxtnlxcgP4tzya",
    "infected": 42,
    "recovered": 17,
    "latitude": 34.152588,
    "pop": 274289,
    "sick": 25,
    "invisible": false
  },
  {
    "latitude": 25.92448,
    "pop": 38560000,
    "longitude": 118.278992,
    "name": "Fujian",
    "country": "CN",
    "lastUpdated": "2020-05-04T17:08:18.129Z",
    "dead": 1,
    "id": "XBBw0iMPrmiEu3qogkbi",
    "infected": 356,
    "recovered": 353,
    "sick": 2,
    "invisible": false
  },
  {
    "lastUpdated": "2020-05-04T17:41:05.918Z",
    "dead": 11,
    "id": "XIYUg6ShQvWyEAJfyJzC",
    "infected": 795,
    "recovered": 0,
    "latitude": -52.368,
    "pop": 166533,
    "longitude": -70.9863,
    "name": "Magallanes",
    "country": "CL",
    "sick": 784,
    "invisible": false
  },
  {
    "latitude": 37.794597,
    "pop": 246746,
    "longitude": -25.506134,
    "name": "Açores",
    "country": "PT",
    "lastUpdated": "2020-05-04T17:34:08.591Z",
    "dead": 13,
    "id": "XhM7BCQK50gGQ2wIUtDq",
    "infected": 132,
    "recovered": 0,
    "sick": 119,
    "invisible": false
  },
  {
    "infected": 655,
    "recovered": 442,
    "latitude": -32.5228,
    "pop": 3457000,
    "longitude": -55.7658,
    "name": "Uruguay",
    "country": "UY",
    "lastUpdated": "2020-05-04T17:40:04.381Z",
    "dead": 17,
    "id": "XrsuLstdybIqIvv0E0aJ",
    "sick": 196,
    "invisible": false
  },
  {
    "lastUpdated": "2020-05-04T06:48:21.927Z",
    "dead": 57,
    "id": "YGXgIObKVabP2CYEdcb9",
    "infected": 422,
    "recovered": 191,
    "latitude": 42.0396,
    "pop": 339178,
    "longitude": 9.0129,
    "name": "Corse",
    "country": "FR",
    "sick": 174,
    "invisible": false
  },
  {
    "latitude": 2.916112,
    "pop": 1126000,
    "longitude": -75.28344,
    "name": "Huila",
    "country": "CO",
    "lastUpdated": "2020-05-04T17:03:11.622Z",
    "dead": 7,
    "id": "YI9zIOUXJqAcgc0T80yb",
    "infected": 133,
    "recovered": 44,
    "sick": 82,
    "invisible": false
  },
  {
    "recovered": 102,
    "latitude": 31.9522,
    "pop": 5052000,
    "longitude": 35.2332,
    "name": "Palestine",
    "country": "PS",
    "lastUpdated": "2020-05-04T17:40:04.383Z",
    "dead": 2,
    "id": "YMzKw0SnXG71VT7H1jff",
    "infected": 354,
    "sick": 250,
    "invisible": false
  },
  {
    "infected": 1196,
    "recovered": 0,
    "latitude": 17.97,
    "pop": 2460900,
    "longitude": -92.5867,
    "name": "Tabasco",
    "country": "MX",
    "lastUpdated": "2020-05-04T17:32:15.859Z",
    "dead": 146,
    "id": "YP3nlz6AKyrnCWYb5mHA",
    "sick": 1050,
    "invisible": false
  },
  {
    "infected": 257,
    "recovered": 19,
    "latitude": 11.8037491,
    "pop": 1955000,
    "longitude": -15.1804132,
    "name": "Guinea-Bissau",
    "country": "GW",
    "lastUpdated": "2020-05-04T17:40:04.383Z",
    "dead": 1,
    "id": "YZoy8ReFucvC3IFnWZHn",
    "sick": 237,
    "invisible": false
  },
  {
    "recovered": 0,
    "latitude": 64.2008,
    "pop": 737438,
    "longitude": -149.4937,
    "name": "Alaska",
    "country": "US",
    "lastUpdated": "2020-05-04T17:39:06.303Z",
    "dead": 9,
    "id": "YaCODTMD1KKRnrAlkg2u",
    "infected": 368,
    "sick": 359,
    "invisible": false
  },
  {
    "longitude": -2.6189,
    "name": "País Vasco",
    "country": "ES",
    "lastUpdated": "2020-05-04T17:32:09.178Z",
    "dead": 1341,
    "id": "YfA7o2lZP1DhV4JB6Umh",
    "infected": 16246,
    "recovered": 12155,
    "latitude": 42.9896,
    "pop": 2178000,
    "sick": 2750,
    "invisible": false
  },
  {
    "id": "YidRsOGDERjtbaIBGCdu",
    "infected": 166,
    "recovered": 0,
    "latitude": 16.8922,
    "pop": 4091400,
    "longitude": -96.4085,
    "name": "Oaxaca",
    "country": "MX",
    "lastUpdated": "2020-05-04T17:32:15.853Z",
    "dead": 23,
    "sick": 143,
    "invisible": false
  },