[
  {
    "country": "CO",
    "longitude": -81.7006,
    "dead": 0,
    "infected": 29,
    "pop": 72600,
    "lastUpdated": "2020-07-17T17:45:07.757Z",
    "name": "San Andrés",
    "id": "01b09TY4vmuZwzVuiRFK",
    "recovered": 21,
    "latitude": 12.5847,
    "sick": 8,
    "invisible": false
  },
  {
    "alwaysShow": false,
    "longitude": -2.5895,
    "name": "Guernsey",
    "latitude": 49.4482,
    "id": "0FOJefeLxQYXQ1CnJm9o",
    "infected": 252,
    "recovered": 238,
    "pop": 63196,
    "lastUpdated": "2020-07-17T17:28:03.804Z",
    "dead": 13,
    "country": "GG",
    "sick": 1,
    "invisible": false
  },
  {
    "country": "IT",
    "pop": 5827000,
    "name": "Campania",
    "latitude": 41.066666,
    "infected": 4803,
    "longitude": 14.333333,
    "recovered": 4098,
    "state": "72",
    "id": "0GJcws44NSPsDHAuxJhW",
    "lastUpdated": "2020-07-17T18:01:02.505Z",
    "dead": 433,
    "sick": 272,
    "invisible": false
  },
  {
    "recovered": 0,
    "country": "CL",
    "lastUpdated": "2020-07-17T18:20:04.678Z",
    "dead": 139,
    "id": "0HDQbiHe462xMCUV5HiI",
    "infected": 7451,
    "pop": 383870,
    "longitude": -70.14222,
    "name": "Tarapacá",
    "latitude": -20.2167,
    "sick": 7312,
    "invisible": false
  },
  {
    "pop": 45990000,
    "infected": 16110,
    "recovered": 11330,
    "id": "0VG7S6aaK4eSo59fL9JO",
    "country": "IN",
    "name": "Odisha",
    "latitude": 20.9517,
    "dead": 109,
    "longitude": 85.0985,
    "lastUpdated": "2020-07-17T18:11:01.994Z",
    "sick": 4671,
    "invisible": false
  },
  {
    "country": "MX",
    "infected": 5134,
    "id": "0XmCRqiK2ZaehoEJvfer",
    "name": "Hidalgo",
    "dead": 822,
    "pop": 2990300,
    "recovered": 0,
    "lastUpdated": "2020-07-17T18:02:01.954Z",
    "latitude": 20.4737,
    "longitude": -98.8582,
    "sick": 4312,
    "invisible": false
  },
  {
    "dead": 0,
    "name": "Andaman and Nicobar Islands",
    "id": "0jStOpTUNRaQYJqgmRoK",
    "longitude": 92.6586,
    "recovered": 133,
    "lastUpdated": "2020-07-17T18:11:02.000Z",
    "country": "IN",
    "latitude": 11.7401,
    "pop": 427246,
    "infected": 180,
    "sick": 47,
    "invisible": false
  },
  {
    "name": "Qatar",
    "recovered": 102597,
    "lastUpdated": "2020-07-17T18:16:02.909Z",
    "infected": 105898,
    "latitude": 25.315058,
    "longitude": 51.145517,
    "country": "QA",
    "id": "0m4aECS0Z2DGFEr8ldgI",
    "dead": 153,
    "pop": 2639000,
    "sick": 3148,
    "invisible": false
  },
  {
    "recovered": 22253,
    "pop": 90320000,
    "name": "West Bengal",
    "longitude": 87.855,
    "infected": 38011,
    "country": "IN",
    "dead": 1049,
    "id": "0n54EMSDJcRoT1QEvw80",
    "lastUpdated": "2020-07-17T18:11:01.993Z",
    "latitude": 22.9868,
    "sick": 14709,
    "invisible": false
  },
  {
    "recovered": 14514,
    "longitude": 78.6569,
    "latitude": 22.9734,
    "pop": 73340000,
    "dead": 698,
    "infected": 21082,
    "id": "0s18o5DrDAHjbu5MFcrj",
    "lastUpdated": "2020-07-17T18:11:01.994Z",
    "name": "Madhya Pradesh",
    "country": "IN",
    "sick": 5870,
    "invisible": false
  },
  {
    "longitude": -95.7129,
    "latitude": 37.0902,
    "infected": 0,
    "dead": 0,
    "country": "US",
    "id": "0tFoopNTs6e4tOoaltu2",
    "recovered": 1694496,
    "invisible": true,
    "lastUpdated": "2020-07-17T18:16:02.900Z",
    "name": "Unknown US state",
    "sick": 0
  },
  {
    "longitude": 108.472214,
    "lastUpdated": "2020-07-17T17:53:11.113Z",
    "dead": 3,
    "id": "0x2HLhr5z5xAtEdO4iZm",
    "latitude": 35.64249,
    "name": "Shaanxi",
    "recovered": 315,
    "country": "CN",
    "pop": 37330000,
    "infected": 322,
    "sick": 4,
    "invisible": false
  },
  {
    "recovered": 4676,
    "id": "19MvIhipqTyYv1H37Upw",
    "infected": 8786,
    "dead": 406,
    "longitude": 21.668393,
    "country": "MK",
    "latitude": 41.643351,
    "pop": 2077000,
    "lastUpdated": "2020-07-17T18:16:02.918Z",
    "name": "North Macedonia",
    "sick": 3704,
    "invisible": false
  },
  {
    "state": "NL",
    "recovered": 258,
    "lastUpdated": "2020-07-17T18:07:02.679Z",
    "dead": 3,
    "id": "1DOMOmCWDtva46OVSZLv",
    "pop": 521542,
    "latitude": 53.1355,
    "longitude": -57.6604,
    "name": "Newfoundland and Labrador",
    "infected": 262,
    "country": "CA",
    "sick": 1,
    "invisible": false
  },
  {
    "name": "Qinghai",
    "longitude": 96.779286,
    "infected": 18,
    "country": "CN",
    "dead": 0,
    "recovered": 18,
    "lastUpdated": "2020-07-17T17:53:11.115Z",
    "latitude": 35.801933,
    "id": "1Fap7rZu9SIRqf5TG9Dg",
    "pop": 5627000,
    "sick": 0,
    "invisible": false
  },
  {
    "id": "1YXQMlVL3fUeDZmcVfJw",
    "latitude": 23.6345,
    "name": "Unknown Mexico state",
    "country": "MX",
    "dead": 0,
    "longitude": -102.5528,
    "pop": 126200000,
    "infected": 0,
    "invisible": true,
    "lastUpdated": "2020-07-17T18:16:02.908Z",
    "recovered": 203464,
    "sick": 0
  },
  {
    "country": "RU",
    "dead": 47,
    "id": "1at5nIap9H51v32otlQl",
    "recovered": 2972,
    "pop": 1960000,
    "latitude": 55.0555,
    "longitude": 73.3167,
    "name": "Omsk Oblast",
    "infected": 5172,
    "lastUpdated": "2020-07-17T18:00:09.302Z",
    "sick": 2153,
    "invisible": false
  },
  {
    "lastUpdated": "2020-07-17T18:01:02.506Z",
    "name": "Piemonte",
    "pop": 4376000,
    "dead": 4119,
    "longitude": 8.206944,
    "recovered": 26555,
    "country": "IT",
    "id": "1eTSQyfp8RoDPeFrIwun",
    "state": "21",
    "infected": 31530,
    "latitude": 44.9,
    "sick": 856,
    "invisible": false
  },
  {
    "latitude": 51.993,
    "country": "PL",
    "dead": 1,
    "pop": 1003000,
    "id": "1j1OurxLTpZYuWIWwQ9F",
    "name": "Lubuskie",
    "infected": 278,
    "recovered": 0,
    "longitude": 15.461,
    "lastUpdated": "2020-07-17T18:03:01.943Z",
    "sick": 277,
    "invisible": false
  },
  {
    "longitude": 28.3699,
    "lastUpdated": "2020-07-17T18:16:02.917Z",
    "name": "Moldova",
    "latitude": 47.4116,
    "country": "MD",
    "dead": 675,
    "id": "1qTPB8X3tyLyIdsb5TN3",
    "recovered": 13913,
    "infected": 20494,
    "pop": 3550000,
    "sick": 5906,
    "invisible": false
  },
  {
    "dead": 96,
    "country": "US",
    "invisible": true,
    "lastUpdated": "2020-07-17T18:17:01.865Z",
    "name": "Federal Bureau of Prisons",
    "infected": 9875,
    "recovered": 0,
    "longitude": -95.7129,
    "id": "22PJOAThcDFKgSbyQIkD",
    "latitude": 37.0902,
    "sick": 9779
  },
  {
    "country": "CN",
    "recovered": 1,
    "pop": 3180000,
    "latitude": 30.15336,
    "dead": 0,
    "infected": 1,
    "id": "25qIBtsW2nfQj3pwBKg9",
    "lastUpdated": "2020-07-17T17:53:11.115Z",
    "name": "Tibet",
    "longitude": 88.787865,
    "sick": 0,
    "invisible": false
  },
  {
    "id": "2KHYUb5t3lwzVVmDjwNX",
    "pop": 264000000,
    "lastUpdated": "2020-07-17T18:16:02.909Z",
    "longitude": 115.66779,
    "latitude": -1.572184,
    "country": "ID",
    "name": "Indonesia",
    "recovered": 41834,
    "dead": 3957,
    "infected": 83130,
    "sick": 37339,
    "invisible": false
  },
  {
    "recovered": 0,
    "country": "US",
    "infected": 13510,
    "name": "Oregon",
    "lastUpdated": "2020-07-17T18:17:01.857Z",
    "latitude": 43.807191,
    "longitude": -120.585594,
    "dead": 249,
    "state": "OR",
    "pop": 4191000,
    "id": "2OrsssmGUs4XCzaZzvTv",
    "sick": 13261,
    "invisible": false
  },
  {
    "id": "2c5HBZ1ffkCVXnMYUWnY",
    "infected": 12716,
    "country": "CL",
    "pop": 425000,
    "recovered": 0,
    "lastUpdated": "2020-07-17T18:20:04.679Z",
    "longitude": -70.400002,
    "latitude": -23.65,
    "dead": 271,
    "name": "Antofagasta",
    "sick": 12445,
    "invisible": false
  },
  {
    "country": "BR",
    "dead": 493,
    "infected": 33004,
    "id": "2dzhyWsBSPpENWlNew0b",
    "state": "AP",
    "name": "Amapá",
    "latitude": 0.035574,
    "longitude": -51.070534,
    "pop": 9029000,
    "recovered": 0,
    "lastUpdated": "2020-07-17T17:57:02.141Z",
    "sick": 32511,
    "invisible": false
  },
  {
    "pop": 27460000,
    "longitude": 126.548103,
    "lastUpdated": "2020-07-17T17:53:11.115Z",
    "country": "CN",
    "latitude": 43.851921,
    "name": "Jilin",
    "id": "2jxHvSsxdnom0nPNvOT8",
    "recovered": 153,
    "dead": 2,
    "infected": 155,
    "sick": 0,
    "invisible": false
  },
  {
    "longitude": -5.3536,
    "latitude": 36.1408,
    "lastUpdated": "2020-07-17T18:16:02.949Z",
    "name": "Gibraltar",
    "recovered": 180,
    "infected": 180,
    "id": "2p11BjSAs3wVyymgqBOe",
    "dead": 0,
    "pop": 34571,
    "country": "GI",
    "sick": 0,
    "invisible": false
  },
  {
    "infected": 4606,
    "latitude": 47.7516,
    "id": "2sLNkkHpyaHx7dD3aMDO",
    "lastUpdated": "2020-07-16T23:32:54.957Z",
    "pop": 2567000,
    "name": "Centre-Val de Loire",
    "dead": 555,
    "country": "FR",
    "recovered": 2041,
    "longitude": 1.6751,
    "sick": 2010,
    "invisible": false
  },
  {
    "longitude": 12.643751,
    "recovered": 1362,
    "id": "319tiZOMczx1y0DfvOib",
    "infected": 1454,
    "name": "Umbria",
    "country": "IT",
    "pop": 884640,
    "latitude": 42.565044,
    "lastUpdated": "2020-07-17T18:01:02.506Z",
    "state": "55",
    "dead": 80,
    "sick": 12,
    "invisible": false
  },
  {
    "longitude": -76.6131592,
    "dead": 32,
    "pop": 1355000,
    "id": "38T96Q3XNjt5FSJygPed",
    "name": "Cauca",
    "country": "CO",
    "recovered": 281,
    "latitude": 2.43823,
    "infected": 939,
    "lastUpdated": "2020-07-17T17:45:07.757Z",
    "sick": 626,
    "invisible": false
  },
  {
    "recovered": 1450,
    "longitude": 27.849332,
    "infected": 2810,
    "name": "Zambia",
    "latitude": -13.133896,
    "pop": 17090000,
    "id": "3IlPjAbP5qVMn1nlgLTJ",
    "lastUpdated": "2020-07-17T18:16:02.936Z",
    "dead": 109,
    "country": "ZM",
    "sick": 1251,
    "invisible": false
  },
  {
    "id": "3LstMSN5XMYBkxbe5HN7",
    "dead": 26,
    "recovered": 357,
    "pop": 631219,
    "infected": 1965,
    "country": "ME",
    "lastUpdated": "2020-07-17T18:16:02.938Z",
    "name": "Montenegro",
    "latitude": 42.7044,
    "longitude": 19.3958,
    "sick": 1582,
    "invisible": false
  },
  {
    "longitude": 149.0124,
    "state": "ACT",
    "infected": 113,
    "dead": 3,
    "id": "3OZoQsKrzxZ18EKyfGE6",
    "name": "Australian Capital Territory",
    "pop": 418440,
    "latitude": -35.4735,
    "lastUpdated": "2020-07-17T17:58:30.845Z",
    "recovered": 105,
    "country": "AU",
    "sick": 5,
    "invisible": false
  },
  {
    "recovered": 4733,
    "pop": 608000,
    "id": "3PfzjWjvOkfgxc672BHQ",
    "infected": 5476,
    "latitude": 57.8992,
    "longitude": 38.8389,
    "dead": 22,
    "name": "Yaroslavl Oblast",
    "country": "RU",
    "lastUpdated": "2020-07-17T18:00:09.302Z",
    "sick": 721,
    "invisible": false
  },
  {
    "latitude": 51.8873,
    "country": "RU",
    "recovered": 2599,
    "lastUpdated": "2020-07-17T18:00:09.301Z",
    "name": "Tuva",
    "infected": 5614,
    "longitude": 95.626,
    "dead": 45,
    "pop": 321000,
    "id": "3PpqgIUJAtzxo1j7z56i",
    "sick": 2970,
    "invisible": false
  },
  {
    "longitude": 92.9376,
    "infected": 20647,
    "country": "IN",
    "name": "Assam",
    "pop": 30940000,
    "id": "3cCbnJCsK7mKlTO08K1o",
    "recovered": 14106,
    "dead": 56,
    "latitude": 26.2006,
    "lastUpdated": "2020-07-17T18:11:01.994Z",
    "sick": 6485,
    "invisible": false
  },
  {
    "id": "3fC3bAyIRUquOQOEnQNe",
    "name": "Ohio",
    "infected": 72280,
    "latitude": 40.4173,
    "dead": 3112,
    "recovered": 0,
    "lastUpdated": "2020-07-17T18:17:01.855Z",
    "country": "US",
    "state": "OH",
    "pop": 11690000,
    "longitude": -82.9071,
    "sick": 69168,
    "invisible": false
  },
  {
    "lastUpdated": "2020-07-17T18:02:01.951Z",
    "latitude": 25,
    "pop": 3066400,
    "longitude": -107.5,
    "name": "Sinaloa",
    "infected": 11046,
    "id": "3kFCzJguabtBvXaHxgiu",
    "recovered": 0,
    "dead": 1753,
    "country": "MX",
    "sick": 9293,
    "invisible": false
  },
  {
    "country": "CO",
    "dead": 503,
    "recovered": 6654,
    "name": "Valle del Cauca",
    "longitude": -76.522224,
    "infected": 14306,
    "pop": 4708300,
    "lastUpdated": "2020-07-17T17:45:07.755Z",
    "latitude": 3.420556,
    "id": "3mC2LveOpXV8P1PmQGUj",
    "sick": 7149,
    "invisible": false
  },
  {
    "longitude": -10.9408,
    "name": "Mauritania",
    "id": "4NnFMekRK2m14IlnZZoj",
    "infected": 5659,
    "latitude": 21.0079,
    "lastUpdated": "2020-07-17T18:16:02.932Z",
    "pop": 4420000,
    "dead": 150,
    "recovered": 2993,
    "country": "MR",
    "sick": 2516,
    "invisible": false
  },
  {
    "latitude": 53.7267,
    "state": "BC",
    "longitude": -127.6476,
    "recovered": 2789,
    "id": "4hfZRUoUgI4a3vrG0GBk",
    "infected": 3170,
    "pop": 5071000,
    "dead": 189,
    "country": "CA",
    "name": "British Columbia",
    "lastUpdated": "2020-07-17T18:07:02.677Z",
    "sick": 192,
    "invisible": false
  },
  {
    "id": "4kq0z3kh5zt3YAUWxvtE",
    "lastUpdated": "2020-07-17T17:57:02.138Z",
    "latitude": -22.908333,
    "country": "BR",
    "state": "RJ",
    "name": "Rio de Janeiro",
    "recovered": 0,
    "pop": 17159960,
    "dead": 11849,
    "longitude": -43.196388,
    "infected": 134573,
    "sick": 122724,
    "invisible": false
  },
  {
    "name": "Bahia",
    "dead": 2693,
    "state": "BA",
    "longitude": -41.280857,
    "id": "4yDbkEyqsNzZJjfrciYV",
    "lastUpdated": "2020-07-17T17:57:02.138Z",
    "pop": 14812617,
    "recovered": 0,
    "country": "BR",
    "infected": 116373,
    "latitude": -11.409874,
    "sick": 113680,
    "invisible": false
  },
  {
    "recovered": 17805,
    "country": "AZ",
    "pop": 9898000,
    "lastUpdated": "2020-07-17T18:16:02.916Z",
    "longitude": 47.93802,
    "dead": 341,
    "infected": 26636,
    "name": "Azerbaijan",
    "id": "4zqzRm2xHn0CDVOUQJ8p",
    "latitude": 40.3426,
    "sick": 8490,
    "invisible": false
  },
  {
    "lastUpdated": "2020-07-17T18:02:01.953Z",
    "latitude": 22.233105,
    "name": "Tamaulipas",
    "dead": 752,
    "id": "54cfsdsRF76XVHWtZs19",
    "longitude": -97.861099,
    "infected": 11528,
    "pop": 3672300,
    "country": "MX",
    "recovered": 0,
    "sick": 10776,
    "invisible": false
  },
  {
    "dead": 4910,
    "longitude": 3.7265,
    "state": "VLG",
    "name": "Flanders",
    "country": "BE",
    "id": "57ydD48mLRD2YoyteJZj",
    "lastUpdated": "2020-07-17T18:07:06.600Z",
    "pop": 6596000,
    "recovered": 9493,
    "latitude": 51.0109,
    "infected": 35581,
    "sick": 21178,
    "invisible": false
  },
  {
    "latitude": 25.025885,
    "pop": 395361,
    "infected": 124,
    "dead": 11,
    "id": "5MHegCUO9L3LiAU7DDey",
    "name": "Bahamas",
    "lastUpdated": "2020-07-17T18:16:02.959Z",
    "country": "BS",
    "longitude": -78.035889,
    "recovered": 91,
    "sick": 22,
    "invisible": false
  },
  {
    "lastUpdated": "2020-07-17T17:58:30.851Z",
    "id": "5N16a2OXXRpsEFanw0TC",
    "recovered": 2988,
    "state": "NSW",
    "name": "New South Wales",
    "latitude": -31.253218,
    "dead": 49,
    "longitude": 146.921097,
    "country": "AU",
    "pop": 7544000,
    "infected": 3535,
    "sick": 498,
    "invisible": false
  },
  {
    "recovered": 1175,
    "lastUpdated": "2020-07-17T18:16:02.937Z",
    "longitude": 31.3069782,
    "name": "South Sudan",
    "country": "SS",
    "infected": 2171,
    "latitude": 6.8769908,
    "pop": 12580000,
    "dead": 41,
    "id": "5N4PRxsCDzzwk7R200V1",
    "sick": 955,
    "invisible": false
  },
  {
    "recovered": 9970,
    "longitude": -0.7533,
    "state": "VC",
    "name": "C. Valenciana",
    "infected": 15702,
    "lastUpdated": "2020-07-16T23:18:43.006Z",
    "country": "ES",
    "dead": 1432,
    "pop": 4975000,
    "id": "5Va9A7CXR8AXdUz4HTJj",
    "latitude": 39.484,
    "sick": 4300,
    "invisible": false
  },
  {
    "recovered": 21,
    "lastUpdated": "2020-07-17T18:16:02.967Z",
    "latitude": -20.9043045,
    "name": "New Caledonia",
    "country": "NC",
    "dead": 0,
    "id": "5fg04eyDwFw3kEXnrxez",
    "infected": 22,
    "pop": 280460,
    "longitude": 165.618042,
    "sick": 1,
    "invisible": false
  },
  {
    "country": "NP",
    "dead": 40,
    "pop": 29300000,
    "name": "Nepal",
    "recovered": 11534,
    "latitude": 28.394857,
    "infected": 17445,
    "longitude": 84.124008,
    "lastUpdated": "2020-07-17T18:16:02.917Z",
    "id": "5gXZIjRgAvd6xWN1LOv8",
    "sick": 5871,
    "invisible": false
  },
  {
    "id": "5pwmh7aSdGRKqRbnuyc0",
    "latitude": 12.879721,
    "longitude": 121.774017,
    "infected": 63001,
    "country": "PH",
    "lastUpdated": "2020-07-17T18:16:02.910Z",
    "pop": 104900000,
    "dead": 1660,
    "name": "Philippines",
    "recovered": 21748,
    "sick": 39593,
    "invisible": false
  },
  {
    "id": "5qtR9nx4BLwu1ODTniaY",
    "name": "Zimbabwe",
    "country": "ZW",
    "longitude": 31.053028,
    "dead": 23,
    "infected": 1362,
    "pop": 14802190,
    "lastUpdated": "2020-07-17T18:16:02.939Z",
    "latitude": -17.824858,
    "recovered": 425,
    "sick": 914,
    "invisible": false
  },
  {
    "dead": 407,
    "latitude": 36.0672,
    "longitude": -109.188,
    "country": "US",
    "state": "NA",
    "invisible": false,
    "id": "5vkKgxTaKq1IH0Go357L",
    "recovered": 0,
    "infected": 8486,
    "lastUpdated": "2020-07-17T18:17:01.866Z",
    "name": "Navajo Nation",
    "pop": 356890,
    "sick": 8079
  },
  {
    "longitude": -99.177254,
    "recovered": 0,
    "name": "Ciudad de México",
    "infected": 60474,
    "latitude": 19.432241,
    "lastUpdated": "2020-07-17T18:02:01.952Z",
    "dead": 8008,
    "id": "61E7TGjUwAo9xu6Y6gAH",
    "pop": 8781300,
    "country": "MX",
    "sick": 52466,
    "invisible": false
  },
  {
    "name": "Kaluga Oblast",
    "pop": 1012000,
    "longitude": 35.1889,
    "dead": 54,
    "infected": 6818,
    "latitude": 54.3873,
    "id": "63KYOuWe41mvqWQrJbr2",
    "lastUpdated": "2020-07-17T18:00:09.300Z",
    "country": "RU",
    "recovered": 5139,
    "sick": 1625,
    "invisible": false
  },
  {
    "infected": 1908,
    "id": "694ON7d0mRJDeM1gHBTR",
    "country": "LT",
    "recovered": 1595,
    "lastUpdated": "2020-07-17T18:16:02.938Z",
    "dead": 79,
    "pop": 2794000,
    "longitude": 23.804991,
    "name": "Lithuania",
    "latitude": 55.621011,
    "sick": 234,
    "invisible": false
  },
  {
    "state": "EN",
    "infected": 34498,
    "latitude": 51.1781,
    "id": "6IQAsvrmBv0HPdeTnh4x",
    "recovered": 0,
    "pop": 9175000,
    "dead": 0,
    "longitude": -0.5596,
    "name": "South East",
    "lastUpdated": "2020-07-17T18:13:12.070Z",
    "country": "GB",
    "sick": 34498,
    "invisible": false
  },
  {
    "id": "6IcHIIH0zXpY0POmBZTv",
    "infected": 1714,
    "name": "Hong Kong",
    "recovered": 1264,
    "longitude": 114.109497,
    "lastUpdated": "2020-07-17T18:16:02.938Z",
    "latitude": 22.396427,
    "pop": 7392000,
    "country": "HK",
    "dead": 11,
    "sick": 439,
    "invisible": false
  },
  {
    "state": "AC",
    "pop": 869265,
    "recovered": 0,
    "name": "Acre",
    "infected": 16865,
    "longitude": -72.4,
    "lastUpdated": "2020-07-17T17:57:02.142Z",
    "latitude": -8.65,
    "id": "6LQesrx5bHJsVUi1TXBp",
    "dead": 447,
    "country": "BR",
    "sick": 16418,
    "invisible": false
  },
  {
    "id": "6SlpghTyB6lpMFvx3g9U",
    "country": "BJ",
    "dead": 31,
    "recovered": 782,
    "lastUpdated": "2020-07-17T18:16:02.938Z",
    "pop": 11180000,
    "longitude": 2.3158,
    "name": "Benin",
    "infected": 1602,
    "latitude": 9.3077,
    "sick": 789,
    "invisible": false
  },
  {
    "infected": 95371,
    "dead": 16778,
    "country": "IT",
    "id": "6ZHcvMIzVWIaRnc4R3Qp",
    "name": "Lombardia",
    "longitude": 9.5,
    "state": "25",
    "recovered": 71172,
    "lastUpdated": "2020-07-17T18:01:02.505Z",
    "latitude": 45.6667,
    "pop": 10040000,
    "sick": 7421,
    "invisible": false
  },
  {
    "lastUpdated": "2020-07-17T18:16:02.938Z",
    "dead": 111,
    "id": "6ahNiyKDSDAftCctgLH3",
    "longitude": 14.5058,
    "infected": 1916,
    "name": "Slovenia",
    "recovered": 1522,
    "pop": 2067000,
    "latitude": 46.0569,
    "country": "SI",
    "sick": 283,
    "invisible": false
  },
  {
    "country": "CL",
    "latitude": -27.3667908,
    "id": "6nyns7UGGgkU7pxrHf8i",
    "lastUpdated": "2020-07-17T15:20:05.081Z",
    "dead": 10,
    "pop": 300000,
    "recovered": 0,
    "longitude": -70.331398,
    "name": "Atacama",
    "infected": 1734,
    "sick": 1724,
    "invisible": false
  },
  {
    "longitude": 11.6094,
    "lastUpdated": "2020-07-17T18:16:02.932Z",
    "name": "Gabon",
    "dead": 46,
    "country": "GA",
    "recovered": 3664,
    "pop": 2025000,
    "id": "6pBi38TUgYfFm0bry2uh",
    "infected": 6121,
    "latitude": -0.8037,
    "sick": 2411,
    "invisible": false
  },
  {
    "pop": 2831900,
    "recovered": 0,
    "dead": 311,
    "lastUpdated": "2020-07-17T18:02:01.953Z",
    "latitude": 22.1498,
    "longitude": -100.9792,
    "infected": 5199,
    "id": "6vjIVg1gSANFZghV7xtS",
    "name": "San Luis Potosí",
    "country": "MX",
    "sick": 4888,
    "invisible": false
  },
  {
    "latitude": 17.901672,
    "country": "FR",
    "recovered": 6,
    "dead": 0,
    "name": "Saint-Barthélémy",
    "alwaysShow": true,
    "lastUpdated": "2020-07-17T18:16:02.968Z",
    "longitude": -62.818544,
    "infected": 6,
    "id": "78Ox26bNHDA2Pk2b3Uwn",
    "pop": 9131,
    "sick": 0,
    "invisible": false
  },
  {
    "lastUpdated": "2020-07-17T18:03:01.942Z",
    "longitude": 18.633,
    "dead": 38,
    "infected": 726,
    "recovered": 0,
    "name": "Pomorskie",
    "pop": 2305000,
    "id": "7JDx6UJiwGSJyL1fChaJ",
    "country": "PL",
    "latitude": 54.367,
    "sick": 688,
    "invisible": false
  },
  {
    "longitude": -2.9381,
    "name": "Melilla",
    "infected": 141,
    "state": "ML",
    "recovered": 125,
    "pop": 84690,
    "latitude": 35.2923,
    "id": "7UASdZTZ1nPzzBwSTEA9",
    "lastUpdated": "2020-07-16T23:20:55.016Z",
    "country": "ES",
    "dead": 2,
    "sick": 14,
    "invisible": false
  },
  {
    "infected": 74,
    "pop": 102012,
    "longitude": -61.7964,
    "name": "Antigua and Barbuda",
    "lastUpdated": "2020-07-17T18:16:02.966Z",
    "id": "7hVFcEV7nV0MrQr3LHrl",
    "recovered": 57,
    "dead": 3,
    "country": "AG",
    "latitude": 17.0608,
    "sick": 14,
    "invisible": false
  },
  {
    "id": "7kCrrlOBE3jN6FtOVNUB",
    "latitude": 48.7904,
    "state": "BY",
    "longitude": 11.4979,
    "dead": 2657,
    "infected": 49930,
    "name": "Bayern",
    "country": "DE",
    "recovered": 46045,
    "lastUpdated": "2020-07-17T18:00:06.190Z",
    "pop": 13000000,
    "sick": 1228,
    "invisible": false
  },
  {
    "longitude": 19.0402,
    "id": "7rYC2iFB50c55Ihgbs4Q",
    "recovered": 3220,
    "latitude": 47.4979,
    "country": "HU",
    "pop": 9773000,
    "dead": 595,
    "name": "Hungary",
    "lastUpdated": "2020-07-17T18:16:02.935Z",
    "infected": 4293,
    "sick": 478,
    "invisible": false
  },
  {
    "infected": 21134,
    "latitude": 10.9685,
    "recovered": 10479,
    "longitude": -74.7813,
    "dead": 1224,
    "id": "7tqLvLyXcBDK808nJv0m",
    "name": "Barranquilla D.E.",
    "lastUpdated": "2020-07-17T17:45:07.757Z",
    "pop": 1206000,
    "country": "CO",
    "sick": 9431,
    "invisible": false
  },
  {
    "lastUpdated": "2020-07-17T18:16:02.917Z",
    "id": "8C0d7WVCjyUGtnc2gUAR",
    "recovered": 13728,
    "dead": 373,
    "pop": 24050000,
    "longitude": 12.3547,
    "latitude": 7.3697,
    "country": "CM",
    "name": "Cameroon",
    "infected": 16157,
    "sick": 2056,
    "invisible": false
  },
  {
    "longitude": 4.3517,
    "name": "Brussels",
    "infected": 6562,
    "lastUpdated": "2020-07-17T18:07:06.601Z",
    "latitude": 50.8503,
    "id": "8DOZWbN6bDdgaLXVlUEu",
    "dead": 1494,
    "state": "BRU",
    "pop": 1209000,
    "recovered": 2830,
    "country": "BE",
    "sick": 2238,
    "invisible": false
  },
  {
    "pop": 11050000,
    "id": "8RihJrXw4NQXPxaRxr1u",
    "lastUpdated": "2020-07-17T18:16:02.910Z",
    "country": "BO",
    "longitude": -63.5887,
    "recovered": 16979,
    "latitude": -16.2902,
    "name": "Bolivia",
    "infected": 54156,
    "dead": 1984,
    "sick": 35193,
    "invisible": false
  },
  {
    "dead": 0,
    "id": "8ZTySQROQejkDAad0qxQ",
    "recovered": 29,
    "country": "VC",
    "longitude": -61.2872,
    "lastUpdated": "2020-07-17T18:16:02.967Z",
    "latitude": 12.9843,
    "infected": 35,
    "pop": 109897,
    "name": "St. Vincent Grenadines",
    "sick": 6,
    "invisible": false
  },
  {
    "id": "8pA3fM4xC2c2wv1b4TnE",
    "country": "SG",
    "lastUpdated": "2020-07-17T18:16:02.915Z",
    "infected": 47453,
    "name": "Singapore",
    "latitude": 1.352083,
    "dead": 27,
    "longitude": 103.819839,
    "recovered": 43577,
    "pop": 5621000,
    "sick": 3849,
    "invisible": false
  },
  {
    "lastUpdated": "2020-07-16T23:34:45.844Z",
    "longitude": -1.5536,
    "recovered": 2127,
    "country": "FR",
    "pop": 3787000,
    "id": "98hwAoohgWEOQVa3NlM5",
    "infected": 4318,
    "dead": 470,
    "name": "Pays de la Loire",
    "latitude": 47.2184,
    "sick": 1721,
    "invisible": false
  },
  {
    "name": "Campeche",
    "lastUpdated": "2020-07-17T18:02:01.953Z",
    "infected": 3383,
    "recovered": 0,
    "id": "9DAvxOObTqIvMOU93nlY",
    "dead": 320,
    "country": "MX",
    "latitude": 19.30754,
    "longitude": -90.19885,
    "pop": 952300,
    "sick": 3063,
    "invisible": false
  },
  {
    "id": "9DPOkpIqrFy9mR4e9fuv",
    "infected": 10527,
    "country": "SD",
    "longitude": 30.2176,
    "pop": 40530000,
    "dead": 668,
    "name": "Sudan",
    "recovered": 5601,
    "lastUpdated": "2020-07-17T18:16:02.918Z",
    "latitude": 12.8628,
    "sick": 4258,
    "invisible": false
  },
  {
    "longitude": 43.9541,
    "name": "Kostroma Oblast",
    "infected": 1922,
    "latitude": 58.5501,
    "dead": 24,
    "recovered": 1282,
    "id": "9JFYfvpcejMIgYlHpngA",
    "pop": 643000,
    "lastUpdated": "2020-07-17T18:00:09.307Z",
    "country": "RU",
    "sick": 616,
    "invisible": false
  },
  {
    "dead": 1988,
    "id": "9QcETqEcM2fTv9zRvx5T",
    "lastUpdated": "2020-07-17T18:16:02.915Z",
    "recovered": 22312,
    "pop": 19530000,
    "latitude": 45.943161,
    "name": "Romania",
    "country": "RO",
    "longitude": 24.966761,
    "infected": 35802,
    "sick": 11502,
    "invisible": false
  },
  {
    "longitude": -86.251389,
    "id": "9Y5wmCqNCC6ZrenM31uA",
    "lastUpdated": "2020-07-17T18:16:02.936Z",
    "dead": 99,
    "name": "Nicaragua",
    "recovered": 2282,
    "latitude": 12.136389,
    "infected": 3147,
    "pop": 6218000,
    "country": "NI",
    "sick": 766,
    "invisible": false
  },
  {
    "latitude": 17.5706921,
    "name": "Mali",
    "recovered": 1791,
    "dead": 121,
    "infected": 2467,
    "pop": 18540000,
    "id": "9dIzxqDSVqPyINkHqwGv",
    "country": "ML",
    "lastUpdated": "2020-07-17T18:16:02.937Z",
    "longitude": -3.996166,
    "sick": 555,
    "invisible": false
  },
  {
    "dead": 328,
    "lastUpdated": "2020-07-17T18:16:02.931Z",
    "infected": 7301,
    "pop": 5513000,
    "recovered": 6880,
    "latitude": 61.92411,
    "name": "Finland",
    "longitude": 25.748152,
    "country": "FI",
    "id": "9p6OCdZbUUwBLA60Gk3W",
    "sick": 93,
    "invisible": false
  },
  {
    "dead": 256,
    "latitude": 64.248,
    "longitude": 95.1104,
    "id": "A6Us0fpQVCc85SoIqzg3",
    "recovered": 8083,
    "infected": 11149,
    "country": "RU",
    "pop": 2876000,
    "lastUpdated": "2020-07-17T18:00:09.299Z",
    "name": "Krasnoyarsk Krai",
    "sick": 2810,
    "invisible": false
  },
  {
    "country": "US",
    "pop": 1356000,
    "state": "NH",
    "id": "A84CwQ52kA46Hr7pn6Bm",
    "dead": 395,
    "recovered": 0,
    "latitude": 43.311643,
    "longitude": -71.590315,
    "name": "New Hampshire",
    "lastUpdated": "2020-07-17T18:17:01.864Z",
    "infected": 6139,
    "sick": 5744,
    "invisible": false
  },
  {
    "recovered": 0,
    "infected": 17793,
    "dead": 990,
    "country": "US",
    "latitude": 41.823261,
    "pop": 1057000,
    "id": "AEUWUHS65qvjEslew11c",
    "name": "Rhode Island",
    "longitude": -71.412257,
    "state": "RI",
    "lastUpdated": "2020-07-17T18:17:01.857Z",
    "sick": 16803,
    "invisible": false
  },
  {
    "name": "Emilia-Romagna",
    "longitude": 11.327591,
    "dead": 4273,
    "latitude": 44.498955,
    "id": "AJ9jQ0iyKsafsmf5yHAR",
    "state": "45",
    "recovered": 23586,
    "pop": 4453000,
    "infected": 29087,
    "lastUpdated": "2020-07-17T18:01:02.505Z",
    "country": "IT",
    "sick": 1228,
    "invisible": false
  },
  {
    "longitude": 7.023,
    "name": "Saarland",
    "pop": 990509,
    "lastUpdated": "2020-07-17T18:00:06.196Z",
    "infected": 2848,
    "state": "SL",
    "id": "AKjFRQGnzuuZQhv5Qwx7",
    "recovered": 2625,
    "latitude": 49.3964,
    "country": "DE",
    "dead": 178,
    "sick": 45,
    "invisible": false
  },
  {
    "country": "RU",
    "id": "AOapJ3gElQApd8Gnt8EL",
    "lastUpdated": "2020-07-17T18:00:09.299Z",
    "pop": 3493000,
    "recovered": 5282,
    "infected": 9420,
    "name": "Chelyabinsk Oblast",
    "dead": 88,
    "latitude": 54.4319,
    "longitude": 60.8789,
    "sick": 4050,
    "invisible": false
  },
  {
    "country": "CL",
    "latitude": -35.717,
    "pop": 1125002,
    "name": "Maule",
    "lastUpdated": "2020-07-17T18:20:04.765Z",
    "infected": 7603,
    "dead": 125,
    "id": "APTPgjAsjFi0nsGyJV7M",
    "longitude": -71.167,
    "recovered": 0,
    "sick": 7478,
    "invisible": false
  },
  {
    "latitude": 71.7069,
    "longitude": -42.6043,
    "country": "GL",
    "infected": 13,
    "recovered": 13,
    "dead": 0,
    "lastUpdated": "2020-07-17T18:16:02.968Z",
    "pop": 56171,
    "id": "APaZzlGCEeuoLBtzTJMe",
    "name": "Greenland",
    "sick": 0,
    "invisible": false
  },
  {
    "dead": 32,
    "id": "ATxF6ZoDJ2ibdE6ZRYIX",
    "name": "Buryatia",
    "longitude": 112.4061,
    "latitude": 54.8331,
    "recovered": 2753,
    "country": "RU",
    "infected": 3566,
    "pop": 984000,
    "lastUpdated": "2020-07-17T18:00:09.305Z",
    "sick": 781,
    "invisible": false
  },
  {
    "country": "CA",
    "lastUpdated": "2020-07-17T18:07:02.679Z",
    "state": "NS",
    "id": "AVCpxeh0fuH2WrHWNDYH",
    "pop": 971395,
    "longitude": -63.582687,
    "latitude": 45.65107,
    "recovered": 1002,
    "dead": 63,
    "name": "Nova Scotia",
    "infected": 1067,
    "sick": 2,
    "invisible": false
  },
  {
    "name": "Montana",
    "lastUpdated": "2020-07-17T18:17:01.864Z",
    "infected": 2366,
    "latitude": 47.012918,
    "dead": 37,
    "longitude": -109.128641,
    "id": "AcULcZBozObOhwuRKMjJ",
    "pop": 1062000,
    "recovered": 0,
    "state": "MT",
    "country": "US",
    "sick": 2329,
    "invisible": false
  },
  {
    "recovered": 5483,
    "infected": 6786,
    "latitude": 38.861,
    "longitude": 71.2761,
    "id": "AiIGs3ybYZZhm1ytVopr",
    "dead": 56,
    "pop": 9275000,
    "lastUpdated": "2020-07-17T18:16:02.931Z",
    "country": "TJ",
    "name": "Tajikistan",
    "sick": 1247,
    "invisible": false
  },
  {
    "id": "AmBYm5J6E9Cuez1FQjiN",
    "infected": 932,
    "dead": 1,
    "name": "Jiangxi",
    "recovered": 931,
    "pop": 45200000,
    "longitude": 116.01609,
    "lastUpdated": "2020-07-17T17:53:11.115Z",
    "country": "CN",
    "latitude": 27.285971,
    "sick": 0,
    "invisible": false
  },
  {
    "state": "WA",
    "dead": 1546,
    "name": "Wales",
    "country": "GB",
    "infected": 16887,
    "pop": 3136000,
    "latitude": 52.1307,
    "id": "AoLhHdTydeWTfmp9koEX",
    "longitude": -3.7837,
    "recovered": 0,
    "lastUpdated": "2020-07-17T18:13:12.066Z",
    "sick": 15341,
    "invisible": false
  },
  {
    "id": "Avls64fLKoEsBFH0Ol0b",
    "name": "Khakassia",
    "longitude": 90.3982,
    "dead": 25,
    "country": "RU",
    "pop": 537000,
    "lastUpdated": "2020-07-17T18:00:09.306Z",
    "recovered": 1969,
    "infected": 2520,
    "latitude": 53.0452,
    "sick": 526,
    "invisible": false
  },
  {
    "longitude": 1.659626,
    "id": "AwN0CScPDApcLFgz6e3z",
    "latitude": 28.033886,
    "dead": 1057,
    "pop": 41320000,
    "lastUpdated": "2020-07-17T18:16:02.917Z",
    "infected": 21948,
    "name": "Algeria",
    "country": "DZ",
    "recovered": 15430,
    "sick": 5461,
    "invisible": false
  },
  {
    "id": "B82Ef45M8cDu4q7VsSHF",
    "lastUpdated": "2020-07-17T18:16:02.936Z",
    "latitude": 45.099998,
    "dead": 120,
    "longitude": 15.2,
    "pop": 4076000,
    "recovered": 2825,
    "name": "Croatia",
    "infected": 4137,
    "country": "HR",
    "sick": 1192,
    "invisible": false
  },
  {
    "pop": 23716000,
    "name": "Niger",
    "id": "BENubqQInFUJzhpZTsLT",
    "longitude": 8.081666,
    "recovered": 993,
    "lastUpdated": "2020-07-17T18:16:02.939Z",
    "infected": 1102,
    "dead": 69,
    "country": "NE",
    "latitude": 17.6077881,
    "sick": 40,
    "invisible": false
  },
  {
    "infected": 76371,
    "dead": 3359,
    "pop": 6043000,
    "longitude": -76.98432,
    "id": "BF51mWl51fgEcyBpCSzb",
    "name": "Maryland",
    "latitude": 39.509109,
    "state": "MD",
    "country": "US",
    "recovered": 0,
    "lastUpdated": "2020-07-17T18:17:01.854Z",
    "sick": 73012,
    "invisible": false
  },
  {
    "longitude": 27.953388,
    "name": "Belarus",
    "country": "BY",
    "recovered": 57370,
    "id": "BGg6yVU5VP71B8NXU0oh",
    "dead": 491,
    "pop": 9508000,
    "lastUpdated": "2020-07-17T18:16:02.910Z",
    "infected": 65782,
    "latitude": 53.709808,
    "sick": 7921,
    "invisible": false
  },
  {
    "id": "BGtoyzb7y54LVlJ91rbf",
    "recovered": 1715,
    "dead": 438,
    "name": "Normandie",
    "infected": 3702,
    "longitude": 0.1713,
    "latitude": 48.8799,
    "lastUpdated": "2020-07-16T23:34:08.320Z",
    "country": "FR",
    "pop": 3319000,
    "sick": 1549,
    "invisible": false
  },
  {
    "longitude": -3.9995,
    "latitude": 50.7772,
    "pop": 5616000,
    "dead": 0,
    "country": "GB",
    "recovered": 0,
    "lastUpdated": "2020-07-17T18:13:12.070Z",
    "infected": 12913,
    "state": "EN",
    "id": "BQqMOlPFD36ZEDTGd3WC",
    "name": "South West",
    "sick": 12913,
    "invisible": false
  },
  {
    "pop": 7172000,
    "longitude": -111.093735,
    "recovered": 0,
    "latitude": 34.048927,
    "infected": 138523,
    "country": "US",
    "name": "Arizona",
    "dead": 2583,
    "state": "AZ",
    "lastUpdated": "2020-07-17T18:17:01.854Z",
    "id": "BTEESCuD2ZbS1afunR2A",
    "sick": 135940,
    "invisible": false
  },
  {
    "name": "Smolensk Oblast",
    "longitude": 32.6677,
    "country": "RU",
    "lastUpdated": "2020-07-17T18:00:09.302Z",
    "latitude": 54.9883,
    "recovered": 3241,
    "infected": 5306,
    "dead": 84,
    "pop": 949000,
    "id": "BUb7oDHcBM4lQ5cufNoG",
    "sick": 1981,
    "invisible": false
  },
  {
    "country": "RU",
    "dead": 50,
    "lastUpdated": "2020-07-17T18:00:09.304Z",
    "pop": 1283000,
    "latitude": 58.4199,
    "id": "BWojXmuKU3szKlS7CE4k",
    "longitude": 50.2097,
    "recovered": 3686,
    "infected": 4046,
    "name": "Kirov Oblast",
    "sick": 310,
    "invisible": false
  },
  {
    "country": "PL",
    "dead": 23,
    "lastUpdated": "2020-07-17T18:03:01.943Z",
    "id": "BZwZOAlDJ8AIiaRVLyC9",
    "longitude": 14.552812,
    "recovered": 0,
    "pop": 1676000,
    "latitude": 53.428543,
    "name": "Zachodniopomorskie",
    "infected": 645,
    "sick": 622,
    "invisible": false
  },
  {
    "dead": 0,
    "id": "BbiuZcm8oURX7cZwaa5U",
    "lastUpdated": "2020-07-17T18:16:02.906Z",
    "invisible": true,
    "infected": 0,
    "name": "Unknown Chile region",
    "recovered": 296814,
    "latitude": -33.4489,
    "longitude": -70.6693,
    "country": "CL",
    "sick": 0
  },
  {
    "name": "Malawi",
    "infected": 2712,
    "latitude": -13.2543,
    "country": "MW",
    "lastUpdated": "2020-07-17T18:16:02.937Z",
    "dead": 51,
    "pop": 18620000,
    "longitude": 34.3015,
    "id": "BfT8o5DaEixC6JIZ28kY",
    "recovered": 1073,
    "sick": 1588,
    "invisible": false
  },
  {
    "pop": 10860000,
    "longitude": 29.9188862,
    "dead": 1,
    "id": "BnpMamidC5yYzeK8tPUL",
    "lastUpdated": "2020-07-17T18:16:02.946Z",
    "recovered": 207,
    "latitude": -3.3730559,
    "infected": 303,
    "name": "Burundi",
    "country": "BI",
    "sick": 95,
    "invisible": false
  },
  {
    "longitude": 21.002,
    "lastUpdated": "2020-07-17T18:03:01.941Z",
    "recovered": 0,
    "name": "Mazowieckie",
    "pop": 5385000,
    "dead": 360,
    "infected": 5572,
    "latitude": 52.257,
    "id": "BrToMzyq8y2xdwXn75kM",
    "country": "PL",
    "sick": 5212,
    "invisible": false
  },
  {
    "latitude": -1.333845,
    "longitude": -71.347573,
    "name": "Amazonas (Colombia)",
    "recovered": 2237,
    "pop": 74751,
    "lastUpdated": "2020-07-17T17:45:07.758Z",
    "infected": 2443,
    "country": "CO",
    "id": "C25xSDm4iYibX5RYML14",
    "dead": 101,
    "sick": 105,
    "invisible": false
  },
  {
    "id": "C3BCUzV80z9GfiuByIcr",
    "lastUpdated": "2020-07-17T18:17:01.853Z",
    "recovered": 0,
    "name": "New York",
    "longitude": -73.982597,
    "latitude": 40.719042,
    "infected": 432072,
    "state": "NY",
    "country": "US",
    "pop": 19540000,
    "dead": 32527,
    "sick": 399545,
    "invisible": false
  },
  {
    "id": "C5YXFiytAc1w9swtVGLz",
    "name": "Guainía",
    "longitude": -67.92389,
    "lastUpdated": "2020-07-17T17:45:07.758Z",
    "pop": 42800,
    "infected": 15,
    "latitude": 3.86528,
    "dead": 1,
    "recovered": 11,
    "country": "CO",
    "sick": 3,
    "invisible": false
  },
  {
    "longitude": 15.359413,
    "country": "CZ",
    "id": "C6S76AggdWVU8G22jFHQ",
    "pop": 10650000,
    "latitude": 49.731626,
    "recovered": 8725,
    "lastUpdated": "2020-07-17T18:16:02.917Z",
    "dead": 358,
    "infected": 13682,
    "name": "Czechia",
    "sick": 4599,
    "invisible": false
  },
  {
    "lastUpdated": "2020-07-17T18:16:02.916Z",
    "country": "BH",
    "dead": 124,
    "infected": 35084,
    "longitude": 50.557701,
    "recovered": 30809,
    "latitude": 26.0667,
    "name": "Bahrain",
    "pop": 1493000,
    "id": "C7cj4nwRITs13KnaJrQ2",
    "sick": 4151,
    "invisible": false
  },
  {
    "country": "CO",
    "lastUpdated": "2020-07-17T17:45:07.758Z",
    "name": "Magdalena",
    "dead": 138,
    "id": "CA9LaAl3bNaeAqBuozn4",
    "latitude": 10.4113,
    "longitude": -74.4057,
    "pop": 1285400,
    "recovered": 598,
    "infected": 1321,
    "sick": 585,
    "invisible": false
  },
  {
    "id": "CCUFp4urvgXPo5unfMGy",
    "country": "MX",
    "dead": 412,
    "name": "Coahuila",
    "pop": 3073500,
    "recovered": 0,
    "lastUpdated": "2020-07-17T18:02:01.953Z",
    "infected": 8163,
    "longitude": -101.430756,
    "latitude": 26.909979,
    "sick": 7751,
    "invisible": false
  },
  {
    "name": "Rajasthan",
    "id": "CKZCZTPlrcq5fbfUPA9k",
    "dead": 546,
    "recovered": 20626,
    "country": "IN",
    "pop": 68890000,
    "lastUpdated": "2020-07-17T18:11:01.994Z",
    "longitude": 74.2179,
    "latitude": 27.0238,
    "infected": 27789,
    "sick": 6617,
    "invisible": false
  },
  {
    "id": "CX8z9U1iABNBhc1VK2Dy",
    "longitude": 86.2199,
    "recovered": 706,
    "pop": 218000,
    "country": "RU",
    "latitude": 50.6182,
    "dead": 1,
    "name": "Altai",
    "lastUpdated": "2020-07-17T18:00:09.310Z",
    "infected": 1197,
    "sick": 490,
    "invisible": false
  },
  {
    "latitude": 13.803,
    "id": "Cgvmtle61ehMvCzRzYx7",
    "country": "SV",
    "name": "El Salvador",
    "lastUpdated": "2020-07-17T18:16:02.918Z",
    "recovered": 6422,
    "infected": 11207,
    "dead": 309,
    "pop": 6378000,
    "longitude": -88.9053,
    "sick": 4476,
    "invisible": false
  },
  {
    "dead": 6,
    "lastUpdated": "2020-07-17T18:00:09.310Z",
    "latitude": 62.6643,
    "recovered": 693,
    "longitude": 153.915,
    "pop": 144000,
    "name": "Magadan Oblast",
    "country": "RU",
    "id": "D4WkbqyUXY1pazbOxfKx",
    "infected": 1120,
    "sick": 421,
    "invisible": false
  },
  {
    "dead": 25,
    "country": "RU",
    "latitude": 58.897,
    "name": "Tomsk Oblast",
    "longitude": 82.6765,
    "lastUpdated": "2020-07-17T18:00:09.305Z",
    "id": "DAp3PFow4BuCMYWWTo3i",
    "pop": 1078000,
    "recovered": 1836,
    "infected": 3314,
    "sick": 1453,
    "invisible": false
  },
  {
    "infected": 34001,
    "name": "Armenia",
    "pop": 2973000,
    "id": "DCJCtZoBTWQ4mzdDNljD",
    "latitude": 40.259003,
    "dead": 620,
    "country": "AM",
    "longitude": 44.818474,
    "lastUpdated": "2020-07-17T18:16:02.916Z",
    "recovered": 22492,
    "sick": 10889,
    "invisible": false
  },
  {
    "longitude": -73.368,
    "name": "Boyacá",
    "pop": 1278000,
    "id": "DJJraANgQbEqz1wBBtZz",
    "lastUpdated": "2020-07-17T17:45:07.757Z",
    "infected": 543,
    "latitude": 5.535,
    "dead": 16,
    "recovered": 301,
    "country": "CO",
    "sick": 226,
    "invisible": false
  },
  {
    "infected": 4014,
    "id": "DKwy7USk22oXUQGEvO42",
    "name": "Mordovia",
    "recovered": 2926,
    "lastUpdated": "2020-07-17T18:00:09.305Z",
    "longitude": 44.0684,
    "latitude": 54.2369,
    "dead": 30,
    "country": "RU",
    "pop": 834000,
    "sick": 1058,
    "invisible": false
  },
  {
    "recovered": 0,
    "dead": 0,
    "name": "North West",
    "id": "DPwBt2aJuwF0O71vwfM9",
    "infected": 43907,
    "longitude": -2.5945,
    "lastUpdated": "2020-07-17T18:13:12.068Z",
    "country": "GB",
    "pop": 7300000,
    "latitude": 53.6221,
    "state": "EN",
    "sick": 43907,
    "invisible": false
  },
  {
    "longitude": -64.75737,
    "recovered": 137,
    "latitude": 32.3213844,
    "id": "DZyTD0Mu5WIcK6yTcJ91",
    "lastUpdated": "2020-07-17T18:16:02.950Z",
    "pop": 65440,
    "dead": 9,
    "name": "Bermuda",
    "infected": 152,
    "country": "BM",
    "sick": 6,
    "invisible": false
  },
  {
    "name": "Turks and Caicos",
    "dead": 2,
    "infected": 74,
    "lastUpdated": "2020-07-17T18:16:02.966Z",
    "longitude": -71.7979,
    "id": "DaMrRSIGJXIG36nW0Pnc",
    "country": "TC",
    "latitude": 21.694,
    "recovered": 12,
    "pop": 35446,
    "sick": 60,
    "invisible": false
  },
  {
    "state": "CM",
    "pop": 2035000,
    "longitude": -3.0977,
    "recovered": 6392,
    "id": "Dbng0NBTH41EEwBxhMzE",
    "name": "Castilla La Mancha",
    "latitude": 39.2796,
    "country": "ES",
    "lastUpdated": "2020-07-16T23:19:13.177Z",
    "infected": 27047,
    "dead": 3032,
    "sick": 17623,
    "invisible": false
  },
  {
    "name": "Malopolskie",
    "country": "PL",
    "pop": 3361000,
    "dead": 47,
    "id": "DcQ3D0WkacXEbv6iznRB",
    "lastUpdated": "2020-07-17T18:03:01.942Z",
    "latitude": 50.023,
    "recovered": 0,
    "infected": 2303,
    "longitude": 20.006,
    "sick": 2256,
    "invisible": false
  },
  {
    "country": "MO",
    "pop": 622567,
    "latitude": 22.192039,
    "dead": 0,
    "recovered": 45,
    "id": "DdBt8qsG6A3g92oOR3ow",
    "lastUpdated": "2020-07-17T18:16:02.967Z",
    "infected": 46,
    "name": "Macao",
    "longitude": 113.551262,
    "sick": 1,
    "invisible": false
  },
  {
    "id": "Dh0O1vmhrVfmsCsfZCUg",
    "infected": 403,
    "latitude": 25.467,
    "dead": 2,
    "pop": 2651000,
    "recovered": 49,
    "country": "IN",
    "lastUpdated": "2020-07-17T18:11:02.000Z",
    "longitude": 91.3662,
    "name": "Meghalaya",
    "sick": 352,
    "invisible": false
  },
  {
    "id": "DqzAhNFTJFQVm88ma21P",
    "recovered": 8745,
    "longitude": 41.8259,
    "name": "Rostov Oblast",
    "lastUpdated": "2020-07-17T18:00:09.298Z",
    "latitude": 47.6853,
    "infected": 11214,
    "dead": 178,
    "country": "RU",
    "pop": 4220000,
    "sick": 2291,
    "invisible": false
  },
  {
    "recovered": 0,
    "state": "WY",
    "id": "DrGzziUglmBognCGY7R2",
    "latitude": 42.962334,
    "lastUpdated": "2020-07-17T18:17:01.864Z",
    "longitude": -107.534868,
    "name": "Wyoming",
    "country": "US",
    "dead": 24,
    "infected": 2026,
    "pop": 577737,
    "sick": 2002,
    "invisible": false
  },
  {
    "dead": 194,
    "lastUpdated": "2020-07-17T18:16:02.936Z",
    "latitude": 37.9838,
    "longitude": 23.7275,
    "country": "GR",
    "infected": 3964,
    "pop": 10740000,
    "name": "Greece",
    "id": "Dtr1lap1RpJpXJdXGJiW",
    "recovered": 1374,
    "sick": 2396,
    "invisible": false
  },
  {
    "lastUpdated": "2020-07-17T18:00:09.303Z",
    "country": "RU",
    "name": "Perm Krai",
    "infected": 4803,
    "dead": 103,
    "recovered": 3808,
    "id": "E8vIyXLVNtcY9dxLHICp",
    "pop": 2623000,
    "latitude": 58.8232,
    "longitude": 56.5872,
    "sick": 892,
    "invisible": false
  },
  {
    "lastUpdated": "2020-07-17T18:00:09.303Z",
    "dead": 22,
    "country": "RU",
    "id": "EHKZ6ivhrJUs3XqNDBOw",
    "name": "Tyumen Oblast",
    "longitude": 66.9483,
    "infected": 4451,
    "recovered": 2867,
    "latitude": 56.9634,
    "pop": 3692000,
    "sick": 1562,
    "invisible": false
  },
  {
    "dead": 7,
    "recovered": 440,
    "country": "TW",
    "infected": 454,
    "latitude": 25.03841,
    "id": "EKTfs8e7M6DXzI1HqyyX",
    "longitude": 121.563698,
    "name": "Taiwan",
    "lastUpdated": "2020-07-17T18:16:02.946Z",
    "pop": 23780000,
    "sick": 7,
    "invisible": false
  },
  {
    "latitude": 10.327273,
    "name": "Costa Rica",
    "country": "CR",
    "longitude": -84.387618,
    "recovered": 2673,
    "lastUpdated": "2020-07-17T18:16:02.918Z",
    "infected": 9546,
    "id": "EQzJvzVHKjs8kLmK7BMu",
    "dead": 42,
    "pop": 4906000,
    "sick": 6831,
    "invisible": false
  },
  {
    "lastUpdated": "2020-07-17T18:11:01.993Z",
    "pop": 62700000,
    "latitude": 22.2587,
    "name": "Gujarat",
    "id": "ERwk9R9en4m9WbdoMbIg",
    "recovered": 32944,
    "country": "IN",
    "longitude": 71.1924,
    "dead": 2107,
    "infected": 46516,
    "sick": 11465,
    "invisible": false
  },
  {
    "recovered": 5192,
    "pop": 1155000,
    "dead": 129,
    "id": "EVMBsgCJedjHy91mDYEC",
    "lastUpdated": "2020-07-17T18:00:09.300Z",
    "name": "Arkhangelsk Oblast",
    "longitude": 42.5884,
    "country": "RU",
    "infected": 7608,
    "latitude": 63.2853,
    "sick": 2287,
    "invisible": false
  },
  {
    "longitude": 76.7794,
    "id": "Esl5UlCVB9s8pmGB5Ofr",
    "lastUpdated": "2020-07-17T18:11:01.999Z",
    "latitude": 30.7333,
    "pop": 1055000,
    "recovered": 480,
    "country": "IN",
    "name": "Chandigarh",
    "infected": 660,
    "dead": 11,
    "sick": 169,
    "invisible": false
  },
  {
    "pop": 2148000,
    "infected": 860,
    "latitude": 51.24,
    "country": "PL",
    "lastUpdated": "2020-07-17T18:03:01.942Z",
    "recovered": 0,
    "id": "Esy1La2CxwH5uB8bGVWZ",
    "longitude": 22.653,
    "name": "Lubelskie",
    "dead": 20,
    "sick": 840,
    "invisible": false
  },
  {
    "name": "Puerto Rico",
    "pop": 3195000,
    "infected": 11120,
    "state": "PR",
    "longitude": -66.664513,
    "id": "F4rPrEVGAIMM5rfPEMv4",
    "latitude": 18.200178,
    "dead": 177,
    "recovered": 0,
    "lastUpdated": "2020-07-17T18:17:01.865Z",
    "alwaysShow": true,
    "country": "US",
    "sick": 10943,
    "invisible": false
  },
  {
    "id": "F7MED5VwEhi3JvJu6KjB",
    "infected": 4999,
    "longitude": -74.058655,
    "dead": 109,
    "recovered": 2291,
    "latitude": 4.862437,
    "country": "CO",
    "name": "Cundinamarca",
    "lastUpdated": "2020-07-17T17:45:07.756Z",
    "pop": 2919000,
    "sick": 2599,
    "invisible": false
  },
  {
    "country": "KM",
    "infected": 328,
    "latitude": -11.6455,
    "recovered": 311,
    "pop": 832322,
    "id": "F8LnLqvuWoWh8awBqiw1",
    "lastUpdated": "2020-07-17T18:16:02.946Z",
    "longitude": 43.3333,
    "name": "Comoros",
    "dead": 7,
    "sick": 10,
    "invisible": false
  },
  {
    "id": "FCDmlmnIIswd8bQiUjfN",
    "latitude": 33.93911,
    "lastUpdated": "2020-07-17T18:16:02.916Z",
    "country": "AF",
    "recovered": 23151,
    "dead": 1147,
    "name": "Afghanistan",
    "pop": 35530000,
    "longitude": 67.709953,
    "infected": 35229,
    "sick": 10931,
    "invisible": false
  },
  {
    "lastUpdated": "2020-07-17T17:53:11.113Z",
    "country": "CN",
    "name": "Chongqing",
    "latitude": 29.431585,
    "id": "FErOU1m4Tj7jIkRam3vF",
    "longitude": 106.912254,
    "infected": 583,
    "dead": 6,
    "recovered": 576,
    "pop": 30480000,
    "sick": 1,
    "invisible": false
  },
  {
    "dead": 404,
    "id": "FZsUkhxBEgqsPb4eO0PN",
    "name": "Kuwait",
    "infected": 58221,
    "lastUpdated": "2020-07-17T18:16:02.910Z",
    "country": "KW",
    "latitude": 29.311661,
    "longitude": 47.481766,
    "pop": 4137000,
    "recovered": 48381,
    "sick": 9436,
    "invisible": false
  },
  {
    "dead": 1071,
    "infected": 41226,
    "recovered": 0,
    "state": "SE",
    "name": "Sergipe",
    "lastUpdated": "2020-07-17T17:57:02.141Z",
    "id": "FboWeolpM62SZCLwdilT",
    "longitude": -37.0717,
    "country": "BR",
    "latitude": -10.9111,
    "pop": 2278308,
    "sick": 40155,
    "invisible": false
  },
  {
    "name": "Tamil Nadu",
    "country": "IN",
    "pop": 67860000,
    "lastUpdated": "2020-07-17T18:11:01.992Z",
    "latitude": 11.1271,
    "longitude": 78.6569,
    "recovered": 110807,
    "dead": 2315,
    "id": "FeS45oMNC27pI17F0xEV",
    "infected": 160907,
    "sick": 47785,
    "invisible": false
  },
  {
    "lastUpdated": "2020-07-17T18:16:02.913Z",
    "dead": 942,
    "longitude": -70.430399,
    "recovered": 24423,
    "country": "DO",
    "id": "FuiVEJvWb0QMCpxJ3563",
    "infected": 50113,
    "latitude": 18.947829,
    "pop": 10770000,
    "name": "Dominican Republic",
    "sick": 24748,
    "invisible": false
  },
  {
    "id": "FyC551oNwmENxbr9Yght",
    "name": "Telengana",
    "country": "IN",
    "latitude": 18.1124,
    "longitude": 79.0193,
    "pop": 35190000,
    "recovered": 28705,
    "lastUpdated": "2020-07-17T18:11:01.993Z",
    "infected": 42496,
    "dead": 403,
    "sick": 13388,
    "invisible": false
  },
  {
    "latitude": 48.669,
    "pop": 5450000,
    "country": "SK",
    "infected": 1965,
    "dead": 28,
    "lastUpdated": "2020-07-17T18:16:02.938Z",
    "name": "Slovakia",
    "recovered": 1523,
    "longitude": 19.699,
    "id": "FzIDXoqWnTI3nUfhPyT2",
    "sick": 414,
    "invisible": false
  },
  {
    "longitude": 69.345116,
    "infected": 259999,
    "id": "GAp7Wb6IMhdgbvEtMza9",
    "lastUpdated": "2020-07-17T18:16:02.909Z",
    "latitude": 30.37532,
    "name": "Pakistan",
    "recovered": 183737,
    "pop": 197000000,
    "country": "PK",
    "dead": 5475,
    "sick": 70787,
    "invisible": false
  },
  {
    "latitude": 31.1471,
    "country": "IN",
    "infected": 9442,
    "name": "Punjab",
    "dead": 239,
    "id": "GGru8cG08mANO8XDDUtZ",
    "recovered": 6373,
    "longitude": 75.3412,
    "lastUpdated": "2020-07-17T18:11:01.994Z",
    "pop": 27980000,
    "sick": 2830,
    "invisible": false
  },
  {
    "recovered": 48448,
    "dead": 337,
    "latitude": 23.424076,
    "infected": 56422,
    "lastUpdated": "2020-07-17T18:16:02.910Z",
    "longitude": 53.847816,
    "country": "AE",
    "name": "United Arab Emirates",
    "pop": 9400000,
    "id": "GHzBIsHy2GiBc5JV2HMs",
    "sick": 7637,
    "invisible": false
  },
  {
    "recovered": 0,
    "dead": 3,
    "id": "GLViSIjDjwvptOphedAu",
    "name": "Grand Princess",
    "invisible": true,
    "country": "US",
    "lastUpdated": "2020-07-17T18:17:01.866Z",
    "longitude": -95.7129,
    "latitude": 37.0902,
    "infected": 103,
    "sick": 100
  },
  {
    "lastUpdated": "2020-07-17T18:13:12.068Z",
    "dead": 0,
    "name": "London",
    "longitude": -0.1278,
    "state": "EN",
    "id": "GPtoS0Yy2EnNafpmmTqY",
    "recovered": 0,
    "country": "GB",
    "pop": 10100000,
    "infected": 34397,
    "latitude": 51.5074,
    "sick": 34397,
    "invisible": false
  },
  {
    "infected": 365125,
    "lastUpdated": "2020-07-17T18:17:01.853Z",
    "state": "CA",
    "latitude": 36.621981,
    "longitude": -119.339046,
    "country": "US",
    "dead": 7491,
    "recovered": 0,
    "id": "Gh46r6vuaY7fbGt3IboN",
    "name": "California",
    "pop": 39560000,
    "sick": 357634,
    "invisible": false
  },
  {
    "dead": 2,
    "id": "GljWeVnun6o9DeW6rlEm",
    "name": "Dadra and Nagar Haveli",
    "recovered": 414,
    "lastUpdated": "2020-07-17T18:11:02.000Z",
    "longitude": 72.8397,
    "infected": 608,
    "latitude": 20.4283,
    "pop": 343709,
    "country": "IN",
    "sick": 192,
    "invisible": false
  },
  {
    "id": "GpF8ULuKOQiFDCUHN44h",
    "longitude": -97.145514,
    "dead": 445,
    "recovered": 0,
    "lastUpdated": "2020-07-17T18:17:01.856Z",
    "country": "US",
    "pop": 3943000,
    "name": "Oklahoma",
    "infected": 24140,
    "state": "OK",
    "latitude": 35.87189,
    "sick": 23695,
    "invisible": false
  },
  {
    "name": "Arauca",
    "lastUpdated": "2020-07-17T17:45:07.758Z",
    "infected": 161,
    "country": "CO",
    "id": "Gr09a1wn3BnMqjQbgEun",
    "recovered": 73,
    "latitude": 6.492,
    "longitude": -71.557,
    "dead": 0,
    "pop": 256627,
    "sick": 88,
    "invisible": false
  },
  {
    "latitude": 57.1057,
    "pop": 1014000,
    "infected": 5813,
    "country": "RU",
    "recovered": 4153,
    "lastUpdated": "2020-07-17T18:00:09.301Z",
    "dead": 63,
    "longitude": 41.483,
    "name": "Ivanovo Oblast",
    "id": "GsecjBfopdgTOnyRgtCA",
    "sick": 1597,
    "invisible": false
  },
  {
    "longitude": 11.35,
    "infected": 2682,
    "dead": 292,
    "country": "IT",
    "recovered": 2289,
    "latitude": 46.5,
    "pop": 520891,
    "name": "P.A. Bolzano",
    "state": "BA",
    "id": "Gzx6GX1qhBm714BkEC6l",
    "lastUpdated": "2020-07-17T18:01:02.506Z",
    "sick": 101,
    "invisible": false
  },
  {
    "dead": 1,
    "recovered": 237,
    "name": "Inner Mongolia",
    "lastUpdated": "2020-07-17T17:53:11.112Z",
    "infected": 249,
    "pop": 24710000,
    "longitude": 113.750972,
    "latitude": 42.83263,
    "country": "CN",
    "id": "H3JeVigVbo5CSYfZG4WI",
    "sick": 11,
    "invisible": false
  },
  {
    "longitude": -116.724977,
    "country": "US",
    "infected": 33295,
    "latitude": 39.74536,
    "pop": 3034000,
    "dead": 637,
    "state": "NV",
    "id": "H3bDg4eV30up4WWrIDAS",
    "recovered": 0,
    "lastUpdated": "2020-07-17T18:17:01.856Z",
    "name": "Nevada",
    "sick": 32658,
    "invisible": false
  },
  {
    "id": "HEMWNnFxeFEoeOCBOLJD",
    "infected": 144000,
    "state": "CE",
    "longitude": -38.526669,
    "country": "BR",
    "latitude": -3.731862,
    "recovered": 0,
    "name": "Ceará",
    "dead": 7127,
    "lastUpdated": "2020-07-17T17:57:02.138Z",
    "pop": 9075649,
    "sick": 136873,
    "invisible": false
  },
  {
    "latitude": 15.3173,
    "longitude": 75.7139,
    "recovered": 20758,
    "infected": 55115,
    "pop": 64060000,
    "lastUpdated": "2020-07-17T18:11:01.993Z",
    "id": "HN5mGmxlqlSeFSNeu1K5",
    "name": "Karnataka",
    "dead": 1152,
    "country": "IN",
    "sick": 33205,
    "invisible": false
  },
  {
    "id": "HRDpwyxpqW9RN0xLFyNu",
    "lastUpdated": "2020-07-17T18:16:02.960Z",
    "pop": 807610,
    "longitude": 90.4336,
    "name": "Bhutan",
    "recovered": 78,
    "infected": 86,
    "latitude": 27.5142,
    "country": "BT",
    "dead": 0,
    "sick": 8,
    "invisible": false
  },
  {
    "longitude": 64.5853,
    "id": "HRTA10dtrruDEwjJEGMp",
    "lastUpdated": "2020-07-17T18:16:02.917Z",
    "country": "UZ",
    "latitude": 41.3775,
    "name": "Uzbekistan",
    "pop": 32390000,
    "recovered": 8783,
    "infected": 15482,
    "dead": 77,
    "sick": 6622,
    "invisible": false
  },
  {
    "country": "US",
    "state": "NM",
    "recovered": 0,
    "pop": 2095000,
    "longitude": -105.576255,
    "latitude": 34.138916,
    "dead": 562,
    "id": "HSSFomRju0doHhWgW8On",
    "infected": 16138,
    "lastUpdated": "2020-07-17T18:17:01.857Z",
    "name": "New Mexico",
    "sick": 15576,
    "invisible": false
  },
  {
    "country": "CL",
    "infected": 820,
    "pop": 412812,
    "name": "Los Ríos",
    "latitude": -40.231,
    "id": "HZkACHjW7NlYjg8vEMj2",
    "longitude": -72.3311,
    "recovered": 0,
    "lastUpdated": "2020-07-17T18:20:04.766Z",
    "dead": 13,
    "sick": 807,
    "invisible": false
  },
  {
    "state": "MV",
    "infected": 810,
    "id": "He1gSS1v50t06i3YrqvB",
    "lastUpdated": "2020-07-17T18:00:06.195Z",
    "latitude": 53.6127,
    "pop": 1635000,
    "recovered": 784,
    "country": "DE",
    "longitude": 12.4296,
    "name": "Mecklenburg-Vorpommern",
    "dead": 21,
    "sick": 5,
    "invisible": false
  },
  {
    "lastUpdated": "2020-07-17T18:01:02.504Z",
    "state": "65",
    "name": "Abruzzo",
    "dead": 468,
    "id": "I9EqrZfbPnkioNU4wZGz",
    "recovered": 2747,
    "pop": 1315000,
    "country": "IT",
    "latitude": 42.25,
    "longitude": 13.75,
    "infected": 3334,
    "sick": 119,
    "invisible": false
  },
  {
    "infected": 1654,
    "id": "IAX0OQLVnUwU7FX0ENF1",
    "dead": 8,
    "lastUpdated": "2020-07-17T17:53:11.112Z",
    "country": "CN",
    "name": "Guangdong",
    "longitude": 113.373448,
    "recovered": 1636,
    "latitude": 23.363855,
    "pop": 113460000,
    "sick": 10,
    "invisible": false
  },
  {
    "id": "IFuMrMvSjoiX5agYvllh",
    "name": "Henan",
    "lastUpdated": "2020-07-17T17:53:11.114Z",
    "infected": 1276,
    "dead": 22,
    "longitude": 113.484016,
    "country": "CN",
    "latitude": 33.875408,
    "pop": 94000000,
    "recovered": 1254,
    "sick": 0,
    "invisible": false
  },
  {
    "pop": 451000,
    "id": "IHqRHC8K3OZPN8gniM7V",
    "infected": 764,
    "longitude": -8.16667,
    "name": "Algarve",
    "country": "PT",
    "recovered": 0,
    "lastUpdated": "2020-07-17T17:53:03.370Z",
    "dead": 15,
    "latitude": 37.2,
    "sick": 749,
    "invisible": false
  },
  {
    "id": "IKWjRUo0SYgHQKdWjTvq",
    "lastUpdated": "2020-07-17T17:45:07.758Z",
    "infected": 1806,
    "country": "CO",
    "latitude": 3.883,
    "dead": 122,
    "longitude": -77.0197,
    "pop": 333194,
    "recovered": 1181,
    "name": "Buenaventura D.E.",
    "sick": 503,
    "invisible": false
  },
  {
    "id": "INyu1R48Ppv8cfW4Nuz4",
    "latitude": 52.87,
    "name": "East Midlands",
    "lastUpdated": "2020-07-17T18:13:12.067Z",
    "dead": 0,
    "longitude": -0.995,
    "infected": 22354,
    "country": "GB",
    "state": "EN",
    "pop": 4811000,
    "recovered": 0,
    "sick": 22354,
    "invisible": false
  },
  {
    "name": "Aguascalientes",
    "lastUpdated": "2020-07-17T18:02:01.957Z",
    "dead": 219,
    "longitude": -102.317,
    "latitude": 22.017,
    "recovered": 0,
    "country": "MX",
    "id": "ISRKMzEDojyrZ9iyWwex",
    "pop": 1342600,
    "infected": 4047,
    "sick": 3828,
    "invisible": false
  },
  {
    "pop": 5321300,
    "recovered": 0,
    "lastUpdated": "2020-07-17T18:02:01.955Z",
    "longitude": -100.316116,
    "dead": 709,
    "id": "IdKbgzgKLpjBFh4UPOwu",
    "latitude": 25.686613,
    "country": "MX",
    "infected": 21906,
    "name": "Nuevo León",
    "sick": 21197,
    "invisible": false
  },
  {
    "pop": 3826900,
    "lastUpdated": "2020-07-17T18:02:01.952Z",
    "id": "IhhiYI6T0TX4CYVPcnmH",
    "recovered": 0,
    "dead": 797,
    "longitude": -106.069099,
    "latitude": 28.632996,
    "country": "MX",
    "name": "Chihuahua",
    "infected": 6279,
    "sick": 5482,
    "invisible": false
  },
  {
    "longitude": -72.57,
    "name": "Ñuble",
    "latitude": -36.7,
    "id": "ImnOiVx9Cb8Nw7cbRcQ7",
    "recovered": 0,
    "dead": 52,
    "pop": 480600,
    "lastUpdated": "2020-07-17T18:20:04.766Z",
    "infected": 3095,
    "country": "CL",
    "sick": 3043,
    "invisible": false
  },
  {
    "recovered": 3606,
    "lastUpdated": "2020-07-17T18:16:02.931Z",
    "dead": 145,
    "longitude": -73.0513,
    "latitude": 19.0558,
    "country": "HT",
    "id": "InZ38sIqyK7FN7XAOZoX",
    "pop": 10980000,
    "name": "Haiti",
    "infected": 6948,
    "sick": 3197,
    "invisible": false
  },
  {
    "state": "GA",
    "country": "US",
    "pop": 10520000,
    "name": "Georgia (US)",
    "recovered": 0,
    "lastUpdated": "2020-07-17T18:17:01.854Z",
    "longitude": -83.280125,
    "id": "IvQkDJkTAsoIqPRAU25n",
    "latitude": 32.528564,
    "dead": 3104,
    "infected": 131275,
    "sick": 128171,
    "invisible": false
  },
  {
    "longitude": 172.488081,
    "country": "NZ",
    "latitude": -42.8285,
    "recovered": 1506,
    "dead": 22,
    "id": "IvVhpOoGpH6JVkGyUhXN",
    "pop": 4794000,
    "lastUpdated": "2020-07-17T18:16:02.939Z",
    "infected": 1549,
    "name": "New Zealand",
    "sick": 21,
    "invisible": false
  },
  {
    "infected": 543,
    "pop": 1255000,
    "id": "IwYKiIVY18NGwdGQFGWW",
    "recovered": 153,
    "country": "IN",
    "longitude": 94.7278,
    "name": "Arunachal Pradesh",
    "lastUpdated": "2020-07-17T18:11:02.000Z",
    "dead": 3,
    "latitude": 28.218,
    "sick": 387,
    "invisible": false
  },
  {
    "name": "Venezuela",
    "country": "VE",
    "latitude": 6.4238,
    "longitude": -66.5897,
    "recovered": 3255,
    "lastUpdated": "2020-07-17T18:16:02.918Z",
    "infected": 10854,
    "pop": 28870000,
    "dead": 104,
    "id": "J3mZXlfEnnJx4CDZLvRG",
    "sick": 7495,
    "invisible": false
  },
  {
    "recovered": 37,
    "pop": 107932,
    "country": "CO",
    "latitude": 2.567,
    "infected": 48,
    "dead": 0,
    "longitude": -72.633,
    "id": "JEMCwkwXK39jd1lZ7VgJ",
    "name": "Guaviare",
    "lastUpdated": "2020-07-17T17:45:07.759Z",
    "sick": 11,
    "invisible": false
  },
  {
    "dead": 16,
    "latitude": 44.8229,
    "infected": 2326,
    "pop": 453000,
    "longitude": 40.1754,
    "id": "JOJVBvOnsLDJPVeYJaI2",
    "recovered": 1882,
    "lastUpdated": "2020-07-17T18:00:09.306Z",
    "country": "RU",
    "name": "Adygea",
    "sick": 428,
    "invisible": false
  },
  {
    "name": "Cyprus",
    "recovered": 845,
    "lastUpdated": "2020-07-17T18:16:02.940Z",
    "latitude": 35.1264,
    "infected": 1033,
    "pop": 1170000,
    "dead": 19,
    "id": "JQByE4l2OA6sGOqIcWrM",
    "country": "CY",
    "longitude": 33.4299,
    "sick": 169,
    "invisible": false
  },
  {
    "country": "IN",
    "id": "JR7hOGked7CZtIs2nCV5",
    "pop": 99020000,
    "lastUpdated": "2020-07-17T18:11:01.994Z",
    "infected": 23300,
    "latitude": 25.0961,
    "longitude": 85.3131,
    "dead": 173,
    "name": "Bihar",
    "recovered": 14997,
    "sick": 8130,
    "invisible": false
  },
  {
    "infected": 32939,
    "lastUpdated": "2020-07-17T18:16:02.916Z",
    "id": "JUWE6bG3b5oL7fKQMSvv",
    "country": "GT",
    "pop": 17250000,
    "name": "Guatemala",
    "latitude": 14.628434,
    "dead": 1404,
    "longitude": -90.522713,
    "recovered": 4807,
    "sick": 26728,
    "invisible": false
  },
  {
    "id": "JcFsHSn2WvZ5LJW42ovG",
    "recovered": 4333,
    "lastUpdated": "2020-07-17T18:16:02.932Z",
    "latitude": 49.8153,
    "country": "LU",
    "dead": 111,
    "name": "Luxembourg",
    "longitude": 6.1296,
    "infected": 5409,
    "pop": 602005,
    "sick": 965,
    "invisible": false
  },
  {
    "pop": 2049000,
    "id": "JmOyaFe25yZCIV64JbZj",
    "country": "CO",
    "infected": 1545,
    "longitude": -74.167,
    "recovered": 752,
    "lastUpdated": "2020-07-17T17:45:07.758Z",
    "name": "Bolívar",
    "dead": 73,
    "latitude": 8.8,
    "sick": 720,
    "invisible": false
  },
  {
    "latitude": 31.4,
    "longitude": -115.783,
    "name": "Baja California",
    "infected": 11376,
    "country": "MX",
    "id": "Jp9ePErcc8i1aOozEAMf",
    "pop": 3648100,
    "dead": 2284,
    "lastUpdated": "2020-07-17T18:02:01.951Z",
    "recovered": 0,
    "sick": 9092,
    "invisible": false
  },
  {
    "name": "Córdoba",
    "recovered": 473,
    "country": "CO",
    "pop": 1786500,
    "lastUpdated": "2020-07-17T17:45:07.758Z",
    "dead": 240,
    "id": "Jr8syCB0lydmPDXw8Q6N",
    "latitude": 8.7479801,
    "infected": 1882,
    "longitude": -75.8814316,
    "sick": 1169,
    "invisible": false
  },
  {
    "longitude": 0.8248,
    "dead": 15,
    "id": "JrBbirlBKGdWSdcDt7PF",
    "recovered": 543,
    "infected": 749,
    "latitude": 8.6195,
    "name": "Togo",
    "lastUpdated": "2020-07-17T18:16:02.944Z",
    "pop": 7798000,
    "country": "TG",
    "sick": 191,
    "invisible": false
  },
  {
    "pop": 7050000,
    "latitude": 42.7339,
    "infected": 8144,
    "country": "BG",
    "longitude": 25.4858,
    "recovered": 3927,
    "dead": 293,
    "name": "Bulgaria",
    "lastUpdated": "2020-07-17T18:16:02.918Z",
    "id": "JzZ8sbqzjutThVjkPKPL",
    "sick": 3924,
    "invisible": false
  },
  {
    "dead": 44,
    "longitude": 20.709,
    "id": "KGrK7gafkeWjmU6sHQd2",
    "infected": 879,
    "lastUpdated": "2020-07-17T18:03:01.942Z",
    "name": "Świętokrzyskie",
    "country": "PL",
    "latitude": 50.823,
    "pop": 1263000,
    "recovered": 0,
    "sick": 835,
    "invisible": false
  },
  {
    "pop": 4325000,
    "lastUpdated": "2020-07-17T18:00:09.298Z",
    "infected": 17285,
    "name": "Sverdlovsk Oblast",
    "country": "RU",
    "latitude": 59.0077,
    "recovered": 11273,
    "id": "KLBR5QHW6DePaGcFxlqH",
    "longitude": 61.9316,
    "dead": 188,
    "sick": 5824,
    "invisible": false
  },
  {
    "pop": 1557000,
    "longitude": 8.833,
    "recovered": 8301,
    "latitude": 44.5,
    "state": "42",
    "id": "KLXicxFogWnu0dLp4bNK",
    "dead": 1565,
    "infected": 10052,
    "country": "IT",
    "name": "Liguria",
    "lastUpdated": "2020-07-17T18:01:02.505Z",
    "sick": 186,
    "invisible": false
  },
  {
    "recovered": 2940,
    "infected": 3436,
    "country": "RU",
    "latitude": 56.4385,
    "longitude": 47.9608,
    "id": "KUnAVGJH6fLwFetE8A2x",
    "pop": 682000,
    "dead": 31,
    "lastUpdated": "2020-07-17T18:00:09.305Z",
    "name": "Mari El Republic",
    "sick": 465,
    "invisible": false
  },
  {
    "lastUpdated": "2020-07-17T17:45:07.757Z",
    "pop": 1201000,
    "longitude": -73.2532,
    "name": "Cesar",
    "recovered": 959,
    "dead": 37,
    "country": "CO",
    "id": "KpOz3WmiZkrXUMlUJNlV",
    "infected": 1766,
    "latitude": 10.4631,
    "sick": 770,
    "invisible": false
  },
  {
    "state": "52",
    "id": "KrLrJbpDqqiXgUPGCCW9",
    "name": "Toscana",
    "infected": 10356,
    "dead": 1129,
    "lastUpdated": "2020-07-17T18:01:02.506Z",
    "country": "IT",
    "longitude": 11,
    "recovered": 8909,
    "pop": 3737000,
    "latitude": 43.4167,
    "sick": 318,
    "invisible": false
  },
  {
    "lastUpdated": "2020-07-17T18:16:02.937Z",
    "recovered": 2012,
    "latitude": 7.873054,
    "dead": 11,
    "name": "Sri Lanka",
    "infected": 2697,
    "pop": 21440000,
    "longitude": 80.771797,
    "id": "KsWzJO06cf0d6LJ4ZNh9",
    "country": "LK",
    "sick": 674,
    "invisible": false
  },
  {
    "longitude": 79.74,
    "country": "IN",
    "recovered": 20298,
    "infected": 40646,
    "name": "Andhra Pradesh",
    "pop": 49670000,
    "lastUpdated": "2020-07-17T18:11:01.993Z",
    "id": "KtQIo2DoqjELtPAlyDVO",
    "dead": 534,
    "latitude": 15.9129,
    "sick": 19814,
    "invisible": false
  },
  {
    "pop": 32125,
    "alwaysShow": true,
    "lastUpdated": "2020-07-17T18:16:02.967Z",
    "latitude": 18.0708,
    "recovered": 37,
    "longitude": -63.0501,
    "id": "LBUtrLDKJiupXjlUNTUe",
    "dead": 3,
    "name": "Saint-Martin",
    "infected": 43,
    "country": "FR",
    "sick": 3,
    "invisible": false
  },
  {
    "infected": 5240,
    "name": "Oryol Oblast",
    "country": "RU",
    "latitude": 52.7856,
    "lastUpdated": "2020-07-17T18:00:09.302Z",
    "longitude": 36.9242,
    "id": "LD8TNScpLrLRvgpQAn9T",
    "recovered": 3815,
    "pop": 747000,
    "dead": 77,
    "sick": 1348,
    "invisible": false
  },
  {
    "country": "LI",
    "pop": 38557,
    "longitude": 9.5554,
    "dead": 1,
    "id": "LTGEU2E9MFkrCcFhZYVk",
    "recovered": 81,
    "name": "Liechtenstein",
    "latitude": 47.166,
    "lastUpdated": "2020-07-17T18:16:02.960Z",
    "infected": 85,
    "sick": 3,
    "invisible": false
  },
  {
    "id": "LU2QWt5ao8IJa8evNYVV",
    "longitude": -9.6966,
    "name": "Guinea",
    "recovered": 5012,
    "pop": 12720000,
    "infected": 6359,
    "latitude": 9.9456,
    "lastUpdated": "2020-07-17T18:16:02.932Z",
    "country": "GN",
    "dead": 39,
    "sick": 1308,
    "invisible": false
  },
  {
    "latitude": 29.6667,
    "longitude": -110.5,
    "lastUpdated": "2020-07-17T18:02:01.952Z",
    "recovered": 0,
    "infected": 13560,
    "dead": 1357,
    "id": "LYCBHrA9ms6GcxpLGPCT",
    "country": "MX",
    "pop": 3062000,
    "name": "Sonora",
    "sick": 12203,
    "invisible": false
  },
  {
    "recovered": 582,
    "country": "SR",
    "longitude": -56.0277824,
    "pop": 563402,
    "lastUpdated": "2020-07-17T18:16:02.940Z",
    "latitude": 3.9193051,
    "infected": 919,
    "id": "LglKINHyQpYpFxjckbQ6",
    "dead": 19,
    "name": "Suriname",
    "sick": 318,
    "invisible": false
  },
  {
    "state": "SK",
    "recovered": 794,
    "longitude": -106.4509,
    "pop": 1174000,
    "latitude": 52.9399,
    "id": "LkIDKY0CMAqzbwBHyYCP",
    "name": "Saskatchewan",
    "country": "CA",
    "lastUpdated": "2020-07-17T18:07:02.679Z",
    "dead": 15,
    "infected": 923,
    "sick": 114,
    "invisible": false
  },
  {
    "recovered": 8,
    "country": "EH",
    "longitude": -12.8858,
    "name": "Western Sahara",
    "id": "LooNn6RuMiDhQnwa9svw",
    "infected": 10,
    "latitude": 24.2155,
    "lastUpdated": "2020-07-17T18:16:02.968Z",
    "pop": 636442,
    "dead": 1,
    "sick": 1,
    "invisible": false
  },
  {
    "latitude": 43.363129,
    "infected": 3427,
    "state": "AS",
    "dead": 334,
    "lastUpdated": "2020-07-16T23:21:12.967Z",
    "country": "ES",
    "longitude": -5.951843,
    "recovered": 1063,
    "pop": 1022000,
    "id": "Lsga7AvYNnY0qQ5gEfV8",
    "name": "Principado de Asturias",
    "sick": 2030,
    "invisible": false
  },
  {
    "country": "ES",
    "state": "EX",
    "pop": 1065000,
    "longitude": -6.0679,
    "lastUpdated": "2020-07-16T23:20:12.262Z",
    "recovered": 2652,
    "latitude": 39.4937,
    "name": "Extremadura",
    "id": "LuEErlF7dVKI0eJsRjFm",
    "dead": 519,
    "infected": 4219,
    "sick": 1048,
    "invisible": false
  },
  {
    "lastUpdated": "2020-07-17T18:02:01.953Z",
    "pop": 5965000,
    "infected": 15322,
    "dead": 915,
    "longitude": -101.2591,
    "latitude": 21.0186,
    "id": "M3wdiueFtwrUHiQ2rOXA",
    "recovered": 0,
    "name": "Guanajuato",
    "country": "MX",
    "sick": 14407,
    "invisible": false
  },
  {
    "pop": 4468000,
    "name": "Kentucky",
    "dead": 650,
    "latitude": 37.8393,
    "id": "MC8MXFw9iXYybnF8v7e6",
    "recovered": 0,
    "infected": 21083,
    "longitude": -84.27,
    "state": "KY",
    "lastUpdated": "2020-07-17T18:17:01.857Z",
    "country": "US",
    "sick": 20433,
    "invisible": false
  },
  {
    "country": "GB",
    "dead": 40640,
    "longitude": -3.436,
    "name": "Unknown UK region or state",
    "id": "MEjlm8VYdGA28TTTnQmf",
    "latitude": 55.3781,
    "lastUpdated": "2020-07-17T18:13:12.071Z",
    "invisible": true,
    "recovered": 0,
    "infected": 8330,
    "sick": 0
  },
  {
    "dead": 827,
    "latitude": 41.3006,
    "pop": 3689000,
    "name": "Norte",
    "infected": 18293,
    "longitude": -7.7441,
    "lastUpdated": "2020-07-17T17:53:03.369Z",
    "country": "PT",
    "recovered": 0,
    "id": "MG4e9tulLJ010SZJvbYN",
    "sick": 17466,
    "invisible": false
  },
  {
    "country": "GB",
    "latitude": 56.4907,
    "state": "SC",
    "recovered": 0,
    "infected": 18401,
    "dead": 2491,
    "longitude": -4.2026,
    "lastUpdated": "2020-07-17T18:13:12.067Z",
    "pop": 5450000,
    "id": "MObRYyIriHG337L8FyFC",
    "name": "Scotland",
    "sick": 15910,
    "invisible": false
  },
  {
    "longitude": -86.1349,
    "id": "MOxDkmQ4wBi1CuAdVxDE",
    "country": "US",
    "state": "IN",
    "recovered": 0,
    "infected": 54813,
    "pop": 6692000,
    "name": "Indiana",
    "lastUpdated": "2020-07-17T18:17:01.855Z",
    "dead": 2803,
    "latitude": 40.2672,
    "sick": 52010,
    "invisible": false
  },
  {
    "pop": 24290000,
    "recovered": 7363,
    "name": "Ivory Coast",
    "country": "CI",
    "id": "MdQOfc1gNh2DOqwSP6UV",
    "lastUpdated": "2020-07-17T18:16:02.917Z",
    "infected": 13554,
    "longitude": -5.5471,
    "latitude": 7.54,
    "dead": 87,
    "sick": 6104,
    "invisible": false
  },
  {
    "state": "NW",
    "lastUpdated": "2020-07-17T18:00:06.196Z",
    "infected": 45760,
    "pop": 17910000,
    "id": "MjpYq3zQyAvSQlVVYjD2",
    "longitude": 7.6616,
    "latitude": 51.4332,
    "recovered": 42080,
    "dead": 1725,
    "name": "Nordrhein-Westfalen",
    "country": "DE",
    "sick": 1955,
    "invisible": false
  },
  {
    "name": "Ningxia",
    "country": "CN",
    "pop": 6301000,
    "recovered": 75,
    "dead": 0,
    "latitude": 37.330509,
    "longitude": 105.977203,
    "lastUpdated": "2020-07-17T17:53:11.115Z",
    "infected": 75,
    "id": "MntmjjuHljarCdt6aIeE",
    "sick": 0,
    "invisible": false
  },
  {
    "infected": 133039,
    "id": "MuEB2UgkId5crsxi9zQT",
    "latitude": -3.20166586,
    "country": "BR",
    "state": "PA",
    "recovered": 0,
    "lastUpdated": "2020-07-17T17:57:02.138Z",
    "pop": 8513497,
    "longitude": -52.203499186,
    "dead": 5385,
    "name": "Pará",
    "sick": 127654,
    "invisible": false
  },
  {
    "latitude": 52.5265,
    "id": "N0KGfqgROVOjAxWcd8wi",
    "name": "Lipetsk Oblast",
    "country": "RU",
    "infected": 4349,
    "pop": 1150000,
    "lastUpdated": "2020-07-17T18:00:09.303Z",
    "longitude": 39.2032,
    "recovered": 3265,
    "dead": 19,
    "sick": 1065,
    "invisible": false
  },
  {
    "longitude": 9.3501,
    "state": "BW",
    "recovered": 33879,
    "lastUpdated": "2020-07-17T18:00:06.189Z",
    "pop": 11020000,
    "latitude": 48.6616,
    "name": "Baden-Württemberg",
    "country": "DE",
    "dead": 1895,
    "infected": 36682,
    "id": "N3XsRBwJSsNclkEf7Zz5",
    "sick": 908,
    "invisible": false
  },
  {
    "infected": 7908,
    "pop": 3507000,
    "latitude": 44.696652,
    "dead": 245,
    "id": "N7c13sCQF0G789XAVazJ",
    "recovered": 3612,
    "name": "Bosnia and Herzegovina",
    "lastUpdated": "2020-07-17T18:16:02.918Z",
    "country": "BA",
    "longitude": 17.824332,
    "sick": 4051,
    "invisible": false
  },
  {
    "longitude": 111.856857,
    "recovered": 200,
    "name": "Shanxi",
    "lastUpdated": "2020-07-17T17:53:11.114Z",
    "id": "NBRIGIRrJB1Ry8prDNAC",
    "dead": 0,
    "infected": 201,
    "country": "CN",
    "latitude": 37.242565,
    "pop": 36500000,
    "sick": 1,
    "invisible": false
  },
  {
    "longitude": -79.0193,
    "latitude": 35.7596,
    "pop": 10380000,
    "infected": 95477,
    "lastUpdated": "2020-07-17T18:17:01.854Z",
    "country": "US",
    "dead": 1622,
    "name": "North Carolina",
    "state": "NC",
    "recovered": 0,
    "id": "NC64Qp5kTqAfiTuR27k8",
    "sick": 93855,
    "invisible": false
  },
  {
    "name": "Brandenburg",
    "pop": 2504000,
    "state": "BB",
    "infected": 3529,
    "lastUpdated": "2020-07-17T18:00:06.190Z",
    "dead": 177,
    "recovered": 3264,
    "latitude": 52.4125,
    "country": "DE",
    "longitude": 12.5316,
    "id": "NJjo2gfBvnbK4xatrsUz",
    "sick": 88,
    "invisible": false
  },
  {
    "id": "NLLL6pJhJSw0lrDMD4uP",
    "latitude": 15.0979,
    "alwaysShow": true,
    "state": "MP",
    "pop": 55144,
    "longitude": 145.6739,
    "infected": 37,
    "name": "Northern Mariana Islands",
    "lastUpdated": "2020-07-17T18:17:01.865Z",
    "dead": 2,
    "country": "US",
    "recovered": 0,
    "sick": 35,
    "invisible": false
  },
  {
    "lastUpdated": "2020-07-17T18:11:01.995Z",
    "dead": 51,
    "id": "NMeZEcGToxXfpi16PfFV",
    "infected": 4102,
    "country": "IN",
    "latitude": 30.0668,
    "name": "Uttarakhand",
    "longitude": 79.0193,
    "recovered": 3021,
    "pop": 10080000,
    "sick": 1030,
    "invisible": false
  },
  {
    "country": "DE",
    "latitude": 50.6521,
    "recovered": 10427,
    "name": "Hessen",
    "infected": 11357,
    "dead": 521,
    "longitude": 9.1624,
    "pop": 6243000,
    "id": "Nk5vPgUIXsWVfbWZf15O",
    "lastUpdated": "2020-07-17T18:00:06.191Z",
    "state": "HE",
    "sick": 409,
    "invisible": false
  },
  {
    "pop": 1920000,
    "name": "Latvia",
    "latitude": 56.96776,
    "id": "NmmMKy0YqA8StHdGzB5N",
    "longitude": 25.837107,
    "dead": 31,
    "country": "LV",
    "recovered": 1022,
    "lastUpdated": "2020-07-17T18:16:02.939Z",
    "infected": 1185,
    "sick": 132,
    "invisible": false
  },
  {
    "recovered": 0,
    "pop": 9496294,
    "longitude": -37.946777,
    "id": "NyGlFL1gATK1Omv9qtcC",
    "country": "BR",
    "infected": 76091,
    "lastUpdated": "2020-07-17T17:57:02.141Z",
    "dead": 5836,
    "name": "Pernambuco",
    "latitude": -8.472372,
    "state": "PE",
    "sick": 70255,
    "invisible": false
  },
  {
    "recovered": 496,
    "pop": 4732000,
    "name": "Liberia",
    "country": "LR",
    "latitude": 6.4281,
    "lastUpdated": "2020-07-17T18:16:02.939Z",
    "infected": 1085,
    "longitude": -9.4295,
    "id": "O4g88K49HKEZLFXm5gxb",
    "dead": 69,
    "sick": 520,
    "invisible": false
  },
  {
    "latitude": 51.7936,
    "id": "O5fNOGWKosps6JTrzkpn",
    "name": "Altai Krai",
    "lastUpdated": "2020-07-17T18:00:09.300Z",
    "country": "RU",
    "infected": 6983,
    "recovered": 4460,
    "pop": 2350000,
    "longitude": 82.6759,
    "dead": 55,
    "sick": 2468,
    "invisible": false
  },
  {
    "infected": 3835,
    "country": "RU",
    "pop": 1072000,
    "longitude": 116.9677,
    "lastUpdated": "2020-07-17T18:00:09.305Z",
    "id": "O6PDzAxKENYbLsLjPx2K",
    "dead": 47,
    "name": "Zabaykalsky Krai",
    "latitude": 53.0929,
    "recovered": 2996,
    "sick": 792,
    "invisible": false
  },
  {
    "lastUpdated": "2020-07-17T18:17:01.855Z",
    "id": "ONU4CK8QjViFHKg2w5if",
    "recovered": 0,
    "latitude": 34.003307,
    "infected": 64083,
    "dead": 1070,
    "longitude": -80.525613,
    "name": "South Carolina",
    "country": "US",
    "state": "SC",
    "pop": 5084000,
    "sick": 63013,
    "invisible": false
  },
  {
    "longitude": -89.582775,
    "dead": 1332,
    "country": "US",
    "name": "Mississippi",
    "pop": 2987000,
    "state": "MS",
    "lastUpdated": "2020-07-17T18:17:01.855Z",
    "recovered": 0,
    "latitude": 33.51822,
    "id": "OYa0jFzdbAgo8zUsRv6q",
    "infected": 40829,
    "sick": 39497,
    "invisible": false
  },
  {
    "id": "OcXNp9kNVSwrRlG3bNVN",
    "lastUpdated": "2020-07-17T18:17:01.864Z",
    "infected": 3636,
    "longitude": -69.4455,
    "recovered": 0,
    "pop": 1338000,
    "name": "Maine",
    "country": "US",
    "state": "ME",
    "latitude": 45.2538,
    "dead": 115,
    "sick": 3521,
    "invisible": false
  },
  {
    "recovered": 2533,
    "lastUpdated": "2020-07-17T18:00:09.305Z",
    "dead": 71,
    "country": "RU",
    "latitude": 43.4052,
    "id": "OlKS5SPydHY2TedStFuf",
    "name": "Ingushetia",
    "longitude": 44.8203,
    "pop": 488000,
    "infected": 3393,
    "sick": 789,
    "invisible": false
  },
  {
    "pop": 515000,
    "longitude": 146.725256,
    "name": "Tasmania",
    "dead": 13,
    "state": "TAS",
    "infected": 228,
    "latitude": -41.915264,
    "id": "OnOseaqWdnuP18oruABW",
    "country": "AU",
    "recovered": 215,
    "lastUpdated": "2020-07-17T17:58:30.853Z",
    "sick": 0,
    "invisible": false
  },
  {
    "country": "BR",
    "name": "Mato Grosso",
    "recovered": 0,
    "longitude": -56.666668,
    "state": "MT",
    "latitude": -16.35,
    "id": "P0GHFGUt1pkKTk5PM8uz",
    "pop": 3441998,
    "dead": 1207,
    "infected": 31111,
    "lastUpdated": "2020-07-17T17:57:02.141Z",
    "sick": 29904,
    "invisible": false
  },
  {
    "recovered": 4354,
    "country": "RU",
    "id": "P2I90oqdFSoVk03AaGo4",
    "lastUpdated": "2020-07-17T18:00:09.303Z",
    "longitude": 40.5927,
    "pop": 1378000,
    "dead": 103,
    "name": "Vladimir Oblast",
    "infected": 5133,
    "latitude": 56.1553,
    "sick": 676,
    "invisible": false
  },
  {
    "latitude": 19.3133,
    "longitude": -81.2546,
    "country": "KY",
    "infected": 203,
    "lastUpdated": "2020-07-17T18:16:02.948Z",
    "id": "P4mwRFLbrvT0t75uD8Wo",
    "dead": 1,
    "name": "Cayman Islands",
    "recovered": 200,
    "pop": 61559,
    "sick": 2,
    "invisible": false
  },
  {
    "recovered": 10,
    "lastUpdated": "2020-07-17T18:16:02.968Z",
    "id": "PEDkeFMTOZpvHiSVxBk7",
    "country": "MS",
    "longitude": -62.1873665,
    "dead": 1,
    "latitude": 16.7424984,
    "name": "Montserrat",
    "infected": 12,
    "pop": 5900,
    "sick": 1,
    "invisible": false
  },
  {
    "country": "RW",
    "pop": 12210000,
    "lastUpdated": "2020-07-17T18:16:02.939Z",
    "dead": 4,
    "latitude": -1.9403,
    "recovered": 770,
    "infected": 1473,
    "longitude": 29.8739,
    "id": "PEcgZGEkyhABztt1Ufgc",
    "name": "Rwanda",
    "sick": 699,
    "invisible": false
  },
  {
    "country": "RU",
    "name": "Bashkortostan",
    "lastUpdated": "2020-07-17T18:00:09.301Z",
    "pop": 4063000,
    "longitude": 56.1645,
    "id": "PHlHdeqYd6KgxsJGfEz0",
    "dead": 20,
    "latitude": 54.2312,
    "infected": 6194,
    "recovered": 4572,
    "sick": 1602,
    "invisible": false
  },
  {
    "state": "MN",
    "country": "US",
    "infected": 45013,
    "name": "Minnesota",
    "dead": 1573,
    "id": "PJvVYosLIhbcRZYnKX1R",
    "recovered": 0,
    "latitude": 46.7296,
    "longitude": -94.6859,
    "lastUpdated": "2020-07-17T18:17:01.855Z",
    "pop": 5611000,
    "sick": 43440,
    "invisible": false
  },
  {
    "dead": 7452,
    "recovered": 0,
    "longitude": -89.3985,
    "lastUpdated": "2020-07-17T18:17:01.854Z",
    "name": "Illinois",
    "latitude": 40.6331,
    "state": "IL",
    "country": "US",
    "infected": 159082,
    "id": "PTwQr9ijo0TBBsPH2sdJ",
    "pop": 12740000,
    "sick": 151630,
    "invisible": false
  },
  {
    "name": "Saint Lucia",
    "country": "LC",
    "infected": 23,
    "pop": 178844,
    "longitude": -60.978893,
    "recovered": 19,
    "id": "PjLqCeFdyzdZNcZxMkK1",
    "lastUpdated": "2020-07-17T18:16:02.967Z",
    "dead": 0,
    "latitude": 13.909444,
    "sick": 4,
    "invisible": false
  },
  {
    "recovered": 3905,
    "pop": 649900,
    "name": "Comunidad Foral de Navarra",
    "latitude": 42.6954,
    "dead": 529,
    "id": "PmUlsNx2uFLU797wwU39",
    "infected": 8806,
    "state": "NC",
    "lastUpdated": "2020-07-16T23:19:50.467Z",
    "country": "ES",
    "longitude": -1.6761,
    "sick": 4372,
    "invisible": false
  },
  {
    "recovered": 1095,
    "infected": 1336,
    "name": "Tunisia",
    "dead": 50,
    "longitude": 9.460554,
    "id": "Pr76V4raf108uSRoEXac",
    "latitude": 34.201507,
    "country": "TN",
    "lastUpdated": "2020-07-17T18:16:02.939Z",
    "pop": 11530000,
    "sick": 191,
    "invisible": false
  },
  {
    "longitude": 31.4659,
    "recovered": 769,
    "name": "Eswatini",
    "pop": 1367000,
    "country": "SZ",
    "id": "PuQgOd9KWiMzGZXm11sR",
    "dead": 21,
    "infected": 1619,
    "lastUpdated": "2020-07-17T18:16:02.938Z",
    "latitude": -26.5225,
    "sick": 829,
    "invisible": false
  },
  {
    "state": "VIC",
    "recovered": 2669,
    "longitude": 143.94853,
    "pop": 6359000,
    "lastUpdated": "2020-07-17T17:58:30.853Z",
    "dead": 32,
    "infected": 5165,
    "country": "AU",
    "latitude": -37.009609,
    "name": "Victoria",
    "id": "Q18mrGvFWTLX2BU9SqhQ",
    "sick": 2464,
    "invisible": false
  },
  {
    "id": "Q39XkabIYxt15mHINzTa",
    "infected": 3242,
    "latitude": 54.2194,
    "longitude": 9.6961,
    "country": "DE",
    "pop": 2890000,
    "dead": 159,
    "recovered": 3036,
    "lastUpdated": "2020-07-17T18:00:06.197Z",
    "state": "SH",
    "name": "Schleswig-Holstein",
    "sick": 47,
    "invisible": false
  },
  {
    "latitude": -27.953491,
    "pop": 11329605,
    "id": "QGpQNhuoVTUPHXvS7qcu",
    "longitude": -52.031696,
    "lastUpdated": "2020-07-17T17:57:02.141Z",
    "infected": 45344,
    "name": "Rio Grande do Sul",
    "state": "RS",
    "country": "BR",
    "dead": 1141,
    "recovered": 0,
    "sick": 44203,
    "invisible": false
  },
  {
    "country": "RU",
    "lastUpdated": "2020-07-17T18:00:09.301Z",
    "longitude": 46.9284,
    "id": "QGyuno7Bc4kwuvGFgMiO",
    "dead": 48,
    "infected": 6110,
    "recovered": 3307,
    "name": "Chuvashia",
    "latitude": 55.5596,
    "pop": 1231000,
    "sick": 2755,
    "invisible": false
  },
  {
    "longitude": 25.013607,
    "country": "EE",
    "name": "Estonia",
    "dead": 69,
    "pop": 1328000,
    "recovered": 1910,
    "lastUpdated": "2020-07-17T18:16:02.937Z",
    "latitude": 58.595272,
    "id": "QR9go2hQKXjty7JHUYe4",
    "infected": 2020,
    "sick": 41,
    "invisible": false
  },
  {
    "infected": 4542,
    "latitude": 63.8631,
    "lastUpdated": "2020-07-17T18:00:09.303Z",
    "longitude": 54.8313,
    "id": "QTafh5fpbS8abcuyEjaL",
    "name": "Komi Republic",
    "recovered": 2639,
    "country": "RU",
    "dead": 40,
    "pop": 840000,
    "sick": 1863,
    "invisible": false
  },
  {
    "country": "BR",
    "longitude": -40.336,
    "recovered": 0,
    "infected": 68118,
    "pop": 3972388,
    "dead": 2136,
    "id": "QaWDLKH8SuwD0Qxq6c38",
    "latitude": -20.318,
    "state": "ES",
    "lastUpdated": "2020-07-17T17:57:02.141Z",
    "name": "Espírito Santo",
    "sick": 65982,
    "invisible": false
  },
  {
    "infected": 7943,
    "latitude": 67.8443,
    "id": "Qh73PKA4KWeuPoqZfWXz",
    "recovered": 4296,
    "name": "Murmansk Oblast",
    "lastUpdated": "2020-07-17T18:00:09.299Z",
    "longitude": 35.0884,
    "country": "RU",
    "pop": 795000,
    "dead": 44,
    "sick": 3603,
    "invisible": false
  },
  {
    "longitude": -103.6667,
    "dead": 1138,
    "id": "Qkho455pBwx88Gohs3hL",
    "latitude": 20.3333,
    "infected": 20278,
    "recovered": 0,
    "lastUpdated": "2020-07-17T18:02:01.957Z",
    "name": "Jalisco",
    "pop": 8222700,
    "country": "MX",
    "sick": 19140,
    "invisible": false
  },
  {
    "country": "PG",
    "longitude": 143.9555,
    "id": "QlZrE4nosm5WfdA2aCDg",
    "infected": 11,
    "name": "Papua New Guinea",
    "dead": 0,
    "latitude": -6.315,
    "pop": 8251000,
    "recovered": 8,
    "lastUpdated": "2020-07-17T18:16:02.968Z",
    "sick": 3,
    "invisible": false
  },
  {
    "id": "QqhD3YDMKXojvQY3Yu41",
    "infected": 263,
    "longitude": -64.8963,
    "dead": 6,
    "state": "VI",
    "name": "U.S. Virgin Islands",
    "recovered": 0,
    "alwaysShow": true,
    "latitude": 18.3358,
    "country": "US",
    "lastUpdated": "2020-07-17T18:17:01.865Z",
    "pop": 107268,
    "sick": 257,
    "invisible": false
  },
  {
    "infected": 18,
    "name": "Dominica",
    "lastUpdated": "2020-07-17T18:16:02.967Z",
    "longitude": -61.3709755,
    "latitude": 15.414999,
    "id": "Qy2qW2ep5wltnYjPJBxh",
    "country": "DM",
    "recovered": 18,
    "dead": 0,
    "pop": 71937,
    "sick": 0,
    "invisible": false
  },
  {
    "longitude": -72.167,
    "recovered": 65,
    "pop": 344027,
    "dead": 1,
    "lastUpdated": "2020-07-17T17:45:07.757Z",
    "country": "CO",
    "latitude": 5.167,
    "id": "R3IHMWqIUhOJJTlrmbUZ",
    "infected": 141,
    "name": "Casanare",
    "sick": 75,
    "invisible": false
  },
  {
    "country": "PA",
    "id": "R8YCgephnxTufvcPWMgx",
    "dead": 1000,
    "lastUpdated": "2020-07-17T18:16:02.912Z",
    "name": "Panama",
    "longitude": -80.7821,
    "pop": 4099000,
    "infected": 50373,
    "recovered": 25842,
    "latitude": 8.538,
    "sick": 23531,
    "invisible": false
  },
  {
    "name": "Honduras",
    "pop": 9265000,
    "country": "HN",
    "recovered": 3420,
    "latitude": 15.2,
    "infected": 30867,
    "id": "RA2SE0p2bVhqo0P2hzGY",
    "longitude": -86.2419,
    "lastUpdated": "2020-07-17T18:16:02.916Z",
    "dead": 835,
    "sick": 26612,
    "invisible": false
  },
  {
    "recovered": 0,
    "latitude": -18.4745998,
    "lastUpdated": "2020-07-17T18:20:04.678Z",
    "name": "Arica y Parinacota",
    "id": "RBt9RiwP7WUbMnJfD0lo",
    "dead": 34,
    "longitude": -70.2979202,
    "pop": 224500,
    "country": "CL",
    "infected": 2936,
    "sick": 2902,
    "invisible": false
  },
  {
    "longitude": 13.8,
    "state": "36",
    "infected": 3346,
    "latitude": 45.633331,
    "pop": 1216000,
    "id": "RCrDBCdBNYzgLNr0aB2H",
    "dead": 345,
    "name": "Friuli Venezia Giulia",
    "lastUpdated": "2020-07-17T18:01:02.505Z",
    "country": "IT",
    "recovered": 2905,
    "sick": 96,
    "invisible": false
  },
  {
    "longitude": -93.0977,
    "state": "IA",
    "infected": 37670,
    "recovered": 0,
    "id": "RX0KDu1AFrlCsrRso0nb",
    "country": "US",
    "lastUpdated": "2020-07-17T18:17:01.856Z",
    "pop": 3156000,
    "name": "Iowa",
    "latitude": 41.878,
    "dead": 783,
    "sick": 36887,
    "invisible": false
  },
  {
    "recovered": 20909,
    "id": "RZ6PCe5TZsO15JjDObwO",
    "latitude": 4.624335,
    "pop": 7413000,
    "name": "Bogotá D.C.",
    "lastUpdated": "2020-07-17T17:45:07.755Z",
    "infected": 56830,
    "dead": 1340,
    "country": "CO",
    "longitude": -74.063644,
    "sick": 34581,
    "invisible": false
  },
  {
    "latitude": 26.3351002,
    "recovered": 380,
    "country": "LY",
    "id": "RaJxbzlnRFTuj4B8IbpC",
    "longitude": 17.2283306,
    "pop": 6846000,
    "infected": 1704,
    "dead": 47,
    "name": "Libya",
    "lastUpdated": "2020-07-17T18:16:02.938Z",
    "sick": 1277,
    "invisible": false
  },
  {
    "dead": 305,
    "country": "US",
    "latitude": 39.0119,
    "pop": 2912000,
    "name": "Kansas",
    "id": "Rf4uvBfP3GRDSHdZElRd",
    "longitude": -98.4842,
    "infected": 21263,
    "state": "KS",
    "recovered": 0,
    "lastUpdated": "2020-07-17T18:17:01.856Z",
    "sick": 20958,
    "invisible": false
  },
  {
    "dead": 3594,
    "country": "FR",
    "latitude": 48.6998,
    "pop": 5518000,
    "recovered": 12454,
    "lastUpdated": "2020-07-16T23:33:20.635Z",
    "id": "RmEgf1xeclWt7XCF9oiR",
    "name": "Grand Est",
    "longitude": 6.1878,
    "infected": 26687,
    "sick": 10639,
    "invisible": false
  },
  {
    "longitude": 4.451,
    "name": "Wallonia",
    "lastUpdated": "2020-07-17T01:07:06.332Z",
    "pop": 3644000,
    "dead": 3392,
    "infected": 19594,
    "recovered": 4941,
    "country": "BE",
    "latitude": 50.4176,
    "id": "RryHraSohKQLAsdr1dHO",
    "state": "WAL",
    "sick": 11261,
    "invisible": false
  },
  {
    "state": "ON",
    "infected": 37163,
    "longitude": -85.3232,
    "id": "Rx4TuyMpfGb3S8wYJX0x",
    "lastUpdated": "2020-07-17T18:07:02.676Z",
    "pop": 14570000,
    "country": "CA",
    "latitude": 51.2538,
    "name": "Ontario",
    "recovered": 33061,
    "dead": 2737,
    "sick": 1365,
    "invisible": false
  },
  {
    "lastUpdated": "2020-07-16T23:19:21.897Z",
    "latitude": 41.652779,
    "dead": 2793,
    "recovered": 8716,
    "pop": 2408000,
    "name": "Castilla y León",
    "country": "ES",
    "longitude": -4.723611,
    "state": "CL",
    "id": "S8ewN4zaYp8mjtuqqOTw",
    "infected": 26146,
    "sick": 14637,
    "invisible": false
  },
  {
    "id": "SDdefnq1bc3ZNr7SpEsW",
    "name": "Martinique",
    "longitude": -61.011715,
    "country": "FR",
    "latitude": 14.652027,
    "alwaysShow": true,
    "lastUpdated": "2020-07-17T18:16:02.947Z",
    "infected": 255,
    "recovered": 98,
    "pop": 376480,
    "dead": 15,
    "sick": 142,
    "invisible": false
  },
  {
    "name": "Ghana",
    "country": "GH",
    "latitude": 7.9465,
    "lastUpdated": "2020-07-17T18:16:02.916Z",
    "id": "SG9VWLOV3x2JsTkXmVSz",
    "recovered": 22270,
    "longitude": -1.0232,
    "pop": 28830000,
    "infected": 26125,
    "dead": 139,
    "sick": 3716,
    "invisible": false
  },
  {
    "id": "SGe9sCPayMqh6RsGFaBA",
    "lastUpdated": "2020-07-17T18:16:02.916Z",
    "recovered": 29900,
    "country": "CH",
    "latitude": 46.818188,
    "longitude": 8.227512,
    "infected": 33382,
    "pop": 8570000,
    "name": "Switzerland",
    "dead": 1969,
    "sick": 1513,
    "invisible": false
  },
  {
    "recovered": 4623,
    "infected": 5089,
    "pop": 964000,
    "longitude": 124.1238,
    "lastUpdated": "2020-07-17T18:00:09.303Z",
    "id": "SGhKBmmh5hss7hrNR8hK",
    "name": "Yakutia",
    "country": "RU",
    "latitude": 66.7613,
    "dead": 39,
    "sick": 427,
    "invisible": false
  },
  {
    "id": "SHoOE3NiJgWAlDVBzwYH",
    "lastUpdated": "2020-07-17T18:07:02.678Z",
    "latitude": 46.8139,
    "pop": 8485000,
    "infected": 57001,
    "dead": 5646,
    "name": "Quebec",
    "recovered": 26253,
    "country": "CA",
    "longitude": -71.208,
    "state": "QC",
    "sick": 25102,
    "invisible": false
  },
  {
    "latitude": 42.6026,
    "dead": 124,
    "id": "SMWvuMMuKp2QK7O2tNia",
    "recovered": 2640,
    "pop": 1831000,
    "lastUpdated": "2020-07-17T18:10:01.993Z",
    "infected": 5472,
    "country": "XK",
    "name": "Kosovo",
    "longitude": 20.903,
    "sick": 2708,
    "invisible": false
  },
  {
    "lastUpdated": "2020-07-17T18:00:09.302Z",
    "infected": 5380,
    "pop": 1913000,
    "latitude": 45.0526,
    "id": "SNWCQwRwqYfxX8HZndTA",
    "name": "Primorsky Krai",
    "dead": 61,
    "longitude": 135,
    "recovered": 4054,
    "country": "RU",
    "sick": 1265,
    "invisible": false
  },
  {
    "name": "Goa",
    "infected": 3304,
    "country": "IN",
    "dead": 21,
    "id": "SPcujsH2YlUaoAr8AiWF",
    "recovered": 1946,
    "pop": 1817000,
    "latitude": 15.2993,
    "longitude": 74.124,
    "lastUpdated": "2020-07-17T18:11:01.998Z",
    "sick": 1337,
    "invisible": false
  },
  {
    "longitude": -48.953403,
    "name": "Goiás",
    "state": "GO",
    "pop": 6921161,
    "lastUpdated": "2020-07-17T17:57:02.141Z",
    "id": "SV5AMF59J61Vt4cXWLgy",
    "infected": 40201,
    "dead": 986,
    "recovered": 0,
    "country": "BR",
    "latitude": -16.328547,
    "sick": 39215,
    "invisible": false
  },
  {
    "id": "SYFarIS62W0EW9bOaJmN",
    "country": "CO",
    "lastUpdated": "2020-07-17T17:45:07.759Z",
    "latitude": 6.181,
    "pop": 75500,
    "name": "Vichada",
    "longitude": -68.436,
    "recovered": 1,
    "dead": 0,
    "infected": 1,
    "sick": 0,
    "invisible": false
  },
  {
    "pop": 1957000,
    "state": "78",
    "latitude": 39,
    "dead": 97,
    "longitude": 16.5,
    "recovered": 1065,
    "id": "SZdF624x0v1LlyzZjKFu",
    "country": "IT",
    "lastUpdated": "2020-07-17T18:01:02.505Z",
    "name": "Calabria",
    "infected": 1231,
    "sick": 69,
    "invisible": false
  },
  {
    "latitude": 41.4925,
    "lastUpdated": "2020-07-17T18:17:01.856Z",
    "state": "NE",
    "dead": 299,
    "recovered": 0,
    "country": "US",
    "id": "SakhKQzKu1LRI8laqdQq",
    "pop": 1929000,
    "infected": 22134,
    "name": "Nebraska",
    "longitude": -99.9018,
    "sick": 21835,
    "invisible": false
  },
  {
    "country": "FR",
    "latitude": -21.1151,
    "infected": 614,
    "recovered": 472,
    "alwaysShow": true,
    "lastUpdated": "2020-07-17T18:16:02.945Z",
    "dead": 3,
    "name": "La Réunion",
    "longitude": 55.5364,
    "id": "SgHzWAAYK1j2sipovxM6",
    "pop": 859959,
    "sick": 139,
    "invisible": false
  },
  {
    "id": "SioMALgUbo7peXmbco2f",
    "longitude": 104.990967,
    "infected": 171,
    "dead": 0,
    "recovered": 133,
    "country": "KH",
    "latitude": 12.565679,
    "lastUpdated": "2020-07-17T18:16:02.950Z",
    "name": "Cambodia",
    "pop": 16010000,
    "sick": 38,
    "invisible": false
  },
  {
    "lastUpdated": "2020-07-17T18:17:01.865Z",
    "longitude": 144.7937,
    "alwaysShow": true,
    "name": "Guam",
    "latitude": 13.4443,
    "infected": 314,
    "pop": 164229,
    "id": "SsWhuEElU7dCTTuH5fdQ",
    "dead": 5,
    "recovered": 0,
    "state": "GU",
    "country": "US",
    "sick": 309,
    "invisible": false
  },
  {
    "dead": 0,
    "lastUpdated": "2020-07-17T18:16:02.915Z",
    "recovered": 29505,
    "country": "PL",
    "latitude": 51.9189,
    "invisible": true,
    "id": "SuCr5emUaJ9RHTll1P1p",
    "name": "Unknown Poland region",
    "longitude": 19.1344,
    "infected": 0,
    "sick": 0
  },
  {
    "latitude": 57.067,
    "dead": 19,
    "lastUpdated": "2020-07-17T18:00:09.307Z",
    "id": "Sx03z01BJCAbrYkWhEaD",
    "recovered": 1420,
    "country": "RU",
    "name": "Udmurtia",
    "infected": 1966,
    "pop": 1513000,
    "longitude": 53.0278,
    "sick": 527,
    "invisible": false
  },
  {
    "country": "CD",
    "lastUpdated": "2020-07-17T18:16:02.918Z",
    "dead": 193,
    "id": "T3iRf8mTUTAzbKrORTap",
    "longitude": 21.7587,
    "infected": 8249,
    "latitude": -4.0383,
    "recovered": 4248,
    "name": "DR Congo",
    "pop": 84070000,
    "sick": 3808,
    "invisible": false
  },
  {
    "name": "Saudi Arabia",
    "recovered": 191161,
    "pop": 32940000,
    "id": "T7NffoeCgTUpAbOHvYwP",
    "longitude": 44.344334,
    "lastUpdated": "2020-07-17T18:16:02.909Z",
    "infected": 245851,
    "country": "SA",
    "latitude": 23.635796,
    "dead": 2407,
    "sick": 52283,
    "invisible": false
  },
  {
    "state": "RI",
    "dead": 366,
    "latitude": 42.2871,
    "lastUpdated": "2020-07-16T23:20:41.802Z",
    "country": "ES",
    "name": "La Rioja",
    "recovered": 3107,
    "id": "TNDTapyb0k3l7Mds9q9R",
    "longitude": -2.5396,
    "infected": 5503,
    "pop": 315700,
    "sick": 2030,
    "invisible": false
  },
  {
    "name": "Yucatán",
    "infected": 6874,
    "pop": 2207200,
    "longitude": -89.134857,
    "latitude": 20.400417,
    "lastUpdated": "2020-07-17T18:02:01.953Z",
    "dead": 737,
    "id": "TQCWbhIpJQBQxBjhCGVJ",
    "recovered": 0,
    "country": "MX",
    "sick": 6137,
    "invisible": false
  },
  {
    "longitude": 114.650692,
    "pop": 428697,
    "infected": 141,
    "id": "TQZmzsLhJqjtCSExAkCP",
    "country": "BN",
    "latitude": 4.506106,
    "dead": 3,
    "recovered": 138,
    "name": "Brunei",
    "lastUpdated": "2020-07-17T18:16:02.950Z",
    "sick": 0,
    "invisible": false
  },
  {
    "longitude": 4.3853,
    "recovered": 7842,
    "lastUpdated": "2020-07-16T23:32:11.698Z",
    "dead": 1748,
    "pop": 8027000,
    "country": "FR",
    "latitude": 45.4471,
    "id": "TT0MKODSjrxHvG19xZCa",
    "state": "",
    "name": "Auvergne-Rhône-Alpes",
    "infected": 15823,
    "sick": 6233,
    "invisible": false
  },