[
  {
    "infected": 6,
    "recovered": 2,
    "latitude": 12.5847,
    "pop": 72600,
    "longitude": -81.7006,
    "name": "San Andrés",
    "country": "CO",
    "lastUpdated": "2020-04-27T16:31:10.631Z",
    "dead": 0,
    "id": "01b09TY4vmuZwzVuiRFK",
    "sick": 4,
    "invisible": false
  },
  {
    "latitude": 49.4482,
    "pop": 67052,
    "longitude": -2.5895,
    "name": "Guernsey",
    "country": "GG",
    "lastUpdated": "2020-04-27T16:12:08.979Z",
    "dead": 13,
    "id": "0FOJefeLxQYXQ1CnJm9o",
    "infected": 247,
    "recovered": 182,
    "sick": 52,
    "invisible": false
  },
  {
    "lastUpdated": "2020-04-27T16:31:08.400Z",
    "dead": 345,
    "id": "0GJcws44NSPsDHAuxJhW",
    "infected": 4331,
    "recovered": 1062,
    "latitude": 41.066666,
    "pop": 5827000,
    "longitude": 14.333333,
    "name": "Campania",
    "country": "IT",
    "sick": 2924,
    "invisible": false
  },
  {
    "infected": 164,
    "recovered": 0,
    "latitude": -20.2167,
    "pop": 383870,
    "longitude": -70.14222,
    "name": "Tarapacá",
    "country": "CL",
    "lastUpdated": "2020-04-27T16:37:14.124Z",
    "dead": 1,
    "id": "0HDQbiHe462xMCUV5HiI",
    "sick": 163,
    "invisible": false
  },
  {
    "latitude": 20.9517,
    "pop": 45990000,
    "longitude": 85.0985,
    "name": "Odisha",
    "country": "IN",
    "lastUpdated": "2020-04-27T16:41:05.425Z",
    "dead": 1,
    "id": "0VG7S6aaK4eSo59fL9JO",
    "infected": 111,
    "recovered": 37,
    "sick": 73,
    "invisible": false
  },
  {
    "infected": 182,
    "recovered": 0,
    "latitude": 20.4737,
    "pop": 2990300,
    "longitude": -98.8582,
    "name": "Hidalgo",
    "country": "MX",
    "lastUpdated": "2020-04-27T16:40:15.170Z",
    "dead": 17,
    "id": "0XmCRqiK2ZaehoEJvfer",
    "sick": 165,
    "invisible": false
  },
  {
    "infected": 33,
    "recovered": 11,
    "latitude": 11.7401,
    "pop": 427246,
    "longitude": 92.6586,
    "name": "Andaman and Nicobar Islands",
    "country": "IN",
    "lastUpdated": "2020-04-27T16:41:05.426Z",
    "dead": 0,
    "id": "0jStOpTUNRaQYJqgmRoK",
    "sick": 22,
    "invisible": false
  },
  {
    "infected": 11244,
    "recovered": 1066,
    "latitude": 25.315058,
    "pop": 2639000,
    "longitude": 51.145517,
    "name": "Qatar",
    "country": "QA",
    "lastUpdated": "2020-04-27T16:51:02.750Z",
    "dead": 10,
    "id": "0m4aECS0Z2DGFEr8ldgI",
    "sick": 10168,
    "invisible": false
  },
  {
    "lastUpdated": "2020-04-27T16:41:05.424Z",
    "dead": 20,
    "id": "0n54EMSDJcRoT1QEvw80",
    "infected": 649,
    "recovered": 105,
    "latitude": 22.9868,
    "pop": 90320000,
    "longitude": 87.855,
    "name": "West Bengal",
    "country": "IN",
    "sick": 524,
    "invisible": false
  },
  {
    "infected": 2165,
    "recovered": 357,
    "latitude": 22.9734,
    "pop": 73340000,
    "longitude": 78.6569,
    "name": "Madhya Pradesh",
    "country": "IN",
    "lastUpdated": "2020-04-27T16:41:05.424Z",
    "dead": 110,
    "id": "0s18o5DrDAHjbu5MFcrj",
    "sick": 1698,
    "invisible": false
  },
  {
    "lastUpdated": "2020-04-27T16:51:02.740Z",
    "dead": 0,
    "id": "0tFoopNTs6e4tOoaltu2",
    "invisible": true,
    "infected": 0,
    "recovered": 120299,
    "latitude": 37.0902,
    "longitude": -95.7129,
    "name": "Unknown US state",
    "country": "US",
    "sick": 0
  },
  {
    "infected": 286,
    "recovered": 253,
    "latitude": 35.64249,
    "pop": 37330000,
    "longitude": 108.472214,
    "name": "Shaanxi",
    "country": "CN",
    "lastUpdated": "2020-04-27T16:38:12.758Z",
    "dead": 3,
    "id": "0x2HLhr5z5xAtEdO4iZm",
    "sick": 30,
    "invisible": false
  },
  {
    "infected": 1399,
    "recovered": 553,
    "latitude": 41.643351,
    "pop": 2077000,
    "longitude": 21.668393,
    "name": "North Macedonia",
    "country": "MK",
    "lastUpdated": "2020-04-27T16:51:02.756Z",
    "dead": 65,
    "id": "19MvIhipqTyYv1H37Upw",
    "sick": 781,
    "invisible": false
  },
  {
    "infected": 258,
    "recovered": 0,
    "latitude": 53.1355,
    "pop": 521542,
    "longitude": -57.6604,
    "name": "Newfoundland and Labrador",
    "country": "CA",
    "lastUpdated": "2020-04-27T16:36:07.565Z",
    "dead": 3,
    "id": "1DOMOmCWDtva46OVSZLv",
    "sick": 255,
    "invisible": false
  },
  {
    "longitude": 96.779286,
    "name": "Qinghai",
    "country": "CN",
    "lastUpdated": "2020-04-27T16:38:12.762Z",
    "dead": 0,
    "id": "1Fap7rZu9SIRqf5TG9Dg",
    "infected": 18,
    "recovered": 18,
    "latitude": 35.801933,
    "pop": 5627000,
    "sick": 0,
    "invisible": false
  },
  {
    "invisible": true,
    "infected": 0,
    "recovered": 8354,
    "latitude": 23.6345,
    "pop": 126200000,
    "longitude": -102.5528,
    "name": "Unknown Mexico state",
    "country": "MX",
    "lastUpdated": "2020-04-27T16:51:02.749Z",
    "dead": 0,
    "id": "1YXQMlVL3fUeDZmcVfJw",
    "sick": 0
  },
  {
    "infected": 24820,
    "recovered": 6478,
    "latitude": 44.9,
    "pop": 4376000,
    "longitude": 8.206944,
    "name": "Piemonte",
    "country": "IT",
    "lastUpdated": "2020-04-27T16:31:08.401Z",
    "dead": 2823,
    "id": "1eTSQyfp8RoDPeFrIwun",
    "sick": 15519,
    "invisible": false
  },
  {
    "longitude": 15.461,
    "name": "Lubuskie",
    "country": "PL",
    "lastUpdated": "2020-04-27T16:33:08.230Z",
    "dead": 0,
    "id": "1j1OurxLTpZYuWIWwQ9F",
    "infected": 87,
    "recovered": 0,
    "latitude": 51.993,
    "pop": 1003000,
    "sick": 87,
    "invisible": false
  },
  {
    "pop": 3550000,
    "longitude": 28.3699,
    "name": "Moldova",
    "country": "MD",
    "lastUpdated": "2020-04-27T16:51:02.753Z",
    "dead": 102,
    "id": "1qTPB8X3tyLyIdsb5TN3",
    "infected": 3481,
    "recovered": 925,
    "latitude": 47.4116,
    "sick": 2454,
    "invisible": false
  },
  {
    "invisible": true,
    "infected": 1118,
    "recovered": 0,
    "latitude": 37.0902,
    "longitude": -95.7129,
    "name": "Federal Bureau of Prisons",
    "country": "US",
    "lastUpdated": "2020-04-27T16:29:22.889Z",
    "dead": 27,
    "id": "22PJOAThcDFKgSbyQIkD",
    "sick": 1091
  },
  {
    "latitude": 30.15336,
    "pop": 3180000,
    "longitude": 88.787865,
    "name": "Tibet",
    "country": "CN",
    "lastUpdated": "2020-04-27T16:38:12.762Z",
    "dead": 0,
    "id": "25qIBtsW2nfQj3pwBKg9",
    "infected": 1,
    "recovered": 1,
    "sick": 0,
    "invisible": false
  },
  {
    "id": "2KHYUb5t3lwzVVmDjwNX",
    "infected": 9096,
    "recovered": 1151,
    "latitude": -1.572184,
    "pop": 264000000,
    "longitude": 115.66779,
    "name": "Indonesia",
    "country": "ID",
    "lastUpdated": "2020-04-27T16:51:02.750Z",
    "dead": 765,
    "sick": 7180,
    "invisible": false
  },
  {
    "latitude": 43.807191,
    "pop": 4191000,
    "longitude": -120.585594,
    "name": "Oregon",
    "country": "US",
    "lastUpdated": "2020-04-27T16:29:22.892Z",
    "dead": 92,
    "id": "2OrsssmGUs4XCzaZzvTv",
    "infected": 2311,
    "recovered": 0,
    "sick": 2219,
    "invisible": false
  },
  {
    "infected": 457,
    "recovered": 0,
    "latitude": -23.65,
    "pop": 425000,
    "longitude": -70.400002,
    "name": "Antofagasta",
    "country": "CL",
    "lastUpdated": "2020-04-27T16:37:14.125Z",
    "dead": 4,
    "id": "2c5HBZ1ffkCVXnMYUWnY",
    "sick": 453,
    "invisible": false
  },
  {
    "id": "2dzhyWsBSPpENWlNew0b",
    "infected": 798,
    "recovered": 0,
    "latitude": 0.035574,
    "pop": 9029000,
    "longitude": -51.070534,
    "name": "Amapá",
    "country": "BR",
    "lastUpdated": "2020-04-27T16:46:09.010Z",
    "dead": 21,
    "sick": 777,
    "invisible": false
  },
  {
    "latitude": 43.851921,
    "pop": 27460000,
    "longitude": 126.548103,
    "name": "Jilin",
    "country": "CN",
    "lastUpdated": "2020-04-27T16:38:12.758Z",
    "dead": 1,
    "id": "2jxHvSsxdnom0nPNvOT8",
    "infected": 110,
    "recovered": 99,
    "sick": 10,
    "invisible": false
  },
  {
    "infected": 141,
    "recovered": 131,
    "latitude": 36.1408,
    "pop": 34571,
    "longitude": -5.3536,
    "name": "Gibraltar",
    "country": "GI",
    "lastUpdated": "2020-04-27T16:51:02.762Z",
    "dead": 0,
    "id": "2p11BjSAs3wVyymgqBOe",
    "sick": 10,
    "invisible": false
  },
  {
    "latitude": 47.7516,
    "pop": 2567000,
    "longitude": 1.6751,
    "name": "Centre-Val de Loire",
    "country": "FR",
    "lastUpdated": "2020-04-26T23:44:38.426Z",
    "dead": 355,
    "id": "2sLNkkHpyaHx7dD3aMDO",
    "infected": 3399,
    "recovered": 1069,
    "sick": 1975,
    "invisible": false
  },
  {
    "recovered": 1008,
    "latitude": 42.565044,
    "pop": 884640,
    "longitude": 12.643751,
    "name": "Umbria",
    "country": "IT",
    "lastUpdated": "2020-04-27T16:31:08.401Z",
    "dead": 64,
    "id": "319tiZOMczx1y0DfvOib",
    "infected": 1368,
    "sick": 296,
    "invisible": false
  },
  {
    "longitude": -76.6131592,
    "name": "Cauca",
    "country": "CO",
    "lastUpdated": "2020-04-27T16:31:10.631Z",
    "dead": 4,
    "id": "38T96Q3XNjt5FSJygPed",
    "infected": 27,
    "recovered": 10,
    "latitude": 2.43823,
    "pop": 1355000,
    "sick": 13,
    "invisible": false
  },
  {
    "infected": 88,
    "recovered": 42,
    "latitude": -13.133896,
    "pop": 17090000,
    "longitude": 27.849332,
    "name": "Zambia",
    "country": "ZM",
    "lastUpdated": "2020-04-27T16:51:02.767Z",
    "dead": 3,
    "id": "3IlPjAbP5qVMn1nlgLTJ",
    "sick": 43,
    "invisible": false
  },
  {
    "infected": 321,
    "recovered": 189,
    "latitude": 42.7044,
    "pop": 631219,
    "longitude": 19.3958,
    "name": "Montenegro",
    "country": "ME",
    "lastUpdated": "2020-04-27T16:51:02.760Z",
    "dead": 7,
    "id": "3LstMSN5XMYBkxbe5HN7",
    "sick": 125,
    "invisible": false
  },
  {
    "infected": 106,
    "recovered": 99,
    "latitude": -35.4735,
    "pop": 418440,
    "longitude": 149.0124,
    "name": "Australian Capital Territory",
    "country": "AU",
    "lastUpdated": "2020-04-27T16:36:07.565Z",
    "dead": 3,
    "id": "3OZoQsKrzxZ18EKyfGE6",
    "sick": 4,
    "invisible": false
  },
  {
    "infected": 36,
    "recovered": 27,
    "latitude": 26.2006,
    "pop": 30940000,
    "longitude": 92.9376,
    "name": "Assam",
    "country": "IN",
    "lastUpdated": "2020-04-27T16:41:05.425Z",
    "dead": 1,
    "id": "3cCbnJCsK7mKlTO08K1o",
    "sick": 8,
    "invisible": false
  },
  {
    "recovered": 0,
    "latitude": 40.4173,
    "pop": 11690000,
    "longitude": -82.9071,
    "name": "Ohio",
    "country": "US",
    "lastUpdated": "2020-04-27T16:29:22.892Z",
    "dead": 728,
    "id": "3fC3bAyIRUquOQOEnQNe",
    "infected": 15972,
    "sick": 15244,
    "invisible": false
  },
  {
    "infected": 773,
    "recovered": 0,
    "latitude": 25,
    "pop": 3066400,
    "longitude": -107.5,
    "name": "Sinaloa",
    "country": "MX",
    "lastUpdated": "2020-04-27T16:40:15.168Z",
    "dead": 105,
    "id": "3kFCzJguabtBvXaHxgiu",
    "sick": 668,
    "invisible": false
  },
  {
    "latitude": 3.420556,
    "pop": 4708300,
    "longitude": -76.522224,
    "name": "Valle del Cauca",
    "country": "CO",
    "lastUpdated": "2020-04-27T16:31:10.627Z",
    "dead": 47,
    "id": "3mC2LveOpXV8P1PmQGUj",
    "infected": 817,
    "recovered": 144,
    "sick": 626,
    "invisible": false
  },
  {
    "latitude": 21.0079,
    "pop": 4420000,
    "longitude": -10.9408,
    "name": "Mauritania",
    "country": "MR",
    "lastUpdated": "2020-04-27T16:51:02.771Z",
    "dead": 1,
    "id": "4NnFMekRK2m14IlnZZoj",
    "infected": 7,
    "recovered": 6,
    "sick": 0,
    "invisible": false
  },
  {
    "infected": 1948,
    "recovered": 0,
    "latitude": 53.7267,
    "pop": 5071000,
    "longitude": -127.6476,
    "name": "British Columbia",
    "country": "CA",
    "lastUpdated": "2020-04-27T16:36:07.563Z",
    "dead": 100,
    "id": "4hfZRUoUgI4a3vrG0GBk",
    "sick": 1848,
    "invisible": false
  },
  {
    "latitude": -22.908333,
    "pop": 17159960,
    "longitude": -43.196388,
    "name": "Rio de Janeiro",
    "country": "BR",
    "lastUpdated": "2020-04-27T16:46:09.015Z",
    "dead": 645,
    "id": "4kq0z3kh5zt3YAUWxvtE",
    "infected": 7111,
    "recovered": 0,
    "sick": 6466,
    "invisible": false
  },
  {
    "infected": 2209,
    "recovered": 0,
    "latitude": -11.409874,
    "pop": 14812617,
    "longitude": -41.280857,
    "name": "Bahia",
    "country": "BR",
    "lastUpdated": "2020-04-27T16:46:09.010Z",
    "dead": 73,
    "id": "4yDbkEyqsNzZJjfrciYV",
    "sick": 2136,
    "invisible": false
  },
  {
    "lastUpdated": "2020-04-27T16:51:02.755Z",
    "dead": 22,
    "id": "4zqzRm2xHn0CDVOUQJ8p",
    "infected": 1678,
    "recovered": 1162,
    "latitude": 40.3426,
    "pop": 9898000,
    "longitude": 47.93802,
    "name": "Azerbaijan",
    "country": "AZ",
    "sick": 494,
    "invisible": false
  },
  {
    "latitude": 22.233105,
    "pop": 3672300,
    "longitude": -97.861099,
    "name": "Tamaulipas",
    "country": "MX",
    "lastUpdated": "2020-04-27T16:40:15.169Z",
    "dead": 17,
    "id": "54cfsdsRF76XVHWtZs19",
    "infected": 408,
    "recovered": 0,
    "sick": 391,
    "invisible": false
  },
  {
    "infected": 25819,
    "recovered": 6114,
    "latitude": 51.0109,
    "pop": 6596000,
    "longitude": 3.7265,
    "name": "Flanders",
    "country": "BE",
    "lastUpdated": "2020-04-27T16:29:10.438Z",
    "dead": 3530,
    "id": "57ydD48mLRD2YoyteJZj",
    "sick": 16175,
    "invisible": false
  },
  {
    "lastUpdated": "2020-04-27T16:51:02.767Z",
    "dead": 11,
    "id": "5MHegCUO9L3LiAU7DDey",
    "infected": 80,
    "recovered": 22,
    "latitude": 25.025885,
    "pop": 395361,
    "longitude": -78.035889,
    "name": "Bahamas",
    "country": "BS",
    "sick": 47,
    "invisible": false
  },
  {
    "lastUpdated": "2020-04-27T16:36:07.563Z",
    "dead": 34,
    "id": "5N16a2OXXRpsEFanw0TC",
    "infected": 3004,
    "recovered": 2208,
    "latitude": -31.253218,
    "pop": 7544000,
    "longitude": 146.921097,
    "name": "New South Wales",
    "country": "AU",
    "sick": 762,
    "invisible": false
  },
  {
    "infected": 6,
    "recovered": 0,
    "latitude": 6.8769908,
    "pop": 12580000,
    "longitude": 31.3069782,
    "name": "South Sudan",
    "country": "SS",
    "lastUpdated": "2020-04-27T16:51:02.771Z",
    "dead": 0,
    "id": "5N4PRxsCDzzwk7R200V1",
    "sick": 6,
    "invisible": false
  },
  {
    "lastUpdated": "2020-04-27T16:45:10.127Z",
    "dead": 1189,
    "id": "5Va9A7CXR8AXdUz4HTJj",
    "infected": 11412,
    "recovered": 6317,
    "latitude": 39.484,
    "pop": 4975000,
    "longitude": -0.7533,
    "name": "C. Valenciana",
    "country": "ES",
    "sick": 3906,
    "invisible": false
  },
  {
    "infected": 18,
    "recovered": 17,
    "latitude": -20.9043045,
    "pop": 280460,
    "longitude": 165.618042,
    "name": "New Caledonia",
    "country": "NC",
    "lastUpdated": "2020-04-27T16:51:02.770Z",
    "dead": 0,
    "id": "5fg04eyDwFw3kEXnrxez",
    "sick": 1,
    "invisible": false
  },
  {
    "lastUpdated": "2020-04-27T16:51:02.768Z",
    "dead": 0,
    "id": "5gXZIjRgAvd6xWN1LOv8",
    "infected": 52,
    "recovered": 16,
    "latitude": 28.394857,
    "pop": 29300000,
    "longitude": 84.124008,
    "name": "Nepal",
    "country": "NP",
    "sick": 36,
    "invisible": false
  },
  {
    "lastUpdated": "2020-04-27T16:51:02.751Z",
    "dead": 511,
    "id": "5pwmh7aSdGRKqRbnuyc0",
    "infected": 7777,
    "recovered": 932,
    "latitude": 12.879721,
    "pop": 104900000,
    "longitude": 121.774017,
    "name": "Philippines",
    "country": "PH",
    "sick": 6334,
    "invisible": false
  },
  {
    "latitude": -17.824858,
    "pop": 14802190,
    "longitude": 31.053028,
    "name": "Zimbabwe",
    "country": "ZW",
    "lastUpdated": "2020-04-27T16:51:02.769Z",
    "dead": 4,
    "id": "5qtR9nx4BLwu1ODTniaY",
    "infected": 31,
    "recovered": 5,
    "sick": 22,
    "invisible": false
  },
  {
    "id": "5vkKgxTaKq1IH0Go357L",
    "invisible": true,
    "infected": 1540,
    "recovered": 0,
    "latitude": 36.0672,
    "pop": 356890,
    "longitude": -109.188,
    "name": "Navajo Nation",
    "country": "US",
    "lastUpdated": "2020-04-27T16:29:22.890Z",
    "dead": 58,
    "sick": 1482
  },
  {
    "latitude": 19.432241,
    "pop": 8781300,
    "longitude": -99.177254,
    "name": "Ciudad de México",
    "country": "MX",
    "lastUpdated": "2020-04-27T16:40:15.169Z",
    "dead": 309,
    "id": "61E7TGjUwAo9xu6Y6gAH",
    "infected": 3966,
    "recovered": 0,
    "sick": 3657,
    "invisible": false
  },
  {
    "recovered": 474,
    "latitude": 55.621011,
    "pop": 2794000,
    "longitude": 23.804991,
    "name": "Lithuania",
    "country": "LT",
    "lastUpdated": "2020-04-27T16:51:02.756Z",
    "dead": 41,
    "id": "694ON7d0mRJDeM1gHBTR",
    "infected": 1449,
    "sick": 934,
    "invisible": false
  },
  {
    "latitude": 51.1781,
    "pop": 9175000,
    "longitude": -0.5596,
    "name": "South East",
    "country": "GB",
    "lastUpdated": "2020-04-27T16:39:30.883Z",
    "dead": 0,
    "id": "6IQAsvrmBv0HPdeTnh4x",
    "infected": 15810,
    "recovered": 0,
    "sick": 15810,
    "invisible": false
  },
  {
    "latitude": 22.396427,
    "pop": 7392000,
    "longitude": 114.109497,
    "name": "Hong Kong",
    "country": "HK",
    "lastUpdated": "2020-04-27T16:51:02.757Z",
    "dead": 4,
    "id": "6IcHIIH0zXpY0POmBZTv",
    "infected": 1038,
    "recovered": 787,
    "sick": 247,
    "invisible": false
  },
  {
    "latitude": -8.65,
    "pop": 869265,
    "longitude": -72.4,
    "name": "Acre",
    "country": "BR",
    "lastUpdated": "2020-04-27T16:46:09.004Z",
    "dead": 11,
    "id": "6LQesrx5bHJsVUi1TXBp",
    "infected": 279,
    "recovered": 0,
    "sick": 268,
    "invisible": false
  },
  {
    "infected": 64,
    "recovered": 33,
    "latitude": 9.3077,
    "pop": 11180000,
    "longitude": 2.3158,
    "name": "Benin",
    "country": "BJ",
    "lastUpdated": "2020-04-27T16:51:02.768Z",
    "dead": 1,
    "id": "6SlpghTyB6lpMFvx3g9U",
    "sick": 30,
    "invisible": false
  },
  {
    "id": "6ZHcvMIzVWIaRnc4R3Qp",
    "infected": 72889,
    "recovered": 24398,
    "latitude": 45.6667,
    "pop": 10040000,
    "longitude": 9.5,
    "name": "Lombardia",
    "country": "IT",
    "lastUpdated": "2020-04-27T16:31:08.401Z",
    "dead": 13325,
    "sick": 35166,
    "invisible": false
  },
  {
    "infected": 1402,
    "recovered": 221,
    "latitude": 46.0569,
    "pop": 2067000,
    "longitude": 14.5058,
    "name": "Slovenia",
    "country": "SI",
    "lastUpdated": "2020-04-27T16:51:02.756Z",
    "dead": 83,
    "id": "6ahNiyKDSDAftCctgLH3",
    "sick": 1098,
    "invisible": false
  },
  {
    "pop": 300000,
    "longitude": -70.331398,
    "name": "Atacama",
    "country": "CL",
    "lastUpdated": "2020-04-27T16:37:14.125Z",
    "dead": 0,
    "id": "6nyns7UGGgkU7pxrHf8i",
    "infected": 35,
    "recovered": 0,
    "latitude": -27.3667908,
    "sick": 35,
    "invisible": false
  },
  {
    "latitude": -0.8037,
    "pop": 2025000,
    "longitude": 11.6094,
    "name": "Gabon",
    "country": "GA",
    "lastUpdated": "2020-04-27T16:51:02.762Z",
    "dead": 3,
    "id": "6pBi38TUgYfFm0bry2uh",
    "infected": 176,
    "recovered": 30,
    "sick": 143,
    "invisible": false
  },
  {
    "latitude": 22.1498,
    "pop": 2831900,
    "longitude": -100.9792,
    "name": "San Luis Potosí",
    "country": "MX",
    "lastUpdated": "2020-04-27T16:40:15.169Z",
    "dead": 8,
    "id": "6vjIVg1gSANFZghV7xtS",
    "infected": 85,
    "recovered": 0,
    "sick": 77,
    "invisible": false
  },
  {
    "latitude": 17.901672,
    "pop": 9131,
    "longitude": -62.818544,
    "name": "Saint-Barthélémy",
    "country": "FR",
    "lastUpdated": "2020-04-27T16:51:02.771Z",
    "dead": 0,
    "id": "78Ox26bNHDA2Pk2b3Uwn",
    "infected": 6,
    "recovered": 6,
    "sick": 0,
    "invisible": false
  },
  {
    "pop": 2305000,
    "longitude": 18.633,
    "name": "Pomorskie",
    "country": "PL",
    "lastUpdated": "2020-04-27T16:33:08.230Z",
    "dead": 3,
    "id": "7JDx6UJiwGSJyL1fChaJ",
    "infected": 351,
    "recovered": 0,
    "latitude": 54.367,
    "sick": 348,
    "invisible": false
  },
  {
    "id": "7UASdZTZ1nPzzBwSTEA9",
    "infected": 121,
    "recovered": 87,
    "latitude": 35.2923,
    "pop": 84690,
    "longitude": -2.9381,
    "name": "Melilla",
    "country": "ES",
    "lastUpdated": "2020-04-27T16:45:10.127Z",
    "dead": 2,
    "sick": 32,
    "invisible": false
  },
  {
    "latitude": 17.0608,
    "pop": 102012,
    "longitude": -61.7964,
    "name": "Antigua and Barbuda",
    "country": "AG",
    "lastUpdated": "2020-04-27T16:51:02.769Z",
    "dead": 3,
    "id": "7hVFcEV7nV0MrQr3LHrl",
    "infected": 24,
    "recovered": 11,
    "sick": 10,
    "invisible": false
  },
  {
    "lastUpdated": "2020-04-27T16:30:09.968Z",
    "dead": 1767,
    "id": "7kCrrlOBE3jN6FtOVNUB",
    "infected": 41856,
    "recovered": 28300,
    "latitude": 48.7904,
    "pop": 13000000,
    "longitude": 11.4979,
    "name": "Bayern",
    "country": "DE",
    "sick": 11789,
    "invisible": false
  },
  {
    "infected": 2583,
    "recovered": 498,
    "latitude": 47.4979,
    "pop": 9773000,
    "longitude": 19.0402,
    "name": "Hungary",
    "country": "HU",
    "lastUpdated": "2020-04-27T16:51:02.753Z",
    "dead": 280,
    "id": "7rYC2iFB50c55Ihgbs4Q",
    "sick": 1805,
    "invisible": false
  },
  {
    "latitude": 10.9685,
    "pop": 2400000,
    "longitude": -74.7813,
    "name": "Barranquilla D.E.",
    "country": "CO",
    "lastUpdated": "2020-04-27T16:31:10.630Z",
    "dead": 6,
    "id": "7tqLvLyXcBDK808nJv0m",
    "infected": 113,
    "recovered": 34,
    "sick": 73,
    "invisible": false
  },
  {
    "infected": 1621,
    "recovered": 786,
    "latitude": 7.3697,
    "pop": 24050000,
    "longitude": 12.3547,
    "name": "Cameroon",
    "country": "CM",
    "lastUpdated": "2020-04-27T16:51:02.756Z",
    "dead": 56,
    "id": "8C0d7WVCjyUGtnc2gUAR",
    "sick": 779,
    "invisible": false
  },
  {
    "latitude": 50.8503,
    "pop": 1209000,
    "longitude": 4.3517,
    "name": "Brussels",
    "country": "BE",
    "lastUpdated": "2020-04-27T16:29:10.431Z",
    "dead": 1129,
    "id": "8DOZWbN6bDdgaLXVlUEu",
    "infected": 4715,
    "recovered": 1754,
    "sick": 1832,
    "invisible": false
  },
  {
    "lastUpdated": "2020-04-27T16:51:02.757Z",
    "dead": 50,
    "id": "8RihJrXw4NQXPxaRxr1u",
    "infected": 950,
    "recovered": 80,
    "latitude": -16.2902,
    "pop": 11050000,
    "longitude": -63.5887,
    "name": "Bolivia",
    "country": "BO",
    "sick": 820,
    "invisible": false
  },
  {
    "lastUpdated": "2020-04-27T16:51:02.770Z",
    "dead": 0,
    "id": "8ZTySQROQejkDAad0qxQ",
    "infected": 15,
    "recovered": 5,
    "latitude": 12.9843,
    "pop": 109897,
    "longitude": -61.2872,
    "name": "St. Vincent Grenadines",
    "country": "VC",
    "sick": 10,
    "invisible": false
  },
  {
    "latitude": 1.352083,
    "pop": 5621000,
    "longitude": 103.819839,
    "name": "Singapore",
    "country": "SG",
    "lastUpdated": "2020-04-27T16:51:02.749Z",
    "dead": 14,
    "id": "8pA3fM4xC2c2wv1b4TnE",
    "infected": 14423,
    "recovered": 1095,
    "sick": 13314,
    "invisible": false
  },
  {
    "lastUpdated": "2020-04-26T23:45:45.111Z",
    "dead": 314,
    "id": "98hwAoohgWEOQVa3NlM5",
    "infected": 3043,
    "recovered": 1121,
    "latitude": 47.2184,
    "pop": 3787000,
    "longitude": -1.5536,
    "name": "Pays de la Loire",
    "country": "FR",
    "sick": 1608,
    "invisible": false
  },
  {
    "infected": 87,
    "recovered": 0,
    "latitude": 19.30754,
    "pop": 952300,
    "longitude": -90.19885,
    "name": "Campeche",
    "country": "MX",
    "lastUpdated": "2020-04-27T16:40:15.169Z",
    "dead": 12,
    "id": "9DAvxOObTqIvMOU93nlY",
    "sick": 75,
    "invisible": false
  },
  {
    "longitude": 30.2176,
    "name": "Sudan",
    "country": "SD",
    "lastUpdated": "2020-04-27T16:51:02.761Z",
    "dead": 22,
    "id": "9DPOkpIqrFy9mR4e9fuv",
    "infected": 275,
    "recovered": 21,
    "latitude": 12.8628,
    "pop": 40530000,
    "sick": 232,
    "invisible": false
  },
  {
    "recovered": 3141,
    "latitude": 45.943161,
    "pop": 19530000,
    "longitude": 24.966761,
    "name": "Romania",
    "country": "RO",
    "lastUpdated": "2020-04-27T16:51:02.750Z",
    "dead": 631,
    "id": "9QcETqEcM2fTv9zRvx5T",
    "infected": 11339,
    "sick": 7567,
    "invisible": false
  },
  {
    "infected": 13,
    "recovered": 7,
    "latitude": 12.136389,
    "pop": 6218000,
    "longitude": -86.251389,
    "name": "Nicaragua",
    "country": "NI",
    "lastUpdated": "2020-04-27T16:51:02.770Z",
    "dead": 3,
    "id": "9Y5wmCqNCC6ZrenM31uA",
    "sick": 3,
    "invisible": false
  },
  {
    "latitude": 17.5706921,
    "pop": 18540000,
    "longitude": -3.996166,
    "name": "Mali",
    "country": "ML",
    "lastUpdated": "2020-04-27T16:51:02.759Z",
    "dead": 23,
    "id": "9dIzxqDSVqPyINkHqwGv",
    "infected": 389,
    "recovered": 112,
    "sick": 254,
    "invisible": false
  },
  {
    "infected": 4695,
    "recovered": 2500,
    "latitude": 61.92411,
    "pop": 5513000,
    "longitude": 25.748152,
    "name": "Finland",
    "country": "FI",
    "lastUpdated": "2020-04-27T16:51:02.752Z",
    "dead": 193,
    "id": "9p6OCdZbUUwBLA60Gk3W",
    "sick": 2002,
    "invisible": false
  },
  {
    "latitude": 43.311643,
    "pop": 1356000,
    "longitude": -71.590315,
    "name": "New Hampshire",
    "country": "US",
    "lastUpdated": "2020-04-27T16:29:22.891Z",
    "dead": 60,
    "id": "A84CwQ52kA46Hr7pn6Bm",
    "infected": 1864,
    "recovered": 0,
    "sick": 1804,
    "invisible": false
  },
  {
    "latitude": 41.823261,
    "pop": 1057000,
    "longitude": -71.412257,
    "name": "Rhode Island",
    "country": "US",
    "lastUpdated": "2020-04-27T16:29:22.890Z",
    "dead": 233,
    "id": "AEUWUHS65qvjEslew11c",
    "infected": 7708,
    "recovered": 0,
    "sick": 7475,
    "invisible": false
  },
  {
    "recovered": 8723,
    "latitude": 44.498955,
    "pop": 4453000,
    "longitude": 11.327591,
    "name": "Emilia-Romagna",
    "country": "IT",
    "lastUpdated": "2020-04-27T16:31:08.400Z",
    "dead": 3386,
    "id": "AJ9jQ0iyKsafsmf5yHAR",
    "infected": 24450,
    "sick": 12341,
    "invisible": false
  },
  {
    "latitude": 49.3964,
    "pop": 990509,
    "longitude": 7.023,
    "name": "Saarland",
    "country": "DE",
    "lastUpdated": "2020-04-27T16:30:09.970Z",
    "dead": 124,
    "id": "AKjFRQGnzuuZQhv5Qwx7",
    "infected": 2512,
    "recovered": 1503,
    "sick": 885,
    "invisible": false
  },
  {
    "id": "APTPgjAsjFi0nsGyJV7M",
    "infected": 363,
    "recovered": 0,
    "latitude": -35.717,
    "pop": 1125002,
    "longitude": -71.167,
    "name": "Maule",
    "country": "CL",
    "lastUpdated": "2020-04-27T16:37:14.127Z",
    "dead": 12,
    "sick": 351,
    "invisible": false
  },
  {
    "pop": 56171,
    "longitude": -42.6043,
    "name": "Greenland",
    "country": "GL",
    "lastUpdated": "2020-04-27T16:51:02.771Z",
    "dead": 0,
    "id": "APaZzlGCEeuoLBtzTJMe",
    "infected": 11,
    "recovered": 11,
    "latitude": 71.7069,
    "sick": 0,
    "invisible": false
  },
  {
    "lastUpdated": "2020-04-27T16:43:46.461Z",
    "dead": 24,
    "id": "AVCpxeh0fuH2WrHWNDYH",
    "infected": 873,
    "recovered": 0,
    "latitude": 45.65107,
    "pop": 971395,
    "longitude": -63.582687,
    "name": "Nova Scotia",
    "country": "CA",
    "sick": 849,
    "invisible": false
  },
  {
    "recovered": 0,
    "latitude": 47.012918,
    "pop": 1062000,
    "longitude": -109.128641,
    "name": "Montana",
    "country": "US",
    "lastUpdated": "2020-04-27T16:29:22.889Z",
    "dead": 14,
    "id": "AcULcZBozObOhwuRKMjJ",
    "infected": 449,
    "sick": 435,
    "invisible": false
  },
  {
    "infected": 937,
    "recovered": 936,
    "latitude": 27.285971,
    "pop": 45200000,
    "longitude": 116.01609,
    "name": "Jiangxi",
    "country": "CN",
    "lastUpdated": "2020-04-27T16:38:12.761Z",
    "dead": 1,
    "id": "AmBYm5J6E9Cuez1FQjiN",
    "sick": 0,
    "invisible": false
  },
  {
    "recovered": 0,
    "latitude": 52.1307,
    "pop": 3136000,
    "longitude": -3.7837,
    "name": "Wales",
    "country": "GB",
    "lastUpdated": "2020-04-27T16:39:30.882Z",
    "dead": 788,
    "id": "AoLhHdTydeWTfmp9koEX",
    "infected": 9078,
    "sick": 8290,
    "invisible": false
  },
  {
    "infected": 3517,
    "recovered": 1558,
    "latitude": 28.033886,
    "pop": 41320000,
    "longitude": 1.659626,
    "name": "Algeria",
    "country": "DZ",
    "lastUpdated": "2020-04-27T16:51:02.753Z",
    "dead": 432,
    "id": "AwN0CScPDApcLFgz6e3z",
    "sick": 1527,
    "invisible": false
  },
  {
    "infected": 2039,
    "recovered": 1166,
    "latitude": 45.099998,
    "pop": 4076000,
    "longitude": 15.2,
    "name": "Croatia",
    "country": "HR",
    "lastUpdated": "2020-04-27T16:51:02.754Z",
    "dead": 59,
    "id": "B82Ef45M8cDu4q7VsSHF",
    "sick": 814,
    "invisible": false
  },
  {
    "pop": 23716000,
    "longitude": 8.081666,
    "name": "Niger",
    "country": "NE",
    "lastUpdated": "2020-04-27T16:51:02.758Z",
    "dead": 29,
    "id": "BENubqQInFUJzhpZTsLT",
    "infected": 696,
    "recovered": 350,
    "latitude": 17.6077881,
    "sick": 317,
    "invisible": false
  },
  {
    "lastUpdated": "2020-04-27T16:29:22.893Z",
    "dead": 1003,
    "id": "BF51mWl51fgEcyBpCSzb",
    "infected": 19487,
    "recovered": 0,
    "latitude": 39.509109,
    "pop": 6043000,
    "longitude": -76.98432,
    "name": "Maryland",
    "country": "US",
    "sick": 18484,
    "invisible": false
  },
  {
    "infected": 11289,
    "recovered": 1740,
    "latitude": 53.709808,
    "pop": 9508000,
    "longitude": 27.953388,
    "name": "Belarus",
    "country": "BY",
    "lastUpdated": "2020-04-27T16:51:02.750Z",
    "dead": 75,
    "id": "BGg6yVU5VP71B8NXU0oh",
    "sick": 9474,
    "invisible": false
  },
  {
    "latitude": 48.8799,
    "pop": 3319000,
    "longitude": 0.1713,
    "name": "Normandie",
    "country": "FR",
    "lastUpdated": "2020-04-26T23:45:30.368Z",
    "dead": 319,
    "id": "BGtoyzb7y54LVlJ91rbf",
    "infected": 2710,
    "recovered": 984,
    "sick": 1407,
    "invisible": false
  },
  {
    "latitude": 50.7772,
    "pop": 5616000,
    "longitude": -3.9995,
    "name": "South West",
    "country": "GB",
    "lastUpdated": "2020-04-27T16:39:30.883Z",
    "dead": 0,
    "id": "BQqMOlPFD36ZEDTGd3WC",
    "infected": 5797,
    "recovered": 0,
    "sick": 5797,
    "invisible": false
  },
  {
    "latitude": 34.048927,
    "pop": 7172000,
    "longitude": -111.093735,
    "name": "Arizona",
    "country": "US",
    "lastUpdated": "2020-04-27T16:29:22.890Z",
    "dead": 275,
    "id": "BTEESCuD2ZbS1afunR2A",
    "infected": 6725,
    "recovered": 0,
    "sick": 6450,
    "invisible": false
  },
  {
    "lastUpdated": "2020-04-27T16:33:08.230Z",
    "dead": 9,
    "id": "BZwZOAlDJ8AIiaRVLyC9",
    "infected": 368,
    "recovered": 0,
    "latitude": 53.428543,
    "pop": 1676000,
    "longitude": 14.552812,
    "name": "Zachodniopomorskie",
    "country": "PL",
    "sick": 359,
    "invisible": false
  },
  {
    "latitude": -33.4489,
    "longitude": -70.6693,
    "name": "Unknown Chile region",
    "country": "CL",
    "lastUpdated": "2020-04-27T16:37:14.128Z",
    "dead": 0,
    "id": "BbiuZcm8oURX7cZwaa5U",
    "invisible": true,
    "infected": 0,
    "recovered": 7327,
    "sick": 0
  },
  {
    "lastUpdated": "2020-04-27T16:51:02.769Z",
    "dead": 3,
    "id": "BfT8o5DaEixC6JIZ28kY",
    "infected": 36,
    "recovered": 4,
    "latitude": -13.2543,
    "pop": 18620000,
    "longitude": 34.3015,
    "name": "Malawi",
    "country": "MW",
    "sick": 29,
    "invisible": false
  },
  {
    "recovered": 4,
    "latitude": -3.3730559,
    "pop": 10860000,
    "longitude": 29.9188862,
    "name": "Burundi",
    "country": "BI",
    "lastUpdated": "2020-04-27T16:51:02.770Z",
    "dead": 1,
    "id": "BnpMamidC5yYzeK8tPUL",
    "infected": 11,
    "sick": 6,
    "invisible": false
  },
  {
    "infected": 2348,
    "recovered": 0,
    "latitude": 52.257,
    "pop": 5385000,
    "longitude": 21.002,
    "name": "Mazowieckie",
    "country": "PL",
    "lastUpdated": "2020-04-27T16:33:08.223Z",
    "dead": 174,
    "id": "BrToMzyq8y2xdwXn75kM",
    "sick": 2174,
    "invisible": false
  },
  {
    "latitude": -1.333845,
    "pop": 74751,
    "longitude": -71.347573,
    "name": "Amazonas (Colombia)",
    "country": "CO",
    "lastUpdated": "2020-04-27T16:31:10.633Z",
    "dead": 2,
    "id": "C25xSDm4iYibX5RYML14",
    "infected": 40,
    "recovered": 0,
    "sick": 38,
    "invisible": false
  },
  {
    "id": "C3BCUzV80z9GfiuByIcr",
    "infected": 293696,
    "recovered": 0,
    "latitude": 40.719042,
    "pop": 19540000,
    "longitude": -73.982597,
    "name": "New York",
    "country": "US",
    "lastUpdated": "2020-04-27T16:29:22.894Z",
    "dead": 22365,
    "sick": 271331,
    "invisible": false
  },
  {
    "latitude": 49.731626,
    "pop": 10650000,
    "longitude": 15.359413,
    "name": "Czechia",
    "country": "CZ",
    "lastUpdated": "2020-04-27T16:51:02.751Z",
    "dead": 222,
    "id": "C6S76AggdWVU8G22jFHQ",
    "infected": 7431,
    "recovered": 2826,
    "sick": 4383,
    "invisible": false
  },
  {
    "latitude": 26.0667,
    "pop": 1493000,
    "longitude": 50.557701,
    "name": "Bahrain",
    "country": "BH",
    "lastUpdated": "2020-04-27T16:51:02.753Z",
    "dead": 8,
    "id": "C7cj4nwRITs13KnaJrQ2",
    "infected": 2708,
    "recovered": 1218,
    "sick": 1482,
    "invisible": false
  },
  {
    "id": "CA9LaAl3bNaeAqBuozn4",
    "infected": 28,
    "recovered": 1,
    "latitude": 10.4113,
    "pop": 1285400,
    "longitude": -74.4057,
    "name": "Magdalena",
    "country": "CO",
    "lastUpdated": "2020-04-27T16:31:10.632Z",
    "dead": 2,
    "sick": 25,
    "invisible": false
  },
  {
    "lastUpdated": "2020-04-27T16:40:15.169Z",
    "dead": 34,
    "id": "CCUFp4urvgXPo5unfMGy",
    "infected": 374,
    "recovered": 0,
    "latitude": 26.909979,
    "pop": 3073500,
    "longitude": -101.430756,
    "name": "Coahuila",
    "country": "MX",
    "sick": 340,
    "invisible": false
  },
  {
    "latitude": 27.0238,
    "pop": 68890000,
    "longitude": 74.2179,
    "name": "Rajasthan",
    "country": "IN",
    "lastUpdated": "2020-04-27T16:41:05.424Z",
    "dead": 50,
    "id": "CKZCZTPlrcq5fbfUPA9k",
    "infected": 2262,
    "recovered": 744,
    "sick": 1468,
    "invisible": false
  },
  {
    "id": "Cgvmtle61ehMvCzRzYx7",
    "infected": 323,
    "recovered": 89,
    "latitude": 13.803,
    "pop": 6378000,
    "longitude": -88.9053,
    "name": "El Salvador",
    "country": "SV",
    "lastUpdated": "2020-04-27T16:51:02.760Z",
    "dead": 8,
    "sick": 226,
    "invisible": false
  },
  {
    "recovered": 848,
    "latitude": 40.259003,
    "pop": 2973000,
    "longitude": 44.818474,
    "name": "Armenia",
    "country": "AM",
    "lastUpdated": "2020-04-27T16:51:02.755Z",
    "dead": 29,
    "id": "DCJCtZoBTWQ4mzdDNljD",
    "infected": 1808,
    "sick": 931,
    "invisible": false
  },
  {
    "recovered": 8,
    "latitude": 5.535,
    "pop": 1278000,
    "longitude": -73.368,
    "name": "Boyacá",
    "country": "CO",
    "lastUpdated": "2020-04-27T16:31:10.632Z",
    "dead": 1,
    "id": "DJJraANgQbEqz1wBBtZz",
    "infected": 35,
    "sick": 26,
    "invisible": false
  },
  {
    "latitude": 53.6221,
    "pop": 7300000,
    "longitude": -2.5945,
    "name": "North West",
    "country": "GB",
    "lastUpdated": "2020-04-27T16:39:30.883Z",
    "dead": 0,
    "id": "DPwBt2aJuwF0O71vwfM9",
    "infected": 17089,
    "recovered": 0,
    "sick": 17089,
    "invisible": false
  },
  {
    "lastUpdated": "2020-04-27T16:51:02.763Z",
    "dead": 6,
    "id": "DZyTD0Mu5WIcK6yTcJ91",
    "infected": 109,
    "recovered": 39,
    "latitude": 32.3213844,
    "pop": 65440,
    "longitude": -64.75737,
    "name": "Bermuda",
    "country": "BM",
    "sick": 64,
    "invisible": false
  },
  {
    "latitude": 21.694,
    "pop": 35446,
    "longitude": -71.7979,
    "name": "Turks and Caicos",
    "country": "TC",
    "lastUpdated": "2020-04-27T16:51:02.770Z",
    "dead": 1,
    "id": "DaMrRSIGJXIG36nW0Pnc",
    "infected": 12,
    "recovered": 5,
    "sick": 6,
    "invisible": false
  },
  {
    "lastUpdated": "2020-04-27T16:45:10.127Z",
    "dead": 2365,
    "id": "Dbng0NBTH41EEwBxhMzE",
    "infected": 19286,
    "recovered": 5282,
    "latitude": 39.2796,
    "pop": 2035000,
    "longitude": -3.0977,
    "name": "Castilla La Mancha",
    "country": "ES",
    "sick": 11639,
    "invisible": false
  },
  {
    "infected": 833,
    "recovered": 0,
    "latitude": 50.023,
    "pop": 3361000,
    "longitude": 20.006,
    "name": "Malopolskie",
    "country": "PL",
    "lastUpdated": "2020-04-27T16:33:08.229Z",
    "dead": 27,
    "id": "DcQ3D0WkacXEbv6iznRB",
    "sick": 806,
    "invisible": false
  },
  {
    "pop": 622567,
    "longitude": 113.551262,
    "name": "Macao",
    "country": "MO",
    "lastUpdated": "2020-04-27T16:51:02.768Z",
    "dead": 0,
    "id": "DdBt8qsG6A3g92oOR3ow",
    "infected": 45,
    "recovered": 32,
    "latitude": 22.192039,
    "sick": 13,
    "invisible": false
  },
  {
    "latitude": 25.467,
    "pop": 2651000,
    "longitude": 91.3662,
    "name": "Meghalaya",
    "country": "IN",
    "lastUpdated": "2020-04-27T16:41:05.426Z",
    "dead": 1,
    "id": "Dh0O1vmhrVfmsCsfZCUg",
    "infected": 12,
    "recovered": 0,
    "sick": 11,
    "invisible": false
  },
  {
    "latitude": 42.962334,
    "pop": 577737,
    "longitude": -107.534868,
    "name": "Wyoming",
    "country": "US",
    "lastUpdated": "2020-04-27T16:29:22.889Z",
    "dead": 7,
    "id": "DrGzziUglmBognCGY7R2",
    "infected": 502,
    "recovered": 0,
    "sick": 495,
    "invisible": false
  },
  {
    "infected": 2534,
    "recovered": 577,
    "latitude": 37.9838,
    "pop": 10740000,
    "longitude": 23.7275,
    "name": "Greece",
    "country": "GR",
    "lastUpdated": "2020-04-27T16:51:02.753Z",
    "dead": 136,
    "id": "Dtr1lap1RpJpXJdXGJiW",
    "sick": 1821,
    "invisible": false
  },
  {
    "recovered": 290,
    "latitude": 25.03841,
    "pop": 23780000,
    "longitude": 121.563698,
    "name": "Taiwan",
    "country": "TW",
    "lastUpdated": "2020-04-27T16:51:02.759Z",
    "dead": 6,
    "id": "EKTfs8e7M6DXzI1HqyyX",
    "infected": 429,
    "sick": 133,
    "invisible": false
  },
  {
    "lastUpdated": "2020-04-27T16:51:02.758Z",
    "dead": 6,
    "id": "EQzJvzVHKjs8kLmK7BMu",
    "infected": 695,
    "recovered": 264,
    "latitude": 10.327273,
    "pop": 4906000,
    "longitude": -84.387618,
    "name": "Costa Rica",
    "country": "CR",
    "sick": 425,
    "invisible": false
  },
  {
    "recovered": 394,
    "latitude": 22.2587,
    "pop": 62700000,
    "longitude": 71.1924,
    "name": "Gujarat",
    "country": "IN",
    "lastUpdated": "2020-04-27T16:41:05.423Z",
    "dead": 162,
    "id": "ERwk9R9en4m9WbdoMbIg",
    "infected": 3548,
    "sick": 2992,
    "invisible": false
  },
  {
    "recovered": 17,
    "latitude": 30.7333,
    "pop": 1055000,
    "longitude": 76.7794,
    "name": "Chandigarh",
    "country": "IN",
    "lastUpdated": "2020-04-27T16:41:05.425Z",
    "dead": 0,
    "id": "Esl5UlCVB9s8pmGB5Ofr",
    "infected": 45,
    "sick": 28,
    "invisible": false
  },
  {
    "longitude": 22.653,
    "name": "Lubelskie",
    "country": "PL",
    "lastUpdated": "2020-04-27T16:33:08.230Z",
    "dead": 12,
    "id": "Esy1La2CxwH5uB8bGVWZ",
    "infected": 353,
    "recovered": 0,
    "latitude": 51.24,
    "pop": 2148000,
    "sick": 341,
    "invisible": false
  },
  {
    "infected": 1389,
    "recovered": 0,
    "latitude": 18.200178,
    "pop": 3195000,
    "longitude": -66.664513,
    "name": "Puerto Rico",
    "country": "PR",
    "lastUpdated": "2020-04-27T16:29:22.889Z",
    "dead": 84,
    "id": "F4rPrEVGAIMM5rfPEMv4",
    "sick": 1305,
    "invisible": false
  },
  {
    "id": "F7MED5VwEhi3JvJu6KjB",
    "infected": 203,
    "recovered": 63,
    "latitude": 4.862437,
    "pop": 2919000,
    "longitude": -74.058655,
    "name": "Cundinamarca",
    "country": "CO",
    "lastUpdated": "2020-04-27T16:31:10.630Z",
    "dead": 10,
    "sick": 130,
    "invisible": false
  },
  {
    "infected": 1703,
    "recovered": 220,
    "latitude": 33.93911,
    "pop": 35530000,
    "longitude": 67.709953,
    "name": "Afghanistan",
    "country": "AF",
    "lastUpdated": "2020-04-27T16:51:02.755Z",
    "dead": 57,
    "id": "FCDmlmnIIswd8bQiUjfN",
    "sick": 1426,
    "invisible": false
  },
  {
    "latitude": 29.431585,
    "pop": 30480000,
    "longitude": 106.912254,
    "name": "Chongqing",
    "country": "CN",
    "lastUpdated": "2020-04-27T16:38:12.762Z",
    "dead": 6,
    "id": "FErOU1m4Tj7jIkRam3vF",
    "infected": 579,
    "recovered": 573,
    "sick": 0,
    "invisible": false
  },
  {
    "infected": 3288,
    "recovered": 1012,
    "latitude": 29.311661,
    "pop": 4137000,
    "longitude": 47.481766,
    "name": "Kuwait",
    "country": "KW",
    "lastUpdated": "2020-04-27T16:51:02.753Z",
    "dead": 22,
    "id": "FZsUkhxBEgqsPb4eO0PN",
    "sick": 2254,
    "invisible": false
  },
  {
    "lastUpdated": "2020-04-27T16:46:09.016Z",
    "dead": 9,
    "id": "FboWeolpM62SZCLwdilT",
    "infected": 159,
    "recovered": 0,
    "latitude": -10.9111,
    "pop": 2278308,
    "longitude": -37.0717,
    "name": "Sergipe",
    "country": "BR",
    "sick": 150,
    "invisible": false
  },
  {
    "infected": 1937,
    "recovered": 1101,
    "latitude": 11.1271,
    "pop": 67860000,
    "longitude": 78.6569,
    "name": "Tamil Nadu",
    "country": "IN",
    "lastUpdated": "2020-04-27T16:41:05.424Z",
    "dead": 24,
    "id": "FeS45oMNC27pI17F0xEV",
    "sick": 812,
    "invisible": false
  },
  {
    "infected": 6293,
    "recovered": 993,
    "latitude": 18.947829,
    "pop": 10770000,
    "longitude": -70.430399,
    "name": "Dominican Republic",
    "country": "DO",
    "lastUpdated": "2020-04-27T16:51:02.751Z",
    "dead": 282,
    "id": "FuiVEJvWb0QMCpxJ3563",
    "sick": 5018,
    "invisible": false
  },
  {
    "infected": 1003,
    "recovered": 332,
    "latitude": 18.1124,
    "pop": 35190000,
    "longitude": 79.0193,
    "name": "Telengana",
    "country": "IN",
    "lastUpdated": "2020-04-27T16:41:05.424Z",
    "dead": 25,
    "id": "FyC551oNwmENxbr9Yght",
    "sick": 646,
    "invisible": false
  },
  {
    "latitude": 48.669,
    "pop": 5450000,
    "longitude": 19.699,
    "name": "Slovakia",
    "country": "SK",
    "lastUpdated": "2020-04-27T16:51:02.757Z",
    "dead": 18,
    "id": "FzIDXoqWnTI3nUfhPyT2",
    "infected": 1381,
    "recovered": 403,
    "sick": 960,
    "invisible": false
  },
  {
    "latitude": 30.37532,
    "pop": 197000000,
    "longitude": 69.345116,
    "name": "Pakistan",
    "country": "PK",
    "lastUpdated": "2020-04-27T16:51:02.750Z",
    "dead": 292,
    "id": "GAp7Wb6IMhdgbvEtMza9",
    "infected": 13915,
    "recovered": 3029,
    "sick": 10594,
    "invisible": false
  },
  {
    "pop": 27980000,
    "longitude": 75.3412,
    "name": "Punjab",
    "country": "IN",
    "lastUpdated": "2020-04-27T16:41:05.425Z",
    "dead": 19,
    "id": "GGru8cG08mANO8XDDUtZ",
    "infected": 330,
    "recovered": 98,
    "latitude": 31.1471,
    "sick": 213,
    "invisible": false
  },
  {
    "lastUpdated": "2020-04-27T16:51:02.750Z",
    "dead": 76,
    "id": "GHzBIsHy2GiBc5JV2HMs",
    "infected": 10349,
    "recovered": 1978,
    "latitude": 23.424076,
    "pop": 9400000,
    "longitude": 53.847816,
    "name": "United Arab Emirates",
    "country": "AE",
    "sick": 8295,
    "invisible": false
  },
  {
    "id": "GLViSIjDjwvptOphedAu",
    "invisible": true,
    "infected": 103,
    "recovered": 0,
    "latitude": 37.0902,
    "longitude": -95.7129,
    "name": "Grand Princess",
    "country": "US",
    "lastUpdated": "2020-04-27T16:29:22.888Z",
    "dead": 3,
    "sick": 100
  },
  {
    "infected": 23608,
    "recovered": 0,
    "latitude": 51.5074,
    "pop": 10100000,
    "longitude": -0.1278,
    "name": "London",
    "country": "GB",
    "lastUpdated": "2020-04-27T16:39:30.882Z",
    "dead": 0,
    "id": "GPtoS0Yy2EnNafpmmTqY",
    "sick": 23608,
    "invisible": false
  },
  {
    "lastUpdated": "2020-04-27T16:29:22.893Z",
    "dead": 1723,
    "id": "Gh46r6vuaY7fbGt3IboN",
    "infected": 43720,
    "recovered": 0,
    "latitude": 36.621981,
    "pop": 39560000,
    "longitude": -119.339046,
    "name": "California",
    "country": "US",
    "sick": 41997,
    "invisible": false
  },
  {
    "id": "GpF8ULuKOQiFDCUHN44h",
    "infected": 3281,
    "recovered": 0,
    "latitude": 35.87189,
    "pop": 3943000,
    "longitude": -97.145514,
    "name": "Oklahoma",
    "country": "US",
    "lastUpdated": "2020-04-27T16:29:22.892Z",
    "dead": 196,
    "sick": 3085,
    "invisible": false
  },
  {
    "lastUpdated": "2020-04-27T16:31:08.400Z",
    "dead": 269,
    "id": "Gzx6GX1qhBm714BkEC6l",
    "infected": 2481,
    "recovered": 1218,
    "latitude": 46.5,
    "pop": 520891,
    "longitude": 11.35,
    "name": "P.A. Bolzano",
    "country": "IT",
    "sick": 994,
    "invisible": false
  },
  {
    "lastUpdated": "2020-04-27T16:38:12.756Z",
    "dead": 1,
    "id": "H3JeVigVbo5CSYfZG4WI",
    "infected": 198,
    "recovered": 129,
    "latitude": 42.83263,
    "pop": 24710000,
    "longitude": 113.750972,
    "name": "Inner Mongolia",
    "country": "CN",
    "sick": 68,
    "invisible": false
  },
  {
    "infected": 4786,
    "recovered": 0,
    "latitude": 39.74536,
    "pop": 3034000,
    "longitude": -116.724977,
    "name": "Nevada",
    "country": "US",
    "lastUpdated": "2020-04-27T16:29:22.891Z",
    "dead": 206,
    "id": "H3bDg4eV30up4WWrIDAS",
    "sick": 4580,
    "invisible": false
  },
  {
    "latitude": -3.731862,
    "pop": 9075649,
    "longitude": -38.526669,
    "name": "Ceará",
    "country": "BR",
    "lastUpdated": "2020-04-27T16:46:09.011Z",
    "dead": 327,
    "id": "HEMWNnFxeFEoeOCBOLJD",
    "infected": 5833,
    "recovered": 0,
    "sick": 5506,
    "invisible": false
  },
  {
    "longitude": 75.7139,
    "name": "Karnataka",
    "country": "IN",
    "lastUpdated": "2020-04-27T16:41:05.425Z",
    "dead": 19,
    "id": "HN5mGmxlqlSeFSNeu1K5",
    "infected": 512,
    "recovered": 193,
    "latitude": 15.3173,
    "pop": 64060000,
    "sick": 300,
    "invisible": false
  },
  {
    "pop": 807610,
    "longitude": 90.4336,
    "name": "Bhutan",
    "country": "BT",
    "lastUpdated": "2020-04-27T16:51:02.771Z",
    "dead": 0,
    "id": "HRDpwyxpqW9RN0xLFyNu",
    "infected": 7,
    "recovered": 4,
    "latitude": 27.5142,
    "sick": 3,
    "invisible": false
  },
  {
    "lastUpdated": "2020-04-27T16:51:02.754Z",
    "dead": 8,
    "id": "HRTA10dtrruDEwjJEGMp",
    "infected": 1887,
    "recovered": 892,
    "latitude": 41.3775,
    "pop": 32390000,
    "longitude": 64.5853,
    "name": "Uzbekistan",
    "country": "UZ",
    "sick": 987,
    "invisible": false
  },
  {
    "id": "HSSFomRju0doHhWgW8On",
    "infected": 2726,
    "recovered": 0,
    "latitude": 34.138916,
    "pop": 2095000,
    "longitude": -105.576255,
    "name": "New Mexico",
    "country": "US",
    "lastUpdated": "2020-04-27T16:29:22.892Z",
    "dead": 99,
    "sick": 2627,
    "invisible": false
  },
  {
    "id": "HZkACHjW7NlYjg8vEMj2",
    "infected": 180,
    "recovered": 0,
    "latitude": -40.231,
    "pop": 412812,
    "longitude": -72.3311,
    "name": "Los Ríos",
    "country": "CL",
    "lastUpdated": "2020-04-27T16:37:14.127Z",
    "dead": 3,
    "sick": 177,
    "invisible": false
  },
  {
    "latitude": 53.6127,
    "pop": 1635000,
    "longitude": 12.4296,
    "name": "Mecklenburg-Vorpommern",
    "country": "DE",
    "lastUpdated": "2020-04-27T16:30:09.970Z",
    "dead": 17,
    "id": "He1gSS1v50t06i3YrqvB",
    "infected": 675,
    "recovered": 544,
    "sick": 114,
    "invisible": false
  },
  {
    "infected": 2859,
    "recovered": 496,
    "latitude": 42.25,
    "pop": 1315000,
    "longitude": 13.75,
    "name": "Abruzzo",
    "country": "IT",
    "lastUpdated": "2020-04-27T16:31:08.394Z",
    "dead": 295,
    "id": "I9EqrZfbPnkioNU4wZGz",
    "sick": 2068,
    "invisible": false
  },
  {
    "latitude": 23.363855,
    "pop": 113460000,
    "longitude": 113.373448,
    "name": "Guangdong",
    "country": "CN",
    "lastUpdated": "2020-04-27T16:38:12.758Z",
    "dead": 8,
    "id": "IAX0OQLVnUwU7FX0ENF1",
    "infected": 1587,
    "recovered": 1542,
    "sick": 37,
    "invisible": false
  },
  {
    "infected": 1276,
    "recovered": 1254,
    "latitude": 33.875408,
    "pop": 94000000,
    "longitude": 113.484016,
    "name": "Henan",
    "country": "CN",
    "lastUpdated": "2020-04-27T16:38:12.761Z",
    "dead": 22,
    "id": "IFuMrMvSjoiX5agYvllh",
    "sick": 0,
    "invisible": false
  },
  {
    "infected": 328,
    "recovered": 0,
    "latitude": 37.2,
    "pop": 451000,
    "longitude": -8.16667,
    "name": "Algarve",
    "country": "PT",
    "lastUpdated": "2020-04-27T16:34:08.355Z",
    "dead": 12,
    "id": "IHqRHC8K3OZPN8gniM7V",
    "sick": 316,
    "invisible": false
  },
  {
    "id": "IKWjRUo0SYgHQKdWjTvq",
    "infected": 24,
    "recovered": 1,
    "latitude": 3.883,
    "pop": 333194,
    "longitude": -77.0197,
    "name": "Buenaventura D.E.",
    "country": "CO",
    "lastUpdated": "2020-04-27T16:31:10.632Z",
    "dead": 1,
    "sick": 22,
    "invisible": false
  },
  {
    "infected": 6187,
    "recovered": 0,
    "latitude": 52.87,
    "pop": 4811000,
    "longitude": -0.995,
    "name": "East Midlands",
    "country": "GB",
    "lastUpdated": "2020-04-27T16:39:30.882Z",
    "dead": 0,
    "id": "INyu1R48Ppv8cfW4Nuz4",
    "sick": 6187,
    "invisible": false
  },
  {
    "latitude": 22.017,
    "pop": 1342600,
    "longitude": -102.317,
    "name": "Aguascalientes",
    "country": "MX",
    "lastUpdated": "2020-04-27T16:40:15.170Z",
    "dead": 5,
    "id": "ISRKMzEDojyrZ9iyWwex",
    "infected": 188,
    "recovered": 0,
    "sick": 183,
    "invisible": false
  },
  {
    "lastUpdated": "2020-04-27T16:40:15.170Z",
    "dead": 11,
    "id": "IdKbgzgKLpjBFh4UPOwu",
    "infected": 613,
    "recovered": 0,
    "latitude": 25.686613,
    "pop": 5321300,
    "longitude": -100.316116,
    "name": "Nuevo León",
    "country": "MX",
    "sick": 602,
    "invisible": false
  },
  {
    "lastUpdated": "2020-04-27T16:40:15.168Z",
    "dead": 61,
    "id": "IhhiYI6T0TX4CYVPcnmH",
    "infected": 313,
    "recovered": 0,
    "latitude": 28.632996,
    "pop": 3826900,
    "longitude": -106.069099,
    "name": "Chihuahua",
    "country": "MX",
    "sick": 252,
    "invisible": false
  },
  {
    "infected": 741,
    "recovered": 0,
    "latitude": -36.7,
    "pop": 480600,
    "longitude": -72.57,
    "name": "Ñuble",
    "country": "CL",
    "lastUpdated": "2020-04-27T16:37:14.127Z",
    "dead": 14,
    "id": "ImnOiVx9Cb8Nw7cbRcQ7",
    "sick": 727,
    "invisible": false
  },
  {
    "infected": 74,
    "recovered": 7,
    "latitude": 19.0558,
    "pop": 10980000,
    "longitude": -73.0513,
    "name": "Haiti",
    "country": "HT",
    "lastUpdated": "2020-04-27T16:51:02.768Z",
    "dead": 6,
    "id": "InZ38sIqyK7FN7XAOZoX",
    "sick": 61,
    "invisible": false
  },
  {
    "id": "IvQkDJkTAsoIqPRAU25n",
    "infected": 23773,
    "recovered": 0,
    "latitude": 32.528564,
    "pop": 10520000,
    "longitude": -83.280125,
    "name": "Georgia (US)",
    "country": "US",
    "lastUpdated": "2020-04-27T16:29:22.893Z",
    "dead": 942,
    "sick": 22831,
    "invisible": false
  },
  {
    "id": "IvVhpOoGpH6JVkGyUhXN",
    "infected": 1469,
    "recovered": 1180,
    "latitude": -42.8285,
    "pop": 4794000,
    "longitude": 172.488081,
    "name": "New Zealand",
    "country": "NZ",
    "lastUpdated": "2020-04-27T16:51:02.756Z",
    "dead": 19,
    "sick": 270,
    "invisible": false
  },
  {
    "infected": 1,
    "recovered": 1,
    "latitude": 28.218,
    "pop": 1255000,
    "longitude": 94.7278,
    "name": "Arunachal Pradesh",
    "country": "IN",
    "lastUpdated": "2020-04-27T16:41:05.426Z",
    "dead": 0,
    "id": "IwYKiIVY18NGwdGQFGWW",
    "sick": 0,
    "invisible": false
  },
  {
    "id": "J3mZXlfEnnJx4CDZLvRG",
    "infected": 325,
    "recovered": 137,
    "latitude": 6.4238,
    "pop": 31980000,
    "longitude": -66.5897,
    "name": "Venezuela",
    "country": "VE",
    "lastUpdated": "2020-04-27T16:51:02.760Z",
    "dead": 10,
    "sick": 178,
    "invisible": false
  },
  {
    "latitude": 35.1264,
    "pop": 1170000,
    "longitude": 33.4299,
    "name": "Cyprus",
    "country": "CY",
    "lastUpdated": "2020-04-27T16:51:02.757Z",
    "dead": 14,
    "id": "JQByE4l2OA6sGOqIcWrM",
    "infected": 822,
    "recovered": 148,
    "sick": 660,
    "invisible": false
  },
  {
    "longitude": 85.3131,
    "name": "Bihar",
    "country": "IN",
    "lastUpdated": "2020-04-27T16:41:05.425Z",
    "dead": 2,
    "id": "JR7hOGked7CZtIs2nCV5",
    "infected": 345,
    "recovered": 56,
    "latitude": 25.0961,
    "pop": 99020000,
    "sick": 287,
    "invisible": false
  },
  {
    "longitude": -90.522713,
    "name": "Guatemala",
    "country": "GT",
    "lastUpdated": "2020-04-27T16:51:02.758Z",
    "dead": 15,
    "id": "JUWE6bG3b5oL7fKQMSvv",
    "infected": 500,
    "recovered": 49,
    "latitude": 14.628434,
    "pop": 17250000,
    "sick": 436,
    "invisible": false
  },
  {
    "infected": 3729,
    "recovered": 3123,
    "latitude": 49.8153,
    "pop": 602005,
    "longitude": 6.1296,
    "name": "Luxembourg",
    "country": "LU",
    "lastUpdated": "2020-04-27T16:51:02.753Z",
    "dead": 88,
    "id": "JcFsHSn2WvZ5LJW42ovG",
    "sick": 518,
    "invisible": false
  },
  {
    "id": "JmOyaFe25yZCIV64JbZj",
    "infected": 20,
    "recovered": 2,
    "latitude": 8.8,
    "pop": 2049000,
    "longitude": -74.167,
    "name": "Bolívar",
    "country": "CO",
    "lastUpdated": "2020-04-27T16:31:10.632Z",
    "dead": 3,
    "sick": 15,
    "invisible": false
  },
  {
    "recovered": 0,
    "latitude": 31.4,
    "pop": 3648100,
    "longitude": -115.783,
    "name": "Baja California",
    "country": "MX",
    "lastUpdated": "2020-04-27T16:40:15.168Z",
    "dead": 174,
    "id": "Jp9ePErcc8i1aOozEAMf",
    "infected": 1308,
    "sick": 1134,
    "invisible": false
  },
  {
    "infected": 23,
    "recovered": 3,
    "latitude": 8.7479801,
    "pop": 1786500,
    "longitude": -75.8814316,
    "name": "Córdoba",
    "country": "CO",
    "lastUpdated": "2020-04-27T16:31:10.632Z",
    "dead": 3,
    "id": "Jr8syCB0lydmPDXw8Q6N",
    "sick": 17,
    "invisible": false
  },
  {
    "latitude": 8.6195,
    "pop": 7798000,
    "longitude": 0.8248,
    "name": "Togo",
    "country": "TG",
    "lastUpdated": "2020-04-27T16:51:02.763Z",
    "dead": 6,
    "id": "JrBbirlBKGdWSdcDt7PF",
    "infected": 98,
    "recovered": 62,
    "sick": 30,
    "invisible": false
  },
  {
    "infected": 1363,
    "recovered": 206,
    "latitude": 42.7339,
    "pop": 7050000,
    "longitude": 25.4858,
    "name": "Bulgaria",
    "country": "BG",
    "lastUpdated": "2020-04-27T16:51:02.757Z",
    "dead": 58,
    "id": "JzZ8sbqzjutThVjkPKPL",
    "sick": 1099,
    "invisible": false
  },
  {
    "infected": 261,
    "recovered": 0,
    "latitude": 50.823,
    "pop": 1263000,
    "longitude": 20.709,
    "name": "Świętokrzyskie",
    "country": "PL",
    "lastUpdated": "2020-04-27T16:33:08.230Z",
    "dead": 7,
    "id": "KGrK7gafkeWjmU6sHQd2",
    "sick": 254,
    "invisible": false
  },
  {
    "lastUpdated": "2020-04-27T16:31:08.401Z",
    "dead": 1114,
    "id": "KLXicxFogWnu0dLp4bNK",
    "infected": 7488,
    "recovered": 2894,
    "latitude": 44.5,
    "pop": 1557000,
    "longitude": 8.833,
    "name": "Liguria",
    "country": "IT",
    "sick": 3480,
    "invisible": false
  },
  {
    "infected": 53,
    "recovered": 17,
    "latitude": 10.4631,
    "pop": 1201000,
    "longitude": -73.2532,
    "name": "Cesar",
    "country": "CO",
    "lastUpdated": "2020-04-27T16:31:10.631Z",
    "dead": 5,
    "id": "KpOz3WmiZkrXUMlUJNlV",
    "sick": 31,
    "invisible": false
  },
  {
    "lastUpdated": "2020-04-27T16:31:08.401Z",
    "dead": 778,
    "id": "KrLrJbpDqqiXgUPGCCW9",
    "infected": 9147,
    "recovered": 2300,
    "latitude": 43.4167,
    "pop": 3737000,
    "longitude": 11,
    "name": "Toscana",
    "country": "IT",
    "sick": 6069,
    "invisible": false
  },
  {
    "longitude": 80.771797,
    "name": "Sri Lanka",
    "country": "LK",
    "lastUpdated": "2020-04-27T16:51:02.758Z",
    "dead": 7,
    "id": "KsWzJO06cf0d6LJ4ZNh9",
    "infected": 584,
    "recovered": 126,
    "latitude": 7.873054,
    "pop": 21440000,
    "sick": 451,
    "invisible": false
  },
  {
    "latitude": 15.9129,
    "pop": 49670000,
    "longitude": 79.74,
    "name": "Andhra Pradesh",
    "country": "IN",
    "lastUpdated": "2020-04-27T16:41:05.424Z",
    "dead": 31,
    "id": "KtQIo2DoqjELtPAlyDVO",
    "infected": 1177,
    "recovered": 235,
    "sick": 911,
    "invisible": false
  },
  {
    "latitude": 61.52401,
    "pop": 144500000,
    "longitude": 105.318756,
    "name": "Russia",
    "country": "RU",
    "lastUpdated": "2020-04-27T16:51:02.741Z",
    "dead": 794,
    "id": "KwOuGBKSMRlmwftxAvLX",
    "infected": 87147,
    "recovered": 7346,
    "sick": 79007,
    "invisible": false
  },
  {
    "lastUpdated": "2020-04-27T16:51:02.769Z",
    "dead": 3,
    "id": "LBUtrLDKJiupXjlUNTUe",
    "infected": 38,
    "recovered": 24,
    "latitude": 18.0708,
    "pop": 32125,
    "longitude": -63.0501,
    "name": "Saint-Martin",
    "country": "FR",
    "sick": 11,
    "invisible": false
  },
  {
    "id": "LTGEU2E9MFkrCcFhZYVk",
    "infected": 82,
    "recovered": 55,
    "latitude": 47.166,
    "pop": 38557,
    "longitude": 9.5554,
    "name": "Liechtenstein",
    "country": "LI",
    "lastUpdated": "2020-04-27T16:51:02.767Z",
    "dead": 1,
    "sick": 26,
    "invisible": false
  },
  {
    "lastUpdated": "2020-04-27T16:51:02.757Z",
    "dead": 7,
    "id": "LU2QWt5ao8IJa8evNYVV",
    "infected": 996,
    "recovered": 208,
    "latitude": 9.9456,
    "pop": 12720000,
    "longitude": -9.6966,
    "name": "Guinea",
    "country": "GN",
    "sick": 781,
    "invisible": false
  },
  {
    "latitude": 29.6667,
    "pop": 3062000,
    "longitude": -110.5,
    "name": "Sonora",
    "country": "MX",
    "lastUpdated": "2020-04-27T16:40:15.168Z",
    "dead": 26,
    "id": "LYCBHrA9ms6GcxpLGPCT",
    "infected": 245,
    "recovered": 0,
    "sick": 219,
    "invisible": false
  },
  {
    "latitude": 3.9193051,
    "pop": 563402,
    "longitude": -56.0277824,
    "name": "Suriname",
    "country": "SR",
    "lastUpdated": "2020-04-27T16:51:02.771Z",
    "dead": 1,
    "id": "LglKINHyQpYpFxjckbQ6",
    "infected": 10,
    "recovered": 7,
    "sick": 2,
    "invisible": false
  },
  {
    "longitude": -106.4509,
    "name": "Saskatchewan",
    "country": "CA",
    "lastUpdated": "2020-04-27T16:36:07.564Z",
    "dead": 4,
    "id": "LkIDKY0CMAqzbwBHyYCP",
    "infected": 353,
    "recovered": 0,
    "latitude": 52.9399,
    "pop": 1174000,
    "sick": 349,
    "invisible": false
  },
  {
    "infected": 6,
    "recovered": 5,
    "latitude": 24.2155,
    "pop": 636442,
    "longitude": -12.8858,
    "name": "Western Sahara",
    "country": "EH",
    "lastUpdated": "2020-04-27T16:51:02.778Z",
    "dead": 0,
    "id": "LooNn6RuMiDhQnwa9svw",
    "sick": 1,
    "invisible": false
  },
  {
    "infected": 2677,
    "recovered": 759,
    "latitude": 43.363129,
    "pop": 1022000,
    "longitude": -5.951843,
    "name": "Principado de Asturias",
    "country": "ES",
    "lastUpdated": "2020-04-27T16:45:10.126Z",
    "dead": 253,
    "id": "Lsga7AvYNnY0qQ5gEfV8",
    "sick": 1665,
    "invisible": false
  },
  {
    "lastUpdated": "2020-04-27T16:45:10.127Z",
    "dead": 428,
    "id": "LuEErlF7dVKI0eJsRjFm",
    "infected": 3480,
    "recovered": 1652,
    "latitude": 39.4937,
    "pop": 1065000,
    "longitude": -6.0679,
    "name": "Extremadura",
    "country": "ES",
    "sick": 1400,
    "invisible": false
  },
  {
    "lastUpdated": "2020-04-27T16:40:15.169Z",
    "dead": 20,
    "id": "M3wdiueFtwrUHiQ2rOXA",
    "infected": 260,
    "recovered": 0,
    "latitude": 21.0186,
    "pop": 5965000,
    "longitude": -101.2591,
    "name": "Guanajuato",
    "country": "MX",
    "sick": 240,
    "invisible": false
  },
  {
    "latitude": 37.8393,
    "pop": 4468000,
    "longitude": -84.27,
    "name": "Kentucky",
    "country": "US",
    "lastUpdated": "2020-04-27T16:29:22.891Z",
    "dead": 208,
    "id": "MC8MXFw9iXYybnF8v7e6",
    "infected": 4078,
    "recovered": 0,
    "sick": 3870,
    "invisible": false
  },
  {
    "longitude": -3.436,
    "name": "Unknown UK region or state",
    "country": "GB",
    "lastUpdated": "2020-04-27T16:39:30.883Z",
    "dead": 18419,
    "id": "MEjlm8VYdGA28TTTnQmf",
    "invisible": true,
    "infected": 24704,
    "recovered": 0,
    "latitude": 55.3781,
    "sick": 6285
  },
  {
    "id": "MG4e9tulLJ010SZJvbYN",
    "infected": 14496,
    "recovered": 0,
    "latitude": 41.3006,
    "pop": 3689000,
    "longitude": -7.7441,
    "name": "Norte",
    "country": "PT",
    "lastUpdated": "2020-04-27T16:34:08.349Z",
    "dead": 536,
    "sick": 13960,
    "invisible": false
  },
  {
    "lastUpdated": "2020-04-27T16:39:30.881Z",
    "dead": 1231,
    "id": "MObRYyIriHG337L8FyFC",
    "infected": 10324,
    "recovered": 0,
    "latitude": 56.4907,
    "pop": 5450000,
    "longitude": -4.2026,
    "name": "Scotland",
    "country": "GB",
    "sick": 9093,
    "invisible": false
  },
  {
    "latitude": 40.2672,
    "pop": 6692000,
    "longitude": -86.1349,
    "name": "Indiana",
    "country": "US",
    "lastUpdated": "2020-04-27T16:29:22.892Z",
    "dead": 844,
    "id": "MOxDkmQ4wBi1CuAdVxDE",
    "infected": 15963,
    "recovered": 0,
    "sick": 15119,
    "invisible": false
  },
  {
    "recovered": 468,
    "latitude": 7.54,
    "pop": 24290000,
    "longitude": -5.5471,
    "name": "Ivory Coast",
    "country": "CI",
    "lastUpdated": "2020-04-27T16:51:02.757Z",
    "dead": 14,
    "id": "MdQOfc1gNh2DOqwSP6UV",
    "infected": 1150,
    "sick": 668,
    "invisible": false
  },
  {
    "longitude": 7.6616,
    "name": "Nordrhein-Westfalen",
    "country": "DE",
    "lastUpdated": "2020-04-27T16:30:09.970Z",
    "dead": 1163,
    "id": "MjpYq3zQyAvSQlVVYjD2",
    "infected": 32256,
    "recovered": 21583,
    "latitude": 51.4332,
    "pop": 17910000,
    "sick": 9510,
    "invisible": false
  },
  {
    "recovered": 75,
    "latitude": 37.330509,
    "pop": 6301000,
    "longitude": 105.977203,
    "name": "Ningxia",
    "country": "CN",
    "lastUpdated": "2020-04-27T16:38:12.762Z",
    "dead": 0,
    "id": "MntmjjuHljarCdt6aIeE",
    "infected": 75,
    "sick": 0,
    "invisible": false
  },
  {
    "longitude": -52.203499186,
    "name": "Pará",
    "country": "BR",
    "lastUpdated": "2020-04-27T16:46:09.012Z",
    "dead": 100,
    "id": "MuEB2UgkId5crsxi9zQT",
    "infected": 1867,
    "recovered": 0,
    "latitude": -3.20166586,
    "pop": 8513497,
    "sick": 1767,
    "invisible": false
  },
  {
    "latitude": 48.6616,
    "pop": 11020000,
    "longitude": 9.3501,
    "name": "Baden-Württemberg",
    "country": "DE",
    "lastUpdated": "2020-04-27T16:30:09.963Z",
    "dead": 1303,
    "id": "N3XsRBwJSsNclkEf7Zz5",
    "infected": 32106,
    "recovered": 20701,
    "sick": 10102,
    "invisible": false
  },
  {
    "infected": 1565,
    "recovered": 659,
    "latitude": 44.696652,
    "pop": 3507000,
    "longitude": 17.824332,
    "name": "Bosnia and Herzegovina",
    "country": "BA",
    "lastUpdated": "2020-04-27T16:51:02.756Z",
    "dead": 60,
    "id": "N7c13sCQF0G789XAVazJ",
    "sick": 846,
    "invisible": false
  },
  {
    "latitude": 37.242565,
    "pop": 36500000,
    "longitude": 111.856857,
    "name": "Shanxi",
    "country": "CN",
    "lastUpdated": "2020-04-27T16:38:12.757Z",
    "dead": 0,
    "id": "NBRIGIRrJB1Ry8prDNAC",
    "infected": 197,
    "recovered": 157,
    "sick": 40,
    "invisible": false
  },
  {
    "latitude": 35.7596,
    "pop": 10380000,
    "longitude": -79.0193,
    "name": "North Carolina",
    "country": "US",
    "lastUpdated": "2020-04-27T16:29:22.890Z",
    "dead": 327,
    "id": "NC64Qp5kTqAfiTuR27k8",
    "infected": 9289,
    "recovered": 0,
    "sick": 8962,
    "invisible": false
  },
  {
    "infected": 2787,
    "recovered": 1835,
    "latitude": 52.4125,
    "pop": 2504000,
    "longitude": 12.5316,
    "name": "Brandenburg",
    "country": "DE",
    "lastUpdated": "2020-04-27T16:30:09.969Z",
    "dead": 132,
    "id": "NJjo2gfBvnbK4xatrsUz",
    "sick": 820,
    "invisible": false
  },
  {
    "infected": 14,
    "recovered": 0,
    "latitude": 15.0979,
    "pop": 55144,
    "longitude": -145.6739,
    "name": "Northern Mariana Islands",
    "country": "MP",
    "lastUpdated": "2020-04-27T16:29:22.888Z",
    "dead": 2,
    "id": "NLLL6pJhJSw0lrDMD4uP",
    "sick": 12,
    "invisible": false
  },
  {
    "longitude": 79.0193,
    "name": "Uttarakhand",
    "country": "IN",
    "lastUpdated": "2020-04-27T16:41:05.425Z",
    "dead": 0,
    "id": "NMeZEcGToxXfpi16PfFV",
    "infected": 51,
    "recovered": 33,
    "latitude": 30.0668,
    "pop": 10080000,
    "sick": 18,
    "invisible": false
  },
  {
    "latitude": 50.6521,
    "pop": 6243000,
    "longitude": 9.1624,
    "name": "Hessen",
    "country": "DE",
    "lastUpdated": "2020-04-27T16:30:09.969Z",
    "dead": 331,
    "id": "Nk5vPgUIXsWVfbWZf15O",
    "infected": 8015,
    "recovered": 4032,
    "sick": 3652,
    "invisible": false
  },
  {
    "infected": 818,
    "recovered": 267,
    "latitude": 56.96776,
    "pop": 1920000,
    "longitude": 25.837107,
    "name": "Latvia",
    "country": "LV",
    "lastUpdated": "2020-04-27T16:51:02.757Z",
    "dead": 13,
    "id": "NmmMKy0YqA8StHdGzB5N",
    "sick": 538,
    "invisible": false
  },
  {
    "latitude": -8.472372,
    "pop": 9496294,
    "longitude": -37.946777,
    "name": "Pernambuco",
    "country": "BR",
    "lastUpdated": "2020-04-27T16:46:09.012Z",
    "dead": 415,
    "id": "NyGlFL1gATK1Omv9qtcC",
    "infected": 4898,
    "recovered": 0,
    "sick": 4483,
    "invisible": false
  },
  {
    "lastUpdated": "2020-04-27T16:51:02.763Z",
    "dead": 12,
    "id": "O4g88K49HKEZLFXm5gxb",
    "infected": 124,
    "recovered": 25,
    "latitude": 6.4281,
    "pop": 4732000,
    "longitude": -9.4295,
    "name": "Liberia",
    "country": "LR",
    "sick": 87,
    "invisible": false
  },
  {
    "latitude": 34.003307,
    "pop": 5084000,
    "longitude": -80.525613,
    "name": "South Carolina",
    "country": "US",
    "lastUpdated": "2020-04-27T16:29:22.891Z",
    "dead": 174,
    "id": "ONU4CK8QjViFHKg2w5if",
    "infected": 5498,
    "recovered": 0,
    "sick": 5324,
    "invisible": false
  },
  {
    "lastUpdated": "2020-04-27T16:42:45.844Z",
    "dead": 229,
    "id": "OYa0jFzdbAgo8zUsRv6q",
    "infected": 6094,
    "recovered": 0,
    "latitude": 33.51822,
    "pop": 2987000,
    "longitude": -89.582775,
    "name": "Mississippi",
    "country": "US",
    "sick": 5865,
    "invisible": false
  },
  {
    "latitude": 45.2538,
    "pop": 1338000,
    "longitude": -69.4455,
    "name": "Maine",
    "country": "US",
    "lastUpdated": "2020-04-27T16:29:22.889Z",
    "dead": 50,
    "id": "OcXNp9kNVSwrRlG3bNVN",
    "infected": 1015,
    "recovered": 0,
    "sick": 965,
    "invisible": false
  },
  {
    "infected": 214,
    "recovered": 123,
    "latitude": -41.915264,
    "pop": 515000,
    "longitude": 146.725256,
    "name": "Tasmania",
    "country": "AU",
    "lastUpdated": "2020-04-27T16:36:07.565Z",
    "dead": 11,
    "id": "OnOseaqWdnuP18oruABW",
    "sick": 80,
    "invisible": false
  },
  {
    "pop": 3441998,
    "longitude": -56.666668,
    "name": "Mato Grosso",
    "country": "BR",
    "lastUpdated": "2020-04-27T16:46:09.011Z",
    "dead": 9,
    "id": "P0GHFGUt1pkKTk5PM8uz",
    "infected": 250,
    "recovered": 0,
    "latitude": -16.35,
    "sick": 241,
    "invisible": false
  },
  {
    "latitude": 19.3133,
    "pop": 61559,
    "longitude": -81.2546,
    "name": "Cayman Islands",
    "country": "KY",
    "lastUpdated": "2020-04-27T16:51:02.768Z",
    "dead": 1,
    "id": "P4mwRFLbrvT0t75uD8Wo",
    "infected": 70,
    "recovered": 8,
    "sick": 61,
    "invisible": false
  },
  {
    "infected": 11,
    "recovered": 2,
    "latitude": 16.7424984,
    "pop": 5900,
    "longitude": -62.1873665,
    "name": "Montserrat",
    "country": "MS",
    "lastUpdated": "2020-04-27T16:51:02.770Z",
    "dead": 1,
    "id": "PEDkeFMTOZpvHiSVxBk7",
    "sick": 8,
    "invisible": false
  },
  {
    "longitude": 29.8739,
    "name": "Rwanda",
    "country": "RW",
    "lastUpdated": "2020-04-27T16:51:02.761Z",
    "dead": 0,
    "id": "PEcgZGEkyhABztt1Ufgc",
    "infected": 191,
    "recovered": 92,
    "latitude": -1.9403,
    "pop": 12210000,
    "sick": 99,
    "invisible": false
  },
  {
    "lastUpdated": "2020-04-27T16:29:22.891Z",
    "dead": 286,
    "id": "PJvVYosLIhbcRZYnKX1R",
    "infected": 3816,
    "recovered": 0,
    "latitude": 46.7296,
    "pop": 5611000,
    "longitude": -94.6859,
    "name": "Minnesota",
    "country": "US",
    "sick": 3530,
    "invisible": false
  },
  {
    "latitude": 40.6331,
    "pop": 12740000,
    "longitude": -89.3985,
    "name": "Illinois",
    "country": "US",
    "lastUpdated": "2020-04-27T16:29:22.893Z",
    "dead": 1933,
    "id": "PTwQr9ijo0TBBsPH2sdJ",
    "infected": 43903,
    "recovered": 0,
    "sick": 41970,
    "invisible": false
  },
  {
    "infected": 15,
    "recovered": 15,
    "latitude": 13.909444,
    "pop": 178844,
    "longitude": -60.978893,
    "name": "Saint Lucia",
    "country": "LC",
    "lastUpdated": "2020-04-27T16:51:02.770Z",
    "dead": 0,
    "id": "PjLqCeFdyzdZNcZxMkK1",
    "sick": 0,
    "invisible": false
  },
  {
    "recovered": 1918,
    "latitude": 42.6954,
    "pop": 649900,
    "longitude": -1.6761,
    "name": "Comunidad Foral de Navarra",
    "country": "ES",
    "lastUpdated": "2020-04-27T16:45:10.128Z",
    "dead": 432,
    "id": "PmUlsNx2uFLU797wwU39",
    "infected": 5486,
    "sick": 3136,
    "invisible": false
  },
  {
    "lastUpdated": "2020-04-27T16:51:02.757Z",
    "dead": 38,
    "id": "Pr76V4raf108uSRoEXac",
    "infected": 949,
    "recovered": 216,
    "latitude": 34.201507,
    "pop": 11530000,
    "longitude": 9.460554,
    "name": "Tunisia",
    "country": "TN",
    "sick": 695,
    "invisible": false
  },
  {
    "id": "PuQgOd9KWiMzGZXm11sR",
    "infected": 65,
    "recovered": 10,
    "latitude": -26.5225,
    "pop": 1367000,
    "longitude": 31.4659,
    "name": "Eswatini",
    "country": "SZ",
    "lastUpdated": "2020-04-27T16:51:02.768Z",
    "dead": 1,
    "sick": 54,
    "invisible": false
  },
  {
    "latitude": -37.009609,
    "pop": 6359000,
    "longitude": 143.94853,
    "name": "Victoria",
    "country": "AU",
    "lastUpdated": "2020-04-27T16:36:07.563Z",
    "dead": 17,
    "id": "Q18mrGvFWTLX2BU9SqhQ",
    "infected": 1349,
    "recovered": 1265,
    "sick": 67,
    "invisible": false
  },
  {
    "latitude": 54.2194,
    "pop": 2890000,
    "longitude": 9.6961,
    "name": "Schleswig-Holstein",
    "country": "DE",
    "lastUpdated": "2020-04-27T16:30:09.970Z",
    "dead": 108,
    "id": "Q39XkabIYxt15mHINzTa",
    "infected": 2616,
    "recovered": 2000,
    "sick": 508,
    "invisible": false
  },
  {
    "latitude": -27.953491,
    "pop": 11329605,
    "longitude": -52.031696,
    "name": "Rio Grande do Sul",
    "country": "BR",
    "lastUpdated": "2020-04-27T16:46:09.015Z",
    "dead": 35,
    "id": "QGpQNhuoVTUPHXvS7qcu",
    "infected": 1166,
    "recovered": 0,
    "sick": 1131,
    "invisible": false
  },
  {
    "id": "QR9go2hQKXjty7JHUYe4",
    "infected": 1647,
    "recovered": 233,
    "latitude": 58.595272,
    "pop": 1328000,
    "longitude": 25.013607,
    "name": "Estonia",
    "country": "EE",
    "lastUpdated": "2020-04-27T16:51:02.755Z",
    "dead": 50,
    "sick": 1364,
    "invisible": false
  },
  {
    "longitude": -40.336,
    "name": "Espírito Santo",
    "country": "BR",
    "lastUpdated": "2020-04-27T16:46:09.011Z",
    "dead": 51,
    "id": "QaWDLKH8SuwD0Qxq6c38",
    "infected": 1703,
    "recovered": 0,
    "latitude": -20.318,
    "pop": 3972388,
    "sick": 1652,
    "invisible": false
  },
  {
    "lastUpdated": "2020-04-27T16:40:15.170Z",
    "dead": 25,
    "id": "Qkho455pBwx88Gohs3hL",
    "infected": 328,
    "recovered": 0,
    "latitude": 20.3333,
    "pop": 8222700,
    "longitude": -103.6667,
    "name": "Jalisco",
    "country": "MX",
    "sick": 303,
    "invisible": false
  },
  {
    "lastUpdated": "2020-04-27T16:51:02.771Z",
    "dead": 0,
    "id": "QlZrE4nosm5WfdA2aCDg",
    "infected": 8,
    "recovered": 0,
    "latitude": -6.315,
    "pop": 8251000,
    "longitude": 143.9555,
    "name": "Papua New Guinea",
    "country": "PG",
    "sick": 8,
    "invisible": false
  },
  {
    "longitude": -64.8963,
    "name": "U.S. Virgin Islands",
    "country": "US",
    "lastUpdated": "2020-04-27T16:29:22.888Z",
    "dead": 4,
    "id": "QqhD3YDMKXojvQY3Yu41",
    "infected": 57,
    "recovered": 0,
    "latitude": 18.3358,
    "pop": 107268,
    "sick": 53,
    "invisible": false
  },
  {
    "latitude": 15.414999,
    "pop": 71937,
    "longitude": -61.3709755,
    "name": "Dominica",
    "country": "DM",
    "lastUpdated": "2020-04-27T16:51:02.770Z",
    "dead": 0,
    "id": "Qy2qW2ep5wltnYjPJBxh",
    "infected": 16,
    "recovered": 13,
    "sick": 3,
    "invisible": false
  },
  {
    "latitude": 5.167,
    "pop": 344027,
    "longitude": -72.167,
    "name": "Casanare",
    "country": "CO",
    "lastUpdated": "2020-04-27T16:31:10.631Z",
    "dead": 0,
    "id": "R3IHMWqIUhOJJTlrmbUZ",
    "infected": 10,
    "recovered": 2,
    "sick": 8,
    "invisible": false
  },
  {
    "infected": 5779,
    "recovered": 369,
    "latitude": 8.538,
    "pop": 4099000,
    "longitude": -80.7821,
    "name": "Panama",
    "country": "PA",
    "lastUpdated": "2020-04-27T16:51:02.752Z",
    "dead": 165,
    "id": "R8YCgephnxTufvcPWMgx",
    "sick": 5245,
    "invisible": false
  },
  {
    "infected": 661,
    "recovered": 79,
    "latitude": 15.2,
    "pop": 9265000,
    "longitude": -86.2419,
    "name": "Honduras",
    "country": "HN",
    "lastUpdated": "2020-04-27T16:51:02.758Z",
    "dead": 61,
    "id": "RA2SE0p2bVhqo0P2hzGY",
    "sick": 521,
    "invisible": false
  },
  {
    "longitude": -70.2979202,
    "name": "Arica y Parinacota",
    "country": "CL",
    "lastUpdated": "2020-04-27T16:37:14.116Z",
    "dead": 3,
    "id": "RBt9RiwP7WUbMnJfD0lo",
    "infected": 265,
    "recovered": 0,
    "latitude": -18.4745998,
    "pop": 224500,
    "sick": 262,
    "invisible": false
  },
  {
    "recovered": 1405,
    "latitude": 45.633331,
    "pop": 1216000,
    "longitude": 13.8,
    "name": "Friuli Venezia Giulia",
    "country": "IT",
    "lastUpdated": "2020-04-27T16:31:08.400Z",
    "dead": 264,
    "id": "RCrDBCdBNYzgLNr0aB2H",
    "infected": 2917,
    "sick": 1248,
    "invisible": false
  },
  {
    "infected": 5873,
    "recovered": 0,
    "latitude": 41.878,
    "pop": 3156000,
    "longitude": -93.0977,
    "name": "Iowa",
    "country": "US",
    "lastUpdated": "2020-04-27T16:29:22.891Z",
    "dead": 127,
    "id": "RX0KDu1AFrlCsrRso0nb",
    "sick": 5746,
    "invisible": false
  },
  {
    "latitude": 4.624335,
    "pop": 7413000,
    "longitude": -74.063644,
    "name": "Bogotá D.C.",
    "country": "CO",
    "lastUpdated": "2020-04-27T16:31:10.617Z",
    "dead": 87,
    "id": "RZ6PCe5TZsO15JjDObwO",
    "infected": 2245,
    "recovered": 422,
    "sick": 1736,
    "invisible": false
  },
  {
    "pop": 6846000,
    "longitude": 17.2283306,
    "name": "Libya",
    "country": "LY",
    "lastUpdated": "2020-04-27T16:51:02.768Z",
    "dead": 2,
    "id": "RaJxbzlnRFTuj4B8IbpC",
    "infected": 61,
    "recovered": 18,
    "latitude": 26.3351002,
    "sick": 41,
    "invisible": false
  },
  {
    "recovered": 0,
    "latitude": 39.0119,
    "pop": 2912000,
    "longitude": -98.4842,
    "name": "Kansas",
    "country": "US",
    "lastUpdated": "2020-04-27T16:29:22.891Z",
    "dead": 122,
    "id": "Rf4uvBfP3GRDSHdZElRd",
    "infected": 3297,
    "sick": 3175,
    "invisible": false
  },
  {
    "latitude": 48.6998,
    "pop": 5518000,
    "longitude": 6.1878,
    "name": "Grand Est",
    "country": "FR",
    "lastUpdated": "2020-04-26T23:44:49.008Z",
    "dead": 2737,
    "id": "RmEgf1xeclWt7XCF9oiR",
    "infected": 20215,
    "recovered": 7274,
    "sick": 10204,
    "invisible": false
  },
  {
    "lastUpdated": "2020-04-27T16:29:10.437Z",
    "dead": 2548,
    "id": "RryHraSohKQLAsdr1dHO",
    "infected": 15213,
    "recovered": 3010,
    "latitude": 50.4176,
    "pop": 3644000,
    "longitude": 4.451,
    "name": "Wallonia",
    "country": "BE",
    "sick": 9655,
    "invisible": false
  },
  {
    "latitude": 51.2538,
    "pop": 14570000,
    "longitude": -85.3232,
    "name": "Ontario",
    "country": "CA",
    "lastUpdated": "2020-04-27T16:36:07.562Z",
    "dead": 960,
    "id": "Rx4TuyMpfGb3S8wYJX0x",
    "infected": 15603,
    "recovered": 0,
    "sick": 14643,
    "invisible": false
  },
  {
    "lastUpdated": "2020-04-27T16:45:10.127Z",
    "dead": 1690,
    "id": "S8ewN4zaYp8mjtuqqOTw",
    "infected": 19028,
    "recovered": 6272,
    "latitude": 41.652779,
    "pop": 2408000,
    "longitude": -4.723611,
    "name": "Castilla y León",
    "country": "ES",
    "sick": 11066,
    "invisible": false
  },
  {
    "infected": 175,
    "recovered": 77,
    "latitude": 14.652027,
    "pop": 376480,
    "longitude": -61.011715,
    "name": "Martinique",
    "country": "FR",
    "lastUpdated": "2020-04-27T16:51:02.762Z",
    "dead": 14,
    "id": "SDdefnq1bc3ZNr7SpEsW",
    "sick": 84,
    "invisible": false
  },
  {
    "recovered": 155,
    "latitude": 7.9465,
    "pop": 28830000,
    "longitude": -1.0232,
    "name": "Ghana",
    "country": "GH",
    "lastUpdated": "2020-04-27T16:51:02.756Z",
    "dead": 11,
    "id": "SG9VWLOV3x2JsTkXmVSz",
    "infected": 1550,
    "sick": 1384,
    "invisible": false
  },
  {
    "latitude": 46.818188,
    "pop": 8570000,
    "longitude": 8.227512,
    "name": "Switzerland",
    "country": "CH",
    "lastUpdated": "2020-04-27T16:51:02.741Z",
    "dead": 1640,
    "id": "SGe9sCPayMqh6RsGFaBA",
    "infected": 29164,
    "recovered": 21800,
    "sick": 5724,
    "invisible": false
  },
  {
    "longitude": -71.208,
    "name": "Quebec",
    "country": "CA",
    "lastUpdated": "2020-04-27T16:36:07.557Z",
    "dead": 1516,
    "id": "SHoOE3NiJgWAlDVBzwYH",
    "infected": 24109,
    "recovered": 0,
    "latitude": 46.8139,
    "pop": 8485000,
    "sick": 22593,
    "invisible": false
  },
  {
    "infected": 763,
    "recovered": 166,
    "latitude": 42.6026,
    "pop": 1831000,
    "longitude": 20.903,
    "name": "Kosovo",
    "country": "XK",
    "lastUpdated": "2020-04-27T16:40:08.575Z",
    "dead": 21,
    "id": "SMWvuMMuKp2QK7O2tNia",
    "sick": 576,
    "invisible": false
  },
  {
    "infected": 7,
    "recovered": 7,
    "latitude": 15.2993,
    "pop": 1817000,
    "longitude": 74.124,
    "name": "Goa",
    "country": "IN",
    "lastUpdated": "2020-04-27T16:41:05.426Z",
    "dead": 0,
    "id": "SPcujsH2YlUaoAr8AiWF",
    "sick": 0,
    "invisible": false
  },
  {
    "longitude": -48.953403,
    "name": "Goiás",
    "country": "BR",
    "lastUpdated": "2020-04-27T16:46:09.011Z",
    "dead": 25,
    "id": "SV5AMF59J61Vt4cXWLgy",
    "infected": 573,
    "recovered": 0,
    "latitude": -16.328547,
    "pop": 6921161,
    "sick": 548,
    "invisible": false
  },
  {
    "infected": 1089,
    "recovered": 212,
    "latitude": 39,
    "pop": 1957000,
    "longitude": 16.5,
    "name": "Calabria",
    "country": "IT",
    "lastUpdated": "2020-04-27T16:31:08.400Z",
    "dead": 80,
    "id": "SZdF624x0v1LlyzZjKFu",
    "sick": 797,
    "invisible": false
  },
  {
    "infected": 3028,
    "recovered": 0,
    "latitude": 41.4925,
    "pop": 1929000,
    "longitude": -99.9018,
    "name": "Nebraska",
    "country": "US",
    "lastUpdated": "2020-04-27T16:29:22.892Z",
    "dead": 56,
    "id": "SakhKQzKu1LRI8laqdQq",
    "sick": 2972,
    "invisible": false
  },
  {
    "latitude": -21.1151,
    "pop": 859959,
    "longitude": 55.5364,
    "name": "La Réunion",
    "country": "FR",
    "lastUpdated": "2020-04-27T16:51:02.759Z",
    "dead": 0,
    "id": "SgHzWAAYK1j2sipovxM6",
    "infected": 417,
    "recovered": 300,
    "sick": 117,
    "invisible": false
  },
  {
    "lastUpdated": "2020-04-27T16:51:02.763Z",
    "dead": 0,
    "id": "SioMALgUbo7peXmbco2f",
    "infected": 122,
    "recovered": 119,
    "latitude": 12.565679,
    "pop": 16010000,
    "longitude": 104.990967,
    "name": "Cambodia",
    "country": "KH",
    "sick": 3,
    "invisible": false
  },
  {
    "latitude": 13.4443,
    "pop": 164229,
    "longitude": 144.7937,
    "name": "Guam",
    "country": "GU",
    "lastUpdated": "2020-04-27T16:29:22.888Z",
    "dead": 5,
    "id": "SsWhuEElU7dCTTuH5fdQ",
    "infected": 141,
    "recovered": 0,
    "sick": 136,
    "invisible": false
  },
  {
    "latitude": 51.9189,
    "longitude": 19.1344,
    "name": "Unknown Poland region",
    "country": "PL",
    "lastUpdated": "2020-04-27T16:51:02.750Z",
    "dead": 0,
    "id": "SuCr5emUaJ9RHTll1P1p",
    "invisible": true,
    "infected": 0,
    "recovered": 2466,
    "sick": 0
  },
  {
    "latitude": -4.0383,
    "pop": 81340000,
    "longitude": 21.7587,
    "name": "DR Congo",
    "country": "CD",
    "lastUpdated": "2020-04-27T16:51:02.759Z",
    "dead": 28,
    "id": "T3iRf8mTUTAzbKrORTap",
    "infected": 459,
    "recovered": 50,
    "sick": 381,
    "invisible": false
  },
  {
    "infected": 18811,
    "recovered": 2531,
    "latitude": 23.635796,
    "pop": 32940000,
    "longitude": 44.344334,
    "name": "Saudi Arabia",
    "country": "SA",
    "lastUpdated": "2020-04-27T16:51:02.749Z",
    "dead": 144,
    "id": "T7NffoeCgTUpAbOHvYwP",
    "sick": 16136,
    "invisible": false
  },
  {
    "longitude": -2.5396,
    "name": "La Rioja",
    "country": "ES",
    "lastUpdated": "2020-04-27T16:45:10.129Z",
    "dead": 320,
    "id": "TNDTapyb0k3l7Mds9q9R",
    "infected": 5041,
    "recovered": 2049,
    "latitude": 42.2871,
    "pop": 315700,
    "sick": 2672,
    "invisible": false
  },
  {
    "infected": 331,
    "recovered": 0,
    "latitude": 20.400417,
    "pop": 2207200,
    "longitude": -89.134857,
    "name": "Yucatán",
    "country": "MX",
    "lastUpdated": "2020-04-27T16:40:15.169Z",
    "dead": 29,
    "id": "TQCWbhIpJQBQxBjhCGVJ",
    "sick": 302,
    "invisible": false
  },
  {
    "pop": 428697,
    "longitude": 114.650692,
    "name": "Brunei",
    "country": "BN",
    "lastUpdated": "2020-04-27T16:51:02.762Z",
    "dead": 1,
    "id": "TQZmzsLhJqjtCSExAkCP",
    "infected": 138,
    "recovered": 124,
    "latitude": 4.506106,
    "sick": 13,
    "invisible": false
  },
  {
    "lastUpdated": "2020-04-26T23:44:20.076Z",
    "dead": 1226,
    "id": "TT0MKODSjrxHvG19xZCa",
    "infected": 12181,
    "recovered": 4671,
    "latitude": 45.4471,
    "pop": 8027000,
    "longitude": 4.3853,
    "name": "Auvergne-Rhône-Alpes",
    "country": "FR",
    "sick": 6284,
    "invisible": false
  },
  {
    "infected": 188,
    "recovered": 0,
    "latitude": 38.5667,
    "pop": 758700,
    "longitude": -7.9,
    "name": "Alentejo",
    "country": "PT",
    "lastUpdated": "2020-04-27T14:51:42.728Z",
    "dead": 1,
    "id": "TeoNTu4aw5riC04sTd73",
    "sick": 187,
    "invisible": false
  },
  {
    "lastUpdated": "2020-04-27T16:41:57.244Z",
    "dead": 680,
    "id": "Th4dlpXXmSDgi1OHs36P",
    "infected": 13441,
    "recovered": 0,
    "latitude": 39.318928,
    "pop": 5696000,
    "longitude": -105.461392,
    "name": "Colorado",
    "country": "US",
    "sick": 12761,
    "invisible": false
  },
  {
    "infected": 632,
    "recovered": 453,
    "latitude": 12.2383,
    "pop": 19190000,
    "longitude": -1.5616,
    "name": "Burkina Faso",
    "country": "BF",
    "lastUpdated": "2020-04-27T16:51:02.758Z",
    "dead": 42,
    "id": "Tup6oDCHj6DgqZR3nQ3x",
    "sick": 137,
    "invisible": false
  },
  {
    "latitude": 12.104818,
    "pop": 112381,
    "longitude": -61.670761,
    "name": "Grenada",
    "country": "GD",
    "lastUpdated": "2020-04-27T16:51:02.770Z",
    "dead": 0,
    "id": "TvqURPN5xzVBXsmGP46N",
    "infected": 18,
    "recovered": 7,
    "sick": 11,
    "invisible": false
  },
  {
    "latitude": 55.675758,
    "pop": 5603000,
    "longitude": 12.56902,
    "name": "Denmark",
    "country": "DK",
    "lastUpdated": "2020-04-27T16:51:02.750Z",
    "dead": 427,
    "id": "Ty1AY3VLPJcRZgdBIERx",
    "infected": 8698,
    "recovered": 5959,
    "sick": 2312,
    "invisible": false
  },
  {
    "longitude": -1.0334,
    "name": "Yorkshire and The Humber",
    "country": "GB",
    "lastUpdated": "2020-04-27T16:39:30.883Z",
    "dead": 0,
    "id": "U0N7cIPJXAc4T6uKV60c",
    "infected": 8891,
    "recovered": 0,
    "latitude": 53.9062,
    "pop": 5486000,
    "sick": 8891,
    "invisible": false
  },
  {
    "lastUpdated": "2020-04-27T16:38:12.758Z",
    "dead": 7,
    "id": "U0tkTJ9CGsBuFJ2Gdoum",
    "infected": 787,
    "recovered": 768,
    "latitude": 36.395859,
    "pop": 100472400,
    "longitude": 118.769882,
    "name": "Shandong",
    "country": "CN",
    "sick": 12,
    "invisible": false
  },
  {
    "latitude": 43.94236,
    "pop": 33400,
    "longitude": 12.457777,
    "name": "San Marino",
    "country": "SM",
    "lastUpdated": "2020-04-27T16:51:02.758Z",
    "dead": 41,
    "id": "U12rMD5GDW58Q0lIwrB1",
    "infected": 538,
    "recovered": 64,
    "sick": 433,
    "invisible": false
  },
  {
    "longitude": 138.25293,
    "name": "Japan",
    "country": "JP",
    "lastUpdated": "2020-04-27T16:51:02.750Z",
    "dead": 372,
    "id": "U13Gy4BpRLAZ95bPmBXd",
    "infected": 13441,
    "recovered": 1809,
    "latitude": 36.204823,
    "pop": 126800000,
    "sick": 11260,
    "invisible": false
  },
  {
    "lastUpdated": "2020-04-27T16:51:02.767Z",
    "dead": 0,
    "id": "UCZXEgnHtxUoChWLR6fQ",
    "infected": 79,
    "recovered": 46,
    "latitude": 1.3733,
    "pop": 42860000,
    "longitude": 32.2903,
    "name": "Uganda",
    "country": "UG",
    "sick": 33,
    "invisible": false
  },
  {
    "lastUpdated": "2020-04-27T16:51:02.769Z",
    "dead": 2,
    "id": "UIbrFy6kiTTF0D37Kqmp",
    "infected": 26,
    "recovered": 6,
    "latitude": -11.2027,
    "pop": 29780000,
    "longitude": 17.8739,
    "name": "Angola",
    "country": "AO",
    "sick": 18,
    "invisible": false
  },
  {
    "infected": 1966,
    "recovered": 772,
    "latitude": 48.202,
    "pop": 3329000,
    "longitude": -2.9326,
    "name": "Bretagne",
    "country": "FR",
    "lastUpdated": "2020-04-26T23:44:29.770Z",
    "dead": 203,
    "id": "URKMlJ7OTNldjpaxFbjE",
    "sick": 991,
    "invisible": false
  },
  {
    "pop": 1822000,
    "longitude": 9.9937,
    "name": "Hamburg",
    "country": "DE",
    "lastUpdated": "2020-04-27T16:30:09.969Z",
    "dead": 142,
    "id": "UfFaUECHINUutv1M9tzq",
    "infected": 4658,
    "recovered": 3200,
    "latitude": 53.5511,
    "sick": 1316,
    "invisible": false
  },
  {
    "pop": 1615000,
    "longitude": -102.586899,
    "name": "Zacatecas",
    "country": "MX",
    "lastUpdated": "2020-04-27T16:40:15.169Z",
    "dead": 7,
    "id": "UflxTAb4FnAwve7c5MbY",
    "infected": 66,
    "recovered": 0,
    "latitude": 22.774916,
    "sick": 59,
    "invisible": false
  },
  {
    "latitude": -20.4427795,
    "pop": 2748023,
    "longitude": -54.646389,
    "name": "Mato Grosso do Sul",
    "country": "BR",
    "lastUpdated": "2020-04-27T16:46:09.011Z",
    "dead": 7,
    "id": "UlA1ubOUhPtf9jjKxxhF",
    "infected": 234,
    "recovered": 0,
    "sick": 227,
    "invisible": false
  },
  {
    "pop": 211945,
    "longitude": 132.551,
    "name": "Northern Territory",
    "country": "AU",
    "lastUpdated": "2020-04-27T16:36:07.565Z",
    "dead": 0,
    "id": "UrF45V1VqMo6YBib2KlL",
    "infected": 27,
    "recovered": 23,
    "latitude": -19.4914,
    "sick": 4,
    "invisible": false
  },
  {
    "id": "UsxgpiuFCtlR2CW1UUFm",
    "infected": 74,
    "recovered": 33,
    "latitude": 18.0424805,
    "pop": 41109,
    "longitude": -63.0548286,
    "name": "Sint Maarten",
    "country": "SX",
    "lastUpdated": "2020-04-27T16:51:02.767Z",
    "dead": 13,
    "sick": 28,
    "invisible": false
  },
  {
    "recovered": 0,
    "latitude": 52.4751,
    "pop": 5908000,
    "longitude": -1.8298,
    "name": "West Midlands",
    "country": "GB",
    "lastUpdated": "2020-04-27T16:39:30.883Z",
    "dead": 0,
    "id": "UzOGOMitJmaFTdh2FbvI",
    "infected": 11788,
    "sick": 11788,
    "invisible": false
  },
  {
    "latitude": 11.943179,
    "pop": 241773,
    "longitude": 79.808206,
    "name": "Puducherry",
    "country": "IN",
    "lastUpdated": "2020-04-27T16:41:05.426Z",
    "dead": 0,
    "id": "V1qE740s3EUGyKGr6SVv",
    "infected": 8,
    "recovered": 4,
    "sick": 4,
    "invisible": false
  },
  {
    "lastUpdated": "2020-04-27T16:37:14.128Z",
    "dead": 0,
    "id": "V9QxUhV4DyYK7iElEhXV",
    "infected": 7,
    "recovered": 0,
    "latitude": -45.5687,
    "pop": 25569,
    "longitude": -72.0597,
    "name": "Aysén",
    "country": "CL",
    "sick": 7,
    "invisible": false
  },
  {
    "latitude": 21.5218,
    "pop": 11480000,
    "longitude": -77.7812,
    "name": "Cuba",
    "country": "CU",
    "lastUpdated": "2020-04-27T16:51:02.757Z",
    "dead": 56,
    "id": "VAG9AcMABTf8oIAfELPh",
    "infected": 1389,
    "recovered": 525,
    "sick": 808,
    "invisible": false
  },
  {
    "infected": 185,
    "recovered": 181,
    "latitude": 25.181129,
    "pop": 45970000,
    "longitude": 101.864143,
    "name": "Yunnan",
    "country": "CN",
    "lastUpdated": "2020-04-27T16:38:12.759Z",
    "dead": 2,
    "id": "VIf8T8PD3ZzlzAm5eBCX",
    "sick": 2,
    "invisible": false
  },
  {
    "lastUpdated": "2020-04-27T16:46:09.010Z",
    "dead": 304,
    "id": "VZQiSdZ7cUHgUZWgpNTP",
    "infected": 3833,
    "recovered": 0,
    "latitude": -3.4653,
    "pop": 4080611,
    "longitude": -62.2159,
    "name": "Amazonas",
    "country": "BR",
    "sick": 3529,
    "invisible": false
  },
  {
    "lastUpdated": "2020-04-27T16:41:05.424Z",
    "dead": 31,
    "id": "VcKcLdCkC6YpPfIDnRVD",
    "infected": 1986,
    "recovered": 399,
    "latitude": 26.8467,
    "pop": 204200000,
    "longitude": 80.9462,
    "name": "Uttar Pradesh",
    "country": "IN",
    "sick": 1556,
    "invisible": false
  },
  {
    "infected": 5,
    "recovered": 0,
    "latitude": 64.8255,
    "pop": 44826,
    "longitude": -124.8457,
    "name": "Northwest Territories",
    "country": "CA",
    "lastUpdated": "2020-04-27T16:36:07.566Z",
    "dead": 0,
    "id": "Vd3lLgrNsr81plzTgZkz",
    "sick": 5,
    "invisible": false
  },
  {
    "infected": 1922,
    "recovered": 1136,
    "latitude": 39.999079,
    "pop": 1188000,
    "longitude": 3.838942,
    "name": "Islas Baleares",
    "country": "ES",
    "lastUpdated": "2020-04-27T16:45:10.126Z",
    "dead": 179,
    "id": "VyW0IR9vLMdgnKz1cC7j",
    "sick": 607,
    "invisible": false
  },
  {
    "latitude": 43.8927,
    "pop": 5893000,
    "longitude": 3.2828,
    "name": "Occitanie",
    "country": "FR",
    "lastUpdated": "2020-04-26T23:45:40.693Z",
    "dead": 362,
    "id": "WAnbFrEjtZDTCIYBt8rz",
    "infected": 4403,
    "recovered": 2015,
    "sick": 2026,
    "invisible": false
  },
  {
    "lastUpdated": "2020-04-27T16:31:08.399Z",
    "dead": 25,
    "id": "WD502XimGXnWzqYg7zxL",
    "infected": 366,
    "recovered": 122,
    "latitude": 40.5,
    "pop": 567118,
    "longitude": 16.5,
    "name": "Basilicata",
    "country": "IT",
    "sick": 219,
    "invisible": false
  },
  {
    "lastUpdated": "2020-04-27T16:41:05.426Z",
    "dead": 0,
    "id": "WKsJQmcpWKxnp0nCwN77",
    "infected": 2,
    "recovered": 2,
    "latitude": 24.6637,
    "pop": 2722000,
    "longitude": 93.9063,
    "name": "Manipur",
    "country": "IN",
    "sick": 0,
    "invisible": false
  },
  {
    "latitude": -9.933,
    "pop": 1757589,
    "longitude": -63.067,
    "name": "Rondônia",
    "country": "BR",
    "lastUpdated": "2020-04-27T16:46:09.015Z",
    "dead": 10,
    "id": "WRqKCfMIJFjrjXLMud70",
    "infected": 364,
    "recovered": 0,
    "sick": 354,
    "invisible": false
  },
  {
    "latitude": -30.5595,
    "pop": 56720000,
    "longitude": 22.9375,
    "name": "South Africa",
    "country": "ZA",
    "lastUpdated": "2020-04-27T16:51:02.752Z",
    "dead": 87,
    "id": "Whrue10NtwIObLvFFyBr",
    "infected": 4546,
    "recovered": 1473,
    "sick": 2986,
    "invisible": false
  },
  {
    "lastUpdated": "2020-04-27T16:51:02.771Z",
    "dead": 1,
    "id": "Wk811YwpQxsOCfz8As86",
    "infected": 10,
    "recovered": 8,
    "latitude": 13.443182,
    "pop": 2101000,
    "longitude": -15.3101387,
    "name": "Gambia",
    "country": "GM",
    "sick": 1,
    "invisible": false
  },
  {
    "infected": 2355,
    "recovered": 0,
    "latitude": 19.352498,
    "pop": 17666800,
    "longitude": -99.625164,
    "name": "Estado de México",
    "country": "MX",
    "lastUpdated": "2020-04-27T16:40:15.170Z",
    "dead": 166,
    "id": "WpCXuQjYFLbozSpEhbrZ",
    "sick": 2189,
    "invisible": false
  },
  {
    "recovered": 131,
    "latitude": 23.685,
    "pop": 164700000,
    "longitude": 90.3563,
    "name": "Bangladesh",
    "country": "BD",
    "lastUpdated": "2020-04-27T16:51:02.751Z",
    "dead": 152,
    "id": "WpLayPPLIJ7VcHZdQaoM",
    "infected": 5913,
    "sick": 5630,
    "invisible": false
  },
  {
    "latitude": 20.836,
    "pop": 2100000,
    "longitude": -99.8508,
    "name": "Querétaro",
    "country": "MX",
    "lastUpdated": "2020-04-27T16:40:15.168Z",
    "dead": 11,
    "id": "Wt97UDm6jfYef6WBrS2w",
    "infected": 126,
    "recovered": 0,
    "sick": 115,
    "invisible": false
  },
  {
    "latitude": 45.5,
    "pop": 4905000,
    "longitude": 11.75,
    "name": "Veneto",
    "country": "IT",
    "lastUpdated": "2020-04-27T16:31:08.402Z",
    "dead": 1315,
    "id": "X2iRhHF6f9pUnJcxPc3J",
    "infected": 17471,
    "recovered": 7018,
    "sick": 9138,
    "invisible": false
  },
  {
    "infected": 24,
    "recovered": 2,
    "latitude": -8.556856,
    "pop": 1311000,
    "longitude": 125.56031,
    "name": "Timor-Leste",
    "country": "TL",
    "lastUpdated": "2020-04-27T16:51:02.769Z",
    "dead": 0,
    "id": "X3GMAVINj2GDzIRVfo7n",
    "sick": 22,
    "invisible": false
  },
  {
    "latitude": 34.152588,
    "pop": 274289,
    "longitude": 77.577049,
    "name": "Ladakh",
    "country": "IN",
    "lastUpdated": "2020-04-27T16:41:05.426Z",
    "dead": 0,
    "id": "X3PZqaJxtnlxcgP4tzya",
    "infected": 20,
    "recovered": 16,
    "sick": 4,
    "invisible": false
  },
  {
    "infected": 355,
    "recovered": 349,
    "latitude": 25.92448,
    "pop": 38560000,
    "longitude": 118.278992,
    "name": "Fujian",
    "country": "CN",
    "lastUpdated": "2020-04-27T16:38:12.758Z",
    "dead": 1,
    "id": "XBBw0iMPrmiEu3qogkbi",
    "sick": 5,
    "invisible": false
  },
  {
    "latitude": -52.368,
    "pop": 166533,
    "longitude": -70.9863,
    "name": "Magallanes",
    "country": "CL",
    "lastUpdated": "2020-04-27T16:37:14.128Z",
    "dead": 10,
    "id": "XIYUg6ShQvWyEAJfyJzC",
    "infected": 671,
    "recovered": 0,
    "sick": 661,
    "invisible": false
  },
  {
    "infected": 120,
    "recovered": 0,
    "latitude": 37.794597,
    "pop": 246746,
    "longitude": -25.506134,
    "name": "Açores",
    "country": "PT",
    "lastUpdated": "2020-04-27T14:48:37.335Z",
    "dead": 9,
    "id": "XhM7BCQK50gGQ2wIUtDq",
    "sick": 111,
    "invisible": false
  },
  {
    "latitude": -32.5228,
    "pop": 3457000,
    "longitude": -55.7658,
    "name": "Uruguay",
    "country": "UY",
    "lastUpdated": "2020-04-27T16:51:02.758Z",
    "dead": 15,
    "id": "XrsuLstdybIqIvv0E0aJ",
    "infected": 606,
    "recovered": 375,
    "sick": 216,
    "invisible": false
  },
  {
    "lastUpdated": "2020-04-26T23:44:42.951Z",
    "dead": 50,
    "id": "YGXgIObKVabP2CYEdcb9",
    "infected": 407,
    "recovered": 172,
    "latitude": 42.0396,
    "pop": 339178,
    "longitude": 9.0129,
    "name": "Corse",
    "country": "FR",
    "sick": 185,
    "invisible": false
  },
  {
    "latitude": 2.916112,
    "pop": 1126000,
    "longitude": -75.28344,
    "name": "Huila",
    "country": "CO",
    "lastUpdated": "2020-04-27T16:31:10.629Z",
    "dead": 5,
    "id": "YI9zIOUXJqAcgc0T80yb",
    "infected": 87,
    "recovered": 29,
    "sick": 53,
    "invisible": false
  },
  {
    "longitude": 35.2332,
    "name": "Palestine",
    "country": "PS",
    "lastUpdated": "2020-04-27T16:51:02.759Z",
    "dead": 2,
    "id": "YMzKw0SnXG71VT7H1jff",
    "infected": 342,
    "recovered": 83,
    "latitude": 31.9522,
    "pop": 5052000,
    "sick": 257,
    "invisible": false
  },
  {
    "recovered": 0,
    "latitude": 17.97,
    "pop": 2460900,
    "longitude": -92.5867,
    "name": "Tabasco",
    "country": "MX",
    "lastUpdated": "2020-04-27T16:40:15.167Z",
    "dead": 96,
    "id": "YP3nlz6AKyrnCWYb5mHA",
    "infected": 728,
    "sick": 632,
    "invisible": false
  },
  {
    "infected": 53,
    "recovered": 3,
    "latitude": 11.8037491,
    "pop": 1955000,
    "longitude": -15.1804132,
    "name": "Guinea-Bissau",
    "country": "GW",
    "lastUpdated": "2020-04-27T16:51:02.768Z",
    "dead": 1,
    "id": "YZoy8ReFucvC3IFnWZHn",
    "sick": 49,
    "invisible": false
  },
  {
    "recovered": 0,
    "latitude": 64.2008,
    "pop": 737438,
    "longitude": -149.4937,
    "name": "Alaska",
    "country": "US",
    "lastUpdated": "2020-04-27T16:29:22.889Z",
    "dead": 9,
    "id": "YaCODTMD1KKRnrAlkg2u",
    "infected": 341,
    "sick": 332,
    "invisible": false
  },
  {
    "lastUpdated": "2020-04-27T16:45:10.129Z",
    "dead": 1241,
    "id": "YfA7o2lZP1DhV4JB6Umh",
    "infected": 14412,
    "recovered": 9840,
    "latitude": 42.9896,
    "pop": 2178000,
    "longitude": -2.6189,
    "name": "País Vasco",
    "country": "ES",
    "sick": 3331,
    "invisible": false
  },
  {
    "infected": 106,
    "recovered": 0,
    "latitude": 16.8922,
    "pop": 4091400,
    "longitude": -96.4085,
    "name": "Oaxaca",
    "country": "MX",
    "lastUpdated": "2020-04-27T16:40:15.161Z",
    "dead": 15,
    "id": "YidRsOGDERjtbaIBGCdu",
    "sick": 91,
    "invisible": false
  },
  {
    "pop": 51470000,
    "longitude": 126.99778,
    "name": "South Korea",
    "country": "KR",
    "lastUpdated": "2020-04-27T16:51:02.750Z",
    "dead": 243,
    "id": "Yw9uBekNlefXBcOCNMfP",
    "infected": 10738,
    "recovered": 8764,
    "latitude": 37.568291,
    "sick": 1731,
    "invisible": false
  },