[
  {
    "infected": 6,
    "recovered": 1,
    "latitude": 12.5847,
    "pop": 72600,
    "longitude": -81.7006,
    "name": "San Andrés",
    "country": "CO",
    "lastUpdated": "2020-04-18T04:16:01.531Z",
    "dead": 0,
    "id": "01b09TY4vmuZwzVuiRFK",
    "sick": 5,
    "invisible": false
  },
  {
    "latitude": 49.4482,
    "pop": 67052,
    "longitude": -2.5895,
    "name": "Guernsey",
    "country": "GG",
    "lastUpdated": "2020-04-18T09:58:09.991Z",
    "dead": 9,
    "id": "0FOJefeLxQYXQ1CnJm9o",
    "infected": 236,
    "recovered": 82,
    "sick": 145,
    "invisible": false
  },
  {
    "recovered": 631,
    "latitude": 41.066666,
    "pop": 5827000,
    "longitude": 14.333333,
    "name": "Campania",
    "country": "IT",
    "lastUpdated": "2020-04-18T10:31:01.767Z",
    "dead": 293,
    "id": "0GJcws44NSPsDHAuxJhW",
    "infected": 3951,
    "sick": 3027,
    "invisible": false
  },
  {
    "latitude": -20.2167,
    "pop": 383870,
    "longitude": -70.14222,
    "name": "Tarapacá",
    "country": "CL",
    "lastUpdated": "2020-04-18T10:37:11.736Z",
    "dead": 0,
    "id": "0HDQbiHe462xMCUV5HiI",
    "infected": 73,
    "recovered": 0,
    "sick": 73,
    "invisible": false
  },
  {
    "lastUpdated": "2020-04-18T10:41:01.563Z",
    "dead": 1,
    "id": "0VG7S6aaK4eSo59fL9JO",
    "infected": 60,
    "recovered": 21,
    "latitude": 20.9517,
    "pop": 45990000,
    "longitude": 85.0985,
    "name": "Odisha",
    "country": "IN",
    "sick": 38,
    "invisible": false
  },
  {
    "infected": 70,
    "recovered": 0,
    "latitude": 20.4737,
    "pop": 2990300,
    "longitude": -98.8582,
    "name": "Hidalgo",
    "country": "MX",
    "lastUpdated": "2020-04-18T10:40:01.911Z",
    "dead": 13,
    "id": "0XmCRqiK2ZaehoEJvfer",
    "sick": 57,
    "invisible": false
  },
  {
    "longitude": 92.6586,
    "name": "Andaman and Nicobar Islands",
    "country": "IN",
    "lastUpdated": "2020-04-18T10:41:01.563Z",
    "dead": 0,
    "id": "0jStOpTUNRaQYJqgmRoK",
    "infected": 13,
    "recovered": 11,
    "latitude": 11.7401,
    "pop": 427246,
    "sick": 2,
    "invisible": false
  },
  {
    "latitude": 25.315058,
    "pop": 2639000,
    "longitude": 51.145517,
    "name": "Qatar",
    "country": "QA",
    "lastUpdated": "2020-04-18T10:43:04.143Z",
    "dead": 7,
    "id": "0m4aECS0Z2DGFEr8ldgI",
    "infected": 4663,
    "recovered": 464,
    "sick": 4192,
    "invisible": false
  },
  {
    "latitude": 22.9868,
    "pop": 90320000,
    "longitude": 87.855,
    "name": "West Bengal",
    "country": "IN",
    "lastUpdated": "2020-04-18T10:41:01.562Z",
    "dead": 10,
    "id": "0n54EMSDJcRoT1QEvw80",
    "infected": 287,
    "recovered": 55,
    "sick": 222,
    "invisible": false
  },
  {
    "lastUpdated": "2020-04-18T10:41:01.562Z",
    "dead": 69,
    "id": "0s18o5DrDAHjbu5MFcrj",
    "infected": 1355,
    "recovered": 70,
    "latitude": 22.9734,
    "pop": 73340000,
    "longitude": 78.6569,
    "name": "Madhya Pradesh",
    "country": "IN",
    "sick": 1216,
    "invisible": false
  },
  {
    "infected": 0,
    "recovered": 63510,
    "latitude": 37.0902,
    "longitude": -95.7129,
    "name": "Unknown US state",
    "country": "US",
    "lastUpdated": "2020-04-18T10:43:04.139Z",
    "dead": 0,
    "id": "0tFoopNTs6e4tOoaltu2",
    "invisible": true,
    "sick": 0
  },
  {
    "infected": 256,
    "recovered": 252,
    "latitude": 35.64249,
    "pop": 37330000,
    "longitude": 108.472214,
    "name": "Shaanxi",
    "country": "CN",
    "lastUpdated": "2020-04-18T10:38:06.930Z",
    "dead": 3,
    "id": "0x2HLhr5z5xAtEdO4iZm",
    "sick": 1,
    "invisible": false
  },
  {
    "latitude": 41.643351,
    "pop": 2077000,
    "longitude": 21.668393,
    "name": "North Macedonia",
    "country": "MK",
    "lastUpdated": "2020-04-18T10:43:04.148Z",
    "dead": 49,
    "id": "19MvIhipqTyYv1H37Upw",
    "infected": 1117,
    "recovered": 139,
    "sick": 929,
    "invisible": false
  },
  {
    "longitude": -57.6604,
    "name": "Newfoundland and Labrador",
    "country": "CA",
    "lastUpdated": "2020-04-18T10:36:01.044Z",
    "dead": 3,
    "id": "1DOMOmCWDtva46OVSZLv",
    "infected": 256,
    "recovered": 0,
    "latitude": 53.1355,
    "pop": 521542,
    "sick": 253,
    "invisible": false
  },
  {
    "latitude": 35.801933,
    "pop": 5627000,
    "longitude": 96.779286,
    "name": "Qinghai",
    "country": "CN",
    "lastUpdated": "2020-04-18T10:38:06.931Z",
    "dead": 0,
    "id": "1Fap7rZu9SIRqf5TG9Dg",
    "infected": 18,
    "recovered": 18,
    "sick": 0,
    "invisible": false
  },
  {
    "invisible": true,
    "infected": 0,
    "recovered": 2125,
    "latitude": 23.6345,
    "pop": 126200000,
    "longitude": -102.5528,
    "name": "Unknown Mexico state",
    "country": "MX",
    "lastUpdated": "2020-04-18T10:43:04.142Z",
    "dead": 0,
    "id": "1YXQMlVL3fUeDZmcVfJw",
    "sick": 0
  },
  {
    "latitude": 44.9,
    "pop": 4376000,
    "longitude": 8.206944,
    "name": "Piemonte",
    "country": "IT",
    "lastUpdated": "2020-04-18T10:31:01.768Z",
    "dead": 2171,
    "id": "1eTSQyfp8RoDPeFrIwun",
    "infected": 19803,
    "recovered": 3634,
    "sick": 13998,
    "invisible": false
  },
  {
    "latitude": 47.4116,
    "pop": 3550000,
    "longitude": 28.3699,
    "name": "Moldova",
    "country": "MD",
    "lastUpdated": "2020-04-18T10:43:04.145Z",
    "dead": 56,
    "id": "1qTPB8X3tyLyIdsb5TN3",
    "infected": 2264,
    "recovered": 391,
    "sick": 1817,
    "invisible": false
  },
  {
    "lastUpdated": "2020-04-18T10:38:06.932Z",
    "dead": 0,
    "id": "25qIBtsW2nfQj3pwBKg9",
    "infected": 1,
    "recovered": 1,
    "latitude": 30.15336,
    "pop": 3180000,
    "longitude": 88.787865,
    "name": "Tibet",
    "country": "CN",
    "sick": 0,
    "invisible": false
  },
  {
    "recovered": 631,
    "latitude": -1.572184,
    "pop": 264000000,
    "longitude": 115.66779,
    "name": "Indonesia",
    "country": "ID",
    "lastUpdated": "2020-04-18T10:43:04.143Z",
    "dead": 535,
    "id": "2KHYUb5t3lwzVVmDjwNX",
    "infected": 6248,
    "sick": 5082,
    "invisible": false
  },
  {
    "infected": 1785,
    "recovered": 0,
    "latitude": 43.807191,
    "pop": 4191000,
    "longitude": -120.585594,
    "name": "Oregon",
    "country": "US",
    "lastUpdated": "2020-04-18T10:55:20.751Z",
    "dead": 70,
    "id": "2OrsssmGUs4XCzaZzvTv",
    "sick": 1715,
    "invisible": false
  },
  {
    "lastUpdated": "2020-04-18T10:37:11.737Z",
    "dead": 1,
    "id": "2c5HBZ1ffkCVXnMYUWnY",
    "infected": 211,
    "recovered": 0,
    "latitude": -23.65,
    "pop": 425000,
    "longitude": -70.400002,
    "name": "Antofagasta",
    "country": "CL",
    "sick": 210,
    "invisible": false
  },
  {
    "lastUpdated": "2020-04-18T10:46:08.552Z",
    "dead": 10,
    "id": "2dzhyWsBSPpENWlNew0b",
    "infected": 370,
    "recovered": 0,
    "latitude": 0.035574,
    "pop": 9029000,
    "longitude": -51.070534,
    "name": "Amapá",
    "country": "BR",
    "sick": 360,
    "invisible": false
  },
  {
    "infected": 102,
    "recovered": 97,
    "latitude": 43.851921,
    "pop": 27460000,
    "longitude": 126.548103,
    "name": "Jilin",
    "country": "CN",
    "lastUpdated": "2020-04-18T10:38:06.930Z",
    "dead": 1,
    "id": "2jxHvSsxdnom0nPNvOT8",
    "sick": 4,
    "invisible": false
  },
  {
    "lastUpdated": "2020-04-18T10:43:04.163Z",
    "dead": 0,
    "id": "2p11BjSAs3wVyymgqBOe",
    "infected": 132,
    "recovered": 111,
    "latitude": 36.1408,
    "pop": 34571,
    "longitude": -5.3536,
    "name": "Gibraltar",
    "country": "GI",
    "sick": 21,
    "invisible": false
  },
  {
    "infected": 2905,
    "recovered": 821,
    "latitude": 47.7516,
    "pop": 2567000,
    "longitude": 1.6751,
    "name": "Centre-Val de Loire",
    "country": "FR",
    "lastUpdated": "2020-04-18T01:18:30.581Z",
    "dead": 264,
    "id": "2sLNkkHpyaHx7dD3aMDO",
    "sick": 1820,
    "invisible": false
  },
  {
    "latitude": 42.565044,
    "pop": 884640,
    "longitude": 12.643751,
    "name": "Umbria",
    "country": "IT",
    "lastUpdated": "2020-04-18T10:31:01.769Z",
    "dead": 57,
    "id": "319tiZOMczx1y0DfvOib",
    "infected": 1337,
    "recovered": 786,
    "sick": 494,
    "invisible": false
  },
  {
    "infected": 24,
    "recovered": 7,
    "latitude": 2.43823,
    "pop": 1355000,
    "longitude": -76.6131592,
    "name": "Cauca",
    "country": "CO",
    "lastUpdated": "2020-04-18T04:16:01.531Z",
    "dead": 3,
    "id": "38T96Q3XNjt5FSJygPed",
    "sick": 14,
    "invisible": false
  },
  {
    "infected": 57,
    "recovered": 33,
    "latitude": -13.133896,
    "pop": 17090000,
    "longitude": 27.849332,
    "name": "Zambia",
    "country": "ZM",
    "lastUpdated": "2020-04-18T10:43:04.186Z",
    "dead": 2,
    "id": "3IlPjAbP5qVMn1nlgLTJ",
    "sick": 22,
    "invisible": false
  },
  {
    "latitude": 42.7044,
    "pop": 631219,
    "longitude": 19.3958,
    "name": "Montenegro",
    "country": "ME",
    "lastUpdated": "2020-04-18T10:43:04.162Z",
    "dead": 5,
    "id": "3LstMSN5XMYBkxbe5HN7",
    "infected": 305,
    "recovered": 55,
    "sick": 245,
    "invisible": false
  },
  {
    "pop": 418440,
    "longitude": 149.0124,
    "name": "Australian Capital Territory",
    "country": "AU",
    "lastUpdated": "2020-04-18T10:36:01.045Z",
    "dead": 3,
    "id": "3OZoQsKrzxZ18EKyfGE6",
    "infected": 103,
    "recovered": 88,
    "latitude": -35.4735,
    "sick": 12,
    "invisible": false
  },
  {
    "lastUpdated": "2020-04-18T10:41:01.563Z",
    "dead": 1,
    "id": "3cCbnJCsK7mKlTO08K1o",
    "infected": 34,
    "recovered": 9,
    "latitude": 26.2006,
    "pop": 30940000,
    "longitude": 92.9376,
    "name": "Assam",
    "country": "IN",
    "sick": 24,
    "invisible": false
  },
  {
    "latitude": 40.4173,
    "pop": 11690000,
    "longitude": -82.9071,
    "name": "Ohio",
    "country": "US",
    "lastUpdated": "2020-04-18T10:55:20.750Z",
    "dead": 418,
    "id": "3fC3bAyIRUquOQOEnQNe",
    "infected": 9107,
    "recovered": 0,
    "sick": 8689,
    "invisible": false
  },
  {
    "lastUpdated": "2020-04-18T10:40:01.909Z",
    "dead": 43,
    "id": "3kFCzJguabtBvXaHxgiu",
    "infected": 374,
    "recovered": 0,
    "latitude": 25,
    "pop": 3066400,
    "longitude": -107.5,
    "name": "Sinaloa",
    "country": "MX",
    "sick": 331,
    "invisible": false
  },
  {
    "infected": 591,
    "recovered": 76,
    "latitude": 3.420556,
    "pop": 4708300,
    "longitude": -76.522224,
    "name": "Valle del Cauca",
    "country": "CO",
    "lastUpdated": "2020-04-18T04:16:01.529Z",
    "dead": 29,
    "id": "3mC2LveOpXV8P1PmQGUj",
    "sick": 486,
    "invisible": false
  },
  {
    "pop": 4420000,
    "longitude": -10.9408,
    "name": "Mauritania",
    "country": "MR",
    "lastUpdated": "2020-04-18T10:43:04.208Z",
    "dead": 1,
    "id": "4NnFMekRK2m14IlnZZoj",
    "infected": 7,
    "recovered": 2,
    "latitude": 21.0079,
    "sick": 4,
    "invisible": false
  },
  {
    "lastUpdated": "2020-04-18T10:36:01.044Z",
    "dead": 78,
    "id": "4hfZRUoUgI4a3vrG0GBk",
    "infected": 1618,
    "recovered": 0,
    "latitude": 53.7267,
    "pop": 5071000,
    "longitude": -127.6476,
    "name": "British Columbia",
    "country": "CA",
    "sick": 1540,
    "invisible": false
  },
  {
    "pop": 17159960,
    "longitude": -43.196388,
    "name": "Rio de Janeiro",
    "country": "BR",
    "lastUpdated": "2020-04-18T10:46:08.554Z",
    "dead": 341,
    "id": "4kq0z3kh5zt3YAUWxvtE",
    "infected": 4349,
    "recovered": 0,
    "latitude": -22.908333,
    "sick": 4008,
    "invisible": false
  },
  {
    "latitude": -11.409874,
    "pop": 14812617,
    "longitude": -41.280857,
    "name": "Bahia",
    "country": "BR",
    "lastUpdated": "2020-04-18T10:46:08.552Z",
    "dead": 36,
    "id": "4yDbkEyqsNzZJjfrciYV",
    "infected": 1059,
    "recovered": 0,
    "sick": 1023,
    "invisible": false
  },
  {
    "infected": 1340,
    "recovered": 528,
    "latitude": 40.3426,
    "pop": 9898000,
    "longitude": 47.93802,
    "name": "Azerbaijan",
    "country": "AZ",
    "lastUpdated": "2020-04-18T10:43:04.147Z",
    "dead": 15,
    "id": "4zqzRm2xHn0CDVOUQJ8p",
    "sick": 797,
    "invisible": false
  },
  {
    "lastUpdated": "2020-04-18T10:40:01.911Z",
    "dead": 5,
    "id": "54cfsdsRF76XVHWtZs19",
    "infected": 152,
    "recovered": 0,
    "latitude": 22.233105,
    "pop": 3672300,
    "longitude": -97.861099,
    "name": "Tamaulipas",
    "country": "MX",
    "sick": 147,
    "invisible": false
  },
  {
    "pop": 6596000,
    "longitude": 3.7265,
    "name": "Flanders",
    "country": "BE",
    "lastUpdated": "2020-04-18T10:29:05.522Z",
    "dead": 2657,
    "id": "57ydD48mLRD2YoyteJZj",
    "infected": 21693,
    "recovered": 4745,
    "latitude": 51.0109,
    "sick": 14291,
    "invisible": false
  },
  {
    "pop": 395361,
    "longitude": -78.035889,
    "name": "Bahamas",
    "country": "BS",
    "lastUpdated": "2020-04-18T10:43:04.187Z",
    "dead": 9,
    "id": "5MHegCUO9L3LiAU7DDey",
    "infected": 54,
    "recovered": 9,
    "latitude": 25.025885,
    "sick": 36,
    "invisible": false
  },
  {
    "latitude": -31.253218,
    "pop": 7544000,
    "longitude": 146.921097,
    "name": "New South Wales",
    "country": "AU",
    "lastUpdated": "2020-04-18T10:35:02.635Z",
    "dead": 26,
    "id": "5N16a2OXXRpsEFanw0TC",
    "infected": 2936,
    "recovered": 4,
    "sick": 2906,
    "invisible": false
  },
  {
    "latitude": 6.8769908,
    "pop": 12580000,
    "longitude": 31.3069782,
    "name": "South Sudan",
    "country": "SS",
    "lastUpdated": "2020-04-18T10:43:04.211Z",
    "dead": 0,
    "id": "5N4PRxsCDzzwk7R200V1",
    "infected": 4,
    "recovered": 0,
    "sick": 4,
    "invisible": false
  },
  {
    "lastUpdated": "2020-04-18T10:41:09.987Z",
    "dead": 999,
    "id": "5Va9A7CXR8AXdUz4HTJj",
    "infected": 9869,
    "recovered": 4024,
    "latitude": 39.484,
    "pop": 4975000,
    "longitude": -0.7533,
    "name": "C. Valenciana",
    "country": "ES",
    "sick": 4846,
    "invisible": false
  },
  {
    "infected": 18,
    "recovered": 14,
    "latitude": -20.9043045,
    "pop": 280460,
    "longitude": 165.618042,
    "name": "New Caledonia",
    "country": "NC",
    "lastUpdated": "2020-04-18T10:43:04.195Z",
    "dead": 0,
    "id": "5fg04eyDwFw3kEXnrxez",
    "sick": 4,
    "invisible": false
  },
  {
    "infected": 30,
    "recovered": 2,
    "latitude": 28.394857,
    "pop": 29300000,
    "longitude": 84.124008,
    "name": "Nepal",
    "country": "NP",
    "lastUpdated": "2020-04-18T10:43:04.194Z",
    "dead": 0,
    "id": "5gXZIjRgAvd6xWN1LOv8",
    "sick": 28,
    "invisible": false
  },
  {
    "lastUpdated": "2020-04-18T10:43:04.143Z",
    "dead": 397,
    "id": "5pwmh7aSdGRKqRbnuyc0",
    "infected": 6087,
    "recovered": 516,
    "latitude": 12.879721,
    "pop": 104900000,
    "longitude": 121.774017,
    "name": "Philippines",
    "country": "PH",
    "sick": 5174,
    "invisible": false
  },
  {
    "infected": 24,
    "recovered": 2,
    "latitude": -17.824858,
    "pop": 14802190,
    "longitude": 31.053028,
    "name": "Zimbabwe",
    "country": "ZW",
    "lastUpdated": "2020-04-18T10:43:04.194Z",
    "dead": 3,
    "id": "5qtR9nx4BLwu1ODTniaY",
    "sick": 19,
    "invisible": false
  },
  {
    "infected": 1042,
    "recovered": 0,
    "latitude": 36.0672,
    "pop": 356890,
    "longitude": -109.188,
    "name": "Navajo Nation",
    "country": "US",
    "lastUpdated": "2020-04-18T10:55:20.752Z",
    "dead": 41,
    "id": "5vkKgxTaKq1IH0Go357L",
    "invisible": true,
    "sick": 1001
  },
  {
    "lastUpdated": "2020-04-18T10:40:01.910Z",
    "dead": 136,
    "id": "61E7TGjUwAo9xu6Y6gAH",
    "infected": 2080,
    "recovered": 0,
    "latitude": 19.432241,
    "pop": 8781300,
    "longitude": -99.177254,
    "name": "Ciudad de México",
    "country": "MX",
    "sick": 1944,
    "invisible": false
  },
  {
    "id": "694ON7d0mRJDeM1gHBTR",
    "infected": 1239,
    "recovered": 228,
    "latitude": 55.621011,
    "pop": 2794000,
    "longitude": 23.804991,
    "name": "Lithuania",
    "country": "LT",
    "lastUpdated": "2020-04-18T10:43:04.147Z",
    "dead": 33,
    "sick": 978,
    "invisible": false
  },
  {
    "infected": 11471,
    "recovered": 0,
    "latitude": 51.1781,
    "pop": 9175000,
    "longitude": -0.5596,
    "name": "South East",
    "country": "GB",
    "lastUpdated": "2020-04-18T10:39:16.575Z",
    "dead": 0,
    "id": "6IQAsvrmBv0HPdeTnh4x",
    "sick": 11471,
    "invisible": false
  },
  {
    "lastUpdated": "2020-04-18T10:43:04.150Z",
    "dead": 4,
    "id": "6IcHIIH0zXpY0POmBZTv",
    "infected": 1024,
    "recovered": 568,
    "latitude": 22.396427,
    "pop": 7392000,
    "longitude": 114.109497,
    "name": "Hong Kong",
    "country": "HK",
    "sick": 452,
    "invisible": false
  },
  {
    "latitude": -8.65,
    "pop": 869265,
    "longitude": -72.4,
    "name": "Acre",
    "country": "BR",
    "lastUpdated": "2020-04-18T10:46:08.545Z",
    "dead": 5,
    "id": "6LQesrx5bHJsVUi1TXBp",
    "infected": 135,
    "recovered": 0,
    "sick": 130,
    "invisible": false
  },
  {
    "infected": 35,
    "recovered": 18,
    "latitude": 9.3077,
    "pop": 11180000,
    "longitude": 2.3158,
    "name": "Benin",
    "country": "BJ",
    "lastUpdated": "2020-04-18T10:43:04.194Z",
    "dead": 1,
    "id": "6SlpghTyB6lpMFvx3g9U",
    "sick": 16,
    "invisible": false
  },
  {
    "infected": 64135,
    "recovered": 18850,
    "latitude": 45.6667,
    "pop": 10040000,
    "longitude": 9.5,
    "name": "Lombardia",
    "country": "IT",
    "lastUpdated": "2020-04-18T10:31:01.768Z",
    "dead": 11851,
    "id": "6ZHcvMIzVWIaRnc4R3Qp",
    "sick": 33434,
    "invisible": false
  },
  {
    "latitude": 46.0569,
    "pop": 2067000,
    "longitude": 14.5058,
    "name": "Slovenia",
    "country": "SI",
    "lastUpdated": "2020-04-18T10:43:04.147Z",
    "dead": 66,
    "id": "6ahNiyKDSDAftCctgLH3",
    "infected": 1304,
    "recovered": 174,
    "sick": 1064,
    "invisible": false
  },
  {
    "infected": 13,
    "recovered": 0,
    "latitude": -27.3667908,
    "pop": 300000,
    "longitude": -70.331398,
    "name": "Atacama",
    "country": "CL",
    "lastUpdated": "2020-04-18T10:37:11.737Z",
    "dead": 0,
    "id": "6nyns7UGGgkU7pxrHf8i",
    "sick": 13,
    "invisible": false
  },
  {
    "longitude": 11.6094,
    "name": "Gabon",
    "country": "GA",
    "lastUpdated": "2020-04-18T10:43:04.164Z",
    "dead": 1,
    "id": "6pBi38TUgYfFm0bry2uh",
    "infected": 108,
    "recovered": 7,
    "latitude": -0.8037,
    "pop": 2025000,
    "sick": 100,
    "invisible": false
  },
  {
    "latitude": 22.1498,
    "pop": 2831900,
    "longitude": -100.9792,
    "name": "San Luis Potosí",
    "country": "MX",
    "lastUpdated": "2020-04-18T10:40:01.911Z",
    "dead": 4,
    "id": "6vjIVg1gSANFZghV7xtS",
    "infected": 58,
    "recovered": 0,
    "sick": 54,
    "invisible": false
  },
  {
    "longitude": -62.818544,
    "name": "Saint-Barthélémy",
    "country": "FR",
    "lastUpdated": "2020-04-18T10:43:04.208Z",
    "dead": 0,
    "id": "78Ox26bNHDA2Pk2b3Uwn",
    "infected": 6,
    "recovered": 5,
    "latitude": 17.901672,
    "pop": 9131,
    "sick": 1,
    "invisible": false
  },
  {
    "longitude": -2.9381,
    "name": "Melilla",
    "country": "ES",
    "lastUpdated": "2020-04-18T10:41:09.987Z",
    "dead": 2,
    "id": "7UASdZTZ1nPzzBwSTEA9",
    "infected": 104,
    "recovered": 30,
    "latitude": 35.2923,
    "pop": 84690,
    "sick": 72,
    "invisible": false
  },
  {
    "lastUpdated": "2020-04-18T10:43:04.194Z",
    "dead": 3,
    "id": "7hVFcEV7nV0MrQr3LHrl",
    "infected": 23,
    "recovered": 3,
    "latitude": 17.0608,
    "pop": 102012,
    "longitude": -61.7964,
    "name": "Antigua and Barbuda",
    "country": "AG",
    "sick": 17,
    "invisible": false
  },
  {
    "latitude": 48.7904,
    "pop": 13000000,
    "longitude": 11.4979,
    "name": "Bayern",
    "country": "DE",
    "lastUpdated": "2020-04-18T10:30:06.824Z",
    "dead": 1271,
    "id": "7kCrrlOBE3jN6FtOVNUB",
    "infected": 37434,
    "recovered": 19610,
    "sick": 16553,
    "invisible": false
  },
  {
    "latitude": 47.4979,
    "pop": 9773000,
    "longitude": 19.0402,
    "name": "Hungary",
    "country": "HU",
    "lastUpdated": "2020-04-18T10:43:04.145Z",
    "dead": 172,
    "id": "7rYC2iFB50c55Ihgbs4Q",
    "infected": 1834,
    "recovered": 231,
    "sick": 1431,
    "invisible": false
  },
  {
    "latitude": 10.9685,
    "pop": 2400000,
    "longitude": -74.7813,
    "name": "Barranquilla D.E.",
    "country": "CO",
    "lastUpdated": "2020-04-18T04:16:01.530Z",
    "dead": 3,
    "id": "7tqLvLyXcBDK808nJv0m",
    "infected": 74,
    "recovered": 28,
    "sick": 43,
    "invisible": false
  },
  {
    "pop": 24050000,
    "longitude": 12.3547,
    "name": "Cameroon",
    "country": "CM",
    "lastUpdated": "2020-04-18T10:43:04.151Z",
    "dead": 22,
    "id": "8C0d7WVCjyUGtnc2gUAR",
    "infected": 1017,
    "recovered": 177,
    "latitude": 7.3697,
    "sick": 818,
    "invisible": false
  },
  {
    "latitude": 50.8503,
    "pop": 1209000,
    "longitude": 4.3517,
    "name": "Brussels",
    "country": "BE",
    "lastUpdated": "2020-04-18T10:29:05.521Z",
    "dead": 850,
    "id": "8DOZWbN6bDdgaLXVlUEu",
    "infected": 3739,
    "recovered": 1367,
    "sick": 1522,
    "invisible": false
  },
  {
    "latitude": -16.2902,
    "pop": 11050000,
    "longitude": -63.5887,
    "name": "Bolivia",
    "country": "BO",
    "lastUpdated": "2020-04-18T10:43:04.155Z",
    "dead": 31,
    "id": "8RihJrXw4NQXPxaRxr1u",
    "infected": 493,
    "recovered": 31,
    "sick": 431,
    "invisible": false
  },
  {
    "infected": 12,
    "recovered": 1,
    "latitude": 12.9843,
    "pop": 109897,
    "longitude": -61.2872,
    "name": "St. Vincent Grenadines",
    "country": "VC",
    "lastUpdated": "2020-04-18T10:43:04.201Z",
    "dead": 0,
    "id": "8ZTySQROQejkDAad0qxQ",
    "sick": 11,
    "invisible": false
  },
  {
    "recovered": 708,
    "latitude": 1.352083,
    "pop": 5621000,
    "longitude": 103.819839,
    "name": "Singapore",
    "country": "SG",
    "lastUpdated": "2020-04-18T10:43:04.143Z",
    "dead": 11,
    "id": "8pA3fM4xC2c2wv1b4TnE",
    "infected": 5992,
    "sick": 5273,
    "invisible": false
  },
  {
    "lastUpdated": "2020-04-18T01:19:32.935Z",
    "dead": 242,
    "id": "98hwAoohgWEOQVa3NlM5",
    "infected": 2758,
    "recovered": 910,
    "latitude": 47.2184,
    "pop": 3787000,
    "longitude": -1.5536,
    "name": "Pays de la Loire",
    "country": "FR",
    "sick": 1606,
    "invisible": false
  },
  {
    "pop": 952300,
    "longitude": -90.19885,
    "name": "Campeche",
    "country": "MX",
    "lastUpdated": "2020-04-18T10:40:01.911Z",
    "dead": 3,
    "id": "9DAvxOObTqIvMOU93nlY",
    "infected": 48,
    "recovered": 0,
    "latitude": 19.30754,
    "sick": 45,
    "invisible": false
  },
  {
    "latitude": 12.8628,
    "pop": 40530000,
    "longitude": 30.2176,
    "name": "Sudan",
    "country": "SD",
    "lastUpdated": "2020-04-18T10:43:04.185Z",
    "dead": 10,
    "id": "9DPOkpIqrFy9mR4e9fuv",
    "infected": 66,
    "recovered": 6,
    "sick": 50,
    "invisible": false
  },
  {
    "id": "9QcETqEcM2fTv9zRvx5T",
    "infected": 8418,
    "recovered": 1730,
    "latitude": 45.943161,
    "pop": 19530000,
    "longitude": 24.966761,
    "name": "Romania",
    "country": "RO",
    "lastUpdated": "2020-04-18T10:43:04.142Z",
    "dead": 417,
    "sick": 6271,
    "invisible": false
  },
  {
    "pop": 6218000,
    "longitude": -86.251389,
    "name": "Nicaragua",
    "country": "NI",
    "lastUpdated": "2020-04-18T10:43:04.208Z",
    "dead": 1,
    "id": "9Y5wmCqNCC6ZrenM31uA",
    "infected": 9,
    "recovered": 6,
    "latitude": 12.136389,
    "sick": 2,
    "invisible": false
  },
  {
    "lastUpdated": "2020-04-18T10:43:04.163Z",
    "dead": 13,
    "id": "9dIzxqDSVqPyINkHqwGv",
    "infected": 190,
    "recovered": 34,
    "latitude": 17.5706921,
    "pop": 18540000,
    "longitude": -3.996166,
    "name": "Mali",
    "country": "ML",
    "sick": 143,
    "invisible": false
  },
  {
    "recovered": 1700,
    "latitude": 61.92411,
    "pop": 5513000,
    "longitude": 25.748152,
    "name": "Finland",
    "country": "FI",
    "lastUpdated": "2020-04-18T10:43:04.143Z",
    "dead": 82,
    "id": "9p6OCdZbUUwBLA60Gk3W",
    "infected": 3489,
    "sick": 1707,
    "invisible": false
  },
  {
    "lastUpdated": "2020-04-18T10:55:20.752Z",
    "dead": 37,
    "id": "A84CwQ52kA46Hr7pn6Bm",
    "infected": 1287,
    "recovered": 0,
    "latitude": 43.311643,
    "pop": 1356000,
    "longitude": -71.590315,
    "name": "New Hampshire",
    "country": "US",
    "sick": 1250,
    "invisible": false
  },
  {
    "lastUpdated": "2020-04-18T10:55:20.751Z",
    "dead": 118,
    "id": "AEUWUHS65qvjEslew11c",
    "infected": 4177,
    "recovered": 0,
    "latitude": 41.823261,
    "pop": 1057000,
    "longitude": -71.412257,
    "name": "Rhode Island",
    "country": "US",
    "sick": 4059,
    "invisible": false
  },
  {
    "lastUpdated": "2020-04-18T10:31:01.767Z",
    "dead": 2903,
    "id": "AJ9jQ0iyKsafsmf5yHAR",
    "infected": 21834,
    "recovered": 5346,
    "latitude": 44.498955,
    "pop": 4453000,
    "longitude": 11.327591,
    "name": "Emilia-Romagna",
    "country": "IT",
    "sick": 13585,
    "invisible": false
  },
  {
    "infected": 2305,
    "recovered": 1003,
    "latitude": 49.3964,
    "pop": 990509,
    "longitude": 7.023,
    "name": "Saarland",
    "country": "DE",
    "lastUpdated": "2020-04-18T10:30:06.827Z",
    "dead": 94,
    "id": "AKjFRQGnzuuZQhv5Qwx7",
    "sick": 1208,
    "invisible": false
  },
  {
    "pop": 1125002,
    "longitude": -71.167,
    "name": "Maule",
    "country": "CL",
    "lastUpdated": "2020-04-18T10:37:11.737Z",
    "dead": 7,
    "id": "APTPgjAsjFi0nsGyJV7M",
    "infected": 223,
    "recovered": 0,
    "latitude": -35.717,
    "sick": 216,
    "invisible": false
  },
  {
    "latitude": 71.7069,
    "pop": 56171,
    "longitude": -42.6043,
    "name": "Greenland",
    "country": "GL",
    "lastUpdated": "2020-04-18T10:43:04.202Z",
    "dead": 0,
    "id": "APaZzlGCEeuoLBtzTJMe",
    "infected": 11,
    "recovered": 11,
    "sick": 0,
    "invisible": false
  },
  {
    "lastUpdated": "2020-04-18T10:36:01.044Z",
    "dead": 4,
    "id": "AVCpxeh0fuH2WrHWNDYH",
    "infected": 606,
    "recovered": 0,
    "latitude": 45.65107,
    "pop": 971395,
    "longitude": -63.582687,
    "name": "Nova Scotia",
    "country": "CA",
    "sick": 602,
    "invisible": false
  },
  {
    "pop": 1062000,
    "longitude": -109.128641,
    "name": "Montana",
    "country": "US",
    "lastUpdated": "2020-04-18T10:55:20.753Z",
    "dead": 10,
    "id": "AcULcZBozObOhwuRKMjJ",
    "infected": 422,
    "recovered": 0,
    "latitude": 47.012918,
    "sick": 412,
    "invisible": false
  },
  {
    "latitude": 27.285971,
    "pop": 45200000,
    "longitude": 116.01609,
    "name": "Jiangxi",
    "country": "CN",
    "lastUpdated": "2020-04-18T10:38:06.931Z",
    "dead": 1,
    "id": "AmBYm5J6E9Cuez1FQjiN",
    "infected": 937,
    "recovered": 936,
    "sick": 0,
    "invisible": false
  },
  {
    "infected": 6645,
    "recovered": 0,
    "latitude": 52.1307,
    "pop": 3136000,
    "longitude": -3.7837,
    "name": "Wales",
    "country": "GB",
    "lastUpdated": "2020-04-18T10:39:16.574Z",
    "dead": 506,
    "id": "AoLhHdTydeWTfmp9koEX",
    "sick": 6139,
    "invisible": false
  },
  {
    "id": "AwN0CScPDApcLFgz6e3z",
    "infected": 2418,
    "recovered": 846,
    "latitude": 28.033886,
    "pop": 41320000,
    "longitude": 1.659626,
    "name": "Algeria",
    "country": "DZ",
    "lastUpdated": "2020-04-18T10:43:04.144Z",
    "dead": 364,
    "sick": 1208,
    "invisible": false
  },
  {
    "longitude": 15.2,
    "name": "Croatia",
    "country": "HR",
    "lastUpdated": "2020-04-18T10:43:04.145Z",
    "dead": 36,
    "id": "B82Ef45M8cDu4q7VsSHF",
    "infected": 1814,
    "recovered": 600,
    "latitude": 45.099998,
    "pop": 4076000,
    "sick": 1178,
    "invisible": false
  },
  {
    "lastUpdated": "2020-04-18T10:43:04.154Z",
    "dead": 18,
    "id": "BENubqQInFUJzhpZTsLT",
    "infected": 627,
    "recovered": 110,
    "latitude": 17.6077881,
    "pop": 23716000,
    "longitude": 8.081666,
    "name": "Niger",
    "country": "NE",
    "sick": 499,
    "invisible": false
  },
  {
    "id": "BF51mWl51fgEcyBpCSzb",
    "infected": 11572,
    "recovered": 0,
    "latitude": 39.509109,
    "pop": 6043000,
    "longitude": -76.98432,
    "name": "Maryland",
    "country": "US",
    "lastUpdated": "2020-04-18T10:55:20.750Z",
    "dead": 493,
    "sick": 11079,
    "invisible": false
  },
  {
    "infected": 4779,
    "recovered": 342,
    "latitude": 53.709808,
    "pop": 9508000,
    "longitude": 27.953388,
    "name": "Belarus",
    "country": "BY",
    "lastUpdated": "2020-04-18T10:43:04.143Z",
    "dead": 42,
    "id": "BGg6yVU5VP71B8NXU0oh",
    "sick": 4395,
    "invisible": false
  },
  {
    "recovered": 742,
    "latitude": 48.8799,
    "pop": 3319000,
    "longitude": 0.1713,
    "name": "Normandie",
    "country": "FR",
    "lastUpdated": "2020-04-18T01:19:19.571Z",
    "dead": 262,
    "id": "BGtoyzb7y54LVlJ91rbf",
    "infected": 2363,
    "sick": 1359,
    "invisible": false
  },
  {
    "longitude": -3.9995,
    "name": "South West",
    "country": "GB",
    "lastUpdated": "2020-04-18T10:39:16.575Z",
    "dead": 0,
    "id": "BQqMOlPFD36ZEDTGd3WC",
    "infected": 4222,
    "recovered": 0,
    "latitude": 50.7772,
    "pop": 5616000,
    "sick": 4222,
    "invisible": false
  },
  {
    "infected": 4511,
    "recovered": 0,
    "latitude": 34.048927,
    "pop": 7172000,
    "longitude": -111.093735,
    "name": "Arizona",
    "country": "US",
    "lastUpdated": "2020-04-18T10:55:20.750Z",
    "dead": 169,
    "id": "BTEESCuD2ZbS1afunR2A",
    "sick": 4342,
    "invisible": false
  },
  {
    "longitude": -70.6693,
    "name": "Unknown Chile region",
    "country": "CL",
    "lastUpdated": "2020-04-18T10:37:11.738Z",
    "dead": 0,
    "id": "BbiuZcm8oURX7cZwaa5U",
    "invisible": true,
    "infected": 0,
    "recovered": 3621,
    "latitude": -33.4489,
    "sick": 0
  },
  {
    "latitude": -13.2543,
    "pop": 18620000,
    "longitude": 34.3015,
    "name": "Malawi",
    "country": "MW",
    "lastUpdated": "2020-04-18T10:43:04.195Z",
    "dead": 2,
    "id": "BfT8o5DaEixC6JIZ28kY",
    "infected": 17,
    "recovered": 3,
    "sick": 12,
    "invisible": false
  },
  {
    "infected": 5,
    "recovered": 0,
    "latitude": -3.3730559,
    "pop": 10860000,
    "longitude": 29.9188862,
    "name": "Burundi",
    "country": "BI",
    "lastUpdated": "2020-04-18T10:43:04.208Z",
    "dead": 1,
    "id": "BnpMamidC5yYzeK8tPUL",
    "sick": 4,
    "invisible": false
  },
  {
    "latitude": -1.333845,
    "pop": 74751,
    "longitude": -71.347573,
    "name": "Amazonas (Colombia)",
    "country": "CO",
    "lastUpdated": "2020-04-18T04:16:01.624Z",
    "dead": 0,
    "id": "C25xSDm4iYibX5RYML14",
    "infected": 1,
    "recovered": 0,
    "sick": 1,
    "invisible": false
  },
  {
    "infected": 235395,
    "recovered": 0,
    "latitude": 40.719042,
    "pop": 19540000,
    "longitude": -73.982597,
    "name": "New York",
    "country": "US",
    "lastUpdated": "2020-04-18T10:55:20.742Z",
    "dead": 17131,
    "id": "C3BCUzV80z9GfiuByIcr",
    "sick": 218264,
    "invisible": false
  },
  {
    "longitude": 15.359413,
    "name": "Czechia",
    "country": "CZ",
    "lastUpdated": "2020-04-18T10:43:04.142Z",
    "dead": 176,
    "id": "C6S76AggdWVU8G22jFHQ",
    "infected": 6553,
    "recovered": 1183,
    "latitude": 49.731626,
    "pop": 10650000,
    "sick": 5194,
    "invisible": false
  },
  {
    "lastUpdated": "2020-04-18T10:43:04.145Z",
    "dead": 7,
    "id": "C7cj4nwRITs13KnaJrQ2",
    "infected": 1767,
    "recovered": 741,
    "latitude": 26.0667,
    "pop": 1493000,
    "longitude": 50.557701,
    "name": "Bahrain",
    "country": "BH",
    "sick": 1019,
    "invisible": false
  },
  {
    "pop": 1285400,
    "longitude": -74.4057,
    "name": "Magdalena",
    "country": "CO",
    "lastUpdated": "2020-04-18T04:16:01.623Z",
    "dead": 1,
    "id": "CA9LaAl3bNaeAqBuozn4",
    "infected": 16,
    "recovered": 1,
    "latitude": 10.4113,
    "sick": 14,
    "invisible": false
  },
  {
    "latitude": 26.909979,
    "pop": 3073500,
    "longitude": -101.430756,
    "name": "Coahuila",
    "country": "MX",
    "lastUpdated": "2020-04-18T10:40:01.910Z",
    "dead": 20,
    "id": "CCUFp4urvgXPo5unfMGy",
    "infected": 234,
    "recovered": 0,
    "sick": 214,
    "invisible": false
  },
  {
    "infected": 1282,
    "recovered": 183,
    "latitude": 27.0238,
    "pop": 68890000,
    "longitude": 74.2179,
    "name": "Rajasthan",
    "country": "IN",
    "lastUpdated": "2020-04-18T10:41:01.562Z",
    "dead": 19,
    "id": "CKZCZTPlrcq5fbfUPA9k",
    "sick": 1080,
    "invisible": false
  },
  {
    "lastUpdated": "2020-04-18T10:43:04.163Z",
    "dead": 7,
    "id": "Cgvmtle61ehMvCzRzYx7",
    "infected": 190,
    "recovered": 43,
    "latitude": 13.803,
    "pop": 6378000,
    "longitude": -88.9053,
    "name": "El Salvador",
    "country": "SV",
    "sick": 140,
    "invisible": false
  },
  {
    "lastUpdated": "2020-04-18T10:43:04.147Z",
    "dead": 20,
    "id": "DCJCtZoBTWQ4mzdDNljD",
    "infected": 1248,
    "recovered": 523,
    "latitude": 40.259003,
    "pop": 2973000,
    "longitude": 44.818474,
    "name": "Armenia",
    "country": "AM",
    "sick": 705,
    "invisible": false
  },
  {
    "infected": 32,
    "recovered": 5,
    "latitude": 5.535,
    "pop": 1278000,
    "longitude": -73.368,
    "name": "Boyacá",
    "country": "CO",
    "lastUpdated": "2020-04-18T04:16:01.532Z",
    "dead": 1,
    "id": "DJJraANgQbEqz1wBBtZz",
    "sick": 26,
    "invisible": false
  },
  {
    "lastUpdated": "2020-04-18T10:39:16.575Z",
    "dead": 0,
    "id": "DPwBt2aJuwF0O71vwfM9",
    "infected": 12687,
    "recovered": 0,
    "latitude": 53.6221,
    "pop": 7300000,
    "longitude": -2.5945,
    "name": "North West",
    "country": "GB",
    "sick": 12687,
    "invisible": false
  },
  {
    "lastUpdated": "2020-04-18T10:43:04.185Z",
    "dead": 5,
    "id": "DZyTD0Mu5WIcK6yTcJ91",
    "infected": 83,
    "recovered": 35,
    "latitude": 32.3213844,
    "pop": 65440,
    "longitude": -64.75737,
    "name": "Bermuda",
    "country": "BM",
    "sick": 43,
    "invisible": false
  },
  {
    "id": "DaMrRSIGJXIG36nW0Pnc",
    "infected": 11,
    "recovered": 0,
    "latitude": 21.694,
    "pop": 35446,
    "longitude": -71.7979,
    "name": "Turks and Caicos",
    "country": "TC",
    "lastUpdated": "2020-04-18T10:43:04.201Z",
    "dead": 1,
    "sick": 10,
    "invisible": false
  },
  {
    "latitude": 39.2796,
    "pop": 2035000,
    "longitude": -3.0977,
    "name": "Castilla La Mancha",
    "country": "ES",
    "lastUpdated": "2020-04-18T10:41:09.987Z",
    "dead": 1852,
    "id": "Dbng0NBTH41EEwBxhMzE",
    "infected": 15997,
    "recovered": 3600,
    "sick": 10545,
    "invisible": false
  },
  {
    "latitude": 22.192039,
    "pop": 622567,
    "longitude": 113.551262,
    "name": "Macao",
    "country": "MO",
    "lastUpdated": "2020-04-18T10:43:04.193Z",
    "dead": 0,
    "id": "DdBt8qsG6A3g92oOR3ow",
    "infected": 45,
    "recovered": 16,
    "sick": 29,
    "invisible": false
  },
  {
    "latitude": 25.467,
    "pop": 2651000,
    "longitude": 91.3662,
    "name": "Meghalaya",
    "country": "IN",
    "lastUpdated": "2020-04-18T10:41:01.563Z",
    "dead": 1,
    "id": "Dh0O1vmhrVfmsCsfZCUg",
    "infected": 11,
    "recovered": 0,
    "sick": 10,
    "invisible": false
  },
  {
    "infected": 305,
    "recovered": 0,
    "latitude": 42.962334,
    "pop": 577737,
    "longitude": -107.534868,
    "name": "Wyoming",
    "country": "US",
    "lastUpdated": "2020-04-18T10:55:20.753Z",
    "dead": 2,
    "id": "DrGzziUglmBognCGY7R2",
    "sick": 303,
    "invisible": false
  },
  {
    "infected": 2224,
    "recovered": 269,
    "latitude": 37.9838,
    "pop": 10740000,
    "longitude": 23.7275,
    "name": "Greece",
    "country": "GR",
    "lastUpdated": "2020-04-18T10:43:04.145Z",
    "dead": 108,
    "id": "Dtr1lap1RpJpXJdXGJiW",
    "sick": 1847,
    "invisible": false
  },
  {
    "recovered": 178,
    "latitude": 25.03841,
    "pop": 23780000,
    "longitude": 121.563698,
    "name": "Taiwan",
    "country": "TW",
    "lastUpdated": "2020-04-18T10:43:04.161Z",
    "dead": 6,
    "id": "EKTfs8e7M6DXzI1HqyyX",
    "infected": 398,
    "sick": 214,
    "invisible": false
  },
  {
    "lastUpdated": "2020-04-18T10:43:04.153Z",
    "dead": 4,
    "id": "EQzJvzVHKjs8kLmK7BMu",
    "infected": 649,
    "recovered": 88,
    "latitude": 10.327273,
    "pop": 4906000,
    "longitude": -84.387618,
    "name": "Costa Rica",
    "country": "CR",
    "sick": 557,
    "invisible": false
  },
  {
    "latitude": 22.2587,
    "pop": 62700000,
    "longitude": 71.1924,
    "name": "Gujarat",
    "country": "IN",
    "lastUpdated": "2020-04-18T10:41:01.562Z",
    "dead": 48,
    "id": "ERwk9R9en4m9WbdoMbIg",
    "infected": 1272,
    "recovered": 88,
    "sick": 1136,
    "invisible": false
  },
  {
    "recovered": 9,
    "latitude": 30.7333,
    "pop": 1055000,
    "longitude": 76.7794,
    "name": "Chandigarh",
    "country": "IN",
    "lastUpdated": "2020-04-18T10:41:01.563Z",
    "dead": 0,
    "id": "Esl5UlCVB9s8pmGB5Ofr",
    "infected": 21,
    "sick": 12,
    "invisible": false
  },
  {
    "infected": 1068,
    "recovered": 0,
    "latitude": 18.200178,
    "pop": 3195000,
    "longitude": -66.664513,
    "name": "Puerto Rico",
    "country": "PR",
    "lastUpdated": "2020-04-18T10:55:20.752Z",
    "dead": 58,
    "id": "F4rPrEVGAIMM5rfPEMv4",
    "sick": 1010,
    "invisible": false
  },
  {
    "lastUpdated": "2020-04-18T04:16:01.530Z",
    "dead": 5,
    "id": "F7MED5VwEhi3JvJu6KjB",
    "infected": 137,
    "recovered": 27,
    "latitude": 4.862437,
    "pop": 2919000,
    "longitude": -74.058655,
    "name": "Cundinamarca",
    "country": "CO",
    "sick": 105,
    "invisible": false
  },
  {
    "latitude": 33.93911,
    "pop": 35530000,
    "longitude": 67.709953,
    "name": "Afghanistan",
    "country": "AF",
    "lastUpdated": "2020-04-18T10:43:04.151Z",
    "dead": 30,
    "id": "FCDmlmnIIswd8bQiUjfN",
    "infected": 933,
    "recovered": 112,
    "sick": 791,
    "invisible": false
  },
  {
    "infected": 579,
    "recovered": 570,
    "latitude": 29.431585,
    "pop": 30480000,
    "longitude": 106.912254,
    "name": "Chongqing",
    "country": "CN",
    "lastUpdated": "2020-04-18T10:38:06.930Z",
    "dead": 6,
    "id": "FErOU1m4Tj7jIkRam3vF",
    "sick": 3,
    "invisible": false
  },
  {
    "pop": 4137000,
    "longitude": 47.481766,
    "name": "Kuwait",
    "country": "KW",
    "lastUpdated": "2020-04-18T10:43:04.145Z",
    "dead": 6,
    "id": "FZsUkhxBEgqsPb4eO0PN",
    "infected": 1751,
    "recovered": 280,
    "latitude": 29.311661,
    "sick": 1465,
    "invisible": false
  },
  {
    "infected": 53,
    "recovered": 0,
    "latitude": -10.9111,
    "pop": 2278308,
    "longitude": -37.0717,
    "name": "Sergipe",
    "country": "BR",
    "lastUpdated": "2020-04-18T10:46:08.554Z",
    "dead": 4,
    "id": "FboWeolpM62SZCLwdilT",
    "sick": 49,
    "invisible": false
  },
  {
    "pop": 67860000,
    "longitude": 78.6569,
    "name": "Tamil Nadu",
    "country": "IN",
    "lastUpdated": "2020-04-18T10:41:01.562Z",
    "dead": 15,
    "id": "FeS45oMNC27pI17F0xEV",
    "infected": 1323,
    "recovered": 283,
    "latitude": 11.1271,
    "sick": 1025,
    "invisible": false
  },
  {
    "lastUpdated": "2020-04-18T10:43:04.143Z",
    "dead": 200,
    "id": "FuiVEJvWb0QMCpxJ3563",
    "infected": 4126,
    "recovered": 268,
    "latitude": 18.947829,
    "pop": 10770000,
    "longitude": -70.430399,
    "name": "Dominican Republic",
    "country": "DO",
    "sick": 3658,
    "invisible": false
  },
  {
    "latitude": 18.1124,
    "pop": 35190000,
    "longitude": 79.0193,
    "name": "Telengana",
    "country": "IN",
    "lastUpdated": "2020-04-18T10:41:01.562Z",
    "dead": 18,
    "id": "FyC551oNwmENxbr9Yght",
    "infected": 766,
    "recovered": 187,
    "sick": 561,
    "invisible": false
  },
  {
    "latitude": 48.669,
    "pop": 5450000,
    "longitude": 19.699,
    "name": "Slovakia",
    "country": "SK",
    "lastUpdated": "2020-04-18T10:43:04.148Z",
    "dead": 11,
    "id": "FzIDXoqWnTI3nUfhPyT2",
    "infected": 1089,
    "recovered": 213,
    "sick": 865,
    "invisible": false
  },
  {
    "latitude": 30.37532,
    "pop": 197000000,
    "longitude": 69.345116,
    "name": "Pakistan",
    "country": "PK",
    "lastUpdated": "2020-04-18T10:43:04.142Z",
    "dead": 143,
    "id": "GAp7Wb6IMhdgbvEtMza9",
    "infected": 7481,
    "recovered": 1832,
    "sick": 5506,
    "invisible": false
  },
  {
    "lastUpdated": "2020-04-18T10:41:01.562Z",
    "dead": 14,
    "id": "GGru8cG08mANO8XDDUtZ",
    "infected": 211,
    "recovered": 30,
    "latitude": 31.1471,
    "pop": 27980000,
    "longitude": 75.3412,
    "name": "Punjab",
    "country": "IN",
    "sick": 167,
    "invisible": false
  },
  {
    "id": "GHzBIsHy2GiBc5JV2HMs",
    "infected": 6302,
    "recovered": 1188,
    "latitude": 23.424076,
    "pop": 9400000,
    "longitude": 53.847816,
    "name": "United Arab Emirates",
    "country": "AE",
    "lastUpdated": "2020-04-18T10:43:04.142Z",
    "dead": 37,
    "sick": 5077,
    "invisible": false
  },
  {
    "lastUpdated": "2020-04-18T10:55:20.753Z",
    "dead": 3,
    "id": "GLViSIjDjwvptOphedAu",
    "invisible": true,
    "infected": 103,
    "recovered": 0,
    "latitude": 37.0902,
    "longitude": -95.7129,
    "name": "Grand Princess",
    "country": "US",
    "sick": 100
  },
  {
    "lastUpdated": "2020-04-18T10:39:16.574Z",
    "dead": 0,
    "id": "GPtoS0Yy2EnNafpmmTqY",
    "infected": 20215,
    "recovered": 0,
    "latitude": 51.5074,
    "pop": 10100000,
    "longitude": -0.1278,
    "name": "London",
    "country": "GB",
    "sick": 20215,
    "invisible": false
  },
  {
    "latitude": 36.621981,
    "pop": 39560000,
    "longitude": -119.339046,
    "name": "California",
    "country": "US",
    "lastUpdated": "2020-04-18T10:55:20.749Z",
    "dead": 1057,
    "id": "Gh46r6vuaY7fbGt3IboN",
    "infected": 29425,
    "recovered": 0,
    "sick": 28368,
    "invisible": false
  },
  {
    "latitude": 35.87189,
    "pop": 3943000,
    "longitude": -97.145514,
    "name": "Oklahoma",
    "country": "US",
    "lastUpdated": "2020-04-18T10:55:20.751Z",
    "dead": 136,
    "id": "GpF8ULuKOQiFDCUHN44h",
    "infected": 2465,
    "recovered": 0,
    "sick": 2329,
    "invisible": false
  },
  {
    "latitude": 46.5,
    "pop": 520891,
    "longitude": 11.35,
    "name": "P.A. Bolzano",
    "country": "IT",
    "lastUpdated": "2020-04-18T10:31:01.767Z",
    "dead": 234,
    "id": "Gzx6GX1qhBm714BkEC6l",
    "infected": 2296,
    "recovered": 480,
    "sick": 1582,
    "invisible": false
  },
  {
    "infected": 193,
    "recovered": 104,
    "latitude": 42.83263,
    "pop": 24710000,
    "longitude": 113.750972,
    "name": "Inner Mongolia",
    "country": "CN",
    "lastUpdated": "2020-04-18T10:38:06.928Z",
    "dead": 1,
    "id": "H3JeVigVbo5CSYfZG4WI",
    "sick": 88,
    "invisible": false
  },
  {
    "pop": 3034000,
    "longitude": -116.724977,
    "name": "Nevada",
    "country": "US",
    "lastUpdated": "2020-04-18T10:55:20.751Z",
    "dead": 142,
    "id": "H3bDg4eV30up4WWrIDAS",
    "infected": 3524,
    "recovered": 0,
    "latitude": 39.74536,
    "sick": 3382,
    "invisible": false
  },
  {
    "infected": 2684,
    "recovered": 0,
    "latitude": -3.731862,
    "pop": 9075649,
    "longitude": -38.526669,
    "name": "Ceará",
    "country": "BR",
    "lastUpdated": "2020-04-18T10:46:08.552Z",
    "dead": 149,
    "id": "HEMWNnFxeFEoeOCBOLJD",
    "sick": 2535,
    "invisible": false
  },
  {
    "infected": 371,
    "recovered": 92,
    "latitude": 15.3173,
    "pop": 64060000,
    "longitude": 75.7139,
    "name": "Karnataka",
    "country": "IN",
    "lastUpdated": "2020-04-18T10:41:01.562Z",
    "dead": 13,
    "id": "HN5mGmxlqlSeFSNeu1K5",
    "sick": 266,
    "invisible": false
  },
  {
    "infected": 5,
    "recovered": 2,
    "latitude": 27.5142,
    "pop": 807610,
    "longitude": 90.4336,
    "name": "Bhutan",
    "country": "BT",
    "lastUpdated": "2020-04-18T10:43:04.209Z",
    "dead": 0,
    "id": "HRDpwyxpqW9RN0xLFyNu",
    "sick": 3,
    "invisible": false
  },
  {
    "lastUpdated": "2020-04-18T10:43:04.147Z",
    "dead": 4,
    "id": "HRTA10dtrruDEwjJEGMp",
    "infected": 1450,
    "recovered": 168,
    "latitude": 41.3775,
    "pop": 32390000,
    "longitude": 64.5853,
    "name": "Uzbekistan",
    "country": "UZ",
    "sick": 1278,
    "invisible": false
  },
  {
    "latitude": 34.138916,
    "pop": 2095000,
    "longitude": -105.576255,
    "name": "New Mexico",
    "country": "US",
    "lastUpdated": "2020-04-18T10:55:20.752Z",
    "dead": 51,
    "id": "HSSFomRju0doHhWgW8On",
    "infected": 1711,
    "recovered": 0,
    "sick": 1660,
    "invisible": false
  },
  {
    "pop": 412812,
    "longitude": -72.3311,
    "name": "Los Ríos",
    "country": "CL",
    "lastUpdated": "2020-04-18T10:37:11.738Z",
    "dead": 3,
    "id": "HZkACHjW7NlYjg8vEMj2",
    "infected": 154,
    "recovered": 0,
    "latitude": -40.231,
    "sick": 151,
    "invisible": false
  },
  {
    "latitude": 53.6127,
    "pop": 1635000,
    "longitude": 12.4296,
    "name": "Mecklenburg-Vorpommern",
    "country": "DE",
    "lastUpdated": "2020-04-18T10:30:06.826Z",
    "dead": 15,
    "id": "He1gSS1v50t06i3YrqvB",
    "infected": 644,
    "recovered": 444,
    "sick": 185,
    "invisible": false
  },
  {
    "latitude": 42.25,
    "pop": 1315000,
    "longitude": 13.75,
    "name": "Abruzzo",
    "country": "IT",
    "lastUpdated": "2020-04-18T10:31:01.765Z",
    "dead": 246,
    "id": "I9EqrZfbPnkioNU4wZGz",
    "infected": 2443,
    "recovered": 255,
    "sick": 1942,
    "invisible": false
  },
  {
    "id": "IAX0OQLVnUwU7FX0ENF1",
    "infected": 1579,
    "recovered": 1482,
    "latitude": 23.363855,
    "pop": 113460000,
    "longitude": 113.373448,
    "name": "Guangdong",
    "country": "CN",
    "lastUpdated": "2020-04-18T10:38:06.928Z",
    "dead": 8,
    "sick": 89,
    "invisible": false
  },
  {
    "lastUpdated": "2020-04-18T10:38:06.931Z",
    "dead": 22,
    "id": "IFuMrMvSjoiX5agYvllh",
    "infected": 1276,
    "recovered": 1254,
    "latitude": 33.875408,
    "pop": 94000000,
    "longitude": 113.484016,
    "name": "Henan",
    "country": "CN",
    "sick": 0,
    "invisible": false
  },
  {
    "infected": 305,
    "recovered": 0,
    "latitude": 37.2,
    "pop": 451000,
    "longitude": -8.16667,
    "name": "Algarve",
    "country": "PT",
    "lastUpdated": "2020-04-18T10:34:01.515Z",
    "dead": 9,
    "id": "IHqRHC8K3OZPN8gniM7V",
    "sick": 296,
    "invisible": false
  },
  {
    "id": "IKWjRUo0SYgHQKdWjTvq",
    "infected": 14,
    "recovered": 0,
    "latitude": 3.883,
    "pop": 333194,
    "longitude": -77.0197,
    "name": "Buenaventura D.E.",
    "country": "CO",
    "lastUpdated": "2020-04-18T04:16:01.623Z",
    "dead": 1,
    "sick": 13,
    "invisible": false
  },
  {
    "infected": 4780,
    "recovered": 0,
    "latitude": 52.87,
    "pop": 4811000,
    "longitude": -0.995,
    "name": "East Midlands",
    "country": "GB",
    "lastUpdated": "2020-04-18T10:39:16.574Z",
    "dead": 0,
    "id": "INyu1R48Ppv8cfW4Nuz4",
    "sick": 4780,
    "invisible": false
  },
  {
    "infected": 72,
    "recovered": 0,
    "latitude": 22.017,
    "pop": 1342600,
    "longitude": -102.317,
    "name": "Aguascalientes",
    "country": "MX",
    "lastUpdated": "2020-04-18T10:40:01.912Z",
    "dead": 2,
    "id": "ISRKMzEDojyrZ9iyWwex",
    "sick": 70,
    "invisible": false
  },
  {
    "latitude": 25.686613,
    "pop": 5321300,
    "longitude": -100.316116,
    "name": "Nuevo León",
    "country": "MX",
    "lastUpdated": "2020-04-18T10:40:01.912Z",
    "dead": 7,
    "id": "IdKbgzgKLpjBFh4UPOwu",
    "infected": 246,
    "recovered": 0,
    "sick": 239,
    "invisible": false
  },
  {
    "infected": 128,
    "recovered": 0,
    "latitude": 28.632996,
    "pop": 3826900,
    "longitude": -106.069099,
    "name": "Chihuahua",
    "country": "MX",
    "lastUpdated": "2020-04-18T10:40:01.909Z",
    "dead": 24,
    "id": "IhhiYI6T0TX4CYVPcnmH",
    "sick": 104,
    "invisible": false
  },
  {
    "longitude": -72.57,
    "name": "Ñuble",
    "country": "CL",
    "lastUpdated": "2020-04-18T10:37:11.738Z",
    "dead": 11,
    "id": "ImnOiVx9Cb8Nw7cbRcQ7",
    "infected": 656,
    "recovered": 0,
    "latitude": -36.7,
    "pop": 480600,
    "sick": 645,
    "invisible": false
  },
  {
    "infected": 43,
    "recovered": 0,
    "latitude": 19.0558,
    "pop": 10980000,
    "longitude": -73.0513,
    "name": "Haiti",
    "country": "HT",
    "lastUpdated": "2020-04-18T10:43:04.193Z",
    "dead": 3,
    "id": "InZ38sIqyK7FN7XAOZoX",
    "sick": 40,
    "invisible": false
  },
  {
    "lastUpdated": "2020-04-18T10:55:20.749Z",
    "dead": 668,
    "id": "IvQkDJkTAsoIqPRAU25n",
    "infected": 17432,
    "recovered": 0,
    "latitude": 32.528564,
    "pop": 10520000,
    "longitude": -83.280125,
    "name": "Georgia (US)",
    "country": "US",
    "sick": 16764,
    "invisible": false
  },
  {
    "lastUpdated": "2020-04-18T10:43:04.147Z",
    "dead": 11,
    "id": "IvVhpOoGpH6JVkGyUhXN",
    "infected": 1422,
    "recovered": 867,
    "latitude": -42.8285,
    "pop": 4794000,
    "longitude": 172.488081,
    "name": "New Zealand",
    "country": "NZ",
    "sick": 544,
    "invisible": false
  },
  {
    "infected": 1,
    "recovered": 1,
    "latitude": 28.218,
    "pop": 1255000,
    "longitude": 94.7278,
    "name": "Arunachal Pradesh",
    "country": "IN",
    "lastUpdated": "2020-04-18T10:41:01.564Z",
    "dead": 0,
    "id": "IwYKiIVY18NGwdGQFGWW",
    "sick": 0,
    "invisible": false
  },
  {
    "infected": 227,
    "recovered": 113,
    "latitude": 6.4238,
    "pop": 31980000,
    "longitude": -66.5897,
    "name": "Venezuela",
    "country": "VE",
    "lastUpdated": "2020-04-18T10:43:04.162Z",
    "dead": 9,
    "id": "J3mZXlfEnnJx4CDZLvRG",
    "sick": 105,
    "invisible": false
  },
  {
    "pop": 1170000,
    "longitude": 33.4299,
    "name": "Cyprus",
    "country": "CY",
    "lastUpdated": "2020-04-18T10:43:04.152Z",
    "dead": 12,
    "id": "JQByE4l2OA6sGOqIcWrM",
    "infected": 750,
    "recovered": 77,
    "latitude": 35.1264,
    "sick": 661,
    "invisible": false
  },
  {
    "lastUpdated": "2020-04-18T10:41:01.563Z",
    "dead": 1,
    "id": "JR7hOGked7CZtIs2nCV5",
    "infected": 85,
    "recovered": 37,
    "latitude": 25.0961,
    "pop": 99020000,
    "longitude": 85.3131,
    "name": "Bihar",
    "country": "IN",
    "sick": 47,
    "invisible": false
  },
  {
    "lastUpdated": "2020-04-18T10:43:04.162Z",
    "dead": 7,
    "id": "JUWE6bG3b5oL7fKQMSvv",
    "infected": 235,
    "recovered": 21,
    "latitude": 14.628434,
    "pop": 17250000,
    "longitude": -90.522713,
    "name": "Guatemala",
    "country": "GT",
    "sick": 207,
    "invisible": false
  },
  {
    "infected": 3480,
    "recovered": 579,
    "latitude": 49.8153,
    "pop": 602005,
    "longitude": 6.1296,
    "name": "Luxembourg",
    "country": "LU",
    "lastUpdated": "2020-04-18T10:43:04.144Z",
    "dead": 72,
    "id": "JcFsHSn2WvZ5LJW42ovG",
    "sick": 2829,
    "invisible": false
  },
  {
    "infected": 10,
    "recovered": 0,
    "latitude": 8.8,
    "pop": 2049000,
    "longitude": -74.167,
    "name": "Bolívar",
    "country": "CO",
    "lastUpdated": "2020-04-18T04:16:01.532Z",
    "dead": 1,
    "id": "JmOyaFe25yZCIV64JbZj",
    "sick": 9,
    "invisible": false
  },
  {
    "latitude": 31.4,
    "pop": 3648100,
    "longitude": -115.783,
    "name": "Baja California",
    "country": "MX",
    "lastUpdated": "2020-04-18T10:40:01.909Z",
    "dead": 72,
    "id": "Jp9ePErcc8i1aOozEAMf",
    "infected": 565,
    "recovered": 0,
    "sick": 493,
    "invisible": false
  },
  {
    "lastUpdated": "2020-04-18T04:16:01.532Z",
    "dead": 2,
    "id": "Jr8syCB0lydmPDXw8Q6N",
    "infected": 17,
    "recovered": 2,
    "latitude": 8.7479801,
    "pop": 1786500,
    "longitude": -75.8814316,
    "name": "Córdoba",
    "country": "CO",
    "sick": 13,
    "invisible": false
  },
  {
    "infected": 83,
    "recovered": 48,
    "latitude": 8.6195,
    "pop": 7798000,
    "longitude": 0.8248,
    "name": "Togo",
    "country": "TG",
    "lastUpdated": "2020-04-18T10:43:04.185Z",
    "dead": 5,
    "id": "JrBbirlBKGdWSdcDt7PF",
    "sick": 30,
    "invisible": false
  },
  {
    "pop": 7050000,
    "longitude": 25.4858,
    "name": "Bulgaria",
    "country": "BG",
    "lastUpdated": "2020-04-18T10:43:04.152Z",
    "dead": 41,
    "id": "JzZ8sbqzjutThVjkPKPL",
    "infected": 865,
    "recovered": 153,
    "latitude": 42.7339,
    "sick": 671,
    "invisible": false
  },
  {
    "lastUpdated": "2020-04-18T10:31:01.768Z",
    "dead": 866,
    "id": "KLXicxFogWnu0dLp4bNK",
    "infected": 6188,
    "recovered": 1863,
    "latitude": 44.5,
    "pop": 1557000,
    "longitude": 8.833,
    "name": "Liguria",
    "country": "IT",
    "sick": 3459,
    "invisible": false
  },
  {
    "pop": 1201000,
    "longitude": -73.2532,
    "name": "Cesar",
    "country": "CO",
    "lastUpdated": "2020-04-18T04:16:01.531Z",
    "dead": 0,
    "id": "KpOz3WmiZkrXUMlUJNlV",
    "infected": 33,
    "recovered": 16,
    "latitude": 10.4631,
    "sick": 17,
    "invisible": false
  },
  {
    "infected": 8110,
    "recovered": 925,
    "latitude": 43.4167,
    "pop": 3737000,
    "longitude": 11,
    "name": "Toscana",
    "country": "IT",
    "lastUpdated": "2020-04-18T10:31:01.769Z",
    "dead": 602,
    "id": "KrLrJbpDqqiXgUPGCCW9",
    "sick": 6583,
    "invisible": false
  },
  {
    "latitude": 7.873054,
    "pop": 21440000,
    "longitude": 80.771797,
    "name": "Sri Lanka",
    "country": "LK",
    "lastUpdated": "2020-04-18T10:43:04.162Z",
    "dead": 7,
    "id": "KsWzJO06cf0d6LJ4ZNh9",
    "infected": 244,
    "recovered": 77,
    "sick": 160,
    "invisible": false
  },
  {
    "lastUpdated": "2020-04-18T10:41:01.562Z",
    "dead": 15,
    "id": "KtQIo2DoqjELtPAlyDVO",
    "infected": 603,
    "recovered": 42,
    "latitude": 15.9129,
    "pop": 49670000,
    "longitude": 79.74,
    "name": "Andhra Pradesh",
    "country": "IN",
    "sick": 546,
    "invisible": false
  },
  {
    "latitude": 61.52401,
    "pop": 144500000,
    "longitude": 105.318756,
    "name": "Russia",
    "country": "RU",
    "lastUpdated": "2020-04-18T10:43:04.140Z",
    "dead": 313,
    "id": "KwOuGBKSMRlmwftxAvLX",
    "infected": 36793,
    "recovered": 3057,
    "sick": 33423,
    "invisible": false
  },
  {
    "lastUpdated": "2020-04-18T10:43:04.194Z",
    "dead": 2,
    "id": "LBUtrLDKJiupXjlUNTUe",
    "infected": 35,
    "recovered": 13,
    "latitude": 18.0708,
    "pop": 32125,
    "longitude": -63.0501,
    "name": "Saint-Martin",
    "country": "FR",
    "sick": 20,
    "invisible": false
  },
  {
    "latitude": 47.166,
    "pop": 38557,
    "longitude": 9.5554,
    "name": "Liechtenstein",
    "country": "LI",
    "lastUpdated": "2020-04-18T10:43:04.185Z",
    "dead": 1,
    "id": "LTGEU2E9MFkrCcFhZYVk",
    "infected": 79,
    "recovered": 55,
    "sick": 23,
    "invisible": false
  },
  {
    "lastUpdated": "2020-04-18T10:43:04.155Z",
    "dead": 3,
    "id": "LU2QWt5ao8IJa8evNYVV",
    "infected": 477,
    "recovered": 59,
    "latitude": 9.9456,
    "pop": 12720000,
    "longitude": -9.6966,
    "name": "Guinea",
    "country": "GN",
    "sick": 415,
    "invisible": false
  },
  {
    "longitude": -110.5,
    "name": "Sonora",
    "country": "MX",
    "lastUpdated": "2020-04-18T10:40:01.910Z",
    "dead": 14,
    "id": "LYCBHrA9ms6GcxpLGPCT",
    "infected": 117,
    "recovered": 0,
    "latitude": 29.6667,
    "pop": 3062000,
    "sick": 103,
    "invisible": false
  },
  {
    "latitude": 3.9193051,
    "pop": 563402,
    "longitude": -56.0277824,
    "name": "Suriname",
    "country": "SR",
    "lastUpdated": "2020-04-18T10:43:04.207Z",
    "dead": 1,
    "id": "LglKINHyQpYpFxjckbQ6",
    "infected": 10,
    "recovered": 6,
    "sick": 3,
    "invisible": false
  },
  {
    "latitude": 52.9399,
    "pop": 1174000,
    "longitude": -106.4509,
    "name": "Saskatchewan",
    "country": "CA",
    "lastUpdated": "2020-04-18T10:36:01.044Z",
    "dead": 4,
    "id": "LkIDKY0CMAqzbwBHyYCP",
    "infected": 307,
    "recovered": 0,
    "sick": 303,
    "invisible": false
  },
  {
    "recovered": 0,
    "latitude": 24.2155,
    "pop": 636442,
    "longitude": -12.8858,
    "name": "Western Sahara",
    "country": "EH",
    "lastUpdated": "2020-04-18T10:43:04.208Z",
    "dead": 0,
    "id": "LooNn6RuMiDhQnwa9svw",
    "infected": 6,
    "sick": 6,
    "invisible": false
  },
  {
    "pop": 1022000,
    "longitude": -5.951843,
    "name": "Principado de Asturias",
    "country": "ES",
    "lastUpdated": "2020-04-18T10:41:09.986Z",
    "dead": 174,
    "id": "Lsga7AvYNnY0qQ5gEfV8",
    "infected": 2230,
    "recovered": 545,
    "latitude": 43.363129,
    "sick": 1511,
    "invisible": false
  },
  {
    "longitude": -6.0679,
    "name": "Extremadura",
    "country": "ES",
    "lastUpdated": "2020-04-18T10:41:09.987Z",
    "dead": 372,
    "id": "LuEErlF7dVKI0eJsRjFm",
    "infected": 3019,
    "recovered": 707,
    "latitude": 39.4937,
    "pop": 1065000,
    "sick": 1940,
    "invisible": false
  },
  {
    "infected": 140,
    "recovered": 0,
    "latitude": 21.0186,
    "pop": 5965000,
    "longitude": -101.2591,
    "name": "Guanajuato",
    "country": "MX",
    "lastUpdated": "2020-04-18T10:40:01.911Z",
    "dead": 8,
    "id": "M3wdiueFtwrUHiQ2rOXA",
    "sick": 132,
    "invisible": false
  },
  {
    "longitude": -84.27,
    "name": "Kentucky",
    "country": "US",
    "lastUpdated": "2020-04-18T10:55:20.751Z",
    "dead": 137,
    "id": "MC8MXFw9iXYybnF8v7e6",
    "infected": 2522,
    "recovered": 0,
    "latitude": 37.8393,
    "pop": 4468000,
    "sick": 2385,
    "invisible": false
  },
  {
    "infected": 12137,
    "recovered": 0,
    "latitude": 55.3781,
    "longitude": -3.436,
    "name": "Unknown UK region or state",
    "country": "GB",
    "lastUpdated": "2020-04-18T10:39:16.575Z",
    "dead": 13133,
    "id": "MEjlm8VYdGA28TTTnQmf",
    "invisible": true,
    "sick": 0
  },
  {
    "lastUpdated": "2020-04-18T10:34:01.451Z",
    "dead": 377,
    "id": "MG4e9tulLJ010SZJvbYN",
    "infected": 11324,
    "recovered": 0,
    "latitude": 41.3006,
    "pop": 3689000,
    "longitude": -7.7441,
    "name": "Norte",
    "country": "PT",
    "sick": 10947,
    "invisible": false
  },
  {
    "lastUpdated": "2020-04-18T10:39:16.574Z",
    "dead": 779,
    "id": "MObRYyIriHG337L8FyFC",
    "infected": 7409,
    "recovered": 0,
    "latitude": 56.4907,
    "pop": 5450000,
    "longitude": -4.2026,
    "name": "Scotland",
    "country": "GB",
    "sick": 6630,
    "invisible": false
  },
  {
    "lastUpdated": "2020-04-18T10:55:20.750Z",
    "dead": 519,
    "id": "MOxDkmQ4wBi1CuAdVxDE",
    "infected": 10154,
    "recovered": 0,
    "latitude": 40.2672,
    "pop": 6692000,
    "longitude": -86.1349,
    "name": "Indiana",
    "country": "US",
    "sick": 9635,
    "invisible": false
  },
  {
    "infected": 688,
    "recovered": 193,
    "latitude": 7.54,
    "pop": 24290000,
    "longitude": -5.5471,
    "name": "Ivory Coast",
    "country": "CI",
    "lastUpdated": "2020-04-18T10:43:04.153Z",
    "dead": 6,
    "id": "MdQOfc1gNh2DOqwSP6UV",
    "sick": 489,
    "invisible": false
  },
  {
    "infected": 29050,
    "recovered": 17023,
    "latitude": 51.4332,
    "pop": 17910000,
    "longitude": 7.6616,
    "name": "Nordrhein-Westfalen",
    "country": "DE",
    "lastUpdated": "2020-04-18T10:30:06.826Z",
    "dead": 840,
    "id": "MjpYq3zQyAvSQlVVYjD2",
    "sick": 11187,
    "invisible": false
  },
  {
    "latitude": 37.330509,
    "pop": 6301000,
    "longitude": 105.977203,
    "name": "Ningxia",
    "country": "CN",
    "lastUpdated": "2020-04-18T10:38:06.931Z",
    "dead": 0,
    "id": "MntmjjuHljarCdt6aIeE",
    "infected": 75,
    "recovered": 75,
    "sick": 0,
    "invisible": false
  },
  {
    "lastUpdated": "2020-04-18T10:46:08.553Z",
    "dead": 26,
    "id": "MuEB2UgkId5crsxi9zQT",
    "infected": 557,
    "recovered": 0,
    "latitude": -3.20166586,
    "pop": 8513497,
    "longitude": -52.203499186,
    "name": "Pará",
    "country": "BR",
    "sick": 531,
    "invisible": false
  },
  {
    "lastUpdated": "2020-04-18T10:30:06.815Z",
    "dead": 981,
    "id": "N3XsRBwJSsNclkEf7Zz5",
    "infected": 28654,
    "recovered": 14464,
    "latitude": 48.6616,
    "pop": 11020000,
    "longitude": 9.3501,
    "name": "Baden-Württemberg",
    "country": "DE",
    "sick": 13209,
    "invisible": false
  },
  {
    "infected": 1214,
    "recovered": 320,
    "latitude": 44.696652,
    "pop": 3507000,
    "longitude": 17.824332,
    "name": "Bosnia and Herzegovina",
    "country": "BA",
    "lastUpdated": "2020-04-18T10:43:04.147Z",
    "dead": 46,
    "id": "N7c13sCQF0G789XAVazJ",
    "sick": 848,
    "invisible": false
  },
  {
    "lastUpdated": "2020-04-18T10:38:06.928Z",
    "dead": 0,
    "id": "NBRIGIRrJB1Ry8prDNAC",
    "infected": 197,
    "recovered": 135,
    "latitude": 37.242565,
    "pop": 36500000,
    "longitude": 111.856857,
    "name": "Shanxi",
    "country": "CN",
    "sick": 62,
    "invisible": false
  },
  {
    "longitude": -79.0193,
    "name": "North Carolina",
    "country": "US",
    "lastUpdated": "2020-04-18T10:55:20.750Z",
    "dead": 181,
    "id": "NC64Qp5kTqAfiTuR27k8",
    "infected": 6198,
    "recovered": 0,
    "latitude": 35.7596,
    "pop": 10380000,
    "sick": 6017,
    "invisible": false
  },
  {
    "lastUpdated": "2020-04-18T10:30:06.826Z",
    "dead": 85,
    "id": "NJjo2gfBvnbK4xatrsUz",
    "infected": 2311,
    "recovered": 1170,
    "latitude": 52.4125,
    "pop": 2504000,
    "longitude": 12.5316,
    "name": "Brandenburg",
    "country": "DE",
    "sick": 1056,
    "invisible": false
  },
  {
    "infected": 13,
    "recovered": 0,
    "latitude": 15.0979,
    "pop": 55144,
    "longitude": -145.6739,
    "name": "Northern Mariana Islands",
    "country": "MP",
    "lastUpdated": "2020-04-18T10:55:20.753Z",
    "dead": 2,
    "id": "NLLL6pJhJSw0lrDMD4uP",
    "sick": 11,
    "invisible": false
  },
  {
    "id": "NMeZEcGToxXfpi16PfFV",
    "infected": 42,
    "recovered": 9,
    "latitude": 30.0668,
    "pop": 10080000,
    "longitude": 79.0193,
    "name": "Uttarakhand",
    "country": "IN",
    "lastUpdated": "2020-04-18T10:41:01.563Z",
    "dead": 0,
    "sick": 33,
    "invisible": false
  },
  {
    "latitude": 50.6521,
    "pop": 6243000,
    "longitude": 9.1624,
    "name": "Hessen",
    "country": "DE",
    "lastUpdated": "2020-04-18T10:30:06.826Z",
    "dead": 223,
    "id": "Nk5vPgUIXsWVfbWZf15O",
    "infected": 6891,
    "recovered": 2564,
    "sick": 4104,
    "invisible": false
  },
  {
    "pop": 1920000,
    "longitude": 25.837107,
    "name": "Latvia",
    "country": "LV",
    "lastUpdated": "2020-04-18T10:43:04.153Z",
    "dead": 5,
    "id": "NmmMKy0YqA8StHdGzB5N",
    "infected": 712,
    "recovered": 88,
    "latitude": 56.96776,
    "sick": 619,
    "invisible": false
  },
  {
    "latitude": -8.472372,
    "pop": 9496294,
    "longitude": -37.946777,
    "name": "Pernambuco",
    "country": "BR",
    "lastUpdated": "2020-04-18T10:46:08.553Z",
    "dead": 186,
    "id": "NyGlFL1gATK1Omv9qtcC",
    "infected": 2006,
    "recovered": 0,
    "sick": 1820,
    "invisible": false
  },
  {
    "latitude": 6.4281,
    "pop": 4732000,
    "longitude": -9.4295,
    "name": "Liberia",
    "country": "LR",
    "lastUpdated": "2020-04-18T10:43:04.185Z",
    "dead": 7,
    "id": "O4g88K49HKEZLFXm5gxb",
    "infected": 76,
    "recovered": 7,
    "sick": 62,
    "invisible": false
  },
  {
    "lastUpdated": "2020-04-18T10:55:20.751Z",
    "dead": 116,
    "id": "ONU4CK8QjViFHKg2w5if",
    "infected": 4086,
    "recovered": 0,
    "latitude": 34.003307,
    "pop": 5084000,
    "longitude": -80.525613,
    "name": "South Carolina",
    "country": "US",
    "sick": 3970,
    "invisible": false
  },
  {
    "lastUpdated": "2020-04-18T10:55:20.751Z",
    "dead": 140,
    "id": "OYa0jFzdbAgo8zUsRv6q",
    "infected": 3793,
    "recovered": 0,
    "latitude": 33.51822,
    "pop": 2987000,
    "longitude": -89.582775,
    "name": "Mississippi",
    "country": "US",
    "sick": 3653,
    "invisible": false
  },
  {
    "lastUpdated": "2020-04-18T10:55:20.752Z",
    "dead": 29,
    "id": "OcXNp9kNVSwrRlG3bNVN",
    "infected": 827,
    "recovered": 0,
    "latitude": 45.2538,
    "pop": 1338000,
    "longitude": -69.4455,
    "name": "Maine",
    "country": "US",
    "sick": 798,
    "invisible": false
  },
  {
    "latitude": -41.915264,
    "pop": 515000,
    "longitude": 146.725256,
    "name": "Tasmania",
    "country": "AU",
    "lastUpdated": "2020-04-18T10:36:01.045Z",
    "dead": 7,
    "id": "OnOseaqWdnuP18oruABW",
    "infected": 187,
    "recovered": 67,
    "sick": 113,
    "invisible": false
  },
  {
    "latitude": -16.35,
    "pop": 3441998,
    "longitude": -56.666668,
    "name": "Mato Grosso",
    "country": "BR",
    "lastUpdated": "2020-04-18T10:46:08.553Z",
    "dead": 5,
    "id": "P0GHFGUt1pkKTk5PM8uz",
    "infected": 162,
    "recovered": 0,
    "sick": 157,
    "invisible": false
  },
  {
    "longitude": -81.2546,
    "name": "Cayman Islands",
    "country": "KY",
    "lastUpdated": "2020-04-18T10:43:04.186Z",
    "dead": 1,
    "id": "P4mwRFLbrvT0t75uD8Wo",
    "infected": 61,
    "recovered": 7,
    "latitude": 19.3133,
    "pop": 61559,
    "sick": 53,
    "invisible": false
  },
  {
    "infected": 11,
    "recovered": 1,
    "latitude": 16.7424984,
    "pop": 5900,
    "longitude": -62.1873665,
    "name": "Montserrat",
    "country": "MS",
    "lastUpdated": "2020-04-18T10:43:04.204Z",
    "dead": 0,
    "id": "PEDkeFMTOZpvHiSVxBk7",
    "sick": 10,
    "invisible": false
  },
  {
    "infected": 143,
    "recovered": 65,
    "latitude": -1.9403,
    "pop": 12210000,
    "longitude": 29.8739,
    "name": "Rwanda",
    "country": "RW",
    "lastUpdated": "2020-04-18T10:43:04.163Z",
    "dead": 0,
    "id": "PEcgZGEkyhABztt1Ufgc",
    "sick": 78,
    "invisible": false
  },
  {
    "id": "PJvVYosLIhbcRZYnKX1R",
    "infected": 2070,
    "recovered": 0,
    "latitude": 46.7296,
    "pop": 5611000,
    "longitude": -94.6859,
    "name": "Minnesota",
    "country": "US",
    "lastUpdated": "2020-04-18T10:55:20.751Z",
    "dead": 111,
    "sick": 1959,
    "invisible": false
  },
  {
    "longitude": -89.3985,
    "name": "Illinois",
    "country": "US",
    "lastUpdated": "2020-04-18T10:55:20.749Z",
    "dead": 1132,
    "id": "PTwQr9ijo0TBBsPH2sdJ",
    "infected": 27577,
    "recovered": 0,
    "latitude": 40.6331,
    "pop": 12740000,
    "sick": 26445,
    "invisible": false
  },
  {
    "infected": 15,
    "recovered": 11,
    "latitude": 13.909444,
    "pop": 178844,
    "longitude": -60.978893,
    "name": "Saint Lucia",
    "country": "LC",
    "lastUpdated": "2020-04-18T10:43:04.201Z",
    "dead": 0,
    "id": "PjLqCeFdyzdZNcZxMkK1",
    "sick": 4,
    "invisible": false
  },
  {
    "lastUpdated": "2020-04-18T10:41:09.988Z",
    "dead": 338,
    "id": "PmUlsNx2uFLU797wwU39",
    "infected": 4433,
    "recovered": 892,
    "latitude": 42.6954,
    "pop": 649900,
    "longitude": -1.6761,
    "name": "Comunidad Foral de Navarra",
    "country": "ES",
    "sick": 3203,
    "invisible": false
  },
  {
    "infected": 864,
    "recovered": 43,
    "latitude": 34.201507,
    "pop": 11530000,
    "longitude": 9.460554,
    "name": "Tunisia",
    "country": "TN",
    "lastUpdated": "2020-04-18T10:43:04.152Z",
    "dead": 37,
    "id": "Pr76V4raf108uSRoEXac",
    "sick": 784,
    "invisible": false
  },
  {
    "latitude": -26.5225,
    "pop": 1367000,
    "longitude": 31.4659,
    "name": "Eswatini",
    "country": "SZ",
    "lastUpdated": "2020-04-18T10:43:04.195Z",
    "dead": 1,
    "id": "PuQgOd9KWiMzGZXm11sR",
    "infected": 19,
    "recovered": 8,
    "sick": 10,
    "invisible": false
  },
  {
    "id": "Q18mrGvFWTLX2BU9SqhQ",
    "infected": 1319,
    "recovered": 1172,
    "latitude": -37.009609,
    "pop": 6359000,
    "longitude": 143.94853,
    "name": "Victoria",
    "country": "AU",
    "lastUpdated": "2020-04-18T10:36:01.044Z",
    "dead": 14,
    "sick": 133,
    "invisible": false
  },
  {
    "lastUpdated": "2020-04-18T10:30:06.827Z",
    "dead": 65,
    "id": "Q39XkabIYxt15mHINzTa",
    "infected": 2381,
    "recovered": 1600,
    "latitude": 54.2194,
    "pop": 2890000,
    "longitude": 9.6961,
    "name": "Schleswig-Holstein",
    "country": "DE",
    "sick": 716,
    "invisible": false
  },
  {
    "latitude": -27.953491,
    "pop": 11329605,
    "longitude": -52.031696,
    "name": "Rio Grande do Sul",
    "country": "BR",
    "lastUpdated": "2020-04-18T10:46:08.554Z",
    "dead": 22,
    "id": "QGpQNhuoVTUPHXvS7qcu",
    "infected": 802,
    "recovered": 0,
    "sick": 780,
    "invisible": false
  },
  {
    "infected": 1512,
    "recovered": 162,
    "latitude": 58.595272,
    "pop": 1328000,
    "longitude": 25.013607,
    "name": "Estonia",
    "country": "EE",
    "lastUpdated": "2020-04-18T10:43:04.146Z",
    "dead": 38,
    "id": "QR9go2hQKXjty7JHUYe4",
    "sick": 1312,
    "invisible": false
  },
  {
    "infected": 856,
    "recovered": 0,
    "latitude": -20.318,
    "pop": 3972388,
    "longitude": -40.336,
    "name": "Espírito Santo",
    "country": "BR",
    "lastUpdated": "2020-04-18T10:46:08.553Z",
    "dead": 25,
    "id": "QaWDLKH8SuwD0Qxq6c38",
    "sick": 831,
    "invisible": false
  },
  {
    "latitude": 20.3333,
    "pop": 8222700,
    "longitude": -103.6667,
    "name": "Jalisco",
    "country": "MX",
    "lastUpdated": "2020-04-18T10:40:01.912Z",
    "dead": 13,
    "id": "Qkho455pBwx88Gohs3hL",
    "infected": 190,
    "recovered": 0,
    "sick": 177,
    "invisible": false
  },
  {
    "infected": 7,
    "recovered": 0,
    "latitude": -6.315,
    "pop": 8251000,
    "longitude": 143.9555,
    "name": "Papua New Guinea",
    "country": "PG",
    "lastUpdated": "2020-04-18T10:43:04.208Z",
    "dead": 0,
    "id": "QlZrE4nosm5WfdA2aCDg",
    "sick": 7,
    "invisible": false
  },
  {
    "longitude": -64.8963,
    "name": "U.S. Virgin Islands",
    "country": "US",
    "lastUpdated": "2020-04-18T10:55:20.753Z",
    "dead": 2,
    "id": "QqhD3YDMKXojvQY3Yu41",
    "infected": 51,
    "recovered": 0,
    "latitude": 18.3358,
    "pop": 107268,
    "sick": 49,
    "invisible": false
  },
  {
    "infected": 16,
    "recovered": 8,
    "latitude": 15.414999,
    "pop": 71937,
    "longitude": -61.3709755,
    "name": "Dominica",
    "country": "DM",
    "lastUpdated": "2020-04-18T10:43:04.201Z",
    "dead": 0,
    "id": "Qy2qW2ep5wltnYjPJBxh",
    "sick": 8,
    "invisible": false
  },
  {
    "lastUpdated": "2020-04-18T04:16:01.531Z",
    "dead": 0,
    "id": "R3IHMWqIUhOJJTlrmbUZ",
    "infected": 9,
    "recovered": 2,
    "latitude": 5.167,
    "pop": 344027,
    "longitude": -72.167,
    "name": "Casanare",
    "country": "CO",
    "sick": 7,
    "invisible": false
  },
  {
    "id": "R8YCgephnxTufvcPWMgx",
    "infected": 4210,
    "recovered": 122,
    "latitude": 8.538,
    "pop": 4099000,
    "longitude": -80.7821,
    "name": "Panama",
    "country": "PA",
    "lastUpdated": "2020-04-18T10:53:01.366Z",
    "dead": 116,
    "sick": 3972,
    "invisible": false
  },
  {
    "latitude": 15.2,
    "pop": 9265000,
    "longitude": -86.2419,
    "name": "Honduras",
    "country": "HN",
    "lastUpdated": "2020-04-18T10:43:04.161Z",
    "dead": 46,
    "id": "RA2SE0p2bVhqo0P2hzGY",
    "infected": 457,
    "recovered": 10,
    "sick": 401,
    "invisible": false
  },
  {
    "latitude": -18.4745998,
    "pop": 224500,
    "longitude": -70.2979202,
    "name": "Arica y Parinacota",
    "country": "CL",
    "lastUpdated": "2020-04-18T10:37:11.731Z",
    "dead": 2,
    "id": "RBt9RiwP7WUbMnJfD0lo",
    "infected": 134,
    "recovered": 0,
    "sick": 132,
    "invisible": false
  },
  {
    "recovered": 1027,
    "latitude": 45.633331,
    "pop": 1216000,
    "longitude": 13.8,
    "name": "Friuli Venezia Giulia",
    "country": "IT",
    "lastUpdated": "2020-04-18T10:31:01.767Z",
    "dead": 220,
    "id": "RCrDBCdBNYzgLNr0aB2H",
    "infected": 2675,
    "sick": 1428,
    "invisible": false
  },
  {
    "latitude": 41.878,
    "pop": 3156000,
    "longitude": -93.0977,
    "name": "Iowa",
    "country": "US",
    "lastUpdated": "2020-04-18T10:55:20.751Z",
    "dead": 64,
    "id": "RX0KDu1AFrlCsrRso0nb",
    "infected": 2333,
    "recovered": 0,
    "sick": 2269,
    "invisible": false
  },
  {
    "latitude": 4.624335,
    "pop": 7413000,
    "longitude": -74.063644,
    "name": "Bogotá D.C.",
    "country": "CO",
    "lastUpdated": "2020-04-18T04:16:01.528Z",
    "dead": 61,
    "id": "RZ6PCe5TZsO15JjDObwO",
    "infected": 1396,
    "recovered": 175,
    "sick": 1160,
    "invisible": false
  },
  {
    "recovered": 11,
    "latitude": 26.3351002,
    "pop": 6846000,
    "longitude": 17.2283306,
    "name": "Libya",
    "country": "LY",
    "lastUpdated": "2020-04-18T10:43:04.190Z",
    "dead": 1,
    "id": "RaJxbzlnRFTuj4B8IbpC",
    "infected": 49,
    "sick": 37,
    "invisible": false
  },
  {
    "lastUpdated": "2020-04-18T10:55:20.752Z",
    "dead": 84,
    "id": "Rf4uvBfP3GRDSHdZElRd",
    "infected": 1742,
    "recovered": 0,
    "latitude": 39.0119,
    "pop": 2912000,
    "longitude": -98.4842,
    "name": "Kansas",
    "country": "US",
    "sick": 1658,
    "invisible": false
  },
  {
    "infected": 18336,
    "recovered": 5828,
    "latitude": 48.6998,
    "pop": 5518000,
    "longitude": 6.1878,
    "name": "Grand Est",
    "country": "FR",
    "lastUpdated": "2020-04-18T01:18:41.913Z",
    "dead": 2358,
    "id": "RmEgf1xeclWt7XCF9oiR",
    "sick": 10150,
    "invisible": false
  },
  {
    "lastUpdated": "2020-04-18T10:29:05.522Z",
    "dead": 1946,
    "id": "RryHraSohKQLAsdr1dHO",
    "infected": 11207,
    "recovered": 2236,
    "latitude": 50.4176,
    "pop": 3644000,
    "longitude": 4.451,
    "name": "Wallonia",
    "country": "BE",
    "sick": 7025,
    "invisible": false
  },
  {
    "latitude": 51.2538,
    "pop": 14570000,
    "longitude": -85.3232,
    "name": "Ontario",
    "country": "CA",
    "lastUpdated": "2020-04-18T10:36:01.043Z",
    "dead": 524,
    "id": "Rx4TuyMpfGb3S8wYJX0x",
    "infected": 10456,
    "recovered": 0,
    "sick": 9932,
    "invisible": false
  },
  {
    "lastUpdated": "2020-04-18T10:41:09.987Z",
    "dead": 1401,
    "id": "S8ewN4zaYp8mjtuqqOTw",
    "infected": 14903,
    "recovered": 4924,
    "latitude": 41.652779,
    "pop": 2408000,
    "longitude": -4.723611,
    "name": "Castilla y León",
    "country": "ES",
    "sick": 8578,
    "invisible": false
  },
  {
    "latitude": 14.652027,
    "pop": 376480,
    "longitude": -61.011715,
    "name": "Martinique",
    "country": "FR",
    "lastUpdated": "2020-04-18T01:19:10.546Z",
    "dead": 8,
    "id": "SDdefnq1bc3ZNr7SpEsW",
    "infected": 159,
    "recovered": 73,
    "sick": 78,
    "invisible": false
  },
  {
    "lastUpdated": "2020-04-18T10:43:04.154Z",
    "dead": 8,
    "id": "SG9VWLOV3x2JsTkXmVSz",
    "infected": 641,
    "recovered": 83,
    "latitude": 7.9465,
    "pop": 28830000,
    "longitude": -1.0232,
    "name": "Ghana",
    "country": "GH",
    "sick": 550,
    "invisible": false
  },
  {
    "infected": 27078,
    "recovered": 16400,
    "latitude": 46.818188,
    "pop": 8570000,
    "longitude": 8.227512,
    "name": "Switzerland",
    "country": "CH",
    "lastUpdated": "2020-04-18T10:43:04.140Z",
    "dead": 1344,
    "id": "SGe9sCPayMqh6RsGFaBA",
    "sick": 9334,
    "invisible": false
  },
  {
    "infected": 16798,
    "recovered": 0,
    "latitude": 46.8139,
    "pop": 8485000,
    "longitude": -71.208,
    "name": "Quebec",
    "country": "CA",
    "lastUpdated": "2020-04-18T10:36:01.043Z",
    "dead": 688,
    "id": "SHoOE3NiJgWAlDVBzwYH",
    "sick": 16110,
    "invisible": false
  },
  {
    "latitude": 42.6026,
    "pop": 1831000,
    "longitude": 20.903,
    "name": "Kosovo",
    "country": "XK",
    "lastUpdated": "2020-04-18T10:40:01.269Z",
    "dead": 12,
    "id": "SMWvuMMuKp2QK7O2tNia",
    "infected": 480,
    "recovered": 84,
    "sick": 384,
    "invisible": false
  },
  {
    "latitude": 15.2993,
    "pop": 1817000,
    "longitude": 74.124,
    "name": "Goa",
    "country": "IN",
    "lastUpdated": "2020-04-18T10:41:01.563Z",
    "dead": 0,
    "id": "SPcujsH2YlUaoAr8AiWF",
    "infected": 7,
    "recovered": 6,
    "sick": 1,
    "invisible": false
  },
  {
    "latitude": -16.328547,
    "pop": 6921161,
    "longitude": -48.953403,
    "name": "Goiás",
    "country": "BR",
    "lastUpdated": "2020-04-18T10:46:08.553Z",
    "dead": 16,
    "id": "SV5AMF59J61Vt4cXWLgy",
    "infected": 335,
    "recovered": 0,
    "sick": 319,
    "invisible": false
  },
  {
    "lastUpdated": "2020-04-18T10:31:01.767Z",
    "dead": 73,
    "id": "SZdF624x0v1LlyzZjKFu",
    "infected": 991,
    "recovered": 99,
    "latitude": 39,
    "pop": 1957000,
    "longitude": 16.5,
    "name": "Calabria",
    "country": "IT",
    "sick": 819,
    "invisible": false
  },
  {
    "lastUpdated": "2020-04-18T10:55:20.752Z",
    "dead": 24,
    "id": "SakhKQzKu1LRI8laqdQq",
    "infected": 1138,
    "recovered": 0,
    "latitude": 41.4925,
    "pop": 1929000,
    "longitude": -99.9018,
    "name": "Nebraska",
    "country": "US",
    "sick": 1114,
    "invisible": false
  },
  {
    "lastUpdated": "2020-04-18T01:19:04.299Z",
    "dead": 0,
    "id": "SgHzWAAYK1j2sipovxM6",
    "infected": 402,
    "recovered": 40,
    "latitude": -21.1151,
    "pop": 859959,
    "longitude": 55.5364,
    "name": "La Réunion",
    "country": "FR",
    "sick": 362,
    "invisible": false
  },
  {
    "recovered": 103,
    "latitude": 12.565679,
    "pop": 16010000,
    "longitude": 104.990967,
    "name": "Cambodia",
    "country": "KH",
    "lastUpdated": "2020-04-18T10:43:04.163Z",
    "dead": 0,
    "id": "SioMALgUbo7peXmbco2f",
    "infected": 122,
    "sick": 19,
    "invisible": false
  },
  {
    "latitude": 13.4443,
    "pop": 164229,
    "longitude": 144.7937,
    "name": "Guam",
    "country": "GU",
    "lastUpdated": "2020-04-18T10:55:20.753Z",
    "dead": 5,
    "id": "SsWhuEElU7dCTTuH5fdQ",
    "infected": 136,
    "recovered": 0,
    "sick": 131,
    "invisible": false
  },
  {
    "latitude": -4.0383,
    "pop": 81340000,
    "longitude": 21.7587,
    "name": "DR Congo",
    "country": "CD",
    "lastUpdated": "2020-04-18T10:43:04.162Z",
    "dead": 25,
    "id": "T3iRf8mTUTAzbKrORTap",
    "infected": 307,
    "recovered": 26,
    "sick": 256,
    "invisible": false
  },
  {
    "lastUpdated": "2020-04-18T10:43:04.142Z",
    "dead": 87,
    "id": "T7NffoeCgTUpAbOHvYwP",
    "infected": 7142,
    "recovered": 1049,
    "latitude": 23.635796,
    "pop": 32940000,
    "longitude": 44.344334,
    "name": "Saudi Arabia",
    "country": "SA",
    "sick": 6006,
    "invisible": false
  },
  {
    "latitude": 42.2871,
    "pop": 315700,
    "longitude": -2.5396,
    "name": "La Rioja",
    "country": "ES",
    "lastUpdated": "2020-04-18T10:41:09.988Z",
    "dead": 262,
    "id": "TNDTapyb0k3l7Mds9q9R",
    "infected": 4098,
    "recovered": 1729,
    "sick": 2107,
    "invisible": false
  },
  {
    "pop": 2207200,
    "longitude": -89.134857,
    "name": "Yucatán",
    "country": "MX",
    "lastUpdated": "2020-04-18T10:40:01.910Z",
    "dead": 9,
    "id": "TQCWbhIpJQBQxBjhCGVJ",
    "infected": 140,
    "recovered": 0,
    "latitude": 20.400417,
    "sick": 131,
    "invisible": false
  },
  {
    "latitude": 4.506106,
    "pop": 428697,
    "longitude": 114.650692,
    "name": "Brunei",
    "country": "BN",
    "lastUpdated": "2020-04-18T10:43:04.163Z",
    "dead": 1,
    "id": "TQZmzsLhJqjtCSExAkCP",
    "infected": 136,
    "recovered": 112,
    "sick": 23,
    "invisible": false
  },
  {
    "longitude": 4.3853,
    "name": "Auvergne-Rhône-Alpes",
    "country": "FR",
    "lastUpdated": "2020-04-18T01:18:14.620Z",
    "dead": 954,
    "id": "TT0MKODSjrxHvG19xZCa",
    "infected": 10665,
    "recovered": 3637,
    "latitude": 45.4471,
    "pop": 8027000,
    "sick": 6074,
    "invisible": false
  },
  {
    "lastUpdated": "2020-04-18T10:34:01.528Z",
    "dead": 0,
    "id": "TeoNTu4aw5riC04sTd73",
    "infected": 158,
    "recovered": 0,
    "latitude": 38.5667,
    "pop": 758700,
    "longitude": -7.9,
    "name": "Alentejo",
    "country": "PT",
    "sick": 158,
    "invisible": false
  },
  {
    "longitude": -105.461392,
    "name": "Colorado",
    "country": "US",
    "lastUpdated": "2020-04-18T10:55:20.750Z",
    "dead": 391,
    "id": "Th4dlpXXmSDgi1OHs36P",
    "infected": 9047,
    "recovered": 0,
    "latitude": 39.318928,
    "pop": 5696000,
    "sick": 8656,
    "invisible": false
  },
  {
    "id": "Tup6oDCHj6DgqZR3nQ3x",
    "infected": 557,
    "recovered": 294,
    "latitude": 12.2383,
    "pop": 19190000,
    "longitude": -1.5616,
    "name": "Burkina Faso",
    "country": "BF",
    "lastUpdated": "2020-04-18T10:43:04.154Z",
    "dead": 35,
    "sick": 228,
    "invisible": false
  },
  {
    "infected": 14,
    "recovered": 6,
    "latitude": 12.104818,
    "pop": 112381,
    "longitude": -61.670761,
    "name": "Grenada",
    "country": "GD",
    "lastUpdated": "2020-04-18T10:43:04.201Z",
    "dead": 0,
    "id": "TvqURPN5xzVBXsmGP46N",
    "sick": 8,
    "invisible": false
  },
  {
    "lastUpdated": "2020-04-18T10:43:04.142Z",
    "dead": 336,
    "id": "Ty1AY3VLPJcRZgdBIERx",
    "infected": 7073,
    "recovered": 3389,
    "latitude": 55.675758,
    "pop": 5603000,
    "longitude": 12.56902,
    "name": "Denmark",
    "country": "DK",
    "sick": 3348,
    "invisible": false
  },
  {
    "id": "U0N7cIPJXAc4T6uKV60c",
    "infected": 6254,
    "recovered": 0,
    "latitude": 53.9062,
    "pop": 5486000,
    "longitude": -1.0334,
    "name": "Yorkshire and The Humber",
    "country": "GB",
    "lastUpdated": "2020-04-18T10:39:16.575Z",
    "dead": 0,
    "sick": 6254,
    "invisible": false
  },
  {
    "id": "U0tkTJ9CGsBuFJ2Gdoum",
    "infected": 787,
    "recovered": 765,
    "latitude": 36.395859,
    "pop": 100472400,
    "longitude": 118.769882,
    "name": "Shandong",
    "country": "CN",
    "lastUpdated": "2020-04-18T10:38:06.929Z",
    "dead": 7,
    "sick": 15,
    "invisible": false
  },
  {
    "latitude": 43.94236,
    "pop": 33400,
    "longitude": 12.457777,
    "name": "San Marino",
    "country": "SM",
    "lastUpdated": "2020-04-18T10:43:04.161Z",
    "dead": 39,
    "id": "U12rMD5GDW58Q0lIwrB1",
    "infected": 435,
    "recovered": 57,
    "sick": 339,
    "invisible": false
  },
  {
    "lastUpdated": "2020-04-18T10:43:04.141Z",
    "dead": 190,
    "id": "U13Gy4BpRLAZ95bPmBXd",
    "infected": 9787,
    "recovered": 935,
    "latitude": 36.204823,
    "pop": 126800000,
    "longitude": 138.25293,
    "name": "Japan",
    "country": "JP",
    "sick": 8662,
    "invisible": false
  },
  {
    "lastUpdated": "2020-04-18T03:13:02.727Z",
    "dead": 0,
    "id": "UCZXEgnHtxUoChWLR6fQ",
    "infected": 56,
    "recovered": 20,
    "latitude": 1.3733,
    "pop": 42860000,
    "longitude": 32.2903,
    "name": "Uganda",
    "country": "UG",
    "sick": 36,
    "invisible": false
  },
  {
    "recovered": 5,
    "latitude": -11.2027,
    "pop": 29780000,
    "longitude": 17.8739,
    "name": "Angola",
    "country": "AO",
    "lastUpdated": "2020-04-18T10:43:04.195Z",
    "dead": 2,
    "id": "UIbrFy6kiTTF0D37Kqmp",
    "infected": 19,
    "sick": 12,
    "invisible": false
  },
  {
    "id": "URKMlJ7OTNldjpaxFbjE",
    "infected": 1774,
    "recovered": 596,
    "latitude": 48.202,
    "pop": 3329000,
    "longitude": -2.9326,
    "name": "Bretagne",
    "country": "FR",
    "lastUpdated": "2020-04-18T01:18:24.898Z",
    "dead": 171,
    "sick": 1007,
    "invisible": false
  },
  {
    "longitude": 9.9937,
    "name": "Hamburg",
    "country": "DE",
    "lastUpdated": "2020-04-18T10:30:06.826Z",
    "dead": 84,
    "id": "UfFaUECHINUutv1M9tzq",
    "infected": 4195,
    "recovered": 2300,
    "latitude": 53.5511,
    "pop": 1822000,
    "sick": 1811,
    "invisible": false
  },
  {
    "lastUpdated": "2020-04-18T10:40:01.911Z",
    "dead": 2,
    "id": "UflxTAb4FnAwve7c5MbY",
    "infected": 27,
    "recovered": 0,
    "latitude": 22.774916,
    "pop": 1615000,
    "longitude": -102.586899,
    "name": "Zacatecas",
    "country": "MX",
    "sick": 25,
    "invisible": false
  },
  {
    "lastUpdated": "2020-04-18T10:46:08.553Z",
    "dead": 5,
    "id": "UlA1ubOUhPtf9jjKxxhF",
    "infected": 143,
    "recovered": 0,
    "latitude": -20.4427795,
    "pop": 2748023,
    "longitude": -54.646389,
    "name": "Mato Grosso do Sul",
    "country": "BR",
    "sick": 138,
    "invisible": false
  },
  {
    "infected": 27,
    "recovered": 9,
    "latitude": -19.4914,
    "pop": 211945,
    "longitude": 132.551,
    "name": "Northern Territory",
    "country": "AU",
    "lastUpdated": "2020-04-18T10:36:01.045Z",
    "dead": 0,
    "id": "UrF45V1VqMo6YBib2KlL",
    "sick": 18,
    "invisible": false
  },
  {
    "infected": 57,
    "recovered": 12,
    "latitude": 18.0424805,
    "pop": 41109,
    "longitude": -63.0548286,
    "name": "Sint Maarten",
    "country": "SX",
    "lastUpdated": "2020-04-18T10:43:04.186Z",
    "dead": 9,
    "id": "UsxgpiuFCtlR2CW1UUFm",
    "sick": 36,
    "invisible": false
  },
  {
    "infected": 8718,
    "recovered": 0,
    "latitude": 52.4751,
    "pop": 5908000,
    "longitude": -1.8298,
    "name": "West Midlands",
    "country": "GB",
    "lastUpdated": "2020-04-18T10:39:16.575Z",
    "dead": 0,
    "id": "UzOGOMitJmaFTdh2FbvI",
    "sick": 8718,
    "invisible": false
  },
  {
    "infected": 7,
    "recovered": 1,
    "latitude": 11.943179,
    "pop": 241773,
    "longitude": 79.808206,
    "name": "Puducherry",
    "country": "IN",
    "lastUpdated": "2020-04-18T10:41:01.563Z",
    "dead": 0,
    "id": "V1qE740s3EUGyKGr6SVv",
    "sick": 6,
    "invisible": false
  },
  {
    "infected": 7,
    "recovered": 0,
    "latitude": -45.5687,
    "pop": 25569,
    "longitude": -72.0597,
    "name": "Aysén",
    "country": "CL",
    "lastUpdated": "2020-04-18T10:37:11.738Z",
    "dead": 0,
    "id": "V9QxUhV4DyYK7iElEhXV",
    "sick": 7,
    "invisible": false
  },
  {
    "lastUpdated": "2020-04-18T10:43:04.152Z",
    "dead": 31,
    "id": "VAG9AcMABTf8oIAfELPh",
    "infected": 923,
    "recovered": 192,
    "latitude": 21.5218,
    "pop": 11480000,
    "longitude": -77.7812,
    "name": "Cuba",
    "country": "CU",
    "sick": 700,
    "invisible": false
  },
  {
    "pop": 45970000,
    "longitude": 101.864143,
    "name": "Yunnan",
    "country": "CN",
    "lastUpdated": "2020-04-18T10:38:06.929Z",
    "dead": 2,
    "id": "VIf8T8PD3ZzlzAm5eBCX",
    "infected": 184,
    "recovered": 177,
    "latitude": 25.181129,
    "sick": 5,
    "invisible": false
  },
  {
    "latitude": -3.4653,
    "pop": 4080611,
    "longitude": -62.2159,
    "name": "Amazonas",
    "country": "BR",
    "lastUpdated": "2020-04-18T10:46:08.552Z",
    "dead": 145,
    "id": "VZQiSdZ7cUHgUZWgpNTP",
    "infected": 1809,
    "recovered": 0,
    "sick": 1664,
    "invisible": false
  },
  {
    "longitude": 80.9462,
    "name": "Uttar Pradesh",
    "country": "IN",
    "lastUpdated": "2020-04-18T10:41:01.562Z",
    "dead": 14,
    "id": "VcKcLdCkC6YpPfIDnRVD",
    "infected": 849,
    "recovered": 82,
    "latitude": 26.8467,
    "pop": 204200000,
    "sick": 753,
    "invisible": false
  },
  {
    "lastUpdated": "2020-04-18T10:36:01.045Z",
    "dead": 0,
    "id": "Vd3lLgrNsr81plzTgZkz",
    "infected": 5,
    "recovered": 0,
    "latitude": 64.8255,
    "pop": 44826,
    "longitude": -124.8457,
    "name": "Northwest Territories",
    "country": "CA",
    "sick": 5,
    "invisible": false
  },
  {
    "longitude": 3.838942,
    "name": "Islas Baleares",
    "country": "ES",
    "lastUpdated": "2020-04-18T10:41:09.986Z",
    "dead": 134,
    "id": "VyW0IR9vLMdgnKz1cC7j",
    "infected": 1668,
    "recovered": 938,
    "latitude": 39.999079,
    "pop": 1188000,
    "sick": 596,
    "invisible": false
  },
  {
    "infected": 3866,
    "recovered": 1583,
    "latitude": 43.8927,
    "pop": 5893000,
    "longitude": 3.2828,
    "name": "Occitanie",
    "country": "FR",
    "lastUpdated": "2020-04-18T01:19:28.273Z",
    "dead": 290,
    "id": "WAnbFrEjtZDTCIYBt8rz",
    "sick": 1993,
    "invisible": false
  },
  {
    "latitude": 40.5,
    "pop": 567118,
    "longitude": 16.5,
    "name": "Basilicata",
    "country": "IT",
    "lastUpdated": "2020-04-18T10:31:01.766Z",
    "dead": 22,
    "id": "WD502XimGXnWzqYg7zxL",
    "infected": 337,
    "recovered": 49,
    "sick": 266,
    "invisible": false
  },
  {
    "infected": 2,
    "recovered": 1,
    "latitude": 24.6637,
    "pop": 2722000,
    "longitude": 93.9063,
    "name": "Manipur",
    "country": "IN",
    "lastUpdated": "2020-04-18T10:41:01.563Z",
    "dead": 0,
    "id": "WKsJQmcpWKxnp0nCwN77",
    "sick": 1,
    "invisible": false
  },
  {
    "pop": 1757589,
    "longitude": -63.067,
    "name": "Rondônia",
    "country": "BR",
    "lastUpdated": "2020-04-18T10:46:08.554Z",
    "dead": 3,
    "id": "WRqKCfMIJFjrjXLMud70",
    "infected": 92,
    "recovered": 0,
    "latitude": -9.933,
    "sick": 89,
    "invisible": false
  },
  {
    "lastUpdated": "2020-04-18T10:43:04.144Z",
    "dead": 50,
    "id": "Whrue10NtwIObLvFFyBr",
    "infected": 2783,
    "recovered": 903,
    "latitude": -30.5595,
    "pop": 56720000,
    "longitude": 22.9375,
    "name": "South Africa",
    "country": "ZA",
    "sick": 1830,
    "invisible": false
  },
  {
    "latitude": 13.443182,
    "pop": 2101000,
    "longitude": -15.3101387,
    "name": "Gambia",
    "country": "GM",
    "lastUpdated": "2020-04-18T10:43:04.208Z",
    "dead": 1,
    "id": "Wk811YwpQxsOCfz8As86",
    "infected": 9,
    "recovered": 2,
    "sick": 6,
    "invisible": false
  },
  {
    "infected": 754,
    "recovered": 0,
    "latitude": 19.352498,
    "pop": 17666800,
    "longitude": -99.625164,
    "name": "Estado de México",
    "country": "MX",
    "lastUpdated": "2020-04-18T10:40:01.911Z",
    "dead": 49,
    "id": "WpCXuQjYFLbozSpEhbrZ",
    "sick": 705,
    "invisible": false
  },
  {
    "infected": 2144,
    "recovered": 66,
    "latitude": 23.685,
    "pop": 164700000,
    "longitude": 90.3563,
    "name": "Bangladesh",
    "country": "BD",
    "lastUpdated": "2020-04-18T10:43:04.145Z",
    "dead": 84,
    "id": "WpLayPPLIJ7VcHZdQaoM",
    "sick": 1994,
    "invisible": false
  },
  {
    "latitude": 20.836,
    "pop": 2100000,
    "longitude": -99.8508,
    "name": "Querétaro",
    "country": "MX",
    "lastUpdated": "2020-04-18T10:40:01.909Z",
    "dead": 6,
    "id": "Wt97UDm6jfYef6WBrS2w",
    "infected": 79,
    "recovered": 0,
    "sick": 73,
    "invisible": false
  },
  {
    "infected": 15374,
    "recovered": 3730,
    "latitude": 45.5,
    "pop": 4905000,
    "longitude": 11.75,
    "name": "Veneto",
    "country": "IT",
    "lastUpdated": "2020-04-18T10:31:01.769Z",
    "dead": 1026,
    "id": "X2iRhHF6f9pUnJcxPc3J",
    "sick": 10618,
    "invisible": false
  },
  {
    "lastUpdated": "2020-04-18T10:43:04.195Z",
    "dead": 0,
    "id": "X3GMAVINj2GDzIRVfo7n",
    "infected": 18,
    "recovered": 1,
    "latitude": -8.556856,
    "pop": 1311000,
    "longitude": 125.56031,
    "name": "Timor-Leste",
    "country": "TL",
    "sick": 17,
    "invisible": false
  },
  {
    "infected": 18,
    "recovered": 14,
    "latitude": 34.152588,
    "pop": 274289,
    "longitude": 77.577049,
    "name": "Ladakh",
    "country": "IN",
    "lastUpdated": "2020-04-18T10:41:01.563Z",
    "dead": 0,
    "id": "X3PZqaJxtnlxcgP4tzya",
    "sick": 4,
    "invisible": false
  },
  {
    "lastUpdated": "2020-04-18T10:38:06.929Z",
    "dead": 1,
    "id": "XBBw0iMPrmiEu3qogkbi",
    "infected": 355,
    "recovered": 336,
    "latitude": 25.92448,
    "pop": 38560000,
    "longitude": 118.278992,
    "name": "Fujian",
    "country": "CN",
    "sick": 18,
    "invisible": false
  },
  {
    "latitude": -52.368,
    "pop": 166533,
    "longitude": -70.9863,
    "name": "Magallanes",
    "country": "CL",
    "lastUpdated": "2020-04-18T10:37:11.738Z",
    "dead": 6,
    "id": "XIYUg6ShQvWyEAJfyJzC",
    "infected": 501,
    "recovered": 0,
    "sick": 495,
    "invisible": false
  },
  {
    "infected": 102,
    "recovered": 0,
    "latitude": 37.794597,
    "pop": 246746,
    "longitude": -25.506134,
    "name": "Açores",
    "country": "PT",
    "lastUpdated": "2020-04-18T10:34:01.535Z",
    "dead": 4,
    "id": "XhM7BCQK50gGQ2wIUtDq",
    "sick": 98,
    "invisible": false
  },
  {
    "lastUpdated": "2020-04-18T10:43:04.155Z",
    "dead": 9,
    "id": "XrsuLstdybIqIvv0E0aJ",
    "infected": 508,
    "recovered": 294,
    "latitude": -32.5228,
    "pop": 3457000,
    "longitude": -55.7658,
    "name": "Uruguay",
    "country": "UY",
    "sick": 205,
    "invisible": false
  },
  {
    "latitude": 42.0396,
    "pop": 339178,
    "longitude": 9.0129,
    "name": "Corse",
    "country": "FR",
    "lastUpdated": "2020-04-18T01:18:35.403Z",
    "dead": 42,
    "id": "YGXgIObKVabP2CYEdcb9",
    "infected": 374,
    "recovered": 135,
    "sick": 197,
    "invisible": false
  },
  {
    "recovered": 24,
    "latitude": 2.916112,
    "pop": 1126000,
    "longitude": -75.28344,
    "name": "Huila",
    "country": "CO",
    "lastUpdated": "2020-04-18T04:16:01.530Z",
    "dead": 3,
    "id": "YI9zIOUXJqAcgc0T80yb",
    "infected": 62,
    "sick": 35,
    "invisible": false
  },
  {
    "longitude": 35.2332,
    "name": "Palestine",
    "country": "PS",
    "lastUpdated": "2020-04-18T10:43:04.161Z",
    "dead": 2,
    "id": "YMzKw0SnXG71VT7H1jff",
    "infected": 418,
    "recovered": 69,
    "latitude": 31.9522,
    "pop": 5052000,
    "sick": 347,
    "invisible": false
  },
  {
    "infected": 250,
    "recovered": 0,
    "latitude": 17.97,
    "pop": 2460900,
    "longitude": -92.5867,
    "name": "Tabasco",
    "country": "MX",
    "lastUpdated": "2020-04-18T10:40:01.908Z",
    "dead": 26,
    "id": "YP3nlz6AKyrnCWYb5mHA",
    "sick": 224,
    "invisible": false
  },
  {
    "lastUpdated": "2020-04-18T10:43:04.192Z",
    "dead": 0,
    "id": "YZoy8ReFucvC3IFnWZHn",
    "infected": 46,
    "recovered": 0,
    "latitude": 11.8037491,
    "pop": 1955000,
    "longitude": -15.1804132,
    "name": "Guinea-Bissau",
    "country": "GW",
    "sick": 46,
    "invisible": false
  },
  {
    "recovered": 0,
    "latitude": 64.2008,
    "pop": 737438,
    "longitude": -149.4937,
    "name": "Alaska",
    "country": "US",
    "lastUpdated": "2020-04-18T10:55:20.753Z",
    "dead": 9,
    "id": "YaCODTMD1KKRnrAlkg2u",
    "infected": 309,
    "sick": 300,
    "invisible": false
  },
  {
    "latitude": 42.9896,
    "pop": 2178000,
    "longitude": -2.6189,
    "name": "País Vasco",
    "country": "ES",
    "lastUpdated": "2020-04-18T10:41:09.988Z",
    "dead": 992,
    "id": "YfA7o2lZP1DhV4JB6Umh",
    "infected": 12089,
    "recovered": 6144,
    "sick": 4953,
    "invisible": false
  },
  {
    "pop": 4091400,
    "longitude": -96.4085,
    "name": "Oaxaca",
    "country": "MX",
    "lastUpdated": "2020-04-18T10:40:01.908Z",
    "dead": 5,
    "id": "YidRsOGDERjtbaIBGCdu",
    "infected": 56,
    "recovered": 0,
    "latitude": 16.8922,
    "sick": 51,
    "invisible": false
  },
  {
    "infected": 10653,
    "recovered": 7937,
    "latitude": 37.568291,
    "pop": 51470000,
    "longitude": 126.99778,
    "name": "South Korea",
    "country": "KR",
    "lastUpdated": "2020-04-18T10:43:04.141Z",
    "dead": 232,
    "id": "Yw9uBekNlefXBcOCNMfP",
    "sick": 2484,
    "invisible": false
  },
  {
    "id": "YzZqZMJGvG6joQCdiuXC",
    "infected": 75,
    "recovered": 15,
    "latitude": 13.193887,
    "pop": 285719,
    "longitude": -59.543198,
    "name": "Barbados",
    "country": "BB",
    "lastUpdated": "2020-04-18T10:43:04.185Z",
    "dead": 5,
    "sick": 55,
    "invisible": false
  },
  {
    "pop": 37980000,
    "longitude": 21.0122,
    "name": "Poland",
    "country": "PL",
    "lastUpdated": "2020-04-18T10:43:04.142Z",
    "dead": 339,
    "id": "ZAZNuCK1VweBaTLCFzCk",
    "infected": 8563,
    "recovered": 981,
    "latitude": 52.2297,
    "sick": 7243,
    "invisible": false
  },
  {
    "latitude": 19.167832,
    "pop": 4695300,
    "longitude": -101.893163,
    "name": "Michoacán",
    "country": "MX",
    "lastUpdated": "2020-04-18T10:40:01.910Z",
    "dead": 26,
    "id": "ZQSkzcEvJtBLgGbrf9gH",
    "infected": 100,
    "recovered": 0,
    "sick": 74,
    "invisible": false
  },
  {
    "latitude": -25.441105,
    "pop": 11348937,
    "longitude": -49.276855,
    "name": "Paraná",
    "country": "BR",
    "lastUpdated": "2020-04-18T10:46:08.553Z",
    "dead": 42,
    "id": "ZQwG7RjZDbW1H8toEEOL",
    "infected": 874,
    "recovered": 0,
    "sick": 832,
    "invisible": false
  },
  {
    "lastUpdated": "2020-04-18T10:43:04.200Z",
    "dead": 0,
    "id": "ZmzOT0sJgfWXEpRImItC",
    "infected": 17,
    "recovered": 0,
    "latitude": -17.713371,
    "pop": 905502,
    "longitude": 178.065033,
    "name": "Fiji",
    "country": "FJ",
    "sick": 17,
    "invisible": false
  },
  {
    "lastUpdated": "2020-04-18T10:55:20.749Z",
    "dead": 1036,
    "id": "Zqy0gftQzocR49jEJNMl",
    "infected": 16809,
    "recovered": 0,
    "latitude": 41.6032,
    "pop": 3573000,
    "longitude": -73.0877,
    "name": "Connecticut",
    "country": "US",
    "sick": 15773,
    "invisible": false
  },
  {
    "latitude": 43.616943,
    "pop": 1532000,
    "longitude": 13.516667,
    "name": "Marche",
    "country": "IT",
    "lastUpdated": "2020-04-18T10:31:01.768Z",
    "dead": 785,
    "id": "Zwbjs4XN7P9s849Q3zFj",
    "infected": 5668,
    "recovered": 1726,
    "sick": 3157,
    "invisible": false
  },
  {
    "recovered": 1130,
    "latitude": 51.011,
    "pop": 2137000,
    "longitude": 10.8453,
    "name": "Thüringen",
    "country": "DE",
    "lastUpdated": "2020-04-18T10:30:06.827Z",
    "dead": 53,
    "id": "a9OgUWo6ZSWA3HyF0xnj",
    "infected": 1720,
    "sick": 537,
    "invisible": false
  },
  {
    "id": "a9p9pAOsjg1WAjPGc2a6",
    "infected": 435,
    "recovered": 331,
    "latitude": -30.000233,
    "pop": 1677000,
    "longitude": 136.209152,
    "name": "South Australia",
    "country": "AU",
    "lastUpdated": "2020-04-18T10:36:01.044Z",
    "dead": 4,
    "sick": 100,
    "invisible": false
  },
  {
    "latitude": -33.047237,
    "pop": 1790219,
    "longitude": -71.612686,
    "name": "Valparaíso",
    "country": "CL",
    "lastUpdated": "2020-04-18T10:37:11.737Z",
    "dead": 4,
    "id": "aNN8fCwDCMMdlpMC2Fml",
    "infected": 345,
    "recovered": 0,
    "sick": 341,
    "invisible": false
  },