[
  {
    "lastUpdated": "2020-04-05T17:04:02.635Z",
    "dead": 189,
    "id": "0GJcws44NSPsDHAuxJhW",
    "infected": 2960,
    "recovered": 150,
    "latitude": 41.066666,
    "pop": 5827000,
    "longitude": 14.333333,
    "name": "Campania",
    "country": "IT",
    "sick": 2621
  },
  {
    "longitude": 85.0985,
    "name": "Odisha",
    "country": "IN",
    "lastUpdated": "2020-04-05T17:10:01.342Z",
    "dead": 0,
    "id": "0VG7S6aaK4eSo59fL9JO",
    "infected": 39,
    "recovered": 2,
    "latitude": 20.9517,
    "pop": 45990000,
    "sick": 37
  },
  {
    "id": "0jStOpTUNRaQYJqgmRoK",
    "infected": 10,
    "recovered": 0,
    "latitude": 11.7401,
    "pop": 427246,
    "longitude": 92.6586,
    "name": "Andaman and Nicobar Islands",
    "country": "IN",
    "lastUpdated": "2020-04-05T17:10:01.368Z",
    "dead": 0,
    "sick": 10
  },
  {
    "infected": 1325,
    "recovered": 109,
    "latitude": 25.315058,
    "pop": 2639000,
    "longitude": 51.145517,
    "name": "Qatar",
    "country": "QA",
    "lastUpdated": "2020-04-05T17:15:04.067Z",
    "dead": 3,
    "id": "0m4aECS0Z2DGFEr8ldgI",
    "sick": 1213
  },
  {
    "lastUpdated": "2020-04-05T17:07:05.532Z",
    "dead": 3,
    "id": "0n54EMSDJcRoT1QEvw80",
    "infected": 80,
    "recovered": 10,
    "latitude": 22.9868,
    "pop": 90320000,
    "longitude": 87.855,
    "name": "West Bengal",
    "country": "IN",
    "sick": 67
  },
  {
    "recovered": 3,
    "latitude": 22.9734,
    "pop": 73340000,
    "longitude": 78.6569,
    "name": "Madhya Pradesh",
    "country": "IN",
    "lastUpdated": "2020-04-05T17:10:01.394Z",
    "dead": 12,
    "id": "0s18o5DrDAHjbu5MFcrj",
    "infected": 193,
    "sick": 178
  },
  {
    "infected": 0,
    "recovered": 16700,
    "latitude": 37.0902,
    "longitude": -95.7129,
    "name": "Unknown US state",
    "country": "US",
    "dead": 0,
    "lastUpdated": "2020-04-05T17:15:03.775Z",
    "id": "0tFoopNTs6e4tOoaltu2",
    "sick": 0
  },
  {
    "lastUpdated": "2020-04-05T16:44:05.842Z",
    "dead": 3,
    "id": "0x2HLhr5z5xAtEdO4iZm",
    "infected": 256,
    "recovered": 245,
    "latitude": 35.64249,
    "pop": 37330000,
    "longitude": 108.472214,
    "name": "Shaanxi",
    "country": "CN",
    "sick": 8
  },
  {
    "infected": 555,
    "recovered": 23,
    "latitude": 41.643351,
    "pop": 2077000,
    "longitude": 21.668393,
    "name": "North Macedonia",
    "country": "MK",
    "lastUpdated": "2020-04-05T17:15:03.888Z",
    "dead": 18,
    "id": "19MvIhipqTyYv1H37Upw",
    "sick": 514
  },
  {
    "recovered": 0,
    "latitude": 53.1355,
    "pop": 521542,
    "longitude": -57.6604,
    "name": "Newfoundland and Labrador",
    "country": "CA",
    "lastUpdated": "2020-04-05T17:15:01.526Z",
    "dead": 1,
    "id": "1DOMOmCWDtva46OVSZLv",
    "infected": 203,
    "sick": 202
  },
  {
    "latitude": 35.801933,
    "pop": 5627000,
    "longitude": 96.779286,
    "name": "Qinghai",
    "country": "CN",
    "lastUpdated": "2020-04-05T16:44:06.027Z",
    "dead": 0,
    "id": "1Fap7rZu9SIRqf5TG9Dg",
    "infected": 18,
    "recovered": 18,
    "sick": 0
  },
  {
    "lastUpdated": "2020-04-05T17:04:02.631Z",
    "dead": 1168,
    "id": "1eTSQyfp8RoDPeFrIwun",
    "infected": 12362,
    "recovered": 1017,
    "latitude": 44.9,
    "pop": 4376000,
    "longitude": 8.206944,
    "name": "Piemonte",
    "country": "IT",
    "sick": 10177
  },
  {
    "recovered": 127,
    "latitude": -14.235004,
    "pop": 209300000,
    "longitude": -51.925282,
    "name": "Brazil",
    "country": "BR",
    "lastUpdated": "2020-04-05T17:15:03.885Z",
    "dead": 455,
    "id": "1f0YoV0vAcexEhpESyZc",
    "infected": 10568,
    "sick": 9986
  },
  {
    "latitude": 47.4116,
    "pop": 3550000,
    "longitude": 28.3699,
    "name": "Moldova",
    "country": "MD",
    "lastUpdated": "2020-04-05T17:15:03.883Z",
    "dead": 15,
    "id": "1qTPB8X3tyLyIdsb5TN3",
    "infected": 864,
    "recovered": 30,
    "sick": 819
  },
  {
    "latitude": 30.15336,
    "pop": 3180000,
    "longitude": 88.787865,
    "name": "Tibet",
    "country": "CN",
    "lastUpdated": "2020-04-05T16:44:05.623Z",
    "dead": 0,
    "id": "25qIBtsW2nfQj3pwBKg9",
    "infected": 1,
    "recovered": 1,
    "sick": 0
  },
  {
    "longitude": 115.66779,
    "name": "Indonesia",
    "country": "ID",
    "lastUpdated": "2020-04-05T17:15:03.858Z",
    "dead": 198,
    "id": "2KHYUb5t3lwzVVmDjwNX",
    "infected": 2273,
    "recovered": 164,
    "latitude": -1.572184,
    "pop": 264000000,
    "sick": 1911
  },
  {
    "infected": 999,
    "recovered": 0,
    "latitude": 43.807191,
    "pop": 4191000,
    "longitude": -120.585594,
    "name": "Oregon",
    "country": "US",
    "lastUpdated": "2020-04-05T17:03:15.487Z",
    "dead": 26,
    "id": "2OrsssmGUs4XCzaZzvTv",
    "sick": 973
  },
  {
    "recovered": 92,
    "latitude": 43.851921,
    "pop": 27460000,
    "longitude": 126.548103,
    "name": "Jilin",
    "country": "CN",
    "lastUpdated": "2020-04-05T16:44:05.639Z",
    "dead": 1,
    "id": "2jxHvSsxdnom0nPNvOT8",
    "infected": 98,
    "sick": 5
  },
  {
    "latitude": 36.1408,
    "pop": 34571,
    "longitude": -5.3536,
    "name": "Gibraltar",
    "country": "GI",
    "lastUpdated": "2020-04-05T17:15:04.886Z",
    "dead": 0,
    "id": "2p11BjSAs3wVyymgqBOe",
    "infected": 103,
    "recovered": 52,
    "sick": 51
  },
  {
    "latitude": 47.7516,
    "pop": 2567000,
    "longitude": 1.6751,
    "name": "Centre-Val de Loire",
    "country": "FR",
    "lastUpdated": "2020-04-04T20:12:54.523Z",
    "dead": 106,
    "id": "2sLNkkHpyaHx7dD3aMDO",
    "infected": 1554,
    "recovered": 271,
    "sick": 1177
  },
  {
    "latitude": 42.565044,
    "pop": 884640,
    "longitude": 12.643751,
    "name": "Umbria",
    "country": "IT",
    "lastUpdated": "2020-04-05T17:04:02.532Z",
    "dead": 43,
    "id": "319tiZOMczx1y0DfvOib",
    "infected": 1239,
    "recovered": 298,
    "sick": 898
  },
  {
    "infected": 39,
    "recovered": 3,
    "latitude": -13.133896,
    "pop": 17090000,
    "longitude": 27.849332,
    "name": "Zambia",
    "country": "ZM",
    "lastUpdated": "2020-04-05T17:15:04.642Z",
    "dead": 1,
    "id": "3IlPjAbP5qVMn1nlgLTJ",
    "sick": 35
  },
  {
    "latitude": 42.7044,
    "pop": 631219,
    "longitude": 19.3958,
    "name": "Montenegro",
    "country": "ME",
    "lastUpdated": "2020-04-05T17:15:04.766Z",
    "dead": 2,
    "id": "3LstMSN5XMYBkxbe5HN7",
    "infected": 214,
    "recovered": 1,
    "sick": 211
  },
  {
    "latitude": -35.4735,
    "pop": 418440,
    "longitude": 149.0124,
    "name": "Australian Capital Territory",
    "country": "AU",
    "lastUpdated": "2020-04-05T17:12:03.417Z",
    "dead": 0,
    "id": "3OZoQsKrzxZ18EKyfGE6",
    "infected": 96,
    "recovered": 1,
    "sick": 95
  },
  {
    "latitude": 26.2006,
    "pop": 30940000,
    "longitude": 92.9376,
    "name": "Assam",
    "country": "IN",
    "lastUpdated": "2020-04-05T17:10:01.390Z",
    "dead": 0,
    "id": "3cCbnJCsK7mKlTO08K1o",
    "infected": 26,
    "recovered": 0,
    "sick": 26
  },
  {
    "infected": 3739,
    "recovered": 0,
    "latitude": 40.4173,
    "pop": 11690000,
    "longitude": -82.9071,
    "name": "Ohio",
    "country": "US",
    "lastUpdated": "2020-04-05T17:03:15.474Z",
    "dead": 102,
    "id": "3fC3bAyIRUquOQOEnQNe",
    "sick": 3637
  },
  {
    "longitude": -10.9408,
    "name": "Mauritania",
    "country": "MR",
    "lastUpdated": "2020-04-05T17:15:04.936Z",
    "dead": 1,
    "id": "4NnFMekRK2m14IlnZZoj",
    "infected": 6,
    "recovered": 2,
    "latitude": 21.0079,
    "pop": 4420000,
    "sick": 3
  },
  {
    "latitude": 53.7267,
    "pop": 5071000,
    "longitude": -127.6476,
    "name": "British Columbia",
    "country": "CA",
    "lastUpdated": "2020-04-05T17:15:01.631Z",
    "dead": 38,
    "id": "4hfZRUoUgI4a3vrG0GBk",
    "infected": 1203,
    "recovered": 0,
    "sick": 1165
  },
  {
    "latitude": 41.065877,
    "pop": 10290000,
    "longitude": -7.920053,
    "name": "Portugal",
    "country": "PT",
    "lastUpdated": "2020-04-05T17:15:03.982Z",
    "dead": 295,
    "id": "4rQLxUCMmQLpbi6E9tbH",
    "infected": 11278,
    "recovered": 75,
    "sick": 10908
  },
  {
    "id": "4zqzRm2xHn0CDVOUQJ8p",
    "infected": 584,
    "recovered": 32,
    "latitude": 40.3426,
    "pop": 9898000,
    "longitude": 47.93802,
    "name": "Azerbaijan",
    "country": "AZ",
    "lastUpdated": "2020-04-05T17:15:03.826Z",
    "dead": 7,
    "sick": 545
  },
  {
    "longitude": -78.035889,
    "name": "Bahamas",
    "country": "BS",
    "lastUpdated": "2020-04-05T17:15:04.930Z",
    "dead": 4,
    "id": "5MHegCUO9L3LiAU7DDey",
    "infected": 28,
    "recovered": 0,
    "latitude": 25.025885,
    "pop": 395361,
    "sick": 24
  },
  {
    "longitude": 146.921097,
    "name": "New South Wales",
    "country": "AU",
    "lastUpdated": "2020-04-05T17:12:03.425Z",
    "dead": 8,
    "id": "5N16a2OXXRpsEFanw0TC",
    "infected": 2580,
    "recovered": 4,
    "latitude": -31.253218,
    "pop": 7544000,
    "sick": 2568
  },
  {
    "infected": 17,
    "recovered": 1,
    "latitude": -20.9043045,
    "pop": 280460,
    "longitude": 165.618042,
    "name": "New Caledonia",
    "country": "NC",
    "lastUpdated": "2020-04-05T17:15:04.905Z",
    "dead": 0,
    "id": "5fg04eyDwFw3kEXnrxez",
    "sick": 16
  },
  {
    "lastUpdated": "2020-04-05T17:15:04.853Z",
    "dead": 0,
    "id": "5gXZIjRgAvd6xWN1LOv8",
    "infected": 9,
    "recovered": 1,
    "latitude": 28.394857,
    "pop": 29300000,
    "longitude": 84.124008,
    "name": "Nepal",
    "country": "NP",
    "sick": 8
  },
  {
    "id": "5pwmh7aSdGRKqRbnuyc0",
    "infected": 3246,
    "recovered": 64,
    "latitude": 12.879721,
    "pop": 104900000,
    "longitude": 121.774017,
    "name": "Philippines",
    "country": "PH",
    "lastUpdated": "2020-04-05T17:15:03.822Z",
    "dead": 152,
    "sick": 3030
  },
  {
    "infected": 9,
    "recovered": 0,
    "latitude": -17.824858,
    "pop": 14802190,
    "longitude": 31.053028,
    "name": "Zimbabwe",
    "country": "ZW",
    "lastUpdated": "2020-04-05T17:15:04.912Z",
    "dead": 1,
    "id": "5qtR9nx4BLwu1ODTniaY",
    "sick": 8
  },
  {
    "longitude": 23.804991,
    "name": "Lithuania",
    "country": "LT",
    "lastUpdated": "2020-04-05T17:15:03.992Z",
    "dead": 12,
    "id": "694ON7d0mRJDeM1gHBTR",
    "infected": 811,
    "recovered": 7,
    "latitude": 55.621011,
    "pop": 2794000,
    "sick": 792
  },
  {
    "lastUpdated": "2020-04-05T17:15:03.852Z",
    "dead": 4,
    "id": "6IcHIIH0zXpY0POmBZTv",
    "infected": 890,
    "recovered": 206,
    "latitude": 22.396427,
    "pop": 7392000,
    "longitude": 114.109497,
    "name": "Hong Kong",
    "country": "HK",
    "sick": 680
  },
  {
    "latitude": 9.3077,
    "pop": 11180000,
    "longitude": 2.3158,
    "name": "Benin",
    "country": "BJ",
    "lastUpdated": "2020-04-05T17:15:04.876Z",
    "dead": 0,
    "id": "6SlpghTyB6lpMFvx3g9U",
    "infected": 16,
    "recovered": 2,
    "sick": 14
  },
  {
    "lastUpdated": "2020-04-05T17:04:02.530Z",
    "dead": 8905,
    "id": "6ZHcvMIzVWIaRnc4R3Qp",
    "infected": 50455,
    "recovered": 13426,
    "latitude": 45.6667,
    "pop": 10040000,
    "longitude": 9.5,
    "name": "Lombardia",
    "country": "IT",
    "sick": 28124
  },
  {
    "infected": 997,
    "recovered": 79,
    "latitude": 46.0569,
    "pop": 2067000,
    "longitude": 14.5058,
    "name": "Slovenia",
    "country": "SI",
    "lastUpdated": "2020-04-05T17:15:03.907Z",
    "dead": 28,
    "id": "6ahNiyKDSDAftCctgLH3",
    "sick": 890
  },
  {
    "lastUpdated": "2020-04-05T17:15:04.826Z",
    "dead": 1,
    "id": "6pBi38TUgYfFm0bry2uh",
    "infected": 21,
    "recovered": 1,
    "latitude": -0.8037,
    "pop": 2025000,
    "longitude": 11.6094,
    "name": "Gabon",
    "country": "GA",
    "sick": 19
  },
  {
    "longitude": -62.818544,
    "name": "Saint-Barthélémy",
    "country": "FR",
    "lastUpdated": "2020-04-05T17:15:04.799Z",
    "dead": 0,
    "id": "78Ox26bNHDA2Pk2b3Uwn",
    "infected": 6,
    "recovered": 1,
    "latitude": 17.901672,
    "pop": 9131,
    "sick": 5
  },
  {
    "latitude": 17.0608,
    "pop": 102012,
    "longitude": -61.7964,
    "name": "Antigua and Barbuda",
    "country": "AG",
    "lastUpdated": "2020-04-05T17:15:04.847Z",
    "dead": 0,
    "id": "7hVFcEV7nV0MrQr3LHrl",
    "infected": 15,
    "recovered": 0,
    "sick": 15
  },
  {
    "id": "7kCrrlOBE3jN6FtOVNUB",
    "infected": 25152,
    "recovered": 3596,
    "latitude": 48.7904,
    "pop": 13000000,
    "longitude": 11.4979,
    "name": "Bayern",
    "country": "DE",
    "lastUpdated": "2020-04-05T16:31:04.033Z",
    "dead": 431,
    "sick": 21125
  },
  {
    "infected": 733,
    "recovered": 66,
    "latitude": 47.4979,
    "pop": 9773000,
    "longitude": 19.0402,
    "name": "Hungary",
    "country": "HU",
    "lastUpdated": "2020-04-05T17:15:03.953Z",
    "dead": 34,
    "id": "7rYC2iFB50c55Ihgbs4Q",
    "sick": 633
  },
  {
    "lastUpdated": "2020-04-05T17:15:04.008Z",
    "dead": 9,
    "id": "8C0d7WVCjyUGtnc2gUAR",
    "infected": 555,
    "recovered": 17,
    "latitude": 7.3697,
    "pop": 24050000,
    "longitude": 12.3547,
    "name": "Cameroon",
    "country": "CM",
    "sick": 529
  },
  {
    "id": "8RihJrXw4NQXPxaRxr1u",
    "infected": 157,
    "recovered": 2,
    "latitude": -16.2902,
    "pop": 11050000,
    "longitude": -63.5887,
    "name": "Bolivia",
    "country": "BO",
    "lastUpdated": "2020-04-05T17:15:04.888Z",
    "dead": 10,
    "sick": 145
  },
  {
    "recovered": 1,
    "latitude": 12.9843,
    "pop": 109897,
    "longitude": -61.2872,
    "name": "St. Vincent Grenadines",
    "country": "VC",
    "lastUpdated": "2020-04-05T17:15:04.831Z",
    "dead": 0,
    "id": "8ZTySQROQejkDAad0qxQ",
    "infected": 7,
    "sick": 6
  },
  {
    "infected": 1309,
    "recovered": 320,
    "latitude": 1.352083,
    "pop": 5621000,
    "longitude": 103.819839,
    "name": "Singapore",
    "country": "SG",
    "lastUpdated": "2020-04-05T17:15:03.880Z",
    "dead": 6,
    "id": "8pA3fM4xC2c2wv1b4TnE",
    "sick": 983
  },
  {
    "longitude": -1.5536,
    "name": "Pays de la Loire",
    "country": "FR",
    "lastUpdated": "2020-04-04T20:17:20.995Z",
    "dead": 118,
    "id": "98hwAoohgWEOQVa3NlM5",
    "infected": 1662,
    "recovered": 417,
    "latitude": 47.2184,
    "pop": 3787000,
    "sick": 1127
  },
  {
    "infected": 12,
    "recovered": 2,
    "latitude": 12.8628,
    "pop": 40530000,
    "longitude": 30.2176,
    "name": "Sudan",
    "country": "SD",
    "lastUpdated": "2020-04-05T17:15:04.921Z",
    "dead": 2,
    "id": "9DPOkpIqrFy9mR4e9fuv",
    "sick": 8
  },
  {
    "infected": 3864,
    "recovered": 374,
    "latitude": 45.943161,
    "pop": 19530000,
    "longitude": 24.966761,
    "name": "Romania",
    "country": "RO",
    "lastUpdated": "2020-04-05T17:15:03.872Z",
    "dead": 151,
    "id": "9QcETqEcM2fTv9zRvx5T",
    "sick": 3339
  },
  {
    "id": "9Y5wmCqNCC6ZrenM31uA",
    "infected": 5,
    "recovered": 0,
    "latitude": 12.136389,
    "pop": 6218000,
    "longitude": -86.251389,
    "name": "Nicaragua",
    "country": "NI",
    "lastUpdated": "2020-04-05T17:15:04.902Z",
    "dead": 1,
    "sick": 4
  },
  {
    "lastUpdated": "2020-04-05T17:15:04.809Z",
    "dead": 5,
    "id": "9dIzxqDSVqPyINkHqwGv",
    "infected": 45,
    "recovered": 1,
    "latitude": 17.5706921,
    "pop": 18540000,
    "longitude": -3.996166,
    "name": "Mali",
    "country": "ML",
    "sick": 39
  },
  {
    "id": "9p6OCdZbUUwBLA60Gk3W",
    "infected": 1927,
    "recovered": 300,
    "latitude": 61.92411,
    "pop": 5513000,
    "longitude": 25.748152,
    "name": "Finland",
    "country": "FI",
    "lastUpdated": "2020-04-05T17:15:03.863Z",
    "dead": 28,
    "sick": 1599
  },
  {
    "longitude": -71.590315,
    "name": "New Hampshire",
    "country": "US",
    "lastUpdated": "2020-04-05T17:03:15.411Z",
    "dead": 9,
    "id": "A84CwQ52kA46Hr7pn6Bm",
    "infected": 621,
    "recovered": 0,
    "latitude": 43.311643,
    "pop": 1356000,
    "sick": 612
  },
  {
    "lastUpdated": "2020-04-05T17:03:15.446Z",
    "dead": 17,
    "id": "AEUWUHS65qvjEslew11c",
    "infected": 806,
    "recovered": 0,
    "latitude": 41.823261,
    "pop": 1057000,
    "longitude": -71.412257,
    "name": "Rhode Island",
    "country": "US",
    "sick": 789
  },
  {
    "recovered": 2201,
    "latitude": 44.498955,
    "pop": 4453000,
    "longitude": 11.327591,
    "name": "Emilia-Romagna",
    "country": "IT",
    "lastUpdated": "2020-04-05T17:04:02.629Z",
    "dead": 2051,
    "id": "AJ9jQ0iyKsafsmf5yHAR",
    "infected": 17089,
    "sick": 12837
  },
  {
    "infected": 1410,
    "recovered": 216,
    "latitude": 49.3964,
    "pop": 990509,
    "longitude": 7.023,
    "name": "Saarland",
    "country": "DE",
    "lastUpdated": "2020-04-05T16:31:04.331Z",
    "dead": 19,
    "id": "AKjFRQGnzuuZQhv5Qwx7",
    "sick": 1175
  },
  {
    "latitude": 71.7069,
    "pop": 56171,
    "longitude": -42.6043,
    "name": "Greenland",
    "country": "GL",
    "lastUpdated": "2020-04-05T17:15:04.873Z",
    "dead": 0,
    "id": "APaZzlGCEeuoLBtzTJMe",
    "infected": 11,
    "recovered": 3,
    "sick": 8
  },
  {
    "lastUpdated": "2020-04-05T17:15:01.621Z",
    "dead": 0,
    "id": "AVCpxeh0fuH2WrHWNDYH",
    "infected": 236,
    "recovered": 0,
    "latitude": 45.65107,
    "pop": 971395,
    "longitude": -63.582687,
    "name": "Nova Scotia",
    "country": "CA",
    "sick": 236
  },
  {
    "infected": 286,
    "recovered": 0,
    "latitude": 47.012918,
    "pop": 1062000,
    "longitude": -109.128641,
    "name": "Montana",
    "country": "US",
    "lastUpdated": "2020-04-05T17:03:15.410Z",
    "dead": 6,
    "id": "AcULcZBozObOhwuRKMjJ",
    "sick": 280
  },
  {
    "longitude": 116.01609,
    "name": "Jiangxi",
    "country": "CN",
    "lastUpdated": "2020-04-05T16:44:05.929Z",
    "dead": 1,
    "id": "AmBYm5J6E9Cuez1FQjiN",
    "infected": 937,
    "recovered": 935,
    "latitude": 27.285971,
    "pop": 45200000,
    "sick": 1
  },
  {
    "lastUpdated": "2020-04-05T17:15:04.014Z",
    "dead": 152,
    "id": "AwN0CScPDApcLFgz6e3z",
    "infected": 1320,
    "recovered": 90,
    "latitude": 28.033886,
    "pop": 41320000,
    "longitude": 1.659626,
    "name": "Algeria",
    "country": "DZ",
    "sick": 1078
  },
  {
    "id": "B82Ef45M8cDu4q7VsSHF",
    "infected": 1182,
    "recovered": 119,
    "latitude": 45.099998,
    "pop": 4076000,
    "longitude": 15.2,
    "name": "Croatia",
    "country": "HR",
    "lastUpdated": "2020-04-05T13:15:03.624Z",
    "dead": 16,
    "sick": 1047
  },
  {
    "recovered": 0,
    "latitude": 17.6077881,
    "pop": 23716000,
    "longitude": 8.081666,
    "name": "Niger",
    "country": "NE",
    "lastUpdated": "2020-04-05T17:15:04.934Z",
    "dead": 8,
    "id": "BENubqQInFUJzhpZTsLT",
    "infected": 144,
    "sick": 136
  },
  {
    "latitude": 39.509109,
    "pop": 6043000,
    "longitude": -76.98432,
    "name": "Maryland",
    "country": "US",
    "lastUpdated": "2020-04-05T17:03:15.499Z",
    "dead": 67,
    "id": "BF51mWl51fgEcyBpCSzb",
    "infected": 3617,
    "recovered": 0,
    "sick": 3550
  },
  {
    "infected": 562,
    "recovered": 53,
    "latitude": 53.709808,
    "pop": 9508000,
    "longitude": 27.953388,
    "name": "Belarus",
    "country": "BY",
    "lastUpdated": "2020-04-05T15:30:03.760Z",
    "dead": 8,
    "id": "BGg6yVU5VP71B8NXU0oh",
    "sick": 501
  },
  {
    "latitude": 48.8799,
    "pop": 3319000,
    "longitude": 0.1713,
    "name": "Normandie",
    "country": "FR",
    "lastUpdated": "2020-04-04T20:16:24.664Z",
    "dead": 99,
    "id": "BGtoyzb7y54LVlJ91rbf",
    "infected": 1505,
    "recovered": 296,
    "sick": 1110
  },
  {
    "latitude": 34.048927,
    "pop": 7172000,
    "longitude": -111.093735,
    "name": "Arizona",
    "country": "US",
    "lastUpdated": "2020-04-05T17:03:15.428Z",
    "dead": 64,
    "id": "BTEESCuD2ZbS1afunR2A",
    "infected": 2269,
    "recovered": 0,
    "sick": 2205
  },
  {
    "id": "BnpMamidC5yYzeK8tPUL",
    "infected": 3,
    "recovered": 0,
    "latitude": -3.3730559,
    "pop": 10860000,
    "longitude": 29.9188862,
    "name": "Burundi",
    "country": "BI",
    "lastUpdated": "2020-04-05T17:15:04.075Z",
    "dead": 0,
    "sick": 3
  },
  {
    "recovered": 0,
    "latitude": 40.719042,
    "pop": 19540000,
    "longitude": -73.982597,
    "name": "New York",
    "country": "US",
    "lastUpdated": "2020-04-05T17:03:15.372Z",
    "dead": 4159,
    "id": "C3BCUzV80z9GfiuByIcr",
    "infected": 122056,
    "sick": 117897
  },
  {
    "infected": 4543,
    "recovered": 96,
    "latitude": 49.731626,
    "pop": 10650000,
    "longitude": 15.359413,
    "name": "Czechia",
    "country": "CZ",
    "lastUpdated": "2020-04-05T17:15:03.957Z",
    "dead": 67,
    "id": "C6S76AggdWVU8G22jFHQ",
    "sick": 4380
  },
  {
    "latitude": 26.0667,
    "pop": 1493000,
    "longitude": 50.557701,
    "name": "Bahrain",
    "country": "BH",
    "lastUpdated": "2020-04-05T17:15:03.973Z",
    "dead": 4,
    "id": "C7cj4nwRITs13KnaJrQ2",
    "infected": 698,
    "recovered": 427,
    "sick": 267
  },
  {
    "infected": 260,
    "recovered": 25,
    "latitude": 27.0238,
    "pop": 68890000,
    "longitude": 74.2179,
    "name": "Rajasthan",
    "country": "IN",
    "lastUpdated": "2020-04-05T17:10:01.407Z",
    "dead": 1,
    "id": "CKZCZTPlrcq5fbfUPA9k",
    "sick": 234
  },
  {
    "id": "Cgvmtle61ehMvCzRzYx7",
    "infected": 62,
    "recovered": 2,
    "latitude": 13.803,
    "pop": 6378000,
    "longitude": -88.9053,
    "name": "El Salvador",
    "country": "SV",
    "lastUpdated": "2020-04-05T17:15:04.822Z",
    "dead": 3,
    "sick": 57
  },
  {
    "id": "CrXu6i5Sqx11iwdfHfBs",
    "infected": 47806,
    "recovered": 135,
    "latitude": 52.355518,
    "pop": 66440000,
    "longitude": -1.17432,
    "name": "United Kingdom",
    "country": "GB",
    "lastUpdated": "2020-04-05T17:15:03.808Z",
    "dead": 4934,
    "sick": 42737
  },
  {
    "infected": 822,
    "recovered": 57,
    "latitude": 40.259003,
    "pop": 2973000,
    "longitude": 44.818474,
    "name": "Armenia",
    "country": "AM",
    "lastUpdated": "2020-04-05T17:15:03.865Z",
    "dead": 7,
    "id": "DCJCtZoBTWQ4mzdDNljD",
    "sick": 758
  },
  {
    "id": "DZyTD0Mu5WIcK6yTcJ91",
    "infected": 37,
    "recovered": 14,
    "latitude": 32.3213844,
    "pop": 65440,
    "longitude": -64.75737,
    "name": "Bermuda",
    "country": "BM",
    "lastUpdated": "2020-04-05T17:15:04.833Z",
    "dead": 0,
    "sick": 23
  },
  {
    "recovered": 10,
    "latitude": 22.192039,
    "pop": 622567,
    "longitude": 113.551262,
    "name": "Macao",
    "country": "MO",
    "lastUpdated": "2020-04-05T17:15:04.927Z",
    "dead": 0,
    "id": "DdBt8qsG6A3g92oOR3ow",
    "infected": 44,
    "sick": 34
  },
  {
    "id": "DrGzziUglmBognCGY7R2",
    "infected": 187,
    "recovered": 0,
    "latitude": 42.962334,
    "pop": 577737,
    "longitude": -107.534868,
    "name": "Wyoming",
    "country": "US",
    "lastUpdated": "2020-04-05T17:03:15.441Z",
    "dead": 0,
    "sick": 187
  },
  {
    "infected": 1735,
    "recovered": 78,
    "latitude": 40.6401,
    "pop": 10740000,
    "longitude": 22.9444,
    "name": "Greece",
    "country": "GR",
    "lastUpdated": "2020-04-05T17:15:03.817Z",
    "dead": 73,
    "id": "Dtr1lap1RpJpXJdXGJiW",
    "sick": 1584
  },
  {
    "infected": 363,
    "recovered": 54,
    "latitude": 25.03841,
    "pop": 23780000,
    "longitude": 121.563698,
    "name": "Taiwan",
    "country": "TW",
    "lastUpdated": "2020-04-05T17:15:03.861Z",
    "dead": 5,
    "id": "EKTfs8e7M6DXzI1HqyyX",
    "sick": 304
  },
  {
    "longitude": -84.387618,
    "name": "Costa Rica",
    "country": "CR",
    "lastUpdated": "2020-04-05T17:15:03.874Z",
    "dead": 2,
    "id": "EQzJvzVHKjs8kLmK7BMu",
    "infected": 435,
    "recovered": 13,
    "latitude": 10.327273,
    "pop": 4906000,
    "sick": 420
  },
  {
    "id": "ERwk9R9en4m9WbdoMbIg",
    "infected": 128,
    "recovered": 21,
    "latitude": 22.2587,
    "pop": 62700000,
    "longitude": 71.1924,
    "name": "Gujarat",
    "country": "IN",
    "lastUpdated": "2020-04-05T17:10:01.376Z",
    "dead": 11,
    "sick": 96
  },
  {
    "recovered": 5,
    "latitude": 30.7333,
    "pop": 1055000,
    "longitude": 76.7794,
    "name": "Chandigarh",
    "country": "IN",
    "lastUpdated": "2020-04-05T17:10:01.414Z",
    "dead": 0,
    "id": "Esl5UlCVB9s8pmGB5Ofr",
    "infected": 18,
    "sick": 13
  },
  {
    "recovered": 0,
    "latitude": 18.200178,
    "pop": 3195000,
    "longitude": -66.664513,
    "name": "Puerto Rico",
    "country": "PR",
    "lastUpdated": "2020-04-05T17:03:15.444Z",
    "dead": 20,
    "id": "F4rPrEVGAIMM5rfPEMv4",
    "infected": 475,
    "sick": 455
  },
  {
    "infected": 337,
    "recovered": 15,
    "latitude": 33.93911,
    "pop": 35530000,
    "longitude": 67.709953,
    "name": "Afghanistan",
    "country": "AF",
    "lastUpdated": "2020-04-05T17:15:03.932Z",
    "dead": 7,
    "id": "FCDmlmnIIswd8bQiUjfN",
    "sick": 315
  },
  {
    "recovered": 570,
    "latitude": 29.431585,
    "pop": 30480000,
    "longitude": 106.912254,
    "name": "Chongqing",
    "country": "CN",
    "lastUpdated": "2020-04-05T16:44:05.840Z",
    "dead": 6,
    "id": "FErOU1m4Tj7jIkRam3vF",
    "infected": 579,
    "sick": 3
  },
  {
    "infected": 556,
    "recovered": 99,
    "latitude": 29.311661,
    "pop": 4137000,
    "longitude": 47.481766,
    "name": "Kuwait",
    "country": "KW",
    "lastUpdated": "2020-04-05T17:15:03.810Z",
    "dead": 1,
    "id": "FZsUkhxBEgqsPb4eO0PN",
    "sick": 456
  },
  {
    "latitude": 11.1271,
    "pop": 67860000,
    "longitude": 78.6569,
    "name": "Tamil Nadu",
    "country": "IN",
    "lastUpdated": "2020-04-05T17:10:01.406Z",
    "dead": 5,
    "id": "FeS45oMNC27pI17F0xEV",
    "infected": 571,
    "recovered": 8,
    "sick": 558
  },
  {
    "recovered": 17,
    "latitude": 18.947829,
    "pop": 10770000,
    "longitude": -70.430399,
    "name": "Dominican Republic",
    "country": "DO",
    "lastUpdated": "2020-04-05T17:15:04.101Z",
    "dead": 82,
    "id": "FuiVEJvWb0QMCpxJ3563",
    "infected": 1745,
    "sick": 1646
  },
  {
    "infected": 272,
    "recovered": 33,
    "latitude": 18.1124,
    "pop": 35190000,
    "longitude": 79.0193,
    "name": "Telengana",
    "country": "IN",
    "lastUpdated": "2020-04-05T12:35:43.646Z",
    "dead": 11,
    "id": "FyC551oNwmENxbr9Yght",
    "sick": 228
  },
  {
    "lastUpdated": "2020-04-05T17:15:04.016Z",
    "dead": 1,
    "id": "FzIDXoqWnTI3nUfhPyT2",
    "infected": 485,
    "recovered": 10,
    "latitude": 48.669,
    "pop": 5450000,
    "longitude": 19.699,
    "name": "Slovakia",
    "country": "SK",
    "sick": 474
  },
  {
    "lastUpdated": "2020-04-05T17:15:03.805Z",
    "dead": 45,
    "id": "GAp7Wb6IMhdgbvEtMza9",
    "infected": 3123,
    "recovered": 208,
    "latitude": 30.37532,
    "pop": 197000000,
    "longitude": 69.345116,
    "name": "Pakistan",
    "country": "PK",
    "sick": 2870
  },
  {
    "latitude": 31.1471,
    "pop": 27980000,
    "longitude": 75.3412,
    "name": "Punjab",
    "country": "IN",
    "lastUpdated": "2020-04-05T17:10:01.401Z",
    "dead": 6,
    "id": "GGru8cG08mANO8XDDUtZ",
    "infected": 68,
    "recovered": 4,
    "sick": 58
  },
  {
    "latitude": 23.424076,
    "pop": 9400000,
    "longitude": 53.847816,
    "name": "United Arab Emirates",
    "country": "AE",
    "lastUpdated": "2020-04-05T17:15:03.802Z",
    "dead": 10,
    "id": "GHzBIsHy2GiBc5JV2HMs",
    "infected": 1505,
    "recovered": 125,
    "sick": 1370
  },
  {
    "latitude": 36.621981,
    "pop": 39560000,
    "longitude": -119.339046,
    "name": "California",
    "country": "US",
    "lastUpdated": "2020-04-05T17:03:15.299Z",
    "dead": 324,
    "id": "Gh46r6vuaY7fbGt3IboN",
    "infected": 13946,
    "recovered": 0,
    "sick": 13622
  },
  {
    "infected": 1253,
    "recovered": 0,
    "latitude": 35.87189,
    "pop": 3943000,
    "longitude": -97.145514,
    "name": "Oklahoma",
    "country": "US",
    "lastUpdated": "2020-04-05T17:03:15.414Z",
    "dead": 42,
    "id": "GpF8ULuKOQiFDCUHN44h",
    "sick": 1211
  },
  {
    "infected": 1644,
    "recovered": 260,
    "latitude": 46.5,
    "pop": 520891,
    "longitude": 11.35,
    "name": "P.A. Bolzano",
    "country": "IT",
    "lastUpdated": "2020-04-05T17:04:02.548Z",
    "dead": 158,
    "id": "Gzx6GX1qhBm714BkEC6l",
    "sick": 1226
  },
  {
    "lastUpdated": "2020-04-05T16:44:05.637Z",
    "dead": 1,
    "id": "H3JeVigVbo5CSYfZG4WI",
    "infected": 117,
    "recovered": 74,
    "latitude": 42.83263,
    "pop": 24710000,
    "longitude": 113.750972,
    "name": "Inner Mongolia",
    "country": "CN",
    "sick": 42
  },
  {
    "latitude": 39.74536,
    "pop": 3034000,
    "longitude": -116.724977,
    "name": "Nevada",
    "country": "US",
    "lastUpdated": "2020-04-05T17:03:15.449Z",
    "dead": 46,
    "id": "H3bDg4eV30up4WWrIDAS",
    "infected": 1836,
    "recovered": 0,
    "sick": 1790
  },
  {
    "lastUpdated": "2020-04-05T17:07:05.443Z",
    "dead": 4,
    "id": "HN5mGmxlqlSeFSNeu1K5",
    "infected": 144,
    "recovered": 12,
    "latitude": 15.3173,
    "pop": 64060000,
    "longitude": 75.7139,
    "name": "Karnataka",
    "country": "IN",
    "sick": 128
  },
  {
    "latitude": 27.5142,
    "pop": 807610,
    "longitude": 90.4336,
    "name": "Bhutan",
    "country": "BT",
    "lastUpdated": "2020-04-05T17:15:04.929Z",
    "dead": 0,
    "id": "HRDpwyxpqW9RN0xLFyNu",
    "infected": 5,
    "recovered": 2,
    "sick": 3
  },
  {
    "latitude": 41.3775,
    "pop": 32390000,
    "longitude": 64.5853,
    "name": "Uzbekistan",
    "country": "UZ",
    "lastUpdated": "2020-04-05T17:15:04.045Z",
    "dead": 2,
    "id": "HRTA10dtrruDEwjJEGMp",
    "infected": 298,
    "recovered": 30,
    "sick": 266
  },
  {
    "infected": 543,
    "recovered": 0,
    "latitude": 34.138916,
    "pop": 2095000,
    "longitude": -105.576255,
    "name": "New Mexico",
    "country": "US",
    "lastUpdated": "2020-04-05T17:03:15.472Z",
    "dead": 11,
    "id": "HSSFomRju0doHhWgW8On",
    "sick": 532
  },
  {
    "id": "He1gSS1v50t06i3YrqvB",
    "infected": 523,
    "recovered": 143,
    "latitude": 53.6127,
    "pop": 1635000,
    "longitude": 12.4296,
    "name": "Mecklenburg-Vorpommern",
    "country": "DE",
    "lastUpdated": "2020-04-05T16:31:04.426Z",
    "dead": 5,
    "sick": 375
  },
  {
    "recovered": 633,
    "latitude": 23.634501,
    "pop": 129200000,
    "longitude": -102.552788,
    "name": "Mexico",
    "country": "MX",
    "lastUpdated": "2020-04-05T17:15:04.042Z",
    "dead": 79,
    "id": "I4OJ6z9Vjs1byOcbsJrd",
    "infected": 1890,
    "sick": 1178
  },
  {
    "infected": 1703,
    "recovered": 125,
    "latitude": 42.25,
    "pop": 1315000,
    "longitude": 13.75,
    "name": "Abruzzo",
    "country": "IT",
    "lastUpdated": "2020-04-05T17:04:02.641Z",
    "dead": 158,
    "id": "I9EqrZfbPnkioNU4wZGz",
    "sick": 1420
  },
  {
    "recovered": 1387,
    "latitude": 23.363855,
    "pop": 113460000,
    "longitude": 113.373448,
    "name": "Guangdong",
    "country": "CN",
    "lastUpdated": "2020-04-05T16:44:05.935Z",
    "dead": 8,
    "id": "IAX0OQLVnUwU7FX0ENF1",
    "infected": 1524,
    "sick": 129
  },
  {
    "latitude": 33.875408,
    "pop": 94000000,
    "longitude": 113.484016,
    "name": "Henan",
    "country": "CN",
    "lastUpdated": "2020-04-05T16:44:05.936Z",
    "dead": 22,
    "id": "IFuMrMvSjoiX5agYvllh",
    "infected": 1276,
    "recovered": 1251,
    "sick": 3
  },
  {
    "infected": 21,
    "recovered": 1,
    "latitude": 19.0558,
    "pop": 10980000,
    "longitude": -73.0513,
    "name": "Haiti",
    "country": "HT",
    "lastUpdated": "2020-04-05T17:15:04.865Z",
    "dead": 0,
    "id": "InZ38sIqyK7FN7XAOZoX",
    "sick": 20
  },
  {
    "latitude": 32.528564,
    "pop": 10520000,
    "longitude": -83.280125,
    "name": "Georgia (US)",
    "country": "US",
    "lastUpdated": "2020-04-05T17:03:15.485Z",
    "dead": 208,
    "id": "IvQkDJkTAsoIqPRAU25n",
    "infected": 6383,
    "recovered": 0,
    "sick": 6175
  },
  {
    "longitude": 172.488081,
    "name": "New Zealand",
    "country": "NZ",
    "lastUpdated": "2020-04-05T17:15:03.850Z",
    "dead": 1,
    "id": "IvVhpOoGpH6JVkGyUhXN",
    "infected": 1039,
    "recovered": 156,
    "latitude": -42.8285,
    "pop": 4794000,
    "sick": 882
  },
  {
    "recovered": 52,
    "latitude": 6.4238,
    "pop": 31980000,
    "longitude": -66.5897,
    "name": "Venezuela",
    "country": "VE",
    "lastUpdated": "2020-04-05T17:15:04.640Z",
    "dead": 7,
    "id": "J3mZXlfEnnJx4CDZLvRG",
    "infected": 155,
    "sick": 96
  },
  {
    "recovered": 37,
    "latitude": 35.1264,
    "pop": 1170000,
    "longitude": 33.4299,
    "name": "Cyprus",
    "country": "CY",
    "lastUpdated": "2020-04-05T17:15:03.901Z",
    "dead": 9,
    "id": "JQByE4l2OA6sGOqIcWrM",
    "infected": 446,
    "sick": 400
  },
  {
    "longitude": 85.3131,
    "name": "Bihar",
    "country": "IN",
    "lastUpdated": "2020-04-05T17:10:01.370Z",
    "dead": 1,
    "id": "JR7hOGked7CZtIs2nCV5",
    "infected": 32,
    "recovered": 3,
    "latitude": 25.0961,
    "pop": 99020000,
    "sick": 28
  },
  {
    "id": "JUWE6bG3b5oL7fKQMSvv",
    "infected": 61,
    "recovered": 15,
    "latitude": 14.628434,
    "pop": 16910000,
    "longitude": -90.522713,
    "name": "Guatemala",
    "country": "GT",
    "lastUpdated": "2020-04-05T17:15:04.758Z",
    "dead": 2,
    "sick": 44
  },
  {
    "infected": 2804,
    "recovered": 500,
    "latitude": 49.8153,
    "pop": 602005,
    "longitude": 6.1296,
    "name": "Luxembourg",
    "country": "LU",
    "lastUpdated": "2020-04-05T17:15:03.789Z",
    "dead": 36,
    "id": "JcFsHSn2WvZ5LJW42ovG",
    "sick": 2268
  },
  {
    "latitude": 8.6195,
    "pop": 7798000,
    "longitude": 0.8248,
    "name": "Togo",
    "country": "TG",
    "lastUpdated": "2020-04-05T17:15:04.657Z",
    "dead": 3,
    "id": "JrBbirlBKGdWSdcDt7PF",
    "infected": 44,
    "recovered": 20,
    "sick": 21
  },
  {
    "infected": 531,
    "recovered": 37,
    "latitude": 42.7339,
    "pop": 7050000,
    "longitude": 25.4858,
    "name": "Bulgaria",
    "country": "BG",
    "lastUpdated": "2020-04-05T17:15:04.054Z",
    "dead": 20,
    "id": "JzZ8sbqzjutThVjkPKPL",
    "sick": 474
  },
  {
    "infected": 4449,
    "recovered": 800,
    "latitude": 44.5,
    "pop": 1557000,
    "longitude": 8.833,
    "name": "Liguria",
    "country": "IT",
    "lastUpdated": "2020-04-05T17:04:02.460Z",
    "dead": 556,
    "id": "KLXicxFogWnu0dLp4bNK",
    "sick": 3093
  },
  {
    "lastUpdated": "2020-04-05T17:04:02.431Z",
    "dead": 325,
    "id": "KrLrJbpDqqiXgUPGCCW9",
    "infected": 5847,
    "recovered": 337,
    "latitude": 43.4167,
    "pop": 3737000,
    "longitude": 11,
    "name": "Toscana",
    "country": "IT",
    "sick": 5185
  },
  {
    "lastUpdated": "2020-04-05T17:15:04.916Z",
    "dead": 5,
    "id": "KsWzJO06cf0d6LJ4ZNh9",
    "infected": 175,
    "recovered": 33,
    "latitude": 7.873054,
    "pop": 21440000,
    "longitude": 80.771797,
    "name": "Sri Lanka",
    "country": "LK",
    "sick": 137
  },
  {
    "id": "KtQIo2DoqjELtPAlyDVO",
    "infected": 252,
    "recovered": 5,
    "latitude": 15.9129,
    "pop": 49670000,
    "longitude": 79.74,
    "name": "Andhra Pradesh",
    "country": "IN",
    "lastUpdated": "2020-04-05T17:10:01.382Z",
    "dead": 1,
    "sick": 246
  },
  {
    "recovered": 355,
    "latitude": 61.52401,
    "pop": 144500000,
    "longitude": 105.318756,
    "name": "Russia",
    "country": "RU",
    "lastUpdated": "2020-04-05T17:15:03.947Z",
    "dead": 45,
    "id": "KwOuGBKSMRlmwftxAvLX",
    "infected": 5389,
    "sick": 4989
  },
  {
    "id": "LBUtrLDKJiupXjlUNTUe",
    "infected": 29,
    "recovered": 7,
    "latitude": 18.0708,
    "pop": 32125,
    "longitude": -63.0501,
    "name": "Saint-Martin",
    "country": "FR",
    "lastUpdated": "2020-04-05T17:15:04.914Z",
    "dead": 2,
    "sick": 20
  },
  {
    "infected": 77,
    "recovered": 0,
    "latitude": 47.166,
    "pop": 38557,
    "longitude": 9.5554,
    "name": "Liechtenstein",
    "country": "LI",
    "lastUpdated": "2020-04-05T17:15:04.634Z",
    "dead": 1,
    "id": "LTGEU2E9MFkrCcFhZYVk",
    "sick": 76
  },
  {
    "id": "LU2QWt5ao8IJa8evNYVV",
    "infected": 121,
    "recovered": 5,
    "latitude": 9.9456,
    "pop": 12720000,
    "longitude": -9.6966,
    "name": "Guinea",
    "country": "GN",
    "lastUpdated": "2020-04-05T17:15:04.764Z",
    "dead": 0,
    "sick": 116
  },
  {
    "latitude": 3.9193051,
    "pop": 563402,
    "longitude": -56.0277824,
    "name": "Suriname",
    "country": "SR",
    "lastUpdated": "2020-04-05T17:15:04.924Z",
    "dead": 1,
    "id": "LglKINHyQpYpFxjckbQ6",
    "infected": 10,
    "recovered": 0,
    "sick": 9
  },
  {
    "longitude": -106.4509,
    "name": "Saskatchewan",
    "country": "CA",
    "lastUpdated": "2020-04-05T17:15:01.433Z",
    "dead": 3,
    "id": "LkIDKY0CMAqzbwBHyYCP",
    "infected": 231,
    "recovered": 0,
    "latitude": 52.9399,
    "pop": 1174000,
    "sick": 228
  },
  {
    "latitude": 37.8393,
    "pop": 4468000,
    "longitude": -84.27,
    "name": "Kentucky",
    "country": "US",
    "lastUpdated": "2020-04-05T17:03:15.447Z",
    "dead": 40,
    "id": "MC8MXFw9iXYybnF8v7e6",
    "infected": 917,
    "recovered": 0,
    "sick": 877
  },
  {
    "lastUpdated": "2020-04-05T17:03:15.376Z",
    "dead": 116,
    "id": "MOxDkmQ4wBi1CuAdVxDE",
    "infected": 4387,
    "recovered": 0,
    "latitude": 40.2672,
    "pop": 6692000,
    "longitude": -86.1349,
    "name": "Indiana",
    "country": "US",
    "sick": 4271
  },
  {
    "infected": 245,
    "recovered": 25,
    "latitude": 7.54,
    "pop": 24290000,
    "longitude": -5.5471,
    "name": "Ivory Coast",
    "country": "CI",
    "lastUpdated": "2020-04-05T17:15:04.072Z",
    "dead": 1,
    "id": "MdQOfc1gNh2DOqwSP6UV",
    "sick": 219
  },
  {
    "infected": 20752,
    "recovered": 7256,
    "latitude": 51.4332,
    "pop": 17910000,
    "longitude": 7.6616,
    "name": "Nordrhein-Westfalen",
    "country": "DE",
    "lastUpdated": "2020-04-05T16:31:04.336Z",
    "dead": 302,
    "id": "MjpYq3zQyAvSQlVVYjD2",
    "sick": 13194
  },
  {
    "infected": 75,
    "recovered": 75,
    "latitude": 37.330509,
    "pop": 6301000,
    "longitude": 105.977203,
    "name": "Ningxia",
    "country": "CN",
    "lastUpdated": "2020-04-05T16:44:05.835Z",
    "dead": 0,
    "id": "MntmjjuHljarCdt6aIeE",
    "sick": 0
  },
  {
    "id": "N3XsRBwJSsNclkEf7Zz5",
    "infected": 20371,
    "recovered": 4004,
    "latitude": 48.6616,
    "pop": 11020000,
    "longitude": 9.3501,
    "name": "Baden-Württemberg",
    "country": "DE",
    "lastUpdated": "2020-04-05T16:31:04.143Z",
    "dead": 391,
    "sick": 15976
  },
  {
    "recovered": 30,
    "latitude": 44.696652,
    "pop": 3507000,
    "longitude": 17.824332,
    "name": "Bosnia and Herzegovina",
    "country": "BA",
    "lastUpdated": "2020-04-05T17:15:03.909Z",
    "dead": 21,
    "id": "N7c13sCQF0G789XAVazJ",
    "infected": 654,
    "sick": 603
  },
  {
    "recovered": 133,
    "latitude": 37.242565,
    "pop": 36500000,
    "longitude": 111.856857,
    "name": "Shanxi",
    "country": "CN",
    "lastUpdated": "2020-04-05T16:44:05.735Z",
    "dead": 0,
    "id": "NBRIGIRrJB1Ry8prDNAC",
    "infected": 138,
    "sick": 5
  },
  {
    "longitude": -79.0193,
    "name": "North Carolina",
    "country": "US",
    "lastUpdated": "2020-04-05T17:03:15.418Z",
    "dead": 35,
    "id": "NC64Qp5kTqAfiTuR27k8",
    "infected": 2550,
    "recovered": 0,
    "latitude": 35.7596,
    "pop": 10380000,
    "sick": 2515
  },
  {
    "infected": 1436,
    "recovered": 203,
    "latitude": 52.4125,
    "pop": 2504000,
    "longitude": 12.5316,
    "name": "Brandenburg",
    "country": "DE",
    "lastUpdated": "2020-04-05T16:31:04.327Z",
    "dead": 27,
    "id": "NJjo2gfBvnbK4xatrsUz",
    "sick": 1206
  },
  {
    "latitude": 30.0668,
    "pop": 10080000,
    "longitude": 79.0193,
    "name": "Uttarakhand",
    "country": "IN",
    "lastUpdated": "2020-04-05T17:10:01.350Z",
    "dead": 0,
    "id": "NMeZEcGToxXfpi16PfFV",
    "infected": 26,
    "recovered": 4,
    "sick": 22
  },
  {
    "infected": 4649,
    "recovered": 988,
    "latitude": 50.6521,
    "pop": 6243000,
    "longitude": 9.1624,
    "name": "Hessen",
    "country": "DE",
    "lastUpdated": "2020-04-05T16:31:04.048Z",
    "dead": 66,
    "id": "Nk5vPgUIXsWVfbWZf15O",
    "sick": 3595
  },
  {
    "latitude": 56.96776,
    "pop": 1920000,
    "longitude": 25.837107,
    "name": "Latvia",
    "country": "LV",
    "lastUpdated": "2020-04-05T17:15:03.882Z",
    "dead": 1,
    "id": "NmmMKy0YqA8StHdGzB5N",
    "infected": 533,
    "recovered": 1,
    "sick": 531
  },
  {
    "infected": 13,
    "recovered": 3,
    "latitude": 6.4281,
    "pop": 4732000,
    "longitude": -9.4295,
    "name": "Liberia",
    "country": "LR",
    "lastUpdated": "2020-04-05T17:15:04.814Z",
    "dead": 3,
    "id": "O4g88K49HKEZLFXm5gxb",
    "sick": 7
  },
  {
    "latitude": 34.003307,
    "pop": 5084000,
    "longitude": -80.525613,
    "name": "South Carolina",
    "country": "US",
    "lastUpdated": "2020-04-05T17:03:15.495Z",
    "dead": 40,
    "id": "ONU4CK8QjViFHKg2w5if",
    "infected": 1917,
    "recovered": 0,
    "sick": 1877
  },
  {
    "infected": 1638,
    "recovered": 0,
    "latitude": 33.51822,
    "pop": 2987000,
    "longitude": -89.582775,
    "name": "Mississippi",
    "country": "US",
    "lastUpdated": "2020-04-05T17:03:15.476Z",
    "dead": 43,
    "id": "OYa0jFzdbAgo8zUsRv6q",
    "sick": 1595
  },
  {
    "latitude": 45.2538,
    "pop": 1338000,
    "longitude": -69.4455,
    "name": "Maine",
    "country": "US",
    "lastUpdated": "2020-04-05T17:03:15.432Z",
    "dead": 10,
    "id": "OcXNp9kNVSwrRlG3bNVN",
    "infected": 470,
    "recovered": 0,
    "sick": 460
  },
  {
    "id": "OnOseaqWdnuP18oruABW",
    "infected": 81,
    "recovered": 3,
    "latitude": -41.915264,
    "pop": 515000,
    "longitude": 146.725256,
    "name": "Tasmania",
    "country": "AU",
    "lastUpdated": "2020-04-05T17:12:03.429Z",
    "dead": 0,
    "sick": 78
  },
  {
    "recovered": 1,
    "latitude": 19.3133,
    "pop": 61559,
    "longitude": -81.2546,
    "name": "Cayman Islands",
    "country": "KY",
    "lastUpdated": "2020-04-05T17:15:04.796Z",
    "dead": 1,
    "id": "P4mwRFLbrvT0t75uD8Wo",
    "infected": 35,
    "sick": 33
  },
  {
    "latitude": 16.7424984,
    "pop": 5900,
    "longitude": -62.1873665,
    "name": "Montserrat",
    "country": "MS",
    "lastUpdated": "2020-04-05T17:15:04.854Z",
    "dead": 0,
    "id": "PEDkeFMTOZpvHiSVxBk7",
    "infected": 6,
    "recovered": 0,
    "sick": 6
  },
  {
    "recovered": 4,
    "latitude": -1.9403,
    "pop": 12210000,
    "longitude": 29.8739,
    "name": "Rwanda",
    "country": "RW",
    "lastUpdated": "2020-04-05T17:15:04.769Z",
    "dead": 0,
    "id": "PEcgZGEkyhABztt1Ufgc",
    "infected": 102,
    "sick": 98
  },
  {
    "longitude": -94.6859,
    "name": "Minnesota",
    "country": "US",
    "lastUpdated": "2020-04-05T17:03:15.423Z",
    "dead": 29,
    "id": "PJvVYosLIhbcRZYnKX1R",
    "infected": 935,
    "recovered": 0,
    "latitude": 46.7296,
    "pop": 5611000,
    "sick": 906
  },
  {
    "latitude": 40.6331,
    "pop": 12740000,
    "longitude": -89.3985,
    "name": "Illinois",
    "country": "US",
    "lastUpdated": "2020-04-05T17:03:15.416Z",
    "dead": 245,
    "id": "PTwQr9ijo0TBBsPH2sdJ",
    "infected": 10360,
    "recovered": 2,
    "sick": 10113
  },
  {
    "lastUpdated": "2020-04-05T17:15:04.804Z",
    "dead": 0,
    "id": "PjLqCeFdyzdZNcZxMkK1",
    "infected": 14,
    "recovered": 1,
    "latitude": 13.909444,
    "pop": 178844,
    "longitude": -60.978893,
    "name": "Saint Lucia",
    "country": "LC",
    "sick": 13
  },
  {
    "latitude": 34.201507,
    "pop": 11530000,
    "longitude": 9.460554,
    "name": "Tunisia",
    "country": "TN",
    "lastUpdated": "2020-04-05T17:15:03.793Z",
    "dead": 19,
    "id": "Pr76V4raf108uSRoEXac",
    "infected": 553,
    "recovered": 5,
    "sick": 529
  },
  {
    "latitude": -26.5225,
    "pop": 1367000,
    "longitude": 31.4659,
    "name": "Eswatini",
    "country": "SZ",
    "lastUpdated": "2020-04-05T17:15:04.900Z",
    "dead": 0,
    "id": "PuQgOd9KWiMzGZXm11sR",
    "infected": 9,
    "recovered": 0,
    "sick": 9
  },
  {
    "longitude": 143.94853,
    "name": "Victoria",
    "country": "AU",
    "lastUpdated": "2020-04-05T17:12:03.331Z",
    "dead": 4,
    "id": "Q18mrGvFWTLX2BU9SqhQ",
    "infected": 1135,
    "recovered": 171,
    "latitude": -37.009609,
    "pop": 6359000,
    "sick": 960
  },
  {
    "infected": 1660,
    "recovered": 152,
    "latitude": 54.2194,
    "pop": 2890000,
    "longitude": 9.6961,
    "name": "Schleswig-Holstein",
    "country": "DE",
    "lastUpdated": "2020-04-05T16:31:04.227Z",
    "dead": 17,
    "id": "Q39XkabIYxt15mHINzTa",
    "sick": 1491
  },
  {
    "longitude": 25.013607,
    "name": "Estonia",
    "country": "EE",
    "lastUpdated": "2020-04-05T17:15:03.906Z",
    "dead": 15,
    "id": "QR9go2hQKXjty7JHUYe4",
    "infected": 1097,
    "recovered": 62,
    "latitude": 58.595272,
    "pop": 1328000,
    "sick": 1020
  },
  {
    "recovered": 0,
    "latitude": -6.315,
    "pop": 8251000,
    "longitude": 143.9555,
    "name": "Papua New Guinea",
    "country": "PG",
    "lastUpdated": "2020-04-05T17:15:03.944Z",
    "dead": 0,
    "id": "QlZrE4nosm5WfdA2aCDg",
    "infected": 1,
    "sick": 1
  },
  {
    "infected": 42,
    "recovered": 0,
    "latitude": 18.3358,
    "pop": 107268,
    "longitude": -64.8963,
    "name": "U.S. Virgin Islands",
    "country": "US",
    "lastUpdated": "2020-04-05T17:03:15.517Z",
    "dead": 1,
    "id": "QqhD3YDMKXojvQY3Yu41",
    "sick": 41
  },
  {
    "id": "Qy2qW2ep5wltnYjPJBxh",
    "infected": 14,
    "recovered": 0,
    "latitude": 15.414999,
    "pop": 71937,
    "longitude": -61.3709755,
    "name": "Dominica",
    "country": "DM",
    "lastUpdated": "2020-04-05T17:15:04.922Z",
    "dead": 0,
    "sick": 14
  },
  {
    "longitude": -80.7821,
    "name": "Panama",
    "country": "PA",
    "lastUpdated": "2020-04-05T17:15:03.960Z",
    "dead": 46,
    "id": "R8YCgephnxTufvcPWMgx",
    "infected": 1801,
    "recovered": 13,
    "latitude": 8.538,
    "pop": 4099000,
    "sick": 1742
  },
  {
    "infected": 268,
    "recovered": 6,
    "latitude": 15.2,
    "pop": 9265000,
    "longitude": -86.2419,
    "name": "Honduras",
    "country": "HN",
    "lastUpdated": "2020-04-05T17:15:03.887Z",
    "dead": 22,
    "id": "RA2SE0p2bVhqo0P2hzGY",
    "sick": 240
  },
  {
    "lastUpdated": "2020-04-05T17:04:02.339Z",
    "dead": 154,
    "id": "RCrDBCdBNYzgLNr0aB2H",
    "infected": 2048,
    "recovered": 531,
    "latitude": 45.633331,
    "pop": 1216000,
    "longitude": 13.8,
    "name": "Friuli Venezia Giulia",
    "country": "IT",
    "sick": 1363
  },
  {
    "infected": 787,
    "recovered": 0,
    "latitude": 41.878,
    "pop": 3156000,
    "longitude": -93.0977,
    "name": "Iowa",
    "country": "US",
    "lastUpdated": "2020-04-05T17:03:15.503Z",
    "dead": 14,
    "id": "RX0KDu1AFrlCsrRso0nb",
    "sick": 773
  },
  {
    "longitude": 17.2283306,
    "name": "Libya",
    "country": "LY",
    "lastUpdated": "2020-04-05T17:15:04.780Z",
    "dead": 1,
    "id": "RaJxbzlnRFTuj4B8IbpC",
    "infected": 18,
    "recovered": 0,
    "latitude": 26.3351002,
    "pop": 6846000,
    "sick": 17
  },
  {
    "longitude": -98.4842,
    "name": "Kansas",
    "country": "US",
    "lastUpdated": "2020-04-05T17:03:15.523Z",
    "dead": 21,
    "id": "Rf4uvBfP3GRDSHdZElRd",
    "infected": 717,
    "recovered": 0,
    "latitude": 39.0119,
    "pop": 2912000,
    "sick": 696
  },
  {
    "latitude": 48.6998,
    "pop": 5518000,
    "longitude": 6.1878,
    "name": "Grand Est",
    "country": "FR",
    "lastUpdated": "2020-04-04T19:47:52.629Z",
    "dead": 1402,
    "id": "RmEgf1xeclWt7XCF9oiR",
    "infected": 12499,
    "recovered": 2801,
    "sick": 8296
  },
  {
    "latitude": 51.2538,
    "pop": 14570000,
    "longitude": -85.3232,
    "name": "Ontario",
    "country": "CA",
    "lastUpdated": "2020-04-05T17:15:01.537Z",
    "dead": 119,
    "id": "Rx4TuyMpfGb3S8wYJX0x",
    "infected": 4101,
    "recovered": 0,
    "sick": 3982
  },
  {
    "recovered": 27,
    "latitude": 14.652027,
    "pop": 376480,
    "longitude": -61.011715,
    "name": "Martinique",
    "country": "FR",
    "lastUpdated": "2020-04-05T17:15:04.638Z",
    "dead": 3,
    "id": "SDdefnq1bc3ZNr7SpEsW",
    "infected": 145,
    "sick": 115
  },
  {
    "latitude": 7.9465,
    "pop": 28830000,
    "longitude": -1.0232,
    "name": "Ghana",
    "country": "GH",
    "lastUpdated": "2020-04-05T17:15:04.850Z",
    "dead": 5,
    "id": "SG9VWLOV3x2JsTkXmVSz",
    "infected": 214,
    "recovered": 31,
    "sick": 178
  },
  {
    "recovered": 6415,
    "latitude": 46.818188,
    "pop": 8570000,
    "longitude": 8.227512,
    "name": "Switzerland",
    "country": "CH",
    "lastUpdated": "2020-04-05T17:15:03.919Z",
    "dead": 685,
    "id": "SGe9sCPayMqh6RsGFaBA",
    "infected": 21100,
    "sick": 14000
  },
  {
    "infected": 6997,
    "recovered": 0,
    "latitude": 46.8139,
    "pop": 8485000,
    "longitude": -71.208,
    "name": "Quebec",
    "country": "CA",
    "lastUpdated": "2020-04-05T17:15:01.439Z",
    "dead": 75,
    "id": "SHoOE3NiJgWAlDVBzwYH",
    "sick": 6922
  },
  {
    "recovered": 23,
    "latitude": 42.6026,
    "pop": 1831000,
    "longitude": 20.903,
    "name": "Kosovo",
    "country": "XK",
    "lastUpdated": "2020-04-05T17:14:01.470Z",
    "dead": 1,
    "id": "SMWvuMMuKp2QK7O2tNia",
    "infected": 140,
    "sick": 116
  },
  {
    "latitude": 15.2993,
    "pop": 1817000,
    "longitude": 74.124,
    "name": "Goa",
    "country": "IN",
    "lastUpdated": "2020-04-05T17:10:01.386Z",
    "dead": 0,
    "id": "SPcujsH2YlUaoAr8AiWF",
    "infected": 7,
    "recovered": 0,
    "sick": 7
  },
  {
    "id": "SZdF624x0v1LlyzZjKFu",
    "infected": 795,
    "recovered": 33,
    "latitude": 39,
    "pop": 1957000,
    "longitude": 16.5,
    "name": "Calabria",
    "country": "IT",
    "lastUpdated": "2020-04-05T17:04:02.455Z",
    "dead": 56,
    "sick": 706
  },
  {
    "lastUpdated": "2020-04-05T17:03:15.478Z",
    "dead": 8,
    "id": "SakhKQzKu1LRI8laqdQq",
    "infected": 323,
    "recovered": 0,
    "latitude": 41.4925,
    "pop": 1929000,
    "longitude": -99.9018,
    "name": "Nebraska",
    "country": "US",
    "sick": 315
  },
  {
    "latitude": -21.1151,
    "pop": 859959,
    "longitude": 55.5364,
    "name": "La Réunion",
    "country": "FR",
    "lastUpdated": "2020-04-05T17:15:03.877Z",
    "dead": 0,
    "id": "SgHzWAAYK1j2sipovxM6",
    "infected": 344,
    "recovered": 40,
    "sick": 304
  },
  {
    "infected": 114,
    "recovered": 50,
    "latitude": 12.565679,
    "pop": 16010000,
    "longitude": 104.990967,
    "name": "Cambodia",
    "country": "KH",
    "lastUpdated": "2020-04-05T17:15:04.859Z",
    "dead": 0,
    "id": "SioMALgUbo7peXmbco2f",
    "sick": 64
  },
  {
    "latitude": 13.4443,
    "pop": 164229,
    "longitude": 144.7937,
    "name": "Guam",
    "country": "GU",
    "lastUpdated": "2020-04-05T17:03:15.439Z",
    "dead": 4,
    "id": "SsWhuEElU7dCTTuH5fdQ",
    "infected": 112,
    "recovered": 0,
    "sick": 108
  },
  {
    "id": "T3iRf8mTUTAzbKrORTap",
    "infected": 154,
    "recovered": 3,
    "latitude": -4.0383,
    "pop": 81340000,
    "longitude": 21.7587,
    "name": "DR Congo",
    "country": "CD",
    "lastUpdated": "2020-04-05T17:15:04.879Z",
    "dead": 18,
    "sick": 133
  },
  {
    "lastUpdated": "2020-04-05T17:15:04.004Z",
    "dead": 34,
    "id": "T7NffoeCgTUpAbOHvYwP",
    "infected": 2385,
    "recovered": 488,
    "latitude": 23.635796,
    "pop": 32940000,
    "longitude": 44.344334,
    "name": "Saudi Arabia",
    "country": "SA",
    "sick": 1863
  },
  {
    "infected": 135,
    "recovered": 73,
    "latitude": 4.506106,
    "pop": 428697,
    "longitude": 114.650692,
    "name": "Brunei",
    "country": "BN",
    "lastUpdated": "2020-04-05T17:15:04.819Z",
    "dead": 1,
    "id": "TQZmzsLhJqjtCSExAkCP",
    "sick": 61
  },
  {
    "lastUpdated": "2020-04-04T19:49:08.673Z",
    "dead": 478,
    "id": "TT0MKODSjrxHvG19xZCa",
    "infected": 7083,
    "recovered": 1694,
    "latitude": 45.4471,
    "pop": 8027000,
    "longitude": 4.3853,
    "name": "Auvergne-Rhône-Alpes",
    "country": "FR",
    "sick": 4911
  },
  {
    "latitude": 39.318928,
    "pop": 5696000,
    "longitude": -105.461392,
    "name": "Colorado",
    "country": "US",
    "lastUpdated": "2020-04-05T17:03:15.443Z",
    "dead": 126,
    "id": "Th4dlpXXmSDgi1OHs36P",
    "infected": 4565,
    "recovered": 0,
    "sick": 4439
  },
  {
    "infected": 345,
    "recovered": 90,
    "latitude": 12.2383,
    "pop": 19190000,
    "longitude": -1.5616,
    "name": "Burkina Faso",
    "country": "BF",
    "lastUpdated": "2020-04-05T17:15:04.115Z",
    "dead": 17,
    "id": "Tup6oDCHj6DgqZR3nQ3x",
    "sick": 238
  },
  {
    "longitude": -61.670761,
    "name": "Grenada",
    "country": "GD",
    "lastUpdated": "2020-04-05T17:15:04.895Z",
    "dead": 0,
    "id": "TvqURPN5xzVBXsmGP46N",
    "infected": 12,
    "recovered": 0,
    "latitude": 12.104818,
    "pop": 112381,
    "sick": 12
  },
  {
    "infected": 4369,
    "recovered": 1327,
    "latitude": 55.675758,
    "pop": 5603000,
    "longitude": 12.56902,
    "name": "Denmark",
    "country": "DK",
    "lastUpdated": "2020-04-05T17:15:03.999Z",
    "dead": 179,
    "id": "Ty1AY3VLPJcRZgdBIERx",
    "sick": 2863
  },
  {
    "infected": 779,
    "recovered": 755,
    "latitude": 36.395859,
    "pop": 100472400,
    "longitude": 118.769882,
    "name": "Shandong",
    "country": "CN",
    "lastUpdated": "2020-04-05T16:44:05.825Z",
    "dead": 7,
    "id": "U0tkTJ9CGsBuFJ2Gdoum",
    "sick": 17
  },
  {
    "lastUpdated": "2020-04-05T17:15:04.060Z",
    "dead": 32,
    "id": "U12rMD5GDW58Q0lIwrB1",
    "infected": 266,
    "recovered": 35,
    "latitude": 43.94236,
    "pop": 33400,
    "longitude": 12.457777,
    "name": "San Marino",
    "country": "SM",
    "sick": 199
  },
  {
    "id": "U13Gy4BpRLAZ95bPmBXd",
    "infected": 3139,
    "recovered": 514,
    "latitude": 36.204823,
    "pop": 126800000,
    "longitude": 138.25293,
    "name": "Japan",
    "country": "JP",
    "lastUpdated": "2020-04-05T17:15:04.065Z",
    "dead": 77,
    "sick": 2548
  },
  {
    "latitude": 1.3733,
    "pop": 42860000,
    "longitude": 32.2903,
    "name": "Uganda",
    "country": "UG",
    "lastUpdated": "2020-04-05T17:15:04.903Z",
    "dead": 0,
    "id": "UCZXEgnHtxUoChWLR6fQ",
    "infected": 48,
    "recovered": 0,
    "sick": 48
  },
  {
    "infected": 10,
    "recovered": 2,
    "latitude": -11.2027,
    "pop": 29780000,
    "longitude": 17.8739,
    "name": "Angola",
    "country": "AO",
    "lastUpdated": "2020-04-05T17:15:04.860Z",
    "dead": 2,
    "id": "UIbrFy6kiTTF0D37Kqmp",
    "sick": 6
  },
  {
    "longitude": -2.9326,
    "name": "Bretagne",
    "country": "FR",
    "lastUpdated": "2020-04-04T20:12:28.090Z",
    "dead": 75,
    "id": "URKMlJ7OTNldjpaxFbjE",
    "infected": 1061,
    "recovered": 273,
    "latitude": 48.202,
    "pop": 3329000,
    "sick": 713
  },
  {
    "infected": 3019,
    "recovered": 1400,
    "latitude": 53.5511,
    "pop": 1822000,
    "longitude": 9.9937,
    "name": "Hamburg",
    "country": "DE",
    "lastUpdated": "2020-04-05T16:31:04.233Z",
    "dead": 19,
    "id": "UfFaUECHINUutv1M9tzq",
    "sick": 1600
  },
  {
    "recovered": 0,
    "latitude": -19.4914,
    "pop": 211945,
    "longitude": 132.551,
    "name": "Northern Territory",
    "country": "AU",
    "lastUpdated": "2020-04-05T17:12:03.433Z",
    "dead": 0,
    "id": "UrF45V1VqMo6YBib2KlL",
    "infected": 26,
    "sick": 26
  },
  {
    "infected": 25,
    "recovered": 6,
    "latitude": 18.0424805,
    "pop": 41109,
    "longitude": -63.0548286,
    "name": "Sint Maarten",
    "country": "SX",
    "lastUpdated": "2020-04-05T17:15:04.869Z",
    "dead": 4,
    "id": "UsxgpiuFCtlR2CW1UUFm",
    "sick": 15
  },
  {
    "infected": 5,
    "recovered": 1,
    "latitude": 11.943179,
    "pop": 241773,
    "longitude": 79.808206,
    "name": "Puducherry",
    "country": "IN",
    "lastUpdated": "2020-04-05T17:07:05.340Z",
    "dead": 0,
    "id": "V1qE740s3EUGyKGr6SVv",
    "sick": 4
  },
  {
    "lastUpdated": "2020-04-05T17:15:04.081Z",
    "dead": 32,
    "id": "VAAmtxtDuCY0o55zRsOh",
    "infected": 1406,
    "recovered": 85,
    "latitude": 3.527606,
    "pop": 49070000,
    "longitude": -72.998674,
    "name": "Colombia",
    "country": "CO",
    "sick": 1289
  },
  {
    "longitude": -77.7812,
    "name": "Cuba",
    "country": "CU",
    "lastUpdated": "2020-04-05T17:15:03.870Z",
    "dead": 8,
    "id": "VAG9AcMABTf8oIAfELPh",
    "infected": 320,
    "recovered": 15,
    "latitude": 21.5218,
    "pop": 11480000,
    "sick": 297
  },
  {
    "recovered": 172,
    "latitude": 25.181129,
    "pop": 45970000,
    "longitude": 101.864143,
    "name": "Yunnan",
    "country": "CN",
    "lastUpdated": "2020-04-05T16:44:05.628Z",
    "dead": 2,
    "id": "VIf8T8PD3ZzlzAm5eBCX",
    "infected": 184,
    "sick": 10
  },
  {
    "longitude": 80.9462,
    "name": "Uttar Pradesh",
    "country": "IN",
    "lastUpdated": "2020-04-05T17:10:01.373Z",
    "dead": 3,
    "id": "VcKcLdCkC6YpPfIDnRVD",
    "infected": 278,
    "recovered": 21,
    "latitude": 26.8467,
    "pop": 204200000,
    "sick": 254
  },
  {
    "lastUpdated": "2020-04-05T17:15:01.618Z",
    "dead": 0,
    "id": "Vd3lLgrNsr81plzTgZkz",
    "infected": 4,
    "recovered": 0,
    "latitude": 64.8255,
    "pop": 44826,
    "longitude": -124.8457,
    "name": "Northwest Territories",
    "country": "CA",
    "sick": 4
  },
  {
    "latitude": 43.8927,
    "pop": 5893000,
    "longitude": 3.2828,
    "name": "Occitanie",
    "country": "FR",
    "lastUpdated": "2020-04-04T20:17:03.979Z",
    "dead": 148,
    "id": "WAnbFrEjtZDTCIYBt8rz",
    "infected": 2602,
    "recovered": 709,
    "sick": 1745
  },
  {
    "recovered": 11,
    "latitude": 40.5,
    "pop": 567118,
    "longitude": 16.5,
    "name": "Basilicata",
    "country": "IT",
    "lastUpdated": "2020-04-05T17:04:02.545Z",
    "dead": 13,
    "id": "WD502XimGXnWzqYg7zxL",
    "infected": 278,
    "sick": 254
  },
  {
    "infected": 2,
    "recovered": 0,
    "latitude": 24.6637,
    "pop": 2722000,
    "longitude": 93.9063,
    "name": "Manipur",
    "country": "IN",
    "lastUpdated": "2020-04-05T17:10:01.392Z",
    "dead": 0,
    "id": "WKsJQmcpWKxnp0nCwN77",
    "sick": 2
  },
  {
    "infected": 1585,
    "recovered": 95,
    "latitude": -30.5595,
    "pop": 56720000,
    "longitude": 22.9375,
    "name": "South Africa",
    "country": "ZA",
    "lastUpdated": "2020-04-05T17:15:04.006Z",
    "dead": 9,
    "id": "Whrue10NtwIObLvFFyBr",
    "sick": 1481
  },
  {
    "latitude": 13.443182,
    "pop": 2101000,
    "longitude": -15.3101387,
    "name": "Gambia",
    "country": "GM",
    "lastUpdated": "2020-04-05T17:15:04.883Z",
    "dead": 1,
    "id": "Wk811YwpQxsOCfz8As86",
    "infected": 4,
    "recovered": 2,
    "sick": 1
  },
  {
    "latitude": 23.685,
    "pop": 164700000,
    "longitude": 90.3563,
    "name": "Bangladesh",
    "country": "BD",
    "lastUpdated": "2020-04-05T17:15:04.866Z",
    "dead": 9,
    "id": "WpLayPPLIJ7VcHZdQaoM",
    "infected": 88,
    "recovered": 33,
    "sick": 46
  },
  {
    "latitude": 45.5,
    "pop": 4905000,
    "longitude": 11.75,
    "name": "Veneto",
    "country": "IT",
    "lastUpdated": "2020-04-05T17:04:02.443Z",
    "dead": 631,
    "id": "X2iRhHF6f9pUnJcxPc3J",
    "infected": 11226,
    "recovered": 1186,
    "sick": 9409
  },
  {
    "infected": 1,
    "recovered": 0,
    "latitude": -8.556856,
    "pop": 1311000,
    "longitude": 125.56031,
    "name": "Timor-Leste",
    "country": "TL",
    "lastUpdated": "2020-04-05T17:15:04.062Z",
    "dead": 0,
    "id": "X3GMAVINj2GDzIRVfo7n",
    "sick": 1
  },
  {
    "infected": 14,
    "recovered": 10,
    "latitude": 34.152588,
    "pop": 274289,
    "longitude": 77.577049,
    "name": "Ladakh",
    "country": "IN",
    "lastUpdated": "2020-04-05T17:07:05.630Z",
    "dead": 0,
    "id": "X3PZqaJxtnlxcgP4tzya",
    "sick": 4
  },
  {
    "recovered": 303,
    "latitude": 25.92448,
    "pop": 38560000,
    "longitude": 118.278992,
    "name": "Fujian",
    "country": "CN",
    "lastUpdated": "2020-04-05T16:44:05.738Z",
    "dead": 1,
    "id": "XBBw0iMPrmiEu3qogkbi",
    "infected": 350,
    "sick": 46
  },
  {
    "latitude": -32.5228,
    "pop": 3457000,
    "longitude": -55.7658,
    "name": "Uruguay",
    "country": "UY",
    "lastUpdated": "2020-04-05T17:15:03.969Z",
    "dead": 5,
    "id": "XrsuLstdybIqIvv0E0aJ",
    "infected": 400,
    "recovered": 93,
    "sick": 302
  },
  {
    "infected": 335,
    "recovered": 116,
    "latitude": 42.0396,
    "pop": 339178,
    "longitude": 9.0129,
    "name": "Corse",
    "country": "FR",
    "lastUpdated": "2020-04-04T20:13:27.750Z",
    "dead": 26,
    "id": "YGXgIObKVabP2CYEdcb9",
    "sick": 193
  },
  {
    "lastUpdated": "2020-04-05T17:15:04.052Z",
    "dead": 1,
    "id": "YMzKw0SnXG71VT7H1jff",
    "infected": 228,
    "recovered": 23,
    "latitude": 31.9522,
    "pop": 5052000,
    "longitude": 35.2332,
    "name": "Palestine",
    "country": "PS",
    "sick": 204
  },
  {
    "longitude": -15.1804132,
    "name": "Guinea-Bissau",
    "country": "GW",
    "lastUpdated": "2020-04-05T17:15:04.863Z",
    "dead": 0,
    "id": "YZoy8ReFucvC3IFnWZHn",
    "infected": 18,
    "recovered": 0,
    "latitude": 11.8037491,
    "pop": 1955000,
    "sick": 18
  },
  {
    "latitude": 64.2008,
    "pop": 737438,
    "longitude": -149.4937,
    "name": "Alaska",
    "country": "US",
    "lastUpdated": "2020-04-05T17:03:15.454Z",
    "dead": 5,
    "id": "YaCODTMD1KKRnrAlkg2u",
    "infected": 171,
    "recovered": 0,
    "sick": 166
  },
  {
    "infected": 10237,
    "recovered": 6463,
    "latitude": 37.568291,
    "pop": 51470000,
    "longitude": 126.99778,
    "name": "South Korea",
    "country": "KR",
    "lastUpdated": "2020-04-05T17:15:03.991Z",
    "dead": 183,
    "id": "Yw9uBekNlefXBcOCNMfP",
    "sick": 3591
  },
  {
    "lastUpdated": "2020-04-05T17:15:04.670Z",
    "dead": 1,
    "id": "YzZqZMJGvG6joQCdiuXC",
    "infected": 56,
    "recovered": 6,
    "latitude": 13.193887,
    "pop": 285719,
    "longitude": -59.543198,
    "name": "Barbados",
    "country": "BB",
    "sick": 49
  },
  {
    "infected": 4102,
    "recovered": 134,
    "latitude": 52.2297,
    "pop": 37980000,
    "longitude": 21.0122,
    "name": "Poland",
    "country": "PL",
    "lastUpdated": "2020-04-05T17:15:03.988Z",
    "dead": 94,
    "id": "ZAZNuCK1VweBaTLCFzCk",
    "sick": 3874
  },
  {
    "infected": 12,
    "recovered": 0,
    "latitude": -17.713371,
    "pop": 905502,
    "longitude": 178.065033,
    "name": "Fiji",
    "country": "FJ",
    "lastUpdated": "2020-04-05T17:15:04.803Z",
    "dead": 0,
    "id": "ZmzOT0sJgfWXEpRImItC",
    "sick": 12
  },
  {
    "latitude": 41.6032,
    "pop": 3573000,
    "longitude": -73.0877,
    "name": "Connecticut",
    "country": "US",
    "lastUpdated": "2020-04-05T17:03:15.464Z",
    "dead": 165,
    "id": "Zqy0gftQzocR49jEJNMl",
    "infected": 5276,
    "recovered": 0,
    "sick": 5111
  },
  {
    "infected": 4464,
    "recovered": 287,
    "latitude": 43.616943,
    "pop": 1532000,
    "longitude": 13.516667,
    "name": "Marche",
    "country": "IT",
    "lastUpdated": "2020-04-05T17:04:02.542Z",
    "dead": 599,
    "id": "Zwbjs4XN7P9s849Q3zFj",
    "sick": 3578
  },
  {
    "latitude": 51.011,
    "pop": 2137000,
    "longitude": 10.8453,
    "name": "Thüringen",
    "country": "DE",
    "lastUpdated": "2020-04-05T16:31:04.136Z",
    "dead": 11,
    "id": "a9OgUWo6ZSWA3HyF0xnj",
    "infected": 1164,
    "recovered": 221,
    "sick": 932
  },
  {
    "infected": 409,
    "recovered": 6,
    "latitude": -30.000233,
    "pop": 1677000,
    "longitude": 136.209152,
    "name": "South Australia",
    "country": "AU",
    "lastUpdated": "2020-04-05T17:12:03.423Z",
    "dead": 0,
    "id": "a9p9pAOsjg1WAjPGc2a6",
    "sick": 403
  },
  {
    "longitude": -91.8318,
    "name": "Missouri",
    "country": "US",
    "lastUpdated": "2020-04-05T17:03:15.420Z",
    "dead": 44,
    "id": "aPubGfQ8ToSEuKJldKRT",
    "infected": 2346,
    "recovered": 0,
    "latitude": 37.9643,
    "pop": 6126000,
    "sick": 2302
  },
  {
    "infected": 254,
    "recovered": 252,
    "latitude": 23.64407,
    "pop": 48380000,
    "longitude": 108.26651,
    "name": "Guangxi",
    "country": "CN",
    "lastUpdated": "2020-04-05T16:44:05.740Z",
    "dead": 2,
    "id": "aTa8MiBjtH3iY0SRs2HQ",
    "sick": 0
  },
  {
    "latitude": 6.6111,
    "pop": 4659000,
    "longitude": 20.9394,
    "name": "CAR",
    "country": "CF",
    "lastUpdated": "2020-04-05T17:15:04.881Z",
    "dead": 0,
    "id": "adcBUeAYp6ey0ZXCzKNs",
    "infected": 8,
    "recovered": 0,
    "sick": 8
  },
  {
    "recovered": 0,
    "latitude": 37.4316,
    "pop": 8518000,
    "longitude": -78.6569,
    "name": "Virginia",
    "country": "US",
    "lastUpdated": "2020-04-05T17:03:15.435Z",
    "dead": 52,
    "id": "afeZTVC1J1SMMNFxkrcc",
    "infected": 2637,
    "sick": 2585
  },
  {
    "longitude": 116.407394,
    "name": "Beijing",
    "country": "CN",
    "lastUpdated": "2020-04-05T16:44:05.562Z",
    "dead": 8,
    "id": "alj4hkxg9cjrTxOzwFKt",
    "infected": 586,
    "recovered": 441,
    "latitude": 39.904202,
    "pop": 21540000,
    "sick": 137
  },
  {
    "infected": 961,
    "recovered": 279,
    "latitude": 33.22319,
    "pop": 38270000,
    "longitude": 43.679291,
    "name": "Iraq",
    "country": "IQ",
    "lastUpdated": "2020-04-05T17:15:03.846Z",
    "dead": 61,
    "id": "b7TwXX46FA0EmH1CjHET",
    "sick": 621
  },
  {
    "id": "b9p1JhVml3GGC7iiPmKv",
    "infected": 222,
    "recovered": 82,
    "latitude": 14.457474,
    "pop": 15850000,
    "longitude": -14.358636,
    "name": "Senegal",
    "country": "SN",
    "lastUpdated": "2020-04-05T17:15:04.792Z",
    "dead": 2,
    "sick": 138
  },
  {
    "latitude": -0.0236,
    "pop": 49700000,
    "longitude": 37.9062,
    "name": "Kenya",
    "country": "KE",
    "lastUpdated": "2020-04-05T17:15:04.774Z",
    "dead": 4,
    "id": "bVHiTolbUJGHIeVht3eG",
    "infected": 142,
    "recovered": 4,
    "sick": 134
  },
  {
    "latitude": 39.561889,
    "pop": 8909000,
    "longitude": -74.672169,
    "name": "New Jersey",
    "country": "US",
    "lastUpdated": "2020-04-05T17:03:15.497Z",
    "dead": 846,
    "id": "bYp4RRHv19M7lYtSzQeV",
    "infected": 34124,
    "recovered": 0,
    "sick": 33278
  },
  {
    "infected": 3662,
    "recovered": 1005,
    "latitude": 3.139,
    "pop": 31620000,
    "longitude": 101.6869,
    "name": "Malaysia",
    "country": "MY",
    "lastUpdated": "2020-04-05T17:15:03.962Z",
    "dead": 61,
    "id": "bdqD4kpdqGgUaX70Tm2Q",
    "sick": 2596
  },
  {
    "latitude": 60.128162,
    "pop": 10120000,
    "longitude": 18.643501,
    "name": "Sweden",
    "country": "SE",
    "lastUpdated": "2020-04-05T17:15:03.959Z",
    "dead": 401,
    "id": "bignnyt2A8BBx8VNo32p",
    "infected": 6830,
    "recovered": 205,
    "sick": 6224
  },
  {
    "infected": 3,
    "recovered": 0,
    "latitude": 23.6102,
    "pop": 31900000,
    "longitude": 85.2799,
    "name": "Jharkhand",
    "country": "IN",
    "lastUpdated": "2020-04-05T17:10:01.403Z",
    "dead": 0,
    "id": "bo2XnTYrVRoaktD5uF93",
    "sick": 3
  },
  {
    "id": "bor36ktvkrB3iSxlsegc",
    "infected": 10,
    "recovered": 0,
    "latitude": 17.363747,
    "pop": 53100,
    "longitude": -62.754593,
    "name": "Saint Kitts and Nevis",
    "country": "KN",
    "lastUpdated": "2020-04-05T17:15:04.862Z",
    "dead": 0,
    "sick": 10
  },
  {
    "infected": 361,
    "recovered": 104,
    "latitude": 40.973765,
    "pop": 2877000,
    "longitude": 20.010162,
    "name": "Albania",
    "country": "AL",
    "lastUpdated": "2020-04-05T17:15:04.078Z",
    "dead": 20,
    "id": "cCGmFmwHOoBrEpvG3qBP",
    "sick": 237
  },
  {
    "infected": 21,
    "recovered": 0,
    "latitude": 16.871311,
    "pop": 55901000,
    "longitude": 96.199379,
    "name": "Myanmar",
    "country": "MM",
    "lastUpdated": "2020-04-05T17:15:04.868Z",
    "dead": 1,
    "id": "cIbchhSBTuxXmXYgpkdB",
    "sick": 20
  },
  {
    "infected": 10,
    "recovered": 1,
    "latitude": -25.953724,
    "pop": 29670000,
    "longitude": 32.588711,
    "name": "Mozambique",
    "country": "MZ",
    "lastUpdated": "2020-04-05T17:15:04.898Z",
    "dead": 0,
    "id": "cO8TChMvQvAtoZMNurTQ",
    "sick": 9
  },
  {
    "latitude": 46.8625,
    "pop": 3076000,
    "longitude": 103.8467,
    "name": "Mongolia",
    "country": "MN",
    "lastUpdated": "2020-04-05T17:15:04.893Z",
    "dead": 0,
    "id": "cPxONYsVo6BgvCW9HUeQ",
    "infected": 14,
    "recovered": 2,
    "sick": 12
  },
  {
    "lastUpdated": "2020-04-05T17:15:04.103Z",
    "dead": 4,
    "id": "cPxe7nsRnOf6aOPqHElJ",
    "infected": 1486,
    "recovered": 428,
    "latitude": 64.963051,
    "pop": 364260,
    "longitude": -19.020836,
    "name": "Iceland",
    "country": "IS",
    "sick": 1054
  },
  {
    "lastUpdated": "2020-04-05T17:15:03.994Z",
    "dead": 48,
    "id": "cX891t0ONLNFj0MYq6La",
    "infected": 8018,
    "recovered": 477,
    "latitude": 31.046051,
    "pop": 8712000,
    "longitude": 34.851612,
    "name": "Israel",
    "country": "IL",
    "sick": 7493
  },
  {
    "longitude": -53.112909,
    "name": "Guyane",
    "country": "FR",
    "lastUpdated": "2020-04-04T20:14:36.015Z",
    "dead": 0,
    "id": "cc7s6hYGQ2MovBBBgkKb",
    "infected": 61,
    "recovered": 27,
    "latitude": 4.749531,
    "pop": 290691,
    "sick": 34
  },
  {
    "infected": 181,
    "recovered": 99,
    "latitude": 61.8926,
    "pop": 49290,
    "longitude": -6.9118,
    "name": "Faeroe Islands",
    "country": "FO",
    "lastUpdated": "2020-04-05T17:15:04.805Z",
    "dead": 0,
    "id": "cgzd5EM8PZv5ziJtTz1w",
    "sick": 82
  },
  {
    "longitude": -77.1945,
    "name": "Pennsylvania",
    "country": "US",
    "lastUpdated": "2020-04-05T17:03:15.389Z",
    "dead": 151,
    "id": "chj2FF3zb4Xxcop9RHre",
    "infected": 11535,
    "recovered": 0,
    "latitude": 41.2033,
    "pop": 12810000,
    "sick": 11384
  },
  {
    "infected": 1983,
    "recovered": 553,
    "latitude": 45.7087,
    "pop": 5987000,
    "longitude": 0.6269,
    "name": "Nouvelle-Aquitaine",
    "country": "FR",
    "lastUpdated": "2020-04-04T20:16:42.211Z",
    "dead": 111,
    "id": "cpf3Y5PQTYywIm3PrpIQ",
    "sick": 1319
  },
  {
    "id": "d0ExINgPaWUBm3l4ioJL",
    "infected": 130759,
    "recovered": 38080,
    "latitude": 40.463669,
    "pop": 46660000,
    "longitude": -3.74922,
    "name": "Spain",
    "country": "ES",
    "lastUpdated": "2020-04-05T17:15:03.974Z",
    "dead": 12418,
    "sick": 80261
  },
  {
    "latitude": 42.50837,
    "pop": 76965,
    "longitude": 1.517155,
    "name": "Andorra",
    "country": "AD",
    "lastUpdated": "2020-04-05T17:15:04.099Z",
    "dead": 18,
    "id": "dedMXSYR2k92wkSXNZqn",
    "infected": 501,
    "recovered": 26,
    "sick": 457
  },
  {
    "infected": 593,
    "recovered": 0,
    "latitude": 38.831163,
    "pop": 967171,
    "longitude": -75.375673,
    "name": "Delaware",
    "country": "US",
    "lastUpdated": "2020-04-05T17:03:15.508Z",
    "dead": 14,
    "id": "dzCgqYduzyncjNKU9z6G",
    "sick": 579
  },
  {
    "latitude": 38.9637,
    "pop": 80810000,
    "longitude": 35.2433,
    "name": "Turkey",
    "country": "TR",
    "lastUpdated": "2020-04-05T17:15:04.093Z",
    "dead": 574,
    "id": "dzIcCaUZlbIXuRw0SyDE",
    "infected": 27069,
    "recovered": 1042,
    "sick": 25453
  },
  {
    "infected": 12051,
    "recovered": 2998,
    "latitude": 47.516232,
    "pop": 8822000,
    "longitude": 14.550072,
    "name": "Austria",
    "country": "AT",
    "lastUpdated": "2020-04-05T17:15:03.954Z",
    "dead": 204,
    "id": "e3BtI12qbqhE8jypOoZu",
    "sick": 8849
  },
  {
    "id": "e3CJgTO8wVbBQZaxqNze",
    "infected": 6171,
    "recovered": 1835,
    "latitude": 52.6367,
    "pop": 7963000,
    "longitude": 9.8451,
    "name": "Niedersachsen",
    "country": "DE",
    "lastUpdated": "2020-04-05T16:31:04.334Z",
    "dead": 97,
    "sick": 4239
  },
  {
    "latitude": 41.097481,
    "pop": 43900000,
    "longitude": 122.310669,
    "name": "Liaoning",
    "country": "CN",
    "lastUpdated": "2020-04-05T16:44:05.732Z",
    "dead": 2,
    "id": "e7P83iImanpd9r36oXK3",
    "infected": 142,
    "recovered": 126,
    "sick": 14
  },
  {
    "latitude": 31.230391,
    "pop": 24240000,
    "longitude": 121.473701,
    "name": "Shanghai",
    "country": "CN",
    "lastUpdated": "2020-04-05T16:44:05.927Z",
    "dead": 6,
    "id": "e9pQqQa7CEblCYoDtfKo",
    "infected": 531,
    "recovered": 383,
    "sick": 142
  },
  {
    "id": "eCKDGssww4pF7NrxOySu",
    "infected": 11736,
    "recovered": 0,
    "latitude": 42.407211,
    "pop": 6902000,
    "longitude": -71.382439,
    "name": "Massachusetts",
    "country": "US",
    "lastUpdated": "2020-04-05T17:03:15.407Z",
    "dead": 216,
    "sick": 11520
  },
  {
    "lastUpdated": "2020-04-05T17:15:04.790Z",
    "dead": 1,
    "id": "eLgKPNUwYM5MNDAtF6ql",
    "infected": 73,
    "recovered": 3,
    "latitude": 43.740451,
    "pop": 38695,
    "longitude": 7.432032,
    "name": "Monaco",
    "country": "MC",
    "sick": 69
  },
  {
    "id": "ejrjMKfHexGnK52FS9Aa",
    "infected": 3240,
    "recovered": 910,
    "latitude": 47.2805,
    "pop": 2686000,
    "longitude": 4.9994,
    "name": "Bourgogne-Franche-Comté",
    "country": "FR",
    "lastUpdated": "2020-04-04T19:49:33.367Z",
    "dead": 323,
    "sick": 2007
  },
  {
    "infected": 584,
    "recovered": 42,
    "latitude": 48.0196,
    "pop": 18040000,
    "longitude": 66.9237,
    "name": "Kazakhstan",
    "country": "KZ",
    "lastUpdated": "2020-04-05T17:15:03.951Z",
    "dead": 6,
    "id": "etrmrftkQg6Kbd9seAga",
    "sick": 536
  },
  {
    "id": "eyK5bxFkwdoAouIBvLFM",
    "infected": 558,
    "recovered": 539,
    "latitude": 30.14208,
    "pop": 81100000,
    "longitude": 102.960701,
    "name": "Sichuan",
    "country": "CN",
    "lastUpdated": "2020-04-05T16:44:05.832Z",
    "dead": 3,
    "sick": 16
  },
  {
    "infected": 298,
    "recovered": 61,
    "latitude": 21.473534,
    "pop": 4636000,
    "longitude": 55.975414,
    "name": "Oman",
    "country": "OM",
    "lastUpdated": "2020-04-05T17:15:03.828Z",
    "dead": 2,
    "id": "f9kmlhYtc3WA3kjbWszW",
    "sick": 235
  },
  {
    "latitude": -0.228021,
    "pop": 81340000,
    "longitude": 15.8276587,
    "name": "Congo",
    "country": "CG",
    "lastUpdated": "2020-04-05T17:15:04.871Z",
    "dead": 5,
    "id": "fEyJ83bQtvcaes8KLhVx",
    "infected": 45,
    "recovered": 2,
    "sick": 38
  },
  {
    "lastUpdated": "2020-04-05T16:31:04.328Z",
    "dead": 40,
    "id": "fGqVm2khm3IBRs709S1f",
    "infected": 3039,
    "recovered": 196,
    "latitude": 51.1045,
    "pop": 4081000,
    "longitude": 13.2017,
    "name": "Sachsen",
    "country": "DE",
    "sick": 2803
  },
  {
    "infected": 0,
    "recovered": 0,
    "latitude": 47,
    "longitude": 2,
    "name": "Région non communiquée",
    "country": "FR",
    "dead": 2027,
    "lastUpdated": "2020-04-04T08:27:04.948Z",
    "id": "fIp76gl05LhZ0aOxUbhz",
    "sick": 0
  },
  {
    "latitude": 15.4542,
    "pop": 14900000,
    "longitude": 18.7322,
    "name": "Chad",
    "country": "TD",
    "lastUpdated": "2020-04-05T17:15:04.919Z",
    "dead": 0,
    "id": "fJc9CaZGR1OCHaW8Tn4V",
    "infected": 9,
    "recovered": 0,
    "sick": 9
  },
  {
    "lastUpdated": "2020-04-05T17:15:03.836Z",
    "dead": 5,
    "id": "fK06AziL8wyrcoz7rsmJ",
    "infected": 323,
    "recovered": 74,
    "latitude": 31.295929,
    "pop": 9702000,
    "longitude": 36.691952,
    "name": "Jordan",
    "country": "JO",
    "sick": 244
  },
  {
    "id": "fNganaGVPifA4QahEQPS",
    "infected": 12151,
    "recovered": 0,
    "latitude": 27.716933,
    "pop": 21300000,
    "longitude": -81.555239,
    "name": "Florida",
    "country": "US",
    "lastUpdated": "2020-04-05T17:03:15.460Z",
    "dead": 218,
    "sick": 11933
  },
  {
    "dead": 10,
    "lastUpdated": "2020-04-05T00:59:23.083Z",
    "id": "fNnE9CD0SttEVrCUo1Ym",
    "infected": 712,
    "recovered": 587,
    "latitude": 35.452016,
    "longitude": 139.664285,
    "name": "Diamond Princess (Cruise)",
    "country": "ZZ",
    "sick": 115
  },
  {
    "lastUpdated": "2020-04-05T17:04:02.537Z",
    "dead": 217,
    "id": "fOlU5JggPKOO8jbHh5GD",
    "infected": 2285,
    "recovered": 273,
    "latitude": 46.0679,
    "pop": 538223,
    "longitude": 11.1211,
    "name": "P.A. Trento",
    "country": "IT",
    "sick": 1795
  },
  {
    "id": "ffKhENYKy3bwsyBLiYtE",
    "infected": 3626,
    "recovered": 1857,
    "latitude": 52.52,
    "pop": 3748000,
    "longitude": 13.405,
    "name": "Berlin",
    "country": "DE",
    "lastUpdated": "2020-04-05T16:31:04.324Z",
    "dead": 24,
    "sick": 1745
  },
  {
    "id": "fiJ14DCxw15e3SMemh8R",
    "infected": 67803,
    "recovered": 63945,
    "latitude": 31.160629,
    "pop": 58500000,
    "longitude": 112.255402,
    "name": "Hubei",
    "country": "CN",
    "lastUpdated": "2020-04-05T16:44:05.729Z",
    "dead": 3210,
    "sick": 648
  },
  {
    "lastUpdated": "2020-04-05T17:15:04.109Z",
    "dead": 32,
    "id": "flbZ2kaR5kBuV8XZ2Nsu",
    "infected": 1251,
    "recovered": 25,
    "latitude": 50.4501,
    "pop": 42220000,
    "longitude": 30.5234,
    "name": "Ukraine",
    "country": "UA",
    "sick": 1194
  },
  {
    "infected": 147,
    "recovered": 9,
    "latitude": 41.2044,
    "pop": 6202000,
    "longitude": 74.7661,
    "name": "Kyrgyzstan",
    "country": "KG",
    "lastUpdated": "2020-04-05T17:15:04.820Z",
    "dead": 1,
    "id": "fst48lrFxiMJbQPf4nur",
    "sick": 137
  },
  {
    "id": "g0lRMtEJbucWIGqSPn0I",
    "infected": 17851,
    "recovered": 250,
    "latitude": 52.132633,
    "pop": 17180000,
    "longitude": 5.291266,
    "name": "Netherlands",
    "country": "NL",
    "lastUpdated": "2020-04-05T17:15:03.979Z",
    "dead": 1766,
    "sick": 15835
  },
  {
    "id": "gIdgxJZfTl2QOSYEwMAz",
    "infected": 819,
    "recovered": 0,
    "latitude": 34.69522,
    "pop": 3014000,
    "longitude": -92.288012,
    "name": "Arkansas",
    "country": "US",
    "lastUpdated": "2020-04-05T17:03:15.515Z",
    "dead": 14,
    "sick": 805
  },
  {
    "recovered": 0,
    "latitude": 4.8604159,
    "pop": 777859,
    "longitude": -58.9301796,
    "name": "Guyana",
    "country": "GY",
    "lastUpdated": "2020-04-05T17:15:04.940Z",
    "dead": 4,
    "id": "gXd2X2PjmGP0XVwxpWqT",
    "infected": 24,
    "sick": 20
  },
  {
    "latitude": 43.9695,
    "pop": 882235,
    "longitude": -99.9018,
    "name": "South Dakota",
    "country": "US",
    "lastUpdated": "2020-04-05T17:03:15.467Z",
    "dead": 2,
    "id": "gYDsNgvuvtbg8t77w6FS",
    "infected": 240,
    "recovered": 0,
    "sick": 238
  },
  {
    "lastUpdated": "2020-04-05T17:15:04.856Z",
    "dead": 0,
    "id": "h9UqxYZ5xC4JZrmdDz0q",
    "infected": 227,
    "recovered": 2,
    "latitude": 35.894231,
    "pop": 493559,
    "longitude": 14.432846,
    "name": "Malta",
    "country": "MT",
    "sick": 225
  },
  {
    "latitude": 28.7041,
    "pop": 18980000,
    "longitude": 77.1025,
    "name": "Delhi",
    "country": "IN",
    "lastUpdated": "2020-04-05T17:07:05.535Z",
    "dead": 7,
    "id": "hqwsh1rmvkWI3LFUVuMk",
    "infected": 503,
    "recovered": 18,
    "sick": 478
  },
  {
    "recovered": 131,
    "latitude": 35.751835,
    "pop": 25580000,
    "longitude": 104.28611,
    "name": "Gansu",
    "country": "CN",
    "lastUpdated": "2020-04-05T16:44:05.731Z",
    "dead": 2,
    "id": "iGkTscdD0XyHFSP23Qrp",
    "infected": 138,
    "sick": 5
  },
  {
    "infected": 19,
    "recovered": 2,
    "latitude": 34.8021,
    "pop": 18270000,
    "longitude": 38.9968,
    "name": "Syria",
    "country": "SY",
    "lastUpdated": "2020-04-05T17:15:04.849Z",
    "dead": 2,
    "id": "iHf1IZQP3CA3sT2erzyh",
    "sick": 15
  },
  {
    "recovered": 56,
    "latitude": 10.8505,
    "pop": 34800000,
    "longitude": 76.2711,
    "name": "Kerala",
    "country": "IN",
    "lastUpdated": "2020-04-05T17:10:01.374Z",
    "dead": 2,
    "id": "idymmgoqLHImnBdyC7r7",
    "infected": 314,
    "sick": 256
  },
  {
    "infected": 134,
    "recovered": 31,
    "latitude": 16.265,
    "pop": 395700,
    "longitude": -61.551,
    "name": "Guadeloupe",
    "country": "FR",
    "lastUpdated": "2020-04-04T20:14:14.682Z",
    "dead": 7,
    "id": "j8eMjjqNAqHAJhAKdBYN",
    "sick": 96
  },
  {
    "lastUpdated": "2020-04-05T16:31:04.236Z",
    "dead": 36,
    "id": "jKn2pIFlIBScjb47GjRX",
    "infected": 3988,
    "recovered": 849,
    "latitude": 50.1183,
    "pop": 4074000,
    "longitude": 7.309,
    "name": "Rheinland-Pfalz",
    "country": "DE",
    "sick": 3103
  },
  {
    "latitude": 39.343357,
    "pop": 15000000,
    "longitude": 117.361649,
    "name": "Tianjin",
    "country": "CN",
    "lastUpdated": "2020-04-05T16:44:05.838Z",
    "dead": 3,
    "id": "jMlHjIOb7eMPSxFBrmG1",
    "infected": 180,
    "recovered": 144,
    "sick": 33
  },
  {
    "infected": 5,
    "recovered": 0,
    "latitude": 17.1898766,
    "pop": 397000,
    "longitude": -88.4976501,
    "name": "Belize",
    "country": "BZ",
    "lastUpdated": "2020-04-05T17:15:04.933Z",
    "dead": 0,
    "id": "jOc8JUDWxCmquh49oZxV",
    "sick": 5
  },
  {
    "infected": 512,
    "recovered": 0,
    "latitude": 44.5588,
    "pop": 629299,
    "longitude": -72.5778,
    "name": "Vermont",
    "country": "US",
    "lastUpdated": "2020-04-05T17:03:15.483Z",
    "dead": 22,
    "id": "jPC0eOG50FWknCDe3K6P",
    "sick": 490
  },
  {
    "longitude": -6.2603,
    "name": "Ireland",
    "country": "IE",
    "lastUpdated": "2020-04-05T17:15:04.107Z",
    "dead": 137,
    "id": "jpVXEDCyfyq26gPoCtHL",
    "infected": 4604,
    "recovered": 25,
    "latitude": 53.3498,
    "pop": 4830000,
    "sick": 4442
  },
  {
    "infected": 6,
    "recovered": 0,
    "latitude": 64.2823,
    "pop": 35874,
    "longitude": -135,
    "name": "Yukon",
    "country": "CA",
    "lastUpdated": "2020-04-05T17:15:01.435Z",
    "dead": 0,
    "id": "k73gNv36u1SmziUF6mUw",
    "sick": 6
  },
  {
    "infected": 907,
    "recovered": 49,
    "latitude": 40.078072,
    "pop": 1648000,
    "longitude": 9.283447,
    "name": "Sardegna",
    "country": "IT",
    "lastUpdated": "2020-04-05T17:04:02.328Z",
    "dead": 43,
    "id": "kF99avagXvBfZTHv9ETi",
    "sick": 815
  },
  {
    "infected": 59,
    "recovered": 9,
    "latitude": 11.572076,
    "pop": 956985,
    "longitude": 43.145645,
    "name": "Djibouti",
    "country": "DJ",
    "lastUpdated": "2020-04-05T17:15:04.648Z",
    "dead": 0,
    "id": "l4nYeaqwy2yrEVqnijFj",
    "sick": 50
  },
  {
    "infected": 1078,
    "recovered": 0,
    "latitude": 44.0682,
    "pop": 1754000,
    "longitude": -114.742,
    "name": "Idaho",
    "country": "US",
    "lastUpdated": "2020-04-05T17:03:15.479Z",
    "dead": 10,
    "id": "l7fHSKOmcaRX3tq9FCT6",
    "sick": 1068
  },
  {
    "latitude": 40.816666,
    "pop": 4048000,
    "longitude": 16.549999,
    "name": "Puglia",
    "country": "IT",
    "lastUpdated": "2020-04-05T17:04:02.438Z",
    "dead": 182,
    "id": "lAKH5Wfg4GhaM54VElFN",
    "infected": 2317,
    "recovered": 113,
    "sick": 2022
  },
  {
    "longitude": -61.2225,
    "name": "Trinidad and Tobago",
    "country": "TT",
    "lastUpdated": "2020-04-05T17:15:04.800Z",
    "dead": 7,
    "id": "lfLdfRP7hyiA6MVnQqqn",
    "infected": 104,
    "recovered": 1,
    "latitude": 10.6918,
    "pop": 1369000,
    "sick": 96
  },
  {
    "longitude": -23.0418,
    "name": "Cape Verde",
    "country": "CV",
    "lastUpdated": "2020-04-05T17:15:04.884Z",
    "dead": 1,
    "id": "lgqPuia1S3ApA5Lsl2la",
    "infected": 7,
    "recovered": 0,
    "latitude": 16.5388,
    "pop": 546388,
    "sick": 6
  },
  {
    "longitude": 87.539589,
    "name": "Xinjiang",
    "country": "CN",
    "lastUpdated": "2020-04-05T16:44:05.633Z",
    "dead": 3,
    "id": "lhPjpn6CzqTRDN0RW8uE",
    "infected": 76,
    "recovered": 73,
    "latitude": 42.524635,
    "pop": 21810000,
    "sick": 0
  },
  {
    "recovered": 13,
    "latitude": 3.2028,
    "pop": 436330,
    "longitude": 73.2207,
    "name": "Maldives",
    "country": "MV",
    "lastUpdated": "2020-04-05T17:15:04.807Z",
    "dead": 0,
    "id": "m45gI2UbWMuTrOnTtp9k",
    "infected": 19,
    "sick": 6
  },
  {
    "recovered": 0,
    "latitude": 41.9029,
    "pop": 1000,
    "longitude": 12.4534,
    "name": "Vatican City",
    "country": "VA",
    "lastUpdated": "2020-04-05T17:15:04.907Z",
    "dead": 0,
    "id": "mF7rVMdVnazAuw8G22xs",
    "infected": 7,
    "sick": 7
  },
  {
    "recovered": 56,
    "latitude": 19.7515,
    "pop": 114200000,
    "longitude": 75.7139,
    "name": "Maharashtra",
    "country": "IN",
    "lastUpdated": "2020-04-05T17:10:01.413Z",
    "dead": 45,
    "id": "mJtdLs4ub6CkcAOeMWUm",
    "infected": 748,
    "sick": 647
  },
  {
    "infected": 4471,
    "recovered": 618,
    "latitude": -33.4489,
    "pop": 18050000,
    "longitude": -70.6693,
    "name": "Chile",
    "country": "CL",
    "lastUpdated": "2020-04-05T17:15:03.984Z",
    "dead": 34,
    "id": "mSACWVbCy5QE7ciLA93J",
    "sick": 3819
  },
  {
    "latitude": -6.369,
    "pop": 57310000,
    "longitude": 34.8888,
    "name": "Tanzania",
    "country": "TZ",
    "lastUpdated": "2020-04-05T17:15:04.802Z",
    "dead": 1,
    "id": "mnew3ojzmWV0dWSPfCQ9",
    "infected": 20,
    "recovered": 3,
    "sick": 16
  },
  {
    "id": "n6OSwOVBdUie3xeZJmOf",
    "infected": 29,
    "recovered": 0,
    "latitude": 15.1794,
    "pop": 4475000,
    "longitude": 39.7823,
    "name": "Eritrea",
    "country": "ER",
    "lastUpdated": "2020-04-05T17:15:04.891Z",
    "dead": 0,
    "sick": 29
  },
  {
    "latitude": 35.693323,
    "pop": 6770000,
    "longitude": -86.605748,
    "name": "Tennessee",
    "country": "US",
    "lastUpdated": "2020-04-05T17:03:15.405Z",
    "dead": 50,
    "id": "nLhJXE2apq8yNNj363ai",
    "infected": 3322,
    "recovered": 0,
    "sick": 3272
  },
  {
    "latitude": 19.8562698,
    "pop": 7247000,
    "longitude": 102.4954987,
    "name": "Laos",
    "country": "LA",
    "lastUpdated": "2020-04-05T17:15:04.852Z",
    "dead": 0,
    "id": "nZzFt6liil98URpNfQyX",
    "infected": 11,
    "recovered": 0,
    "sick": 11
  },
  {
    "infected": 10,
    "recovered": 0,
    "latitude": -4.6796,
    "pop": 95843,
    "longitude": 55.492,
    "name": "Seychelles",
    "country": "SC",
    "lastUpdated": "2020-04-05T17:15:04.896Z",
    "dead": 0,
    "id": "oB5fSyjWJ0FbNAkssuci",
    "sick": 10
  },
  {
    "latitude": 31.893778,
    "pop": 35740000,
    "longitude": -6.196132,
    "name": "Morocco",
    "country": "MA",
    "lastUpdated": "2020-04-05T17:15:03.839Z",
    "dead": 69,
    "id": "oJ5vSDE9vgXC2PG8LElp",
    "infected": 961,
    "recovered": 70,
    "sick": 822
  },
  {
    "id": "ofWLu9EuQoK2nHjwU1mA",
    "infected": 5113,
    "recovered": 1122,
    "latitude": 50.4801,
    "pop": 5978000,
    "longitude": 2.7937,
    "name": "Hauts-de-France",
    "country": "FR",
    "lastUpdated": "2020-04-04T20:15:06.425Z",
    "dead": 488,
    "sick": 3503
  },
  {
    "lastUpdated": "2020-04-05T17:10:01.404Z",
    "dead": 2,
    "id": "oqLEd2Z9P3FJeQsfIk8e",
    "infected": 13,
    "recovered": 1,
    "latitude": 31.1048,
    "pop": 6856000,
    "longitude": 77.1734,
    "name": "Himachal Pradesh",
    "country": "IN",
    "sick": 10
  },
  {
    "latitude": -20.917574,
    "pop": 5071000,
    "longitude": 142.702789,
    "name": "Queensland",
    "country": "AU",
    "lastUpdated": "2020-04-05T17:12:03.420Z",
    "dead": 2,
    "id": "oxz2l1rJipCsfMfy8Mmk",
    "infected": 907,
    "recovered": 8,
    "sick": 897
  },
  {
    "infected": 504,
    "recovered": 469,
    "latitude": 47.121647,
    "pop": 38310000,
    "longitude": 128.738235,
    "name": "Heilongjiang",
    "country": "CN",
    "lastUpdated": "2020-04-05T16:44:06.033Z",
    "dead": 13,
    "id": "p1aZboN4BtRJe7hPl8cw",
    "sick": 22
  },
  {
    "infected": 990,
    "recovered": 984,
    "latitude": 32.026379,
    "pop": 62000000,
    "longitude": 117.252747,
    "name": "Anhui",
    "country": "CN",
    "lastUpdated": "2020-04-05T16:44:05.931Z",
    "dead": 6,
    "id": "pFhBwPnGGpQ6DLppJ6YS",
    "sick": 0
  },
  {
    "id": "pHrUAOBW5WDdMsVWpEEi",
    "infected": 7,
    "recovered": 1,
    "latitude": 2.046934,
    "pop": 14740000,
    "longitude": 45.318161,
    "name": "Somalia",
    "country": "SO",
    "lastUpdated": "2020-04-05T17:15:04.913Z",
    "dead": 0,
    "sick": 6
  },
  {
    "id": "pu6AXEsDnpmmqnhajobN",
    "infected": 10,
    "recovered": 8,
    "latitude": 21.2787,
    "pop": 25550000,
    "longitude": 81.8661,
    "name": "Chhattisgarh",
    "country": "IN",
    "lastUpdated": "2020-04-05T17:10:01.380Z",
    "dead": 0,
    "sick": 2
  },
  {
    "recovered": 0,
    "latitude": 38.9072,
    "pop": 633427,
    "longitude": -77.0369,
    "name": "Washington, D.C.",
    "country": "US",
    "lastUpdated": "2020-04-05T17:03:15.394Z",
    "dead": 22,
    "id": "q5cfvHprVTraL1yXnhDx",
    "infected": 998,
    "sick": 976
  },
  {
    "latitude": 56.1304,
    "longitude": -106.3468,
    "name": "Unknown Canadian province",
    "country": "CA",
    "dead": 0,
    "lastUpdated": "2020-03-30T14:58:07.823Z",
    "id": "qAbgEfrtA8NbQkzMFkEk",
    "infected": 0,
    "recovered": 573,
    "sick": 0
  },
  {
    "latitude": -26.190439,
    "pop": 2589000,
    "longitude": 123.325947,
    "name": "Western Australia",
    "country": "AU",
    "lastUpdated": "2020-04-05T17:12:03.517Z",
    "dead": 2,
    "id": "qnQ0dkxAxnDP01YpdZgk",
    "infected": 453,
    "recovered": 1,
    "sick": 450
  },
  {
    "recovered": 3751,
    "latitude": 50.503887,
    "pop": 11400000,
    "longitude": 4.469936,
    "name": "Belgium",
    "country": "BE",
    "lastUpdated": "2020-04-05T17:15:03.831Z",
    "dead": 1447,
    "id": "qpAxVz0garcS0gNZxtOw",
    "infected": 19691,
    "sick": 14493
  },
  {
    "infected": 324,
    "recovered": 0,
    "latitude": 39,
    "pop": 1806000,
    "longitude": -80.5,
    "name": "West Virginia",
    "country": "US",
    "lastUpdated": "2020-04-05T17:03:15.426Z",
    "dead": 3,
    "id": "qrYN2o4c4gAK3ffF5JIw",
    "sick": 321
  },
  {
    "longitude": -100,
    "name": "Texas",
    "country": "US",
    "lastUpdated": "2020-04-05T17:03:15.378Z",
    "dead": 123,
    "id": "qsrWiq0qCmIG66hpWojP",
    "infected": 6872,
    "recovered": 0,
    "latitude": 31,
    "pop": 28700000,
    "sick": 6749
  },
  {
    "id": "qyX9xXEuKg3co8yKe3Fl",
    "infected": 4339,
    "recovered": 1272,
    "latitude": 43.9352,
    "pop": 5059000,
    "longitude": 6.0679,
    "name": "Provence-Alpes-Côte d'Azur",
    "country": "FR",
    "lastUpdated": "2020-04-04T20:17:47.869Z",
    "dead": 178,
    "sick": 2889
  },
  {
    "recovered": 0,
    "latitude": 30.9843,
    "pop": 4660000,
    "longitude": -91.9623,
    "name": "Louisiana",
    "country": "US",
    "lastUpdated": "2020-04-05T17:03:15.536Z",
    "dead": 409,
    "id": "qzuktS0qQVU4PEookjss",
    "infected": 12496,
    "sick": 12087
  },
  {
    "recovered": 0,
    "latitude": 23.1645,
    "pop": 1116000,
    "longitude": 92.9376,
    "name": "Mizoram",
    "country": "IN",
    "lastUpdated": "2020-04-05T17:10:01.399Z",
    "dead": 0,
    "id": "r54PtV0VHsIOc0YPTyhd",
    "infected": 1,
    "sick": 1
  },
  {
    "infected": 64,
    "recovered": 1,
    "latitude": 12.5211,
    "pop": 105264,
    "longitude": -69.9683,
    "name": "Aruba",
    "country": "AW",
    "lastUpdated": "2020-04-05T17:15:04.910Z",
    "dead": 0,
    "id": "rKbrli0DkAmp1UpbrqHQ",
    "sick": 63
  },
  {
    "recovered": 90,
    "latitude": 14.058324,
    "pop": 95540000,
    "longitude": 108.277199,
    "name": "Vietnam",
    "country": "VN",
    "lastUpdated": "2020-04-05T17:15:04.048Z",
    "dead": 0,
    "id": "rKnSEyG03ak4YmGzonlg",
    "infected": 241,
    "sick": 151
  },
  {
    "longitude": 10.2678947,
    "name": "Equatorial Guinea",
    "country": "GQ",
    "lastUpdated": "2020-04-05T17:15:04.749Z",
    "dead": 0,
    "id": "rS04qvFoAknfeZsL2w5f",
    "infected": 16,
    "recovered": 1,
    "latitude": 1.6508009,
    "pop": 1268000,
    "sick": 15
  },
  {
    "lastUpdated": "2020-04-05T17:15:04.756Z",
    "dead": 2,
    "id": "rUQ6Z3pmWTPVlqEUSmN7",
    "infected": 134,
    "recovered": 14,
    "latitude": -12.8275,
    "pop": 270372,
    "longitude": 45.1662,
    "name": "Mayotte",
    "country": "FR",
    "sick": 118
  },
  {
    "id": "rgBVJ4hPofqjjchnroiY",
    "infected": 1263,
    "recovered": 1230,
    "latitude": 29.159849,
    "pop": 57370000,
    "longitude": 120.326447,
    "name": "Zhejiang",
    "country": "CN",
    "lastUpdated": "2020-04-05T16:44:05.830Z",
    "dead": 1,
    "sick": 32
  },
  {
    "id": "rqbHQdev461heM0vyE9L",
    "infected": 782,
    "recovered": 115,
    "latitude": 45.734955,
    "pop": 126202,
    "longitude": 7.313076,
    "name": "Valle d'Aosta",
    "country": "IT",
    "lastUpdated": "2020-04-05T17:04:02.534Z",
    "dead": 91,
    "sick": 576
  },
  {
    "latitude": 60.472023,
    "pop": 5368000,
    "longitude": 8.468946,
    "name": "Norway",
    "country": "NO",
    "lastUpdated": "2020-04-05T17:15:04.001Z",
    "dead": 70,
    "id": "rxSafpWsyKhfkV0HTtb4",
    "infected": 5686,
    "recovered": 32,
    "sick": 5584
  },
  {
    "lastUpdated": "2020-04-05T17:15:01.426Z",
    "dead": 20,
    "id": "sBFMOzZJdrdXdyLZpweO",
    "infected": 1181,
    "recovered": 0,
    "latitude": 53.9333,
    "pop": 4371000,
    "longitude": -116.5765,
    "name": "Alberta",
    "country": "CA",
    "sick": 1161
  },
  {
    "latitude": 19.566395,
    "pop": 9258000,
    "longitude": 109.949684,
    "name": "Hainan",
    "country": "CN",
    "lastUpdated": "2020-04-05T16:44:05.625Z",
    "dead": 6,
    "id": "sKNhMvgXeyivpNFg02RA",
    "infected": 168,
    "recovered": 162,
    "sick": 0
  },
  {
    "latitude": -10.33755,
    "pop": 32170000,
    "longitude": -75.630295,
    "name": "Peru",
    "country": "PE",
    "lastUpdated": "2020-04-05T17:15:03.890Z",
    "dead": 73,
    "id": "sLL1jETcJYjT6g5bfcEG",
    "infected": 1746,
    "recovered": 914,
    "sick": 759
  },
  {
    "longitude": 114.904221,
    "name": "Hebei",
    "country": "CN",
    "lastUpdated": "2020-04-05T16:44:06.036Z",
    "dead": 6,
    "id": "sgsBhTwHxF1VVnqXbXXp",
    "infected": 327,
    "recovered": 310,
    "latitude": 37.89566,
    "pop": 74700000,
    "sick": 11
  },
  {
    "lastUpdated": "2020-04-05T17:15:04.788Z",
    "dead": 2,
    "id": "sjW9OwjFqrOvjVHRXWoR",
    "infected": 174,
    "recovered": 36,
    "latitude": 42.3154,
    "pop": 3717000,
    "longitude": 43.3569,
    "name": "Georgia",
    "country": "GE",
    "sick": 136
  },
  {
    "lastUpdated": "2020-04-05T17:15:04.662Z",
    "dead": 3,
    "id": "t2fq7L9UcXfhuXfQNVRj",
    "infected": 104,
    "recovered": 12,
    "latitude": -23.4425,
    "pop": 6811000,
    "longitude": -58.4438,
    "name": "Paraguay",
    "country": "PY",
    "sick": 89
  },
  {
    "lastUpdated": "2020-04-05T17:03:15.504Z",
    "dead": 8,
    "id": "tSmr8vNsiDhhpXMSBsms",
    "infected": 1429,
    "recovered": 0,
    "latitude": 39.147061,
    "pop": 3161000,
    "longitude": -111.596466,
    "name": "Utah",
    "country": "US",
    "sick": 1421
  },
  {
    "latitude": 27.3818,
    "pop": 67370000,
    "longitude": 111.510681,
    "name": "Hunan",
    "country": "CN",
    "lastUpdated": "2020-04-05T16:44:06.029Z",
    "dead": 4,
    "id": "tdNRDDrgvBQqqwzdFGh4",
    "infected": 1019,
    "recovered": 1014,
    "sick": 1
  },
  {
    "recovered": 144,
    "latitude": 26.842964,
    "pop": 34750000,
    "longitude": 107.290283,
    "name": "Guizhou",
    "country": "CN",
    "lastUpdated": "2020-04-05T16:44:05.923Z",
    "dead": 2,
    "id": "tyY4QSHWG9sXqSO9jm0Y",
    "infected": 147,
    "sick": 1
  },
  {
    "lastUpdated": "2020-04-05T17:15:03.981Z",
    "dead": 7,
    "id": "uZg9Xtu4zR5tp12TMpOQ",
    "infected": 227,
    "recovered": 7,
    "latitude": -20.2067,
    "pop": 1265000,
    "longitude": 57.6755,
    "name": "Mauritius",
    "country": "MU",
    "sick": 213
  },
  {
    "infected": 90,
    "recovered": 29,
    "latitude": 29.0588,
    "pop": 25350000,
    "longitude": 76.0856,
    "name": "Haryana",
    "country": "IN",
    "lastUpdated": "2020-04-05T17:10:01.409Z",
    "dead": 0,
    "id": "ubUuY89n0cXVgahI4Ytp",
    "sick": 61
  },
  {
    "recovered": 24,
    "latitude": 41.6667,
    "pop": 308493,
    "longitude": 14.5,
    "name": "Molise",
    "country": "IT",
    "lastUpdated": "2020-04-05T17:04:02.540Z",
    "dead": 13,
    "id": "ueDdQxnY3NvbnoCcPaDH",
    "infected": 224,
    "sick": 187
  },
  {
    "latitude": 32.93708,
    "pop": 80400000,
    "longitude": 119.151932,
    "name": "Jiangsu",
    "country": "CN",
    "lastUpdated": "2020-04-05T16:44:06.024Z",
    "dead": 0,
    "id": "uvxN28EpGmRq3K9REtBP",
    "infected": 651,
    "recovered": 633,
    "sick": 18
  },
  {
    "id": "uxAceZxiizwmo60pyyGn",
    "infected": 975,
    "recovered": 141,
    "latitude": 51.9503,
    "pop": 2277000,
    "longitude": 11.6923,
    "name": "Sachsen-Anhalt",
    "country": "DE",
    "lastUpdated": "2020-04-05T16:31:04.133Z",
    "dead": 12,
    "sick": 822
  },
  {
    "infected": 106,
    "recovered": 4,
    "latitude": 33.7782,
    "pop": 12550000,
    "longitude": 76.5762,
    "name": "Jammu and Kashmir",
    "country": "IN",
    "lastUpdated": "2020-04-05T17:10:01.419Z",
    "dead": 2,
    "id": "v5wfBhxjYTpTMaKko6AW",
    "sick": 100
  },
  {
    "longitude": 30.802498,
    "name": "Egypt",
    "country": "EG",
    "lastUpdated": "2020-04-05T17:15:03.869Z",
    "dead": 71,
    "id": "v8JcH4FHH7BDpJlNNHjv",
    "infected": 1070,
    "recovered": 241,
    "latitude": 26.820553,
    "pop": 97550000,
    "sick": 758
  },
  {
    "lastUpdated": "2020-04-05T17:03:15.469Z",
    "dead": 318,
    "id": "vCUVQn7RK8pkw5y2rvYN",
    "infected": 7632,
    "recovered": 0,
    "latitude": 47.288374,
    "pop": 7536000,
    "longitude": -119.928431,
    "name": "Washington",
    "country": "US",
    "sick": 7314
  },
  {
    "infected": 55,
    "recovered": 7,
    "latitude": 18.1096,
    "pop": 2890000,
    "longitude": -77.2975,
    "name": "Jamaica",
    "country": "JM",
    "lastUpdated": "2020-04-05T17:15:04.829Z",
    "dead": 3,
    "id": "vMGALmMJbagxGIbLyFfS",
    "sick": 45
  },
  {
    "latitude": 32.3182,
    "pop": 4888000,
    "longitude": -86.9023,
    "name": "Alabama",
    "country": "US",
    "lastUpdated": "2020-04-05T17:03:15.513Z",
    "dead": 45,
    "id": "vSMJR4m49MZM15umlC9B",
    "infected": 1684,
    "recovered": 0,
    "sick": 1639
  },