[
  {
    "recovered": 0,
    "latitude": 20.9517,
    "longitude": 85.0985,
    "name": "Odisha",
    "country": "IN",
    "dead": 0,
    "lastUpdated": "2020-03-21T06:19:03.638Z",
    "id": "0VG7S6aaK4eSo59fL9JO",
    "infected": 2,
    "sick": 2
  },
  {
    "id": "0m4aECS0Z2DGFEr8ldgI",
    "infected": 470,
    "recovered": 10,
    "latitude": 25.315058,
    "longitude": 51.145517,
    "name": "Qatar",
    "country": "QA",
    "dead": 0,
    "lastUpdated": "2020-03-21T06:13:03.300Z",
    "sick": 460
  },
  {
    "latitude": 22.9868,
    "longitude": 87.855,
    "name": "West Bengal",
    "country": "IN",
    "dead": 0,
    "lastUpdated": "2020-03-21T05:34:03.166Z",
    "id": "0n54EMSDJcRoT1QEvw80",
    "infected": 22,
    "recovered": 0,
    "sick": 22
  },
  {
    "recovered": 147,
    "latitude": 37.0902,
    "longitude": -95.7129,
    "name": "Unknown US state",
    "country": "US",
    "dead": 0,
    "lastUpdated": "2020-03-21T06:13:03.325Z",
    "id": "0tFoopNTs6e4tOoaltu2",
    "infected": 0,
    "sick": 0
  },
  {
    "latitude": 35.64249,
    "longitude": 108.472214,
    "name": "Shaanxi",
    "country": "CN",
    "dead": 3,
    "lastUpdated": "2020-03-21T02:33:22.768Z",
    "id": "0x2HLhr5z5xAtEdO4iZm",
    "infected": 248,
    "recovered": 239,
    "sick": 6
  },
  {
    "latitude": 41.643351,
    "longitude": 21.668393,
    "name": "North Macedonia",
    "country": "MK",
    "dead": 0,
    "lastUpdated": "2020-03-21T06:13:03.310Z",
    "id": "19MvIhipqTyYv1H37Upw",
    "infected": 76,
    "recovered": 1,
    "sick": 75
  },
  {
    "dead": 0,
    "lastUpdated": "2020-03-21T06:12:01.657Z",
    "id": "1DOMOmCWDtva46OVSZLv",
    "infected": 4,
    "recovered": 0,
    "latitude": 53.1355,
    "longitude": -57.6604,
    "name": "Newfoundland and Labrador",
    "country": "CA",
    "sick": 4
  },
  {
    "recovered": 18,
    "latitude": 35.801933,
    "longitude": 96.779286,
    "name": "Qinghai",
    "country": "CN",
    "dead": 0,
    "lastUpdated": "2020-03-21T02:32:54.369Z",
    "id": "1Fap7rZu9SIRqf5TG9Dg",
    "infected": 18,
    "sick": 0
  },
  {
    "id": "1f0YoV0vAcexEhpESyZc",
    "infected": 970,
    "recovered": 2,
    "latitude": -14.235004,
    "longitude": -51.925282,
    "name": "Brazil",
    "country": "BR",
    "dead": 11,
    "lastUpdated": "2020-03-21T06:13:03.199Z",
    "sick": 957
  },
  {
    "id": "1qTPB8X3tyLyIdsb5TN3",
    "infected": 66,
    "recovered": 1,
    "latitude": 47.4116,
    "longitude": 28.3699,
    "name": "Moldova",
    "country": "MD",
    "dead": 1,
    "lastUpdated": "2020-03-21T06:13:03.231Z",
    "sick": 64
  },
  {
    "longitude": 88.787865,
    "name": "Tibet",
    "country": "CN",
    "dead": 0,
    "lastUpdated": "2020-03-21T02:34:03.746Z",
    "id": "25qIBtsW2nfQj3pwBKg9",
    "infected": 1,
    "recovered": 1,
    "latitude": 30.15336,
    "sick": 0
  },
  {
    "infected": 369,
    "recovered": 17,
    "latitude": -1.572184,
    "longitude": 115.66779,
    "name": "Indonesia",
    "country": "ID",
    "dead": 32,
    "lastUpdated": "2020-03-21T06:13:03.232Z",
    "id": "2KHYUb5t3lwzVVmDjwNX",
    "sick": 320
  },
  {
    "id": "2OrsssmGUs4XCzaZzvTv",
    "infected": 114,
    "recovered": 0,
    "latitude": 43.807191,
    "longitude": -120.585594,
    "name": "Oregon",
    "country": "US",
    "dead": 3,
    "lastUpdated": "2020-03-21T06:12:01.743Z",
    "sick": 111
  },
  {
    "id": "2jxHvSsxdnom0nPNvOT8",
    "infected": 93,
    "recovered": 92,
    "latitude": 43.851921,
    "longitude": 126.548103,
    "name": "Jilin",
    "country": "CN",
    "dead": 1,
    "lastUpdated": "2020-03-21T02:32:45.487Z",
    "sick": 0
  },
  {
    "longitude": -5.3536,
    "name": "Gibraltar",
    "country": "GI",
    "dead": 0,
    "lastUpdated": "2020-03-21T06:13:03.675Z",
    "id": "2p11BjSAs3wVyymgqBOe",
    "infected": 10,
    "recovered": 2,
    "latitude": 36.1408,
    "sick": 8
  },
  {
    "recovered": 0,
    "latitude": 47.7516,
    "longitude": 1.6751,
    "name": "Centre-Val de Loire",
    "country": "FR",
    "dead": 0,
    "lastUpdated": "2020-03-21T06:19:09.462Z",
    "id": "2sLNkkHpyaHx7dD3aMDO",
    "infected": 219,
    "sick": 219
  },
  {
    "longitude": 27.849332,
    "name": "Zambia",
    "country": "ZM",
    "dead": 0,
    "lastUpdated": "2020-03-21T06:13:03.792Z",
    "id": "3IlPjAbP5qVMn1nlgLTJ",
    "infected": 2,
    "recovered": 0,
    "latitude": -13.133896,
    "sick": 2
  },
  {
    "id": "3LstMSN5XMYBkxbe5HN7",
    "infected": 14,
    "recovered": 0,
    "latitude": 42.7044,
    "longitude": 19.3958,
    "name": "Montenegro",
    "country": "ME",
    "dead": 0,
    "lastUpdated": "2020-03-21T06:13:03.732Z",
    "sick": 14
  },
  {
    "infected": 6,
    "recovered": 0,
    "latitude": -35.4735,
    "longitude": 149.0124,
    "name": "Australian Capital Territory",
    "country": "AU",
    "dead": 0,
    "lastUpdated": "2020-03-21T06:10:09.734Z",
    "id": "3OZoQsKrzxZ18EKyfGE6",
    "sick": 6
  },
  {
    "infected": 174,
    "recovered": 0,
    "latitude": 40.4173,
    "longitude": -82.9071,
    "name": "Ohio",
    "country": "US",
    "dead": 3,
    "lastUpdated": "2020-03-21T06:12:01.669Z",
    "id": "3fC3bAyIRUquOQOEnQNe",
    "sick": 171
  },
  {
    "id": "4NnFMekRK2m14IlnZZoj",
    "infected": 2,
    "recovered": 0,
    "latitude": 21.0079,
    "longitude": -10.9408,
    "name": "Mauritania",
    "country": "MR",
    "dead": 0,
    "lastUpdated": "2020-03-21T06:13:03.797Z",
    "sick": 2
  },
  {
    "id": "4hfZRUoUgI4a3vrG0GBk",
    "infected": 348,
    "recovered": 4,
    "latitude": 53.7267,
    "longitude": -127.6476,
    "name": "British Columbia",
    "country": "CA",
    "dead": 8,
    "lastUpdated": "2020-03-21T06:12:01.613Z",
    "sick": 336
  },
  {
    "dead": 6,
    "lastUpdated": "2020-03-21T06:13:03.323Z",
    "id": "4rQLxUCMmQLpbi6E9tbH",
    "infected": 1020,
    "recovered": 5,
    "latitude": 41.065877,
    "longitude": -7.920053,
    "name": "Portugal",
    "country": "PT",
    "sick": 1009
  },
  {
    "latitude": 40.3426,
    "longitude": 47.93802,
    "name": "Azerbaijan",
    "country": "AZ",
    "dead": 1,
    "lastUpdated": "2020-03-21T06:13:03.239Z",
    "id": "4zqzRm2xHn0CDVOUQJ8p",
    "infected": 44,
    "recovered": 7,
    "sick": 36
  },
  {
    "latitude": 25.025885,
    "longitude": -78.035889,
    "name": "Bahamas",
    "country": "BS",
    "dead": 0,
    "lastUpdated": "2020-03-21T06:13:03.730Z",
    "id": "5MHegCUO9L3LiAU7DDey",
    "infected": 4,
    "recovered": 0,
    "sick": 4
  },
  {
    "recovered": 4,
    "latitude": -31.253218,
    "longitude": 146.921097,
    "name": "New South Wales",
    "country": "AU",
    "dead": 6,
    "lastUpdated": "2020-03-21T06:10:09.707Z",
    "id": "5N16a2OXXRpsEFanw0TC",
    "infected": 382,
    "sick": 372
  },
  {
    "dead": 0,
    "lastUpdated": "2020-03-21T06:13:03.763Z",
    "id": "5fg04eyDwFw3kEXnrxez",
    "infected": 2,
    "recovered": 0,
    "latitude": -20.9043045,
    "longitude": 165.618042,
    "name": "New Caledonia",
    "country": "NC",
    "sick": 2
  },
  {
    "dead": 0,
    "lastUpdated": "2020-03-21T06:13:03.744Z",
    "id": "5gXZIjRgAvd6xWN1LOv8",
    "infected": 1,
    "recovered": 1,
    "latitude": 28.394857,
    "longitude": 84.124008,
    "name": "Nepal",
    "country": "NP",
    "sick": 0
  },
  {
    "latitude": 12.879721,
    "longitude": 121.774017,
    "name": "Philippines",
    "country": "PH",
    "dead": 18,
    "lastUpdated": "2020-03-21T06:13:03.342Z",
    "id": "5pwmh7aSdGRKqRbnuyc0",
    "infected": 262,
    "recovered": 8,
    "sick": 236
  },
  {
    "id": "694ON7d0mRJDeM1gHBTR",
    "infected": 69,
    "recovered": 1,
    "latitude": 55.621011,
    "longitude": 23.804991,
    "name": "Lithuania",
    "country": "LT",
    "dead": 1,
    "lastUpdated": "2020-03-21T06:13:03.353Z",
    "sick": 67
  },
  {
    "dead": 4,
    "lastUpdated": "2020-03-21T06:13:03.167Z",
    "id": "6IcHIIH0zXpY0POmBZTv",
    "infected": 256,
    "recovered": 98,
    "latitude": 22.396427,
    "longitude": 114.109497,
    "name": "Hong Kong",
    "country": "HK",
    "sick": 154
  },
  {
    "dead": 0,
    "lastUpdated": "2020-03-21T06:13:03.734Z",
    "id": "6SlpghTyB6lpMFvx3g9U",
    "infected": 2,
    "recovered": 0,
    "latitude": 9.3077,
    "longitude": 2.3158,
    "name": "Benin",
    "country": "BJ",
    "sick": 2
  },
  {
    "latitude": 46.0569,
    "longitude": 14.5058,
    "name": "Slovenia",
    "country": "SI",
    "dead": 1,
    "lastUpdated": "2020-03-21T06:13:03.185Z",
    "id": "6ahNiyKDSDAftCctgLH3",
    "infected": 341,
    "recovered": 0,
    "sick": 340
  },
  {
    "latitude": -0.8037,
    "longitude": 11.6094,
    "name": "Gabon",
    "country": "GA",
    "dead": 1,
    "lastUpdated": "2020-03-21T06:13:03.743Z",
    "id": "6pBi38TUgYfFm0bry2uh",
    "infected": 4,
    "recovered": 0,
    "sick": 3
  },
  {
    "longitude": -62.818544,
    "name": "Saint-Barthélemy",
    "country": "FR",
    "dead": 0,
    "lastUpdated": "2020-03-21T02:24:52.170Z",
    "id": "78Ox26bNHDA2Pk2b3Uwn",
    "infected": 4,
    "recovered": 0,
    "latitude": 17.901672,
    "sick": 4
  },
  {
    "recovered": 0,
    "latitude": 17.0608,
    "longitude": -61.7964,
    "name": "Antigua and Barbuda",
    "country": "AG",
    "dead": 0,
    "lastUpdated": "2020-03-21T06:13:03.753Z",
    "id": "7hVFcEV7nV0MrQr3LHrl",
    "infected": 1,
    "sick": 1
  },
  {
    "recovered": 15,
    "latitude": 48.7904,
    "longitude": 11.4979,
    "name": "Bayern",
    "country": "DE",
    "dead": 20,
    "lastUpdated": "2020-03-21T06:12:02.739Z",
    "id": "7kCrrlOBE3jN6FtOVNUB",
    "infected": 3107,
    "sick": 3072
  },
  {
    "dead": 4,
    "lastUpdated": "2020-03-21T06:13:03.233Z",
    "id": "7rYC2iFB50c55Ihgbs4Q",
    "infected": 85,
    "recovered": 7,
    "latitude": 47.4979,
    "longitude": 19.0402,
    "name": "Hungary",
    "country": "HU",
    "sick": 74
  },
  {
    "dead": 0,
    "lastUpdated": "2020-03-21T06:13:03.651Z",
    "id": "8C0d7WVCjyUGtnc2gUAR",
    "infected": 27,
    "recovered": 2,
    "latitude": 7.3697,
    "longitude": 12.3547,
    "name": "Cameroon",
    "country": "CM",
    "sick": 25
  },
  {
    "latitude": -16.2902,
    "longitude": -63.5887,
    "name": "Bolivia",
    "country": "BO",
    "dead": 0,
    "lastUpdated": "2020-03-21T06:13:03.267Z",
    "id": "8RihJrXw4NQXPxaRxr1u",
    "infected": 16,
    "recovered": 0,
    "sick": 16
  },
  {
    "recovered": 0,
    "latitude": 12.9843,
    "longitude": -61.2872,
    "name": "St. Vincent Grenadines",
    "country": "VC",
    "dead": 0,
    "lastUpdated": "2020-03-21T06:13:03.708Z",
    "id": "8ZTySQROQejkDAad0qxQ",
    "infected": 1,
    "sick": 1
  },
  {
    "recovered": 131,
    "latitude": 1.352083,
    "longitude": 103.819839,
    "name": "Singapore",
    "country": "SG",
    "dead": 2,
    "lastUpdated": "2020-03-21T06:13:03.359Z",
    "id": "8pA3fM4xC2c2wv1b4TnE",
    "infected": 385,
    "sick": 252
  },
  {
    "longitude": -1.5536,
    "name": "Pays de la Loire",
    "country": "FR",
    "dead": 1,
    "lastUpdated": "2020-03-21T06:19:09.451Z",
    "id": "98hwAoohgWEOQVa3NlM5",
    "infected": 190,
    "recovered": 4,
    "latitude": 47.2184,
    "sick": 185
  },
  {
    "longitude": 30.2176,
    "name": "Sudan",
    "country": "SD",
    "dead": 1,
    "lastUpdated": "2020-03-21T06:13:03.745Z",
    "id": "9DPOkpIqrFy9mR4e9fuv",
    "infected": 2,
    "recovered": 0,
    "latitude": 12.8628,
    "sick": 1
  },
  {
    "latitude": 45.943161,
    "longitude": 24.966761,
    "name": "Romania",
    "country": "RO",
    "dead": 0,
    "lastUpdated": "2020-03-21T06:13:03.346Z",
    "id": "9QcETqEcM2fTv9zRvx5T",
    "infected": 308,
    "recovered": 31,
    "sick": 277
  },
  {
    "latitude": 12.136389,
    "longitude": -86.251389,
    "name": "Nicaragua",
    "country": "NI",
    "dead": 0,
    "lastUpdated": "2020-03-21T06:13:03.759Z",
    "id": "9Y5wmCqNCC6ZrenM31uA",
    "infected": 2,
    "recovered": 0,
    "sick": 2
  },
  {
    "recovered": 10,
    "latitude": 61.92411,
    "longitude": 25.748152,
    "name": "Finland",
    "country": "FI",
    "dead": 0,
    "lastUpdated": "2020-03-21T06:13:03.179Z",
    "id": "9p6OCdZbUUwBLA60Gk3W",
    "infected": 450,
    "sick": 440
  },
  {
    "infected": 55,
    "recovered": 0,
    "latitude": 43.311643,
    "longitude": -71.590315,
    "name": "New Hampshire",
    "country": "US",
    "dead": 0,
    "lastUpdated": "2020-03-21T06:12:01.803Z",
    "id": "A84CwQ52kA46Hr7pn6Bm",
    "sick": 55
  },
  {
    "id": "AEUWUHS65qvjEslew11c",
    "infected": 54,
    "recovered": 0,
    "latitude": 41.823261,
    "longitude": -71.412257,
    "name": "Rhode Island",
    "country": "US",
    "dead": 0,
    "lastUpdated": "2020-03-21T06:12:01.812Z",
    "sick": 54
  },
  {
    "recovered": 0,
    "latitude": 49.3964,
    "longitude": 7.023,
    "name": "Saarland",
    "country": "DE",
    "dead": 0,
    "lastUpdated": "2020-03-21T06:12:02.743Z",
    "id": "AKjFRQGnzuuZQhv5Qwx7",
    "infected": 255,
    "sick": 255
  },
  {
    "infected": 2,
    "recovered": 0,
    "latitude": 71.7069,
    "longitude": -42.6043,
    "name": "Greenland",
    "country": "GL",
    "dead": 0,
    "lastUpdated": "2020-03-21T06:13:03.788Z",
    "id": "APaZzlGCEeuoLBtzTJMe",
    "sick": 2
  },
  {
    "infected": 15,
    "recovered": 0,
    "latitude": 45.65107,
    "longitude": -63.582687,
    "name": "Nova Scotia",
    "country": "CA",
    "dead": 0,
    "lastUpdated": "2020-03-21T06:12:01.646Z",
    "id": "AVCpxeh0fuH2WrHWNDYH",
    "sick": 15
  },
  {
    "longitude": -109.128641,
    "name": "Montana",
    "country": "US",
    "dead": 0,
    "lastUpdated": "2020-03-21T06:12:01.663Z",
    "id": "AcULcZBozObOhwuRKMjJ",
    "infected": 20,
    "recovered": 0,
    "latitude": 47.012918,
    "sick": 20
  },
  {
    "infected": 935,
    "recovered": 934,
    "latitude": 27.285971,
    "longitude": 116.01609,
    "name": "Jiangxi",
    "country": "CN",
    "dead": 1,
    "lastUpdated": "2020-03-21T02:30:28.552Z",
    "id": "AmBYm5J6E9Cuez1FQjiN",
    "sick": 0
  },
  {
    "latitude": 28.033886,
    "longitude": 1.659626,
    "name": "Algeria",
    "country": "DZ",
    "dead": 11,
    "lastUpdated": "2020-03-21T06:13:03.186Z",
    "id": "AwN0CScPDApcLFgz6e3z",
    "infected": 94,
    "recovered": 32,
    "sick": 51
  },
  {
    "latitude": 45.099998,
    "longitude": 15.2,
    "name": "Croatia",
    "country": "HR",
    "dead": 1,
    "lastUpdated": "2020-03-21T06:13:03.352Z",
    "id": "B82Ef45M8cDu4q7VsSHF",
    "infected": 130,
    "recovered": 5,
    "sick": 124
  },
  {
    "recovered": 0,
    "latitude": 39.509109,
    "longitude": -76.98432,
    "name": "Maryland",
    "country": "US",
    "dead": 2,
    "lastUpdated": "2020-03-21T06:12:01.706Z",
    "id": "BF51mWl51fgEcyBpCSzb",
    "infected": 149,
    "sick": 147
  },
  {
    "recovered": 15,
    "latitude": 53.709808,
    "longitude": 27.953388,
    "name": "Belarus",
    "country": "BY",
    "dead": 0,
    "lastUpdated": "2020-03-21T06:13:03.303Z",
    "id": "BGg6yVU5VP71B8NXU0oh",
    "infected": 69,
    "sick": 54
  },
  {
    "latitude": 48.8799,
    "longitude": 0.1713,
    "name": "Normandie",
    "country": "FR",
    "dead": 1,
    "lastUpdated": "2020-03-21T06:19:09.460Z",
    "id": "BGtoyzb7y54LVlJ91rbf",
    "infected": 287,
    "recovered": 0,
    "sick": 286
  },
  {
    "longitude": -111.093735,
    "name": "Arizona",
    "country": "US",
    "dead": 0,
    "lastUpdated": "2020-03-21T06:12:01.766Z",
    "id": "BTEESCuD2ZbS1afunR2A",
    "infected": 79,
    "recovered": 0,
    "latitude": 34.048927,
    "sick": 79
  },
  {
    "id": "C3BCUzV80z9GfiuByIcr",
    "infected": 8403,
    "recovered": 0,
    "latitude": 40.719042,
    "longitude": -73.982597,
    "name": "New York",
    "country": "US",
    "dead": 46,
    "lastUpdated": "2020-03-21T06:12:01.525Z",
    "sick": 8357
  },
  {
    "dead": 0,
    "lastUpdated": "2020-03-21T06:13:03.175Z",
    "id": "C6S76AggdWVU8G22jFHQ",
    "infected": 833,
    "recovered": 4,
    "latitude": 49.731626,
    "longitude": 15.359413,
    "name": "Czechia",
    "country": "CZ",
    "sick": 829
  },
  {
    "latitude": 26.0667,
    "longitude": 50.557701,
    "name": "Bahrain",
    "country": "BH",
    "dead": 1,
    "lastUpdated": "2020-03-21T06:13:03.283Z",
    "id": "C7cj4nwRITs13KnaJrQ2",
    "infected": 298,
    "recovered": 125,
    "sick": 172
  },
  {
    "longitude": 74.2179,
    "name": "Rajasthan",
    "country": "IN",
    "dead": 0,
    "lastUpdated": "2020-03-21T06:19:03.644Z",
    "id": "CKZCZTPlrcq5fbfUPA9k",
    "infected": 17,
    "recovered": 3,
    "latitude": 27.0238,
    "sick": 14
  },
  {
    "infected": 3,
    "recovered": 0,
    "latitude": 13.803,
    "longitude": -88.9053,
    "name": "El Salvador",
    "country": "SV",
    "dead": 0,
    "lastUpdated": "2020-03-21T06:13:03.709Z",
    "id": "Cgvmtle61ehMvCzRzYx7",
    "sick": 3
  },
  {
    "dead": 177,
    "lastUpdated": "2020-03-21T06:13:03.305Z",
    "id": "CrXu6i5Sqx11iwdfHfBs",
    "infected": 3983,
    "recovered": 65,
    "latitude": 52.355518,
    "longitude": -1.17432,
    "name": "United Kingdom",
    "country": "GB",
    "sick": 3741
  },
  {
    "recovered": 1,
    "latitude": 40.259003,
    "longitude": 44.818474,
    "name": "Armenia",
    "country": "AM",
    "dead": 0,
    "lastUpdated": "2020-03-21T06:13:03.251Z",
    "id": "DCJCtZoBTWQ4mzdDNljD",
    "infected": 136,
    "sick": 135
  },
  {
    "latitude": 22.192039,
    "longitude": 113.551262,
    "name": "Macao",
    "country": "MO",
    "dead": 0,
    "lastUpdated": "2020-03-21T06:13:03.321Z",
    "id": "DdBt8qsG6A3g92oOR3ow",
    "infected": 17,
    "recovered": 10,
    "sick": 7
  },
  {
    "id": "DrGzziUglmBognCGY7R2",
    "infected": 21,
    "recovered": 0,
    "latitude": 42.962334,
    "longitude": -107.534868,
    "name": "Wyoming",
    "country": "US",
    "dead": 0,
    "lastUpdated": "2020-03-21T06:12:01.755Z",
    "sick": 21
  },
  {
    "longitude": 22.9444,
    "name": "Greece",
    "country": "GR",
    "dead": 10,
    "lastUpdated": "2020-03-21T06:13:03.198Z",
    "id": "Dtr1lap1RpJpXJdXGJiW",
    "infected": 495,
    "recovered": 19,
    "latitude": 40.6401,
    "sick": 466
  },
  {
    "infected": 135,
    "recovered": 28,
    "latitude": 25.03841,
    "longitude": 121.563698,
    "name": "Taiwan",
    "country": "TW",
    "dead": 2,
    "lastUpdated": "2020-03-21T06:13:03.269Z",
    "id": "EKTfs8e7M6DXzI1HqyyX",
    "sick": 105
  },
  {
    "recovered": 2,
    "latitude": 10.327273,
    "longitude": -84.387618,
    "name": "Costa Rica",
    "country": "CR",
    "dead": 2,
    "lastUpdated": "2020-03-21T06:13:03.181Z",
    "id": "EQzJvzVHKjs8kLmK7BMu",
    "infected": 113,
    "sick": 109
  },
  {
    "dead": 0,
    "lastUpdated": "2020-03-21T06:19:03.664Z",
    "id": "ERwk9R9en4m9WbdoMbIg",
    "infected": 7,
    "recovered": 0,
    "latitude": 22.2587,
    "longitude": 71.1924,
    "name": "Gujarat",
    "country": "IN",
    "sick": 7
  },
  {
    "infected": 1,
    "recovered": 0,
    "latitude": 30.7333,
    "longitude": 76.7794,
    "name": "Chandigarh",
    "country": "IN",
    "dead": 0,
    "lastUpdated": "2020-03-21T06:19:03.670Z",
    "id": "Esl5UlCVB9s8pmGB5Ofr",
    "sick": 1
  },
  {
    "dead": 0,
    "lastUpdated": "2020-03-21T06:13:03.668Z",
    "id": "F4rPrEVGAIMM5rfPEMv4",
    "infected": 14,
    "recovered": 0,
    "latitude": 18.200178,
    "longitude": -66.664513,
    "name": "Puerto Rico",
    "country": "PR",
    "sick": 14
  },
  {
    "dead": 0,
    "lastUpdated": "2020-03-21T06:13:03.706Z",
    "id": "FCDmlmnIIswd8bQiUjfN",
    "infected": 24,
    "recovered": 1,
    "latitude": 33.93911,
    "longitude": 67.709953,
    "name": "Afghanistan",
    "country": "AF",
    "sick": 23
  },
  {
    "infected": 576,
    "recovered": 570,
    "latitude": 29.431585,
    "longitude": 106.912254,
    "name": "Chongqing",
    "country": "CN",
    "dead": 6,
    "lastUpdated": "2020-03-21T02:29:14.931Z",
    "id": "FErOU1m4Tj7jIkRam3vF",
    "sick": 0
  },
  {
    "infected": 159,
    "recovered": 22,
    "latitude": 29.311661,
    "longitude": 47.481766,
    "name": "Kuwait",
    "country": "KW",
    "dead": 0,
    "lastUpdated": "2020-03-21T06:13:03.246Z",
    "id": "FZsUkhxBEgqsPb4eO0PN",
    "sick": 137
  },
  {
    "latitude": 11.1271,
    "longitude": 78.6569,
    "name": "Tamil Nadu",
    "country": "IN",
    "dead": 0,
    "lastUpdated": "2020-03-21T06:19:03.686Z",
    "id": "FeS45oMNC27pI17F0xEV",
    "infected": 3,
    "recovered": 1,
    "sick": 2
  },
  {
    "infected": 72,
    "recovered": 0,
    "latitude": 18.947829,
    "longitude": -70.430399,
    "name": "Dominican Republic",
    "country": "DO",
    "dead": 2,
    "lastUpdated": "2020-03-21T06:13:03.292Z",
    "id": "FuiVEJvWb0QMCpxJ3563",
    "sick": 70
  },
  {
    "id": "FyC551oNwmENxbr9Yght",
    "infected": 19,
    "recovered": 1,
    "latitude": 18.1124,
    "longitude": 79.0193,
    "name": "Telangana",
    "country": "IN",
    "dead": 0,
    "lastUpdated": "2020-03-21T06:19:03.681Z",
    "sick": 18
  },
  {
    "id": "FzIDXoqWnTI3nUfhPyT2",
    "infected": 137,
    "recovered": 0,
    "latitude": 48.669,
    "longitude": 19.699,
    "name": "Slovakia",
    "country": "SK",
    "dead": 0,
    "lastUpdated": "2020-03-21T06:13:03.288Z",
    "sick": 137
  },
  {
    "dead": 3,
    "lastUpdated": "2020-03-21T06:13:03.211Z",
    "id": "GAp7Wb6IMhdgbvEtMza9",
    "infected": 501,
    "recovered": 13,
    "latitude": 30.37532,
    "longitude": 69.345116,
    "name": "Pakistan",
    "country": "PK",
    "sick": 485
  },
  {
    "longitude": 75.3412,
    "name": "Punjab",
    "country": "IN",
    "dead": 1,
    "lastUpdated": "2020-03-21T06:19:03.666Z",
    "id": "GGru8cG08mANO8XDDUtZ",
    "infected": 3,
    "recovered": 0,
    "latitude": 31.1471,
    "sick": 2
  },
  {
    "longitude": 53.847816,
    "name": "United Arab Emirates",
    "country": "AE",
    "dead": 2,
    "lastUpdated": "2020-03-21T06:13:03.314Z",
    "id": "GHzBIsHy2GiBc5JV2HMs",
    "infected": 140,
    "recovered": 31,
    "latitude": 23.424076,
    "sick": 107
  },
  {
    "latitude": 36.621981,
    "longitude": -119.339046,
    "name": "California",
    "country": "US",
    "dead": 24,
    "lastUpdated": "2020-03-21T06:12:01.688Z",
    "id": "Gh46r6vuaY7fbGt3IboN",
    "infected": 1247,
    "recovered": 0,
    "sick": 1223
  },
  {
    "infected": 49,
    "recovered": 0,
    "latitude": 35.87189,
    "longitude": -97.145514,
    "name": "Oklahoma",
    "country": "US",
    "dead": 1,
    "lastUpdated": "2020-03-21T06:12:01.678Z",
    "id": "GpF8ULuKOQiFDCUHN44h",
    "sick": 48
  },
  {
    "infected": 75,
    "recovered": 74,
    "latitude": 42.83263,
    "longitude": 113.750972,
    "name": "Inner Mongolia",
    "country": "CN",
    "dead": 1,
    "lastUpdated": "2020-03-21T02:33:37.254Z",
    "id": "H3JeVigVbo5CSYfZG4WI",
    "sick": 0
  },
  {
    "longitude": -116.724977,
    "name": "Nevada",
    "country": "US",
    "dead": 2,
    "lastUpdated": "2020-03-21T06:12:01.811Z",
    "id": "H3bDg4eV30up4WWrIDAS",
    "infected": 161,
    "recovered": 0,
    "latitude": 39.74536,
    "sick": 159
  },
  {
    "dead": 1,
    "lastUpdated": "2020-03-21T06:19:03.673Z",
    "id": "HN5mGmxlqlSeFSNeu1K5",
    "infected": 15,
    "recovered": 1,
    "latitude": 15.3173,
    "longitude": 75.7139,
    "name": "Karnataka",
    "country": "IN",
    "sick": 13
  },
  {
    "infected": 2,
    "recovered": 0,
    "latitude": 27.5142,
    "longitude": 90.4336,
    "name": "Bhutan",
    "country": "BT",
    "dead": 0,
    "lastUpdated": "2020-03-21T06:13:03.712Z",
    "id": "HRDpwyxpqW9RN0xLFyNu",
    "sick": 2
  },
  {
    "dead": 0,
    "lastUpdated": "2020-03-21T06:13:03.263Z",
    "id": "HRTA10dtrruDEwjJEGMp",
    "infected": 33,
    "recovered": 0,
    "latitude": 41.3775,
    "longitude": 64.5853,
    "name": "Uzbekistan",
    "country": "UZ",
    "sick": 33
  },
  {
    "latitude": 34.138916,
    "longitude": -105.576255,
    "name": "New Mexico",
    "country": "US",
    "dead": 0,
    "lastUpdated": "2020-03-21T06:12:01.673Z",
    "id": "HSSFomRju0doHhWgW8On",
    "infected": 43,
    "recovered": 0,
    "sick": 43
  },
  {
    "infected": 167,
    "recovered": 0,
    "latitude": 53.6127,
    "longitude": 12.4296,
    "name": "Mecklenburg-Vorpommern",
    "country": "DE",
    "dead": 0,
    "lastUpdated": "2020-03-21T06:12:02.742Z",
    "id": "He1gSS1v50t06i3YrqvB",
    "sick": 167
  },
  {
    "infected": 203,
    "recovered": 4,
    "latitude": 23.634501,
    "longitude": -102.552788,
    "name": "Mexico",
    "country": "MX",
    "dead": 2,
    "lastUpdated": "2020-03-21T06:13:03.315Z",
    "id": "I4OJ6z9Vjs1byOcbsJrd",
    "sick": 197
  },
  {
    "dead": 8,
    "lastUpdated": "2020-03-21T02:30:39.477Z",
    "id": "IAX0OQLVnUwU7FX0ENF1",
    "infected": 1399,
    "recovered": 1325,
    "latitude": 23.363855,
    "longitude": 113.373448,
    "name": "Guangdong",
    "country": "CN",
    "sick": 66
  },
  {
    "dead": 22,
    "lastUpdated": "2020-03-21T02:29:24.928Z",
    "id": "IFuMrMvSjoiX5agYvllh",
    "infected": 1273,
    "recovered": 1250,
    "latitude": 33.875408,
    "longitude": 113.484016,
    "name": "Henan",
    "country": "CN",
    "sick": 1
  },
  {
    "recovered": 0,
    "latitude": 19.0558,
    "longitude": -73.0513,
    "name": "Haiti",
    "country": "HT",
    "dead": 0,
    "lastUpdated": "2020-03-21T06:13:03.784Z",
    "id": "InZ38sIqyK7FN7XAOZoX",
    "infected": 2,
    "sick": 2
  },
  {
    "latitude": 32.528564,
    "longitude": -83.280125,
    "name": "Georgia (US)",
    "country": "US",
    "dead": 14,
    "lastUpdated": "2020-03-21T06:12:01.729Z",
    "id": "IvQkDJkTAsoIqPRAU25n",
    "infected": 485,
    "recovered": 0,
    "sick": 471
  },
  {
    "dead": 0,
    "lastUpdated": "2020-03-21T03:13:08.361Z",
    "id": "IvVhpOoGpH6JVkGyUhXN",
    "infected": 53,
    "recovered": 0,
    "latitude": -42.8285,
    "longitude": 172.488081,
    "name": "New Zealand",
    "country": "NZ",
    "sick": 53
  },
  {
    "longitude": -66.5897,
    "name": "Venezuela",
    "country": "VE",
    "dead": 0,
    "lastUpdated": "2020-03-21T06:13:03.274Z",
    "id": "J3mZXlfEnnJx4CDZLvRG",
    "infected": 65,
    "recovered": 1,
    "latitude": 6.4238,
    "sick": 64
  },
  {
    "longitude": 33.4299,
    "name": "Cyprus",
    "country": "CY",
    "dead": 0,
    "lastUpdated": "2020-03-21T06:13:03.307Z",
    "id": "JQByE4l2OA6sGOqIcWrM",
    "infected": 75,
    "recovered": 0,
    "latitude": 35.1264,
    "sick": 75
  },
  {
    "recovered": 0,
    "latitude": 14.628434,
    "longitude": -90.522713,
    "name": "Guatemala",
    "country": "GT",
    "dead": 1,
    "lastUpdated": "2020-03-21T06:13:03.783Z",
    "id": "JUWE6bG3b5oL7fKQMSvv",
    "infected": 12,
    "sick": 11
  },
  {
    "infected": 484,
    "recovered": 6,
    "latitude": 49.8153,
    "longitude": 6.1296,
    "name": "Luxembourg",
    "country": "LU",
    "dead": 5,
    "lastUpdated": "2020-03-21T06:13:03.201Z",
    "id": "JcFsHSn2WvZ5LJW42ovG",
    "sick": 473
  },
  {
    "infected": 9,
    "recovered": 0,
    "latitude": 8.6195,
    "longitude": 0.8248,
    "name": "Togo",
    "country": "TG",
    "dead": 0,
    "lastUpdated": "2020-03-21T06:13:03.693Z",
    "id": "JrBbirlBKGdWSdcDt7PF",
    "sick": 9
  },
  {
    "id": "JzZ8sbqzjutThVjkPKPL",
    "infected": 127,
    "recovered": 3,
    "latitude": 42.7339,
    "longitude": 25.4858,
    "name": "Bulgaria",
    "country": "BG",
    "dead": 3,
    "lastUpdated": "2020-03-21T06:13:03.281Z",
    "sick": 121
  },
  {
    "infected": 73,
    "recovered": 3,
    "latitude": 7.873054,
    "longitude": 80.771797,
    "name": "Sri Lanka",
    "country": "LK",
    "dead": 0,
    "lastUpdated": "2020-03-21T06:13:03.243Z",
    "id": "KsWzJO06cf0d6LJ4ZNh9",
    "sick": 70
  },
  {
    "latitude": 15.9129,
    "longitude": 79.74,
    "name": "Andhra Pradesh",
    "country": "IN",
    "dead": 0,
    "lastUpdated": "2020-03-21T06:19:03.682Z",
    "id": "KtQIo2DoqjELtPAlyDVO",
    "infected": 3,
    "recovered": 0,
    "sick": 3
  },
  {
    "longitude": 105.318756,
    "name": "Russia",
    "country": "RU",
    "dead": 1,
    "lastUpdated": "2020-03-21T06:13:03.203Z",
    "id": "KwOuGBKSMRlmwftxAvLX",
    "infected": 253,
    "recovered": 12,
    "latitude": 61.52401,
    "sick": 240
  },
  {
    "longitude": -63.0501,
    "name": "Saint-Martin",
    "country": "FR",
    "dead": 0,
    "lastUpdated": "2020-03-21T06:19:09.556Z",
    "id": "LBUtrLDKJiupXjlUNTUe",
    "infected": 4,
    "recovered": 0,
    "latitude": 18.0708,
    "sick": 4
  },
  {
    "infected": 28,
    "recovered": 0,
    "latitude": 47.166,
    "longitude": 9.5554,
    "name": "Liechtenstein",
    "country": "LI",
    "dead": 0,
    "lastUpdated": "2020-03-21T06:13:03.289Z",
    "id": "LTGEU2E9MFkrCcFhZYVk",
    "sick": 28
  },
  {
    "infected": 2,
    "recovered": 0,
    "latitude": 9.9456,
    "longitude": -9.6966,
    "name": "Guinea",
    "country": "GN",
    "dead": 0,
    "lastUpdated": "2020-03-21T06:13:03.725Z",
    "id": "LU2QWt5ao8IJa8evNYVV",
    "sick": 2
  },
  {
    "latitude": 3.9193051,
    "longitude": -56.0277824,
    "name": "Suriname",
    "country": "SR",
    "dead": 0,
    "lastUpdated": "2020-03-21T06:13:03.728Z",
    "id": "LglKINHyQpYpFxjckbQ6",
    "infected": 4,
    "recovered": 0,
    "sick": 4
  },
  {
    "dead": 0,
    "lastUpdated": "2020-03-21T06:12:01.690Z",
    "id": "LkIDKY0CMAqzbwBHyYCP",
    "infected": 26,
    "recovered": 0,
    "latitude": 52.9399,
    "longitude": -106.4509,
    "name": "Saskatchewan",
    "country": "CA",
    "sick": 26
  },
  {
    "longitude": -84.27,
    "name": "Kentucky",
    "country": "US",
    "dead": 2,
    "lastUpdated": "2020-03-21T06:12:01.808Z",
    "id": "MC8MXFw9iXYybnF8v7e6",
    "infected": 64,
    "recovered": 0,
    "latitude": 37.8393,
    "sick": 62
  },
  {
    "recovered": 0,
    "latitude": 40.2672,
    "longitude": -86.1349,
    "name": "Indiana",
    "country": "US",
    "dead": 3,
    "lastUpdated": "2020-03-21T06:12:01.824Z",
    "id": "MOxDkmQ4wBi1CuAdVxDE",
    "infected": 86,
    "sick": 83
  },
  {
    "dead": 0,
    "lastUpdated": "2020-03-21T06:13:03.692Z",
    "id": "MdQOfc1gNh2DOqwSP6UV",
    "infected": 9,
    "recovered": 1,
    "latitude": 7.54,
    "longitude": -5.5471,
    "name": "Ivory Coast",
    "country": "CI",
    "sick": 8
  },
  {
    "infected": 6301,
    "recovered": 127,
    "latitude": 51.4332,
    "longitude": 7.6616,
    "name": "Nordrhein-Westfalen",
    "country": "DE",
    "dead": 22,
    "lastUpdated": "2020-03-21T06:12:02.645Z",
    "id": "MjpYq3zQyAvSQlVVYjD2",
    "sick": 6152
  },
  {
    "recovered": 75,
    "latitude": 37.330509,
    "longitude": 105.977203,
    "name": "Ningxia",
    "country": "CN",
    "dead": 0,
    "lastUpdated": "2020-03-21T02:33:49.701Z",
    "id": "MntmjjuHljarCdt6aIeE",
    "infected": 75,
    "sick": 0
  },
  {
    "recovered": 14,
    "latitude": 48.6616,
    "longitude": 9.3501,
    "name": "Baden-Württemberg",
    "country": "DE",
    "dead": 17,
    "lastUpdated": "2020-03-21T06:12:02.554Z",
    "id": "N3XsRBwJSsNclkEf7Zz5",
    "infected": 3665,
    "sick": 3634
  },
  {
    "infected": 89,
    "recovered": 2,
    "latitude": 44.696652,
    "longitude": 17.824332,
    "name": "Bosnia and Herzegovina",
    "country": "BA",
    "dead": 0,
    "lastUpdated": "2020-03-21T06:13:03.189Z",
    "id": "N7c13sCQF0G789XAVazJ",
    "sick": 87
  },
  {
    "latitude": 37.242565,
    "longitude": 111.856857,
    "name": "Shanxi",
    "country": "CN",
    "dead": 0,
    "lastUpdated": "2020-03-21T02:33:30.572Z",
    "id": "NBRIGIRrJB1Ry8prDNAC",
    "infected": 133,
    "recovered": 133,
    "sick": 0
  },
  {
    "latitude": 35.7596,
    "longitude": -79.0193,
    "name": "North Carolina",
    "country": "US",
    "dead": 0,
    "lastUpdated": "2020-03-21T06:12:01.693Z",
    "id": "NC64Qp5kTqAfiTuR27k8",
    "infected": 188,
    "recovered": 0,
    "sick": 188
  },
  {
    "latitude": 52.4125,
    "longitude": 12.5316,
    "name": "Brandenburg",
    "country": "DE",
    "dead": 0,
    "lastUpdated": "2020-03-21T06:12:02.842Z",
    "id": "NJjo2gfBvnbK4xatrsUz",
    "infected": 265,
    "recovered": 1,
    "sick": 264
  },
  {
    "infected": 3,
    "recovered": 0,
    "latitude": 30.0668,
    "longitude": 79.0193,
    "name": "Uttarakhand",
    "country": "IN",
    "dead": 0,
    "lastUpdated": "2020-03-21T06:19:03.632Z",
    "id": "NMeZEcGToxXfpi16PfFV",
    "sick": 3
  },
  {
    "dead": 2,
    "lastUpdated": "2020-03-21T06:12:02.754Z",
    "id": "Nk5vPgUIXsWVfbWZf15O",
    "infected": 962,
    "recovered": 3,
    "latitude": 50.6521,
    "longitude": 9.1624,
    "name": "Hessen",
    "country": "DE",
    "sick": 957
  },
  {
    "longitude": 25.837107,
    "name": "Latvia",
    "country": "LV",
    "dead": 0,
    "lastUpdated": "2020-03-21T06:13:03.195Z",
    "id": "NmmMKy0YqA8StHdGzB5N",
    "infected": 111,
    "recovered": 1,
    "latitude": 56.96776,
    "sick": 110
  },
  {
    "latitude": 6.4281,
    "longitude": -9.4295,
    "name": "Liberia",
    "country": "LR",
    "dead": 0,
    "lastUpdated": "2020-03-21T06:13:03.785Z",
    "id": "O4g88K49HKEZLFXm5gxb",
    "infected": 2,
    "recovered": 0,
    "sick": 2
  },
  {
    "infected": 126,
    "recovered": 0,
    "latitude": 34.003307,
    "longitude": -80.525613,
    "name": "South Carolina",
    "country": "US",
    "dead": 3,
    "lastUpdated": "2020-03-21T06:12:01.830Z",
    "id": "ONU4CK8QjViFHKg2w5if",
    "sick": 123
  },
  {
    "id": "OYa0jFzdbAgo8zUsRv6q",
    "infected": 80,
    "recovered": 0,
    "latitude": 33.51822,
    "longitude": -89.582775,
    "name": "Mississippi",
    "country": "US",
    "dead": 1,
    "lastUpdated": "2020-03-21T06:12:01.763Z",
    "sick": 79
  },
  {
    "latitude": 45.2538,
    "longitude": -69.4455,
    "name": "Maine",
    "country": "US",
    "dead": 0,
    "lastUpdated": "2020-03-21T06:12:01.826Z",
    "id": "OcXNp9kNVSwrRlG3bNVN",
    "infected": 56,
    "recovered": 0,
    "sick": 56
  },
  {
    "id": "OnOseaqWdnuP18oruABW",
    "infected": 10,
    "recovered": 3,
    "latitude": -41.915264,
    "longitude": 146.725256,
    "name": "Tasmania",
    "country": "AU",
    "dead": 0,
    "lastUpdated": "2020-03-21T02:40:03.932Z",
    "sick": 7
  },
  {
    "id": "P4mwRFLbrvT0t75uD8Wo",
    "infected": 3,
    "recovered": 0,
    "latitude": 19.3133,
    "longitude": -81.2546,
    "name": "Cayman Islands",
    "country": "KY",
    "dead": 1,
    "lastUpdated": "2020-03-21T06:13:03.685Z",
    "sick": 2
  },
  {
    "dead": 0,
    "lastUpdated": "2020-03-21T06:13:03.782Z",
    "id": "PEDkeFMTOZpvHiSVxBk7",
    "infected": 1,
    "recovered": 0,
    "latitude": 16.7424984,
    "longitude": -62.1873665,
    "name": "Montserrat",
    "country": "MS",
    "sick": 1
  },
  {
    "dead": 0,
    "lastUpdated": "2020-03-21T06:13:03.672Z",
    "id": "PEcgZGEkyhABztt1Ufgc",
    "infected": 17,
    "recovered": 0,
    "latitude": -1.9403,
    "longitude": 29.8739,
    "name": "Rwanda",
    "country": "RW",
    "sick": 17
  },
  {
    "latitude": 46.7296,
    "longitude": -94.6859,
    "name": "Minnesota",
    "country": "US",
    "dead": 0,
    "lastUpdated": "2020-03-21T06:12:01.708Z",
    "id": "PJvVYosLIhbcRZYnKX1R",
    "infected": 115,
    "recovered": 0,
    "sick": 115
  },
  {
    "latitude": 40.6331,
    "longitude": -89.3985,
    "name": "Illinois",
    "country": "US",
    "dead": 5,
    "lastUpdated": "2020-03-21T06:12:01.776Z",
    "id": "PTwQr9ijo0TBBsPH2sdJ",
    "infected": 585,
    "recovered": 0,
    "sick": 580
  },
  {
    "infected": 2,
    "recovered": 0,
    "latitude": 13.909444,
    "longitude": -60.978893,
    "name": "Saint Lucia",
    "country": "LC",
    "dead": 0,
    "lastUpdated": "2020-03-21T06:13:03.771Z",
    "id": "PjLqCeFdyzdZNcZxMkK1",
    "sick": 2
  },
  {
    "recovered": 1,
    "latitude": 34.201507,
    "longitude": 9.460554,
    "name": "Tunisia",
    "country": "TN",
    "dead": 1,
    "lastUpdated": "2020-03-21T06:13:03.344Z",
    "id": "Pr76V4raf108uSRoEXac",
    "infected": 54,
    "sick": 52
  },
  {
    "infected": 1,
    "recovered": 0,
    "latitude": -26.5225,
    "longitude": 31.4659,
    "name": "Eswatini",
    "country": "SZ",
    "dead": 0,
    "lastUpdated": "2020-03-21T06:13:03.717Z",
    "id": "PuQgOd9KWiMzGZXm11sR",
    "sick": 1
  },
  {
    "latitude": -37.009609,
    "longitude": 143.94853,
    "name": "Victoria",
    "country": "AU",
    "dead": 0,
    "lastUpdated": "2020-03-21T06:10:09.728Z",
    "id": "Q18mrGvFWTLX2BU9SqhQ",
    "infected": 178,
    "recovered": 8,
    "sick": 170
  },
  {
    "dead": 1,
    "lastUpdated": "2020-03-21T06:12:02.650Z",
    "id": "Q39XkabIYxt15mHINzTa",
    "infected": 321,
    "recovered": 0,
    "latitude": 54.2194,
    "longitude": 9.6961,
    "name": "Schleswig-Holstein",
    "country": "DE",
    "sick": 320
  },
  {
    "recovered": 1,
    "latitude": 58.595272,
    "longitude": 25.013607,
    "name": "Estonia",
    "country": "EE",
    "dead": 0,
    "lastUpdated": "2020-03-21T06:13:03.244Z",
    "id": "QR9go2hQKXjty7JHUYe4",
    "infected": 283,
    "sick": 282
  },
  {
    "latitude": -6.315,
    "longitude": 143.9555,
    "name": "Papua New Guinea",
    "country": "PG",
    "dead": 0,
    "lastUpdated": "2020-03-21T06:13:03.768Z",
    "id": "QlZrE4nosm5WfdA2aCDg",
    "infected": 1,
    "recovered": 0,
    "sick": 1
  },
  {
    "infected": 6,
    "recovered": 0,
    "latitude": 18.3358,
    "longitude": -64.8963,
    "name": "U.S. Virgin Islands",
    "country": "VI",
    "dead": 0,
    "lastUpdated": "2020-03-21T06:13:03.747Z",
    "id": "QqhD3YDMKXojvQY3Yu41",
    "sick": 6
  },
  {
    "dead": 1,
    "lastUpdated": "2020-03-21T06:13:03.213Z",
    "id": "R8YCgephnxTufvcPWMgx",
    "infected": 200,
    "recovered": 1,
    "latitude": 8.538,
    "longitude": -80.7821,
    "name": "Panama",
    "country": "PA",
    "sick": 198
  },
  {
    "recovered": 0,
    "latitude": 15.2,
    "longitude": -86.2419,
    "name": "Honduras",
    "country": "HN",
    "dead": 0,
    "lastUpdated": "2020-03-21T06:13:03.695Z",
    "id": "RA2SE0p2bVhqo0P2hzGY",
    "infected": 24,
    "sick": 24
  },
  {
    "id": "RX0KDu1AFrlCsrRso0nb",
    "infected": 45,
    "recovered": 0,
    "latitude": 41.878,
    "longitude": -93.0977,
    "name": "Iowa",
    "country": "US",
    "dead": 0,
    "lastUpdated": "2020-03-21T06:12:01.648Z",
    "sick": 45
  },
  {
    "infected": 48,
    "recovered": 0,
    "latitude": 39.0119,
    "longitude": -98.4842,
    "name": "Kansas",
    "country": "US",
    "dead": 1,
    "lastUpdated": "2020-03-21T06:12:01.784Z",
    "id": "Rf4uvBfP3GRDSHdZElRd",
    "sick": 47
  },
  {
    "latitude": 48.6998,
    "longitude": 6.1878,
    "name": "Grand Est",
    "country": "FR",
    "dead": 61,
    "lastUpdated": "2020-03-21T06:19:09.560Z",
    "id": "RmEgf1xeclWt7XCF9oiR",
    "infected": 3006,
    "recovered": 0,
    "sick": 2945
  },
  {
    "longitude": -85.3232,
    "name": "Ontario",
    "country": "CA",
    "dead": 2,
    "lastUpdated": "2020-03-21T06:12:01.817Z",
    "id": "Rx4TuyMpfGb3S8wYJX0x",
    "infected": 318,
    "recovered": 5,
    "latitude": 51.2538,
    "sick": 311
  },
  {
    "latitude": 14.652027,
    "longitude": -61.011715,
    "name": "Martinique",
    "country": "FR",
    "dead": 1,
    "lastUpdated": "2020-03-21T06:19:09.555Z",
    "id": "SDdefnq1bc3ZNr7SpEsW",
    "infected": 32,
    "recovered": 0,
    "sick": 31
  },
  {
    "latitude": 7.9465,
    "longitude": -1.0232,
    "name": "Ghana",
    "country": "GH",
    "dead": 0,
    "lastUpdated": "2020-03-21T06:13:03.789Z",
    "id": "SG9VWLOV3x2JsTkXmVSz",
    "infected": 16,
    "recovered": 0,
    "sick": 16
  },
  {
    "dead": 56,
    "lastUpdated": "2020-03-21T06:13:03.235Z",
    "id": "SGe9sCPayMqh6RsGFaBA",
    "infected": 5615,
    "recovered": 15,
    "latitude": 46.818188,
    "longitude": 8.227512,
    "name": "Switzerland",
    "country": "CH",
    "sick": 5544
  },
  {
    "longitude": -71.208,
    "name": "Quebec",
    "country": "CA",
    "dead": 1,
    "lastUpdated": "2020-03-21T06:12:01.617Z",
    "id": "SHoOE3NiJgWAlDVBzwYH",
    "infected": 139,
    "recovered": 0,
    "latitude": 46.8139,
    "sick": 138
  },
  {
    "infected": 24,
    "recovered": 0,
    "latitude": 42.6026,
    "longitude": 20.903,
    "name": "Kosovo",
    "country": "XK",
    "dead": 0,
    "lastUpdated": "2020-03-21T05:59:01.259Z",
    "id": "SMWvuMMuKp2QK7O2tNia",
    "sick": 24
  },
  {
    "latitude": 41.4925,
    "longitude": -99.9018,
    "name": "Nebraska",
    "country": "US",
    "dead": 0,
    "lastUpdated": "2020-03-21T06:12:01.835Z",
    "id": "SakhKQzKu1LRI8laqdQq",
    "infected": 37,
    "recovered": 0,
    "sick": 37
  },
  {
    "infected": 38,
    "recovered": 0,
    "latitude": -21.1151,
    "longitude": 55.5364,
    "name": "La Réunion",
    "country": "FR",
    "dead": 0,
    "lastUpdated": "2020-03-21T06:19:09.541Z",
    "id": "SgHzWAAYK1j2sipovxM6",
    "sick": 38
  },
  {
    "dead": 0,
    "lastUpdated": "2020-03-21T06:13:03.302Z",
    "id": "SioMALgUbo7peXmbco2f",
    "infected": 51,
    "recovered": 1,
    "latitude": 12.565679,
    "longitude": 104.990967,
    "name": "Cambodia",
    "country": "KH",
    "sick": 50
  },
  {
    "recovered": 0,
    "latitude": 13.4443,
    "longitude": 144.7937,
    "name": "Guam",
    "country": "GU",
    "dead": 0,
    "lastUpdated": "2020-03-21T06:13:03.318Z",
    "id": "SsWhuEElU7dCTTuH5fdQ",
    "infected": 14,
    "sick": 14
  },
  {
    "id": "T3iRf8mTUTAzbKrORTap",
    "infected": 18,
    "recovered": 0,
    "latitude": -4.0383,
    "longitude": 21.7587,
    "name": "DR Congo",
    "country": "CD",
    "dead": 0,
    "lastUpdated": "2020-03-21T06:13:03.721Z",
    "sick": 18
  },
  {
    "latitude": 23.635796,
    "longitude": 44.344334,
    "name": "Saudi Arabia",
    "country": "SA",
    "dead": 0,
    "lastUpdated": "2020-03-21T06:13:03.241Z",
    "id": "T7NffoeCgTUpAbOHvYwP",
    "infected": 344,
    "recovered": 8,
    "sick": 336
  },
  {
    "dead": 0,
    "lastUpdated": "2020-03-21T06:13:03.271Z",
    "id": "TQZmzsLhJqjtCSExAkCP",
    "infected": 78,
    "recovered": 1,
    "latitude": 4.506106,
    "longitude": 114.650692,
    "name": "Brunei",
    "country": "BN",
    "sick": 77
  },
  {
    "latitude": 45.4471,
    "longitude": 4.3853,
    "name": "Auvergne-Rhône-Alpes",
    "country": "FR",
    "dead": 7,
    "lastUpdated": "2020-03-21T06:19:09.533Z",
    "id": "TT0MKODSjrxHvG19xZCa",
    "infected": 1101,
    "recovered": 27,
    "sick": 1067
  },
  {
    "longitude": -105.461392,
    "name": "Colorado",
    "country": "US",
    "dead": 4,
    "lastUpdated": "2020-03-21T06:12:01.731Z",
    "id": "Th4dlpXXmSDgi1OHs36P",
    "infected": 363,
    "recovered": 0,
    "latitude": 39.318928,
    "sick": 359
  },
  {
    "recovered": 4,
    "latitude": 12.2383,
    "longitude": -1.5616,
    "name": "Burkina Faso",
    "country": "BF",
    "dead": 1,
    "lastUpdated": "2020-03-21T06:13:03.242Z",
    "id": "Tup6oDCHj6DgqZR3nQ3x",
    "infected": 40,
    "sick": 35
  },
  {
    "id": "Ty1AY3VLPJcRZgdBIERx",
    "infected": 1255,
    "recovered": 1,
    "latitude": 55.675758,
    "longitude": 12.56902,
    "name": "Denmark",
    "country": "DK",
    "dead": 9,
    "lastUpdated": "2020-03-21T06:13:03.190Z",
    "sick": 1245
  },
  {
    "infected": 764,
    "recovered": 749,
    "latitude": 36.395859,
    "longitude": 118.769882,
    "name": "Shandong",
    "country": "CN",
    "dead": 7,
    "lastUpdated": "2020-03-21T02:33:05.701Z",
    "id": "U0tkTJ9CGsBuFJ2Gdoum",
    "sick": 8
  },
  {
    "infected": 151,
    "recovered": 4,
    "latitude": 43.94236,
    "longitude": 12.457777,
    "name": "San Marino",
    "country": "SM",
    "dead": 14,
    "lastUpdated": "2020-03-21T06:13:03.265Z",
    "id": "U12rMD5GDW58Q0lIwrB1",
    "sick": 133
  },
  {
    "dead": 35,
    "lastUpdated": "2020-03-21T06:13:03.329Z",
    "id": "U13Gy4BpRLAZ95bPmBXd",
    "infected": 1007,
    "recovered": 215,
    "latitude": 36.204823,
    "longitude": 138.25293,
    "name": "Japan",
    "country": "JP",
    "sick": 757
  },
  {
    "latitude": -11.2027,
    "longitude": 17.8739,
    "name": "Angola",
    "country": "AO",
    "dead": 0,
    "lastUpdated": "2020-03-21T06:13:03.683Z",
    "id": "UIbrFy6kiTTF0D37Kqmp",
    "infected": 1,
    "recovered": 0,
    "sick": 1
  },
  {
    "id": "URKMlJ7OTNldjpaxFbjE",
    "infected": 346,
    "recovered": 0,
    "latitude": 48.202,
    "longitude": -2.9326,
    "name": "Bretagne",
    "country": "FR",
    "dead": 3,
    "lastUpdated": "2020-03-21T06:19:09.537Z",
    "sick": 343
  },
  {
    "longitude": 9.9937,
    "name": "Hamburg",
    "country": "DE",
    "dead": 1,
    "lastUpdated": "2020-03-21T06:12:02.841Z",
    "id": "UfFaUECHINUutv1M9tzq",
    "infected": 664,
    "recovered": 1,
    "latitude": 53.5511,
    "sick": 662
  },
  {
    "infected": 1,
    "recovered": 0,
    "latitude": 18.0424805,
    "longitude": -63.0548286,
    "name": "Sint Maarten",
    "country": "SX",
    "dead": 0,
    "lastUpdated": "2020-03-21T06:13:03.749Z",
    "id": "UsxgpiuFCtlR2CW1UUFm",
    "sick": 1
  },
  {
    "dead": 0,
    "lastUpdated": "2020-03-21T06:19:03.657Z",
    "id": "V1qE740s3EUGyKGr6SVv",
    "infected": 1,
    "recovered": 0,
    "latitude": 11.943179,
    "longitude": 79.808206,
    "name": "Puducherry",
    "country": "IN",
    "sick": 1
  },
  {
    "dead": 0,
    "lastUpdated": "2020-03-21T06:13:03.284Z",
    "id": "VAAmtxtDuCY0o55zRsOh",
    "infected": 158,
    "recovered": 1,
    "latitude": 3.527606,
    "longitude": -72.998674,
    "name": "Colombia",
    "country": "CO",
    "sick": 157
  },
  {
    "id": "VAG9AcMABTf8oIAfELPh",
    "infected": 21,
    "recovered": 0,
    "latitude": 21.5218,
    "longitude": -77.7812,
    "name": "Cuba",
    "country": "CU",
    "dead": 1,
    "lastUpdated": "2020-03-21T06:13:03.332Z",
    "sick": 20
  },
  {
    "infected": 176,
    "recovered": 172,
    "latitude": 25.181129,
    "longitude": 101.864143,
    "name": "Yunnan",
    "country": "CN",
    "dead": 2,
    "lastUpdated": "2020-03-21T02:31:30.846Z",
    "id": "VIf8T8PD3ZzlzAm5eBCX",
    "sick": 2
  },
  {
    "recovered": 9,
    "latitude": 26.8467,
    "longitude": 80.9462,
    "name": "Uttar Pradesh",
    "country": "IN",
    "dead": 0,
    "lastUpdated": "2020-03-21T06:19:03.687Z",
    "id": "VcKcLdCkC6YpPfIDnRVD",
    "infected": 24,
    "sick": 15
  },
  {
    "recovered": 0,
    "latitude": 43.8927,
    "longitude": 3.2828,
    "name": "Occitanie",
    "country": "FR",
    "dead": 10,
    "lastUpdated": "2020-03-21T06:19:09.563Z",
    "id": "WAnbFrEjtZDTCIYBt8rz",
    "infected": 537,
    "sick": 527
  },
  {
    "recovered": 0,
    "latitude": -30.5595,
    "longitude": 22.9375,
    "name": "South Africa",
    "country": "ZA",
    "dead": 0,
    "lastUpdated": "2020-03-21T06:13:03.335Z",
    "id": "Whrue10NtwIObLvFFyBr",
    "infected": 202,
    "sick": 202
  },
  {
    "latitude": 13.443182,
    "longitude": -15.3101387,
    "name": "Gambia",
    "country": "GM",
    "dead": 0,
    "lastUpdated": "2020-03-21T06:13:03.761Z",
    "id": "Wk811YwpQxsOCfz8As86",
    "infected": 1,
    "recovered": 0,
    "sick": 1
  },
  {
    "infected": 20,
    "recovered": 3,
    "latitude": 23.685,
    "longitude": 90.3563,
    "name": "Bangladesh",
    "country": "BD",
    "dead": 1,
    "lastUpdated": "2020-03-21T06:13:03.654Z",
    "id": "WpLayPPLIJ7VcHZdQaoM",
    "sick": 16
  },
  {
    "infected": 13,
    "recovered": 0,
    "latitude": 34.152588,
    "longitude": 77.577049,
    "name": "Ladakh",
    "country": "IN",
    "dead": 0,
    "lastUpdated": "2020-03-21T06:19:03.660Z",
    "id": "X3PZqaJxtnlxcgP4tzya",
    "sick": 13
  },
  {
    "longitude": 118.278992,
    "name": "Fujian",
    "country": "CN",
    "dead": 1,
    "lastUpdated": "2020-03-21T02:30:47.460Z",
    "id": "XBBw0iMPrmiEu3qogkbi",
    "infected": 303,
    "recovered": 295,
    "latitude": 25.92448,
    "sick": 7
  },
  {
    "recovered": 5129,
    "latitude": 41.871941,
    "longitude": 12.56738,
    "name": "Italy",
    "country": "IT",
    "dead": 4032,
    "lastUpdated": "2020-03-21T06:13:03.194Z",
    "id": "XdekMZcw1lJK2MWpBlNK",
    "infected": 47021,
    "sick": 37860
  },
  {
    "longitude": -55.7658,
    "name": "Uruguay",
    "country": "UY",
    "dead": 0,
    "lastUpdated": "2020-03-21T06:13:03.286Z",
    "id": "XrsuLstdybIqIvv0E0aJ",
    "infected": 110,
    "recovered": 0,
    "latitude": -32.5228,
    "sick": 110
  },
  {
    "infected": 168,
    "recovered": 0,
    "latitude": 42.0396,
    "longitude": 9.0129,
    "name": "Corse",
    "country": "FR",
    "dead": 7,
    "lastUpdated": "2020-03-21T06:19:09.465Z",
    "id": "YGXgIObKVabP2CYEdcb9",
    "sick": 161
  },
  {
    "recovered": 17,
    "latitude": 31.9522,
    "longitude": 35.2332,
    "name": "Palestine",
    "country": "PS",
    "dead": 0,
    "lastUpdated": "2020-03-21T06:13:03.304Z",
    "id": "YMzKw0SnXG71VT7H1jff",
    "infected": 48,
    "sick": 31
  },
  {
    "dead": 0,
    "lastUpdated": "2020-03-21T06:12:01.765Z",
    "id": "YaCODTMD1KKRnrAlkg2u",
    "infected": 12,
    "recovered": 0,
    "latitude": 64.2008,
    "longitude": -149.4937,
    "name": "Alaska",
    "country": "US",
    "sick": 12
  },
  {
    "infected": 8799,
    "recovered": 2612,
    "latitude": 37.568291,
    "longitude": 126.99778,
    "name": "South Korea",
    "country": "KR",
    "dead": 102,
    "lastUpdated": "2020-03-21T06:13:03.220Z",
    "id": "Yw9uBekNlefXBcOCNMfP",
    "sick": 6085
  },
  {
    "id": "YzZqZMJGvG6joQCdiuXC",
    "infected": 6,
    "recovered": 0,
    "latitude": 13.193887,
    "longitude": -59.543198,
    "name": "Barbados",
    "country": "BB",
    "dead": 0,
    "lastUpdated": "2020-03-21T06:13:03.769Z",
    "sick": 6
  },
  {
    "latitude": 52.2297,
    "longitude": 21.0122,
    "name": "Poland",
    "country": "PL",
    "dead": 5,
    "lastUpdated": "2020-03-21T06:13:03.331Z",
    "id": "ZAZNuCK1VweBaTLCFzCk",
    "infected": 425,
    "recovered": 13,
    "sick": 407
  },
  {
    "dead": 0,
    "lastUpdated": "2020-03-21T06:13:03.690Z",
    "id": "ZmzOT0sJgfWXEpRImItC",
    "infected": 2,
    "recovered": 0,
    "latitude": -17.713371,
    "longitude": 178.065033,
    "name": "Fiji",
    "country": "FJ",
    "sick": 2
  },
  {
    "infected": 194,
    "recovered": 0,
    "latitude": 41.6032,
    "longitude": -73.0877,
    "name": "Connecticut",
    "country": "US",
    "dead": 4,
    "lastUpdated": "2020-03-21T06:12:01.806Z",
    "id": "Zqy0gftQzocR49jEJNMl",
    "sick": 190
  },
  {
    "longitude": 10.8453,
    "name": "Thüringen",
    "country": "DE",
    "dead": 1,
    "lastUpdated": "2020-03-21T06:12:02.837Z",
    "id": "a9OgUWo6ZSWA3HyF0xnj",
    "infected": 215,
    "recovered": 3,
    "latitude": 51.011,
    "sick": 211
  },
  {
    "recovered": 3,
    "latitude": -30.000233,
    "longitude": 136.209152,
    "name": "South Australia",
    "country": "AU",
    "dead": 0,
    "lastUpdated": "2020-03-21T06:10:09.702Z",
    "id": "a9p9pAOsjg1WAjPGc2a6",
    "infected": 50,
    "sick": 47
  },
  {
    "dead": 3,
    "lastUpdated": "2020-03-21T06:12:01.773Z",
    "id": "aPubGfQ8ToSEuKJldKRT",
    "infected": 66,
    "recovered": 0,
    "latitude": 37.9643,
    "longitude": -91.8318,
    "name": "Missouri",
    "country": "US",
    "sick": 63
  },
  {
    "dead": 2,
    "lastUpdated": "2020-03-21T02:30:58.294Z",
    "id": "aTa8MiBjtH3iY0SRs2HQ",
    "infected": 254,
    "recovered": 250,
    "latitude": 23.64407,
    "longitude": 108.26651,
    "name": "Guangxi",
    "country": "CN",
    "sick": 2
  },
  {
    "recovered": 0,
    "latitude": 6.6111,
    "longitude": 20.9394,
    "name": "CAR",
    "country": "CF",
    "dead": 0,
    "lastUpdated": "2020-03-21T06:13:03.722Z",
    "id": "adcBUeAYp6ey0ZXCzKNs",
    "infected": 3,
    "sick": 3
  },
  {
    "id": "afeZTVC1J1SMMNFxkrcc",
    "infected": 125,
    "recovered": 0,
    "latitude": 37.4316,
    "longitude": -78.6569,
    "name": "Virginia",
    "country": "US",
    "dead": 2,
    "lastUpdated": "2020-03-21T06:12:01.833Z",
    "sick": 123
  },
  {
    "recovered": 392,
    "latitude": 39.904202,
    "longitude": 116.407394,
    "name": "Beijing",
    "country": "CN",
    "dead": 8,
    "lastUpdated": "2020-03-21T02:31:53.659Z",
    "id": "alj4hkxg9cjrTxOzwFKt",
    "infected": 499,
    "sick": 99
  },
  {
    "infected": 208,
    "recovered": 49,
    "latitude": 33.22319,
    "longitude": 43.679291,
    "name": "Iraq",
    "country": "IQ",
    "dead": 17,
    "lastUpdated": "2020-03-21T06:13:03.230Z",
    "id": "b7TwXX46FA0EmH1CjHET",
    "sick": 142
  },
  {
    "dead": 0,
    "lastUpdated": "2020-03-21T06:13:03.350Z",
    "id": "b9p1JhVml3GGC7iiPmKv",
    "infected": 47,
    "recovered": 5,
    "latitude": 14.457474,
    "longitude": -14.358636,
    "name": "Senegal",
    "country": "SN",
    "sick": 42
  },
  {
    "longitude": 37.9062,
    "name": "Kenya",
    "country": "KE",
    "dead": 0,
    "lastUpdated": "2020-03-21T06:13:03.713Z",
    "id": "bVHiTolbUJGHIeVht3eG",
    "infected": 7,
    "recovered": 0,
    "latitude": -0.0236,
    "sick": 7
  },
  {
    "dead": 11,
    "lastUpdated": "2020-03-21T06:12:01.643Z",
    "id": "bYp4RRHv19M7lYtSzQeV",
    "infected": 890,
    "recovered": 0,
    "latitude": 39.561889,
    "longitude": -74.672169,
    "name": "New Jersey",
    "country": "US",
    "sick": 879
  },
  {
    "latitude": 3.139,
    "longitude": 101.6869,
    "name": "Malaysia",
    "country": "MY",
    "dead": 3,
    "lastUpdated": "2020-03-21T06:13:03.336Z",
    "id": "bdqD4kpdqGgUaX70Tm2Q",
    "infected": 1030,
    "recovered": 87,
    "sick": 940
  },
  {
    "infected": 1639,
    "recovered": 16,
    "latitude": 60.128162,
    "longitude": 18.643501,
    "name": "Sweden",
    "country": "SE",
    "dead": 16,
    "lastUpdated": "2020-03-21T06:13:03.208Z",
    "id": "bignnyt2A8BBx8VNo32p",
    "sick": 1607
  },
  {
    "latitude": 40.973765,
    "longitude": 20.010162,
    "name": "Albania",
    "country": "AL",
    "dead": 2,
    "lastUpdated": "2020-03-21T06:13:03.313Z",
    "id": "cCGmFmwHOoBrEpvG3qBP",
    "infected": 70,
    "recovered": 2,
    "sick": 66
  },
  {
    "latitude": 46.8625,
    "longitude": 103.8467,
    "name": "Mongolia",
    "country": "MN",
    "dead": 0,
    "lastUpdated": "2020-03-21T06:13:03.703Z",
    "id": "cPxONYsVo6BgvCW9HUeQ",
    "infected": 10,
    "recovered": 0,
    "sick": 10
  },
  {
    "id": "cPxe7nsRnOf6aOPqHElJ",
    "infected": 409,
    "recovered": 5,
    "latitude": 64.963051,
    "longitude": -19.020836,
    "name": "Iceland",
    "country": "IS",
    "dead": 0,
    "lastUpdated": "2020-03-21T06:13:03.326Z",
    "sick": 404
  },
  {
    "recovered": 15,
    "latitude": 31.046051,
    "longitude": 34.851612,
    "name": "Israel",
    "country": "IL",
    "dead": 1,
    "lastUpdated": "2020-03-21T06:13:03.296Z",
    "id": "cX891t0ONLNFj0MYq6La",
    "infected": 705,
    "sick": 689
  },
  {
    "recovered": 5,
    "latitude": 4.749531,
    "longitude": -53.112909,
    "name": "Guyane",
    "country": "FR",
    "dead": 0,
    "lastUpdated": "2020-03-21T06:19:09.570Z",
    "id": "cc7s6hYGQ2MovBBBgkKb",
    "infected": 15,
    "sick": 10
  },
  {
    "id": "cgzd5EM8PZv5ziJtTz1w",
    "infected": 80,
    "recovered": 3,
    "latitude": 61.8926,
    "longitude": -6.9118,
    "name": "Faeroe Islands",
    "country": "FO",
    "dead": 0,
    "lastUpdated": "2020-03-21T06:13:03.273Z",
    "sick": 77
  },
  {
    "id": "chj2FF3zb4Xxcop9RHre",
    "infected": 311,
    "recovered": 0,
    "latitude": 41.2033,
    "longitude": -77.1945,
    "name": "Pennsylvania",
    "country": "US",
    "dead": 1,
    "lastUpdated": "2020-03-21T06:12:01.650Z",
    "sick": 310
  },
  {
    "id": "cpf3Y5PQTYywIm3PrpIQ",
    "infected": 432,
    "recovered": 2,
    "latitude": 45.7087,
    "longitude": 0.6269,
    "name": "Nouvelle-Aquitaine",
    "country": "FR",
    "dead": 2,
    "lastUpdated": "2020-03-21T06:19:09.558Z",
    "sick": 428
  },
  {
    "recovered": 1588,
    "latitude": 40.463669,
    "longitude": -3.74922,
    "name": "Spain",
    "country": "ES",
    "dead": 1093,
    "lastUpdated": "2020-03-21T06:13:03.223Z",
    "id": "d0ExINgPaWUBm3l4ioJL",
    "infected": 21571,
    "sick": 18890
  },
  {
    "infected": 75,
    "recovered": 1,
    "latitude": 42.50837,
    "longitude": 1.517155,
    "name": "Andorra",
    "country": "AD",
    "dead": 0,
    "lastUpdated": "2020-03-21T06:13:03.348Z",
    "id": "dedMXSYR2k92wkSXNZqn",
    "sick": 74
  },
  {
    "latitude": 38.831163,
    "longitude": -75.375673,
    "name": "Delaware",
    "country": "US",
    "dead": 0,
    "lastUpdated": "2020-03-21T06:12:01.822Z",
    "id": "dzCgqYduzyncjNKU9z6G",
    "infected": 39,
    "recovered": 0,
    "sick": 39
  },
  {
    "recovered": 0,
    "latitude": 38.9637,
    "longitude": 35.2433,
    "name": "Turkey",
    "country": "TR",
    "dead": 9,
    "lastUpdated": "2020-03-21T06:13:03.311Z",
    "id": "dzIcCaUZlbIXuRw0SyDE",
    "infected": 670,
    "sick": 661
  },
  {
    "id": "e3BtI12qbqhE8jypOoZu",
    "infected": 2649,
    "recovered": 9,
    "latitude": 47.516232,
    "longitude": 14.550072,
    "name": "Austria",
    "country": "AT",
    "dead": 6,
    "lastUpdated": "2020-03-21T06:13:03.322Z",
    "sick": 2634
  },
  {
    "dead": 0,
    "lastUpdated": "2020-03-21T06:12:02.749Z",
    "id": "e3CJgTO8wVbBQZaxqNze",
    "infected": 1262,
    "recovered": 4,
    "latitude": 52.6367,
    "longitude": 9.8451,
    "name": "Niedersachsen",
    "country": "DE",
    "sick": 1258
  },
  {
    "latitude": 41.097481,
    "longitude": 122.310669,
    "name": "Liaoning",
    "country": "CN",
    "dead": 2,
    "lastUpdated": "2020-03-21T02:32:10.446Z",
    "id": "e7P83iImanpd9r36oXK3",
    "infected": 126,
    "recovered": 122,
    "sick": 2
  },
  {
    "infected": 380,
    "recovered": 326,
    "latitude": 31.230391,
    "longitude": 121.473701,
    "name": "Shanghai",
    "country": "CN",
    "dead": 3,
    "lastUpdated": "2020-03-21T02:31:07.461Z",
    "id": "e9pQqQa7CEblCYoDtfKo",
    "sick": 51
  },
  {
    "id": "eCKDGssww4pF7NrxOySu",
    "infected": 413,
    "recovered": 0,
    "latitude": 42.407211,
    "longitude": -71.382439,
    "name": "Massachusetts",
    "country": "US",
    "dead": 1,
    "lastUpdated": "2020-03-21T06:12:01.711Z",
    "sick": 412
  },
  {
    "latitude": 43.740451,
    "longitude": 7.432032,
    "name": "Monaco",
    "country": "MC",
    "dead": 0,
    "lastUpdated": "2020-03-21T06:13:03.787Z",
    "id": "eLgKPNUwYM5MNDAtF6ql",
    "infected": 11,
    "recovered": 0,
    "sick": 11
  },
  {
    "infected": 770,
    "recovered": 8,
    "latitude": 47.2805,
    "longitude": 4.9994,
    "name": "Bourgogne-Franche-Comté",
    "country": "FR",
    "dead": 20,
    "lastUpdated": "2020-03-21T06:19:09.539Z",
    "id": "ejrjMKfHexGnK52FS9Aa",
    "sick": 742
  },
  {
    "id": "etrmrftkQg6Kbd9seAga",
    "infected": 52,
    "recovered": 0,
    "latitude": 48.0196,
    "longitude": 66.9237,
    "name": "Kazakhstan",
    "country": "KZ",
    "dead": 0,
    "lastUpdated": "2020-03-21T06:13:03.228Z",
    "sick": 52
  },
  {
    "latitude": 30.14208,
    "longitude": 102.960701,
    "name": "Sichuan",
    "country": "CN",
    "dead": 3,
    "lastUpdated": "2020-03-21T02:31:15.485Z",
    "id": "eyK5bxFkwdoAouIBvLFM",
    "infected": 542,
    "recovered": 536,
    "sick": 3
  },
  {
    "latitude": 21.473534,
    "longitude": 55.975414,
    "name": "Oman",
    "country": "OM",
    "dead": 0,
    "lastUpdated": "2020-03-21T06:13:03.291Z",
    "id": "f9kmlhYtc3WA3kjbWszW",
    "infected": 48,
    "recovered": 13,
    "sick": 35
  },
  {
    "id": "fGqVm2khm3IBRs709S1f",
    "infected": 562,
    "recovered": 2,
    "latitude": 51.1045,
    "longitude": 13.2017,
    "name": "Sachsen",
    "country": "DE",
    "dead": 1,
    "lastUpdated": "2020-03-21T06:12:02.839Z",
    "sick": 559
  },
  {
    "id": "fIp76gl05LhZ0aOxUbhz",
    "infected": 0,
    "recovered": 0,
    "latitude": 47,
    "longitude": 2,
    "name": "Région non communiquée",
    "country": "FR",
    "dead": 273,
    "lastUpdated": "2020-03-20T18:35:43.377Z",
    "sick": 0
  },
  {
    "recovered": 1,
    "latitude": 31.295929,
    "longitude": 36.691952,
    "name": "Jordan",
    "country": "JO",
    "dead": 0,
    "lastUpdated": "2020-03-21T06:13:03.328Z",
    "id": "fK06AziL8wyrcoz7rsmJ",
    "infected": 85,
    "sick": 84
  },
  {
    "infected": 563,
    "recovered": 0,
    "latitude": 27.716933,
    "longitude": -81.555239,
    "name": "Florida",
    "country": "US",
    "dead": 11,
    "lastUpdated": "2020-03-21T06:12:01.847Z",
    "id": "fNganaGVPifA4QahEQPS",
    "sick": 552
  },
  {
    "id": "fNnE9CD0SttEVrCUo1Ym",
    "infected": 712,
    "recovered": 527,
    "latitude": 35.452016,
    "longitude": 139.664285,
    "name": "Diamond Princess (Cruise)",
    "country": "ZZ",
    "dead": 8,
    "lastUpdated": "2020-03-21T02:23:23.830Z",
    "sick": 177
  },
  {
    "recovered": 6,
    "latitude": 52.52,
    "longitude": 13.405,
    "name": "Berlin",
    "country": "DE",
    "dead": 1,
    "lastUpdated": "2020-03-21T06:12:02.752Z",
    "id": "ffKhENYKy3bwsyBLiYtE",
    "infected": 868,
    "sick": 861
  },
  {
    "latitude": 31.160629,
    "longitude": 112.255402,
    "name": "Hubei",
    "country": "CN",
    "dead": 3139,
    "lastUpdated": "2020-03-21T02:29:38.913Z",
    "id": "fiJ14DCxw15e3SMemh8R",
    "infected": 67800,
    "recovered": 58942,
    "sick": 5719
  },
  {
    "id": "flbZ2kaR5kBuV8XZ2Nsu",
    "infected": 41,
    "recovered": 1,
    "latitude": 50.4501,
    "longitude": 30.5234,
    "name": "Ukraine",
    "country": "UA",
    "dead": 3,
    "lastUpdated": "2020-03-21T06:13:03.317Z",
    "sick": 37
  },
  {
    "dead": 0,
    "lastUpdated": "2020-03-21T06:13:03.731Z",
    "id": "fst48lrFxiMJbQPf4nur",
    "infected": 6,
    "recovered": 0,
    "latitude": 41.2044,
    "longitude": 74.7661,
    "name": "Kyrgyzstan",
    "country": "KG",
    "sick": 6
  },
  {
    "latitude": 52.132633,
    "longitude": 5.291266,
    "name": "Netherlands",
    "country": "NL",
    "dead": 106,
    "lastUpdated": "2020-03-21T06:13:03.339Z",
    "id": "g0lRMtEJbucWIGqSPn0I",
    "infected": 2994,
    "recovered": 2,
    "sick": 2886
  },
  {
    "latitude": 34.69522,
    "longitude": -92.288012,
    "name": "Arkansas",
    "country": "US",
    "dead": 0,
    "lastUpdated": "2020-03-21T06:12:01.753Z",
    "id": "gIdgxJZfTl2QOSYEwMAz",
    "infected": 100,
    "recovered": 0,
    "sick": 100
  },
  {
    "latitude": 4.8604159,
    "longitude": -58.9301796,
    "name": "Guyana",
    "country": "GY",
    "dead": 1,
    "lastUpdated": "2020-03-21T06:13:03.757Z",
    "id": "gXd2X2PjmGP0XVwxpWqT",
    "infected": 15,
    "recovered": 0,
    "sick": 14
  },
  {
    "id": "gYDsNgvuvtbg8t77w6FS",
    "infected": 14,
    "recovered": 0,
    "latitude": 43.9695,
    "longitude": -99.9018,
    "name": "South Dakota",
    "country": "US",
    "dead": 1,
    "lastUpdated": "2020-03-21T06:12:01.794Z",
    "sick": 13
  },
  {
    "infected": 64,
    "recovered": 2,
    "latitude": 35.894231,
    "longitude": 14.432846,
    "name": "Malta",
    "country": "MT",
    "dead": 0,
    "lastUpdated": "2020-03-21T06:13:03.217Z",
    "id": "h9UqxYZ5xC4JZrmdDz0q",
    "sick": 62
  },
  {
    "recovered": 5,
    "latitude": 28.7041,
    "longitude": 77.1025,
    "name": "Delhi",
    "country": "IN",
    "dead": 1,
    "lastUpdated": "2020-03-21T06:19:03.655Z",
    "id": "hqwsh1rmvkWI3LFUVuMk",
    "infected": 26,
    "sick": 20
  },
  {
    "recovered": 98,
    "latitude": 35.751835,
    "longitude": 104.28611,
    "name": "Gansu",
    "country": "CN",
    "dead": 2,
    "lastUpdated": "2020-03-21T02:31:42.379Z",
    "id": "iGkTscdD0XyHFSP23Qrp",
    "infected": 134,
    "sick": 34
  },
  {
    "id": "idymmgoqLHImnBdyC7r7",
    "infected": 40,
    "recovered": 3,
    "latitude": 10.8505,
    "longitude": 76.2711,
    "name": "Kerala",
    "country": "IN",
    "dead": 0,
    "lastUpdated": "2020-03-21T06:19:03.635Z",
    "sick": 37
  },
  {
    "longitude": 133.7751,
    "name": "Unknown state",
    "country": "AU",
    "dead": 0,
    "lastUpdated": "2020-03-19T02:03:51.485Z",
    "id": "iwcBlwhnL6MDiXogzf8g",
    "infected": 0,
    "recovered": 23,
    "latitude": -25.2744,
    "sick": 0
  },
  {
    "recovered": 0,
    "latitude": 16.265,
    "longitude": -61.551,
    "name": "Guadeloupe",
    "country": "FR",
    "dead": 1,
    "lastUpdated": "2020-03-21T06:19:09.549Z",
    "id": "j8eMjjqNAqHAJhAKdBYN",
    "infected": 51,
    "sick": 50
  },
  {
    "longitude": 7.309,
    "name": "Rheinland-Pfalz",
    "country": "DE",
    "dead": 2,
    "lastUpdated": "2020-03-21T06:12:02.642Z",
    "id": "jKn2pIFlIBScjb47GjRX",
    "infected": 890,
    "recovered": 1,
    "latitude": 50.1183,
    "sick": 887
  },
  {
    "infected": 137,
    "recovered": 133,
    "latitude": 39.343357,
    "longitude": 117.361649,
    "name": "Tianjin",
    "country": "CN",
    "dead": 3,
    "lastUpdated": "2020-03-21T02:32:27.255Z",
    "id": "jMlHjIOb7eMPSxFBrmG1",
    "sick": 1
  },
  {
    "dead": 2,
    "lastUpdated": "2020-03-21T06:12:01.697Z",
    "id": "jPC0eOG50FWknCDe3K6P",
    "infected": 29,
    "recovered": 0,
    "latitude": 44.5588,
    "longitude": -72.5778,
    "name": "Vermont",
    "country": "US",
    "sick": 27
  },
  {
    "longitude": -6.2603,
    "name": "Ireland",
    "country": "IE",
    "dead": 3,
    "lastUpdated": "2020-03-21T06:13:03.193Z",
    "id": "jpVXEDCyfyq26gPoCtHL",
    "infected": 683,
    "recovered": 5,
    "latitude": 53.3498,
    "sick": 675
  },
  {
    "recovered": 0,
    "latitude": 11.572076,
    "longitude": 43.145645,
    "name": "Djibouti",
    "country": "DJ",
    "dead": 0,
    "lastUpdated": "2020-03-21T06:13:03.621Z",
    "id": "l4nYeaqwy2yrEVqnijFj",
    "infected": 1,
    "sick": 1
  },
  {
    "latitude": 44.0682,
    "longitude": -114.742,
    "name": "Idaho",
    "country": "US",
    "dead": 0,
    "lastUpdated": "2020-03-21T06:12:01.627Z",
    "id": "l7fHSKOmcaRX3tq9FCT6",
    "infected": 36,
    "recovered": 0,
    "sick": 36
  },
  {
    "latitude": 10.6918,
    "longitude": -61.2225,
    "name": "Trinidad and Tobago",
    "country": "TT",
    "dead": 0,
    "lastUpdated": "2020-03-21T06:13:03.752Z",
    "id": "lfLdfRP7hyiA6MVnQqqn",
    "infected": 9,
    "recovered": 0,
    "sick": 9
  },
  {
    "longitude": -23.0418,
    "name": "Cape Verde",
    "country": "CV",
    "dead": 0,
    "lastUpdated": "2020-03-21T02:28:15.297Z",
    "id": "lgqPuia1S3ApA5Lsl2la",
    "infected": 1,
    "recovered": 0,
    "latitude": 16.5388,
    "sick": 1
  },
  {
    "recovered": 73,
    "latitude": 42.524635,
    "longitude": 87.539589,
    "name": "Xinjiang",
    "country": "CN",
    "dead": 3,
    "lastUpdated": "2020-03-21T02:33:57.217Z",
    "id": "lhPjpn6CzqTRDN0RW8uE",
    "infected": 76,
    "sick": 0
  },
  {
    "infected": 13,
    "recovered": 2,
    "latitude": 3.2028,
    "longitude": 73.2207,
    "name": "Maldives",
    "country": "MV",
    "dead": 0,
    "lastUpdated": "2020-03-21T06:13:03.736Z",
    "id": "m45gI2UbWMuTrOnTtp9k",
    "sick": 11
  },
  {
    "infected": 1,
    "recovered": 0,
    "latitude": 41.9029,
    "longitude": 12.4534,
    "name": "Vatican City",
    "country": "VA",
    "dead": 0,
    "lastUpdated": "2020-03-21T06:13:03.740Z",
    "id": "mF7rVMdVnazAuw8G22xs",
    "sick": 1
  },
  {
    "infected": 52,
    "recovered": 0,
    "latitude": 19.7515,
    "longitude": 75.7139,
    "name": "Maharashtra",
    "country": "IN",
    "dead": 1,
    "lastUpdated": "2020-03-21T06:19:03.652Z",
    "id": "mJtdLs4ub6CkcAOeMWUm",
    "sick": 51
  },
  {
    "dead": 0,
    "lastUpdated": "2020-03-21T06:13:03.293Z",
    "id": "mSACWVbCy5QE7ciLA93J",
    "infected": 434,
    "recovered": 6,
    "latitude": -33.4489,
    "longitude": -70.6693,
    "name": "Chile",
    "country": "CL",
    "sick": 428
  },
  {
    "infected": 6,
    "recovered": 0,
    "latitude": -6.369,
    "longitude": 34.8888,
    "name": "Tanzania",
    "country": "TZ",
    "dead": 0,
    "lastUpdated": "2020-03-21T06:13:03.630Z",
    "id": "mnew3ojzmWV0dWSPfCQ9",
    "sick": 6
  },
  {
    "infected": 264,
    "recovered": 0,
    "latitude": 35.693323,
    "longitude": -86.605748,
    "name": "Tennessee",
    "country": "US",
    "dead": 0,
    "lastUpdated": "2020-03-21T02:51:19.662Z",
    "id": "nLhJXE2apq8yNNj363ai",
    "sick": 264
  },
  {
    "infected": 7,
    "recovered": 0,
    "latitude": -4.6796,
    "longitude": 55.492,
    "name": "Seychelles",
    "country": "SC",
    "dead": 0,
    "lastUpdated": "2020-03-21T06:13:03.642Z",
    "id": "oB5fSyjWJ0FbNAkssuci",
    "sick": 7
  },
  {
    "latitude": 31.893778,
    "longitude": -6.196132,
    "name": "Morocco",
    "country": "MA",
    "dead": 3,
    "lastUpdated": "2020-03-21T06:13:03.209Z",
    "id": "oJ5vSDE9vgXC2PG8LElp",
    "infected": 86,
    "recovered": 2,
    "sick": 81
  },
  {
    "id": "ofWLu9EuQoK2nHjwU1mA",
    "infected": 759,
    "recovered": 0,
    "latitude": 50.4801,
    "longitude": 2.7937,
    "name": "Hauts-de-France",
    "country": "FR",
    "dead": 46,
    "lastUpdated": "2020-03-21T06:19:09.547Z",
    "sick": 713
  },
  {
    "latitude": -20.917574,
    "longitude": 142.702789,
    "name": "Queensland",
    "country": "AU",
    "dead": 0,
    "lastUpdated": "2020-03-21T06:10:09.700Z",
    "id": "oxz2l1rJipCsfMfy8Mmk",
    "infected": 184,
    "recovered": 8,
    "sick": 176
  },
  {
    "longitude": 128.738235,
    "name": "Heilongjiang",
    "country": "CN",
    "dead": 13,
    "lastUpdated": "2020-03-21T02:32:19.454Z",
    "id": "p1aZboN4BtRJe7hPl8cw",
    "infected": 484,
    "recovered": 463,
    "latitude": 47.121647,
    "sick": 8
  },
  {
    "latitude": 32.026379,
    "longitude": 117.252747,
    "name": "Anhui",
    "country": "CN",
    "dead": 6,
    "lastUpdated": "2020-03-21T02:29:45.410Z",
    "id": "pFhBwPnGGpQ6DLppJ6YS",
    "infected": 990,
    "recovered": 984,
    "sick": 0
  },
  {
    "dead": 0,
    "lastUpdated": "2020-03-21T06:13:03.656Z",
    "id": "pHrUAOBW5WDdMsVWpEEi",
    "infected": 1,
    "recovered": 0,
    "latitude": 2.046934,
    "longitude": 45.318161,
    "name": "Somalia",
    "country": "SO",
    "sick": 1
  },
  {
    "id": "pu6AXEsDnpmmqnhajobN",
    "infected": 1,
    "recovered": 0,
    "latitude": 21.2787,
    "longitude": 81.8661,
    "name": "Chhattisgarh",
    "country": "IN",
    "dead": 0,
    "lastUpdated": "2020-03-21T06:19:03.685Z",
    "sick": 1
  },
  {
    "recovered": 0,
    "latitude": 38.9072,
    "longitude": -77.0369,
    "name": "Washington, D.C.",
    "country": "US",
    "dead": 1,
    "lastUpdated": "2020-03-21T06:12:01.839Z",
    "id": "q5cfvHprVTraL1yXnhDx",
    "infected": 77,
    "sick": 76
  },
  {
    "latitude": -26.190439,
    "longitude": 123.325947,
    "name": "Western Australia",
    "country": "AU",
    "dead": 1,
    "lastUpdated": "2020-03-21T06:10:09.686Z",
    "id": "qnQ0dkxAxnDP01YpdZgk",
    "infected": 64,
    "recovered": 0,
    "sick": 63
  },
  {
    "id": "qpAxVz0garcS0gNZxtOw",
    "infected": 2257,
    "recovered": 204,
    "latitude": 50.503887,
    "longitude": 4.469936,
    "name": "Belgium",
    "country": "BE",
    "dead": 37,
    "lastUpdated": "2020-03-21T06:13:03.206Z",
    "sick": 2016
  },
  {
    "latitude": 39,
    "longitude": -80.5,
    "name": "West Virginia",
    "country": "US",
    "dead": 0,
    "lastUpdated": "2020-03-21T06:12:01.801Z",
    "id": "qrYN2o4c4gAK3ffF5JIw",
    "infected": 8,
    "recovered": 0,
    "sick": 8
  },
  {
    "latitude": 31,
    "longitude": -100,
    "name": "Texas",
    "country": "US",
    "dead": 5,
    "lastUpdated": "2020-03-21T06:12:01.796Z",
    "id": "qsrWiq0qCmIG66hpWojP",
    "infected": 429,
    "recovered": 0,
    "sick": 424
  },
  {
    "infected": 826,
    "recovered": 1,
    "latitude": 43.9352,
    "longitude": 6.0679,
    "name": "Provence-Alpes-Côte d’Azur",
    "country": "FR",
    "dead": 7,
    "lastUpdated": "2020-03-21T06:19:09.545Z",
    "id": "qyX9xXEuKg3co8yKe3Fl",
    "sick": 818
  },
  {
    "latitude": 30.9843,
    "longitude": -91.9623,
    "name": "Louisiana",
    "country": "US",
    "dead": 14,
    "lastUpdated": "2020-03-21T00:12:02.537Z",
    "id": "qzuktS0qQVU4PEookjss",
    "infected": 538,
    "recovered": 0,
    "sick": 524
  },
  {
    "recovered": 1,
    "latitude": 12.5211,
    "longitude": -69.9683,
    "name": "Aruba",
    "country": "AW",
    "dead": 0,
    "lastUpdated": "2020-03-21T06:13:03.634Z",
    "id": "rKbrli0DkAmp1UpbrqHQ",
    "infected": 5,
    "sick": 4
  },
  {
    "latitude": 14.058324,
    "longitude": 108.277199,
    "name": "Vietnam",
    "country": "VN",
    "dead": 0,
    "lastUpdated": "2020-03-21T06:13:03.237Z",
    "id": "rKnSEyG03ak4YmGzonlg",
    "infected": 91,
    "recovered": 17,
    "sick": 74
  },
  {
    "recovered": 0,
    "latitude": 1.6508009,
    "longitude": 10.2678947,
    "name": "Equatorial Guinea",
    "country": "GQ",
    "dead": 0,
    "lastUpdated": "2020-03-21T06:13:03.684Z",
    "id": "rS04qvFoAknfeZsL2w5f",
    "infected": 6,
    "sick": 6
  },
  {
    "longitude": 45.1662,
    "name": "Mayotte",
    "country": "FR",
    "dead": 0,
    "lastUpdated": "2020-03-21T06:19:09.474Z",
    "id": "rUQ6Z3pmWTPVlqEUSmN7",
    "infected": 7,
    "recovered": 0,
    "latitude": -12.8275,
    "sick": 7
  },
  {
    "recovered": 1219,
    "latitude": 29.159849,
    "longitude": 120.326447,
    "name": "Zhejiang",
    "country": "CN",
    "dead": 1,
    "lastUpdated": "2020-03-21T02:31:24.056Z",
    "id": "rgBVJ4hPofqjjchnroiY",
    "infected": 1234,
    "sick": 14
  },
  {
    "latitude": 60.472023,
    "longitude": 8.468946,
    "name": "Norway",
    "country": "NO",
    "dead": 7,
    "lastUpdated": "2020-03-21T06:13:03.340Z",
    "id": "rxSafpWsyKhfkV0HTtb4",
    "infected": 1964,
    "recovered": 1,
    "sick": 1956
  },
  {
    "id": "sBFMOzZJdrdXdyLZpweO",
    "infected": 195,
    "recovered": 0,
    "latitude": 53.9333,
    "longitude": -116.5765,
    "name": "Alberta",
    "country": "CA",
    "dead": 1,
    "lastUpdated": "2020-03-21T06:12:01.749Z",
    "sick": 194
  },
  {
    "id": "sKNhMvgXeyivpNFg02RA",
    "infected": 168,
    "recovered": 161,
    "latitude": 19.566395,
    "longitude": 109.949684,
    "name": "Hainan",
    "country": "CN",
    "dead": 6,
    "lastUpdated": "2020-03-21T02:32:02.502Z",
    "sick": 1
  },
  {
    "infected": 263,
    "recovered": 1,
    "latitude": -10.33755,
    "longitude": -75.630295,
    "name": "Peru",
    "country": "PE",
    "dead": 4,
    "lastUpdated": "2020-03-21T06:13:03.216Z",
    "id": "sLL1jETcJYjT6g5bfcEG",
    "sick": 258
  },
  {
    "latitude": 37.89566,
    "longitude": 114.904221,
    "name": "Hebei",
    "country": "CN",
    "dead": 6,
    "lastUpdated": "2020-03-21T02:32:38.824Z",
    "id": "sgsBhTwHxF1VVnqXbXXp",
    "infected": 318,
    "recovered": 310,
    "sick": 2
  },
  {
    "infected": 44,
    "recovered": 1,
    "latitude": 42.3154,
    "longitude": 43.3569,
    "name": "Georgia",
    "country": "GE",
    "dead": 0,
    "lastUpdated": "2020-03-21T06:13:03.197Z",
    "id": "sjW9OwjFqrOvjVHRXWoR",
    "sick": 43
  },
  {
    "dead": 0,
    "lastUpdated": "2020-03-21T06:13:03.278Z",
    "id": "t2fq7L9UcXfhuXfQNVRj",
    "infected": 18,
    "recovered": 0,
    "latitude": -23.4425,
    "longitude": -58.4438,
    "name": "Paraguay",
    "country": "PY",
    "sick": 18
  },
  {
    "longitude": -111.596466,
    "name": "Utah",
    "country": "US",
    "dead": 0,
    "lastUpdated": "2020-03-21T06:12:01.756Z",
    "id": "tSmr8vNsiDhhpXMSBsms",
    "infected": 112,
    "recovered": 0,
    "latitude": 39.147061,
    "sick": 112
  },
  {
    "dead": 4,
    "lastUpdated": "2020-03-21T02:30:16.246Z",
    "id": "tdNRDDrgvBQqqwzdFGh4",
    "infected": 1018,
    "recovered": 1014,
    "latitude": 27.3818,
    "longitude": 111.510681,
    "name": "Hunan",
    "country": "CN",
    "sick": 0
  },
  {
    "infected": 146,
    "recovered": 144,
    "latitude": 26.842964,
    "longitude": 107.290283,
    "name": "Guizhou",
    "country": "CN",
    "dead": 2,
    "lastUpdated": "2020-03-21T02:33:44.047Z",
    "id": "tyY4QSHWG9sXqSO9jm0Y",
    "sick": 0
  },
  {
    "latitude": -20.2067,
    "longitude": 57.6755,
    "name": "Mauritius",
    "country": "MU",
    "dead": 0,
    "lastUpdated": "2020-03-21T06:13:03.644Z",
    "id": "uZg9Xtu4zR5tp12TMpOQ",
    "infected": 12,
    "recovered": 0,
    "sick": 12
  },
  {
    "recovered": 0,
    "latitude": 29.0588,
    "longitude": 76.0856,
    "name": "Haryana",
    "country": "IN",
    "dead": 0,
    "lastUpdated": "2020-03-21T06:19:03.601Z",
    "id": "ubUuY89n0cXVgahI4Ytp",
    "infected": 17,
    "sick": 17
  },
  {
    "id": "uvxN28EpGmRq3K9REtBP",
    "infected": 631,
    "recovered": 631,
    "latitude": 32.93708,
    "longitude": 119.151932,
    "name": "Jiangsu",
    "country": "CN",
    "dead": 0,
    "lastUpdated": "2020-03-21T02:33:12.963Z",
    "sick": 0
  },
  {
    "latitude": 51.9503,
    "longitude": 11.6923,
    "name": "Sachsen-Anhalt",
    "country": "DE",
    "dead": 0,
    "lastUpdated": "2020-03-21T06:12:02.735Z",
    "id": "uxAceZxiizwmo60pyyGn",
    "infected": 217,
    "recovered": 0,
    "sick": 217
  },
  {
    "longitude": 76.5762,
    "name": "Jammu and Kashmir",
    "country": "IN",
    "dead": 0,
    "lastUpdated": "2020-03-21T06:19:03.605Z",
    "id": "v5wfBhxjYTpTMaKko6AW",
    "infected": 4,
    "recovered": 0,
    "latitude": 33.7782,
    "sick": 4
  },
  {
    "infected": 285,
    "recovered": 42,
    "latitude": 26.820553,
    "longitude": 30.802498,
    "name": "Egypt",
    "country": "EG",
    "dead": 8,
    "lastUpdated": "2020-03-21T06:13:03.212Z",
    "id": "v8JcH4FHH7BDpJlNNHjv",
    "sick": 235
  },
  {
    "id": "vCUVQn7RK8pkw5y2rvYN",
    "infected": 1524,
    "recovered": 0,
    "latitude": 47.288374,
    "longitude": -119.928431,
    "name": "Washington",
    "country": "US",
    "dead": 83,
    "lastUpdated": "2020-03-21T06:12:01.638Z",
    "sick": 1441
  },
  {
    "infected": 19,
    "recovered": 2,
    "latitude": 18.1096,
    "longitude": -77.2975,
    "name": "Jamaica",
    "country": "JM",
    "dead": 1,
    "lastUpdated": "2020-03-21T06:13:03.781Z",
    "id": "vMGALmMJbagxGIbLyFfS",
    "sick": 16
  },
  {
    "recovered": 0,
    "latitude": 32.3182,
    "longitude": -86.9023,
    "name": "Alabama",
    "country": "US",
    "dead": 0,
    "lastUpdated": "2020-03-21T06:12:01.790Z",
    "id": "vSMJR4m49MZM15umlC9B",
    "infected": 106,
    "sick": 106
  },
  {
    "latitude": 48.8499,
    "longitude": 2.637,
    "name": "Ile-de-France",
    "country": "FR",
    "dead": 11,
    "lastUpdated": "2020-03-21T06:19:09.554Z",
    "id": "vSwFXxTSLgzsG25zOJUy",
    "infected": 3818,
    "recovered": 5,
    "sick": 3802
  },
  {
    "dead": 0,
    "lastUpdated": "2020-03-21T01:11:14.694Z",
    "id": "vjK6292ALJl5wq8XHw3P",
    "infected": 2,
    "recovered": 0,
    "latitude": 46.5107,
    "longitude": -63.4168,
    "name": "Prince Edward Island",
    "country": "CA",
    "sick": 2
  },
  {
    "latitude": 32.42791,
    "longitude": 53.688046,
    "name": "Iran",
    "country": "IR",
    "dead": 1433,
    "lastUpdated": "2020-03-21T06:13:03.275Z",
    "id": "vkkXVaqUswO5JsMZx0mX",
    "infected": 19644,
    "recovered": 6745,
    "sick": 11466
  },
  {
    "latitude": 53.7609,
    "longitude": -98.8139,
    "name": "Manitoba",
    "country": "CA",
    "dead": 0,
    "lastUpdated": "2020-03-21T06:12:01.815Z",
    "id": "wCnlOr8oX3DlF0otQrFc",
    "infected": 17,
    "recovered": 0,
    "sick": 17
  },
  {
    "longitude": -58.3816,
    "name": "Argentina",
    "country": "AR",
    "dead": 3,
    "lastUpdated": "2020-03-21T06:13:03.182Z",
    "id": "wEl0cjiA6OcZiI9kaSsF",
    "infected": 158,
    "recovered": 3,
    "latitude": -34.6037,
    "sick": 152
  },
  {
    "latitude": 44.3148,
    "longitude": -85.6024,
    "name": "Michigan",
    "country": "US",
    "dead": 3,
    "lastUpdated": "2020-03-21T06:12:01.667Z",
    "id": "wgRwpPMGBaKLAl1xo1C7",
    "infected": 552,
    "recovered": 0,
    "sick": 549
  },
  {
    "infected": 37,
    "recovered": 0,
    "latitude": 21.287261,
    "longitude": -157.838954,
    "name": "Hawaii",
    "country": "US",
    "dead": 0,
    "lastUpdated": "2020-03-21T06:12:01.752Z",
    "id": "wi47s9vKxiMqxfgurj3B",
    "sick": 37
  },
  {
    "longitude": 35.918113,
    "name": "Lebanon",
    "country": "LB",
    "dead": 4,
    "lastUpdated": "2020-03-21T06:13:03.180Z",
    "id": "xFgM48q8JxVPfvQLQDNb",
    "infected": 177,
    "recovered": 4,
    "latitude": 34.08267,
    "sick": 169
  },
  {
    "latitude": 9.081999,
    "longitude": 8.675277,
    "name": "Nigeria",
    "country": "NG",
    "dead": 0,
    "lastUpdated": "2020-03-21T06:13:03.681Z",
    "id": "xHWPTTpNHEwWv6MqfxP5",
    "infected": 12,
    "recovered": 1,
    "sick": 11
  },
  {
    "id": "xQpNodSQfHNHAtG9Onnj",
    "infected": 26,
    "recovered": 0,
    "latitude": 47.5515,
    "longitude": -101.002,
    "name": "North Dakota",
    "country": "US",
    "dead": 0,
    "lastUpdated": "2020-03-21T06:12:01.716Z",
    "sick": 26
  },
  {
    "latitude": 44.5,
    "longitude": -89.5,
    "name": "Wisconsin",
    "country": "US",
    "dead": 3,
    "lastUpdated": "2020-03-21T06:12:01.786Z",
    "id": "xSHgaJlyPxHFWB6hhyng",
    "infected": 210,
    "recovered": 0,
    "sick": 207
  },
  {
    "latitude": 9.145,
    "longitude": 40.4897,
    "name": "Ethiopia",
    "country": "ET",
    "dead": 0,
    "lastUpdated": "2020-03-21T06:13:03.741Z",
    "id": "xY69Nr3VSiZCwD2Qp0SD",
    "infected": 9,
    "recovered": 0,
    "sick": 9
  },
  {
    "latitude": -22.95763,
    "longitude": 18.4904,
    "name": "Namibia",
    "country": "NA",
    "dead": 0,
    "lastUpdated": "2020-03-21T06:13:03.696Z",
    "id": "xtX46kxBlEapOMdD1Emh",
    "infected": 3,
    "recovered": 0,
    "sick": 3
  },
  {
    "id": "y0d3PQgXJXdKsxweTIWv",
    "infected": 127,
    "recovered": 3,
    "latitude": 53.0793,
    "longitude": 8.8017,
    "name": "Bremen",
    "country": "DE",
    "dead": 0,
    "lastUpdated": "2020-03-21T06:12:02.751Z",
    "sick": 124
  },
  {
    "latitude": -17.6797,
    "longitude": -149.4068,
    "name": "Polynésie française",
    "country": "PF",
    "dead": 0,
    "lastUpdated": "2020-03-21T06:13:03.627Z",
    "id": "yOfFKDRrscqcZ85WMRqF",
    "infected": 11,
    "recovered": 0,
    "sick": 11
  },
  {
    "id": "z0KDu61I2qPILneW2Lih",
    "infected": 3,
    "recovered": 0,
    "latitude": 12.1696,
    "longitude": -68.99,
    "name": "Curaçao",
    "country": "CW",
    "dead": 1,
    "lastUpdated": "2020-03-21T06:13:03.772Z",
    "sick": 2
  },
  {
    "latitude": 46.5653,
    "longitude": -66.4619,
    "name": "New Brunswick",
    "country": "CA",
    "dead": 0,
    "lastUpdated": "2020-03-21T06:12:01.842Z",
    "id": "z1Vx0y33oMGoeJSuS8Ui",
    "infected": 11,
    "recovered": 0,
    "sick": 11
  },
  {
    "recovered": 3,
    "latitude": -1.831239,
    "longitude": -78.183403,
    "name": "Ecuador",
    "country": "EC",
    "dead": 7,
    "lastUpdated": "2020-03-21T06:13:03.214Z",
    "id": "zC03Urt1iJJb2Tf6p0jd",
    "infected": 426,
    "sick": 416
  },
  {
    "latitude": 15.870032,
    "longitude": 100.992538,
    "name": "Thailand",
    "country": "TH",
    "dead": 1,
    "lastUpdated": "2020-03-21T06:13:03.295Z",
    "id": "zvdC0u72Bk5YKNaazZFZ",
    "infected": 411,
    "recovered": 42,
    "sick": 368
  },
  {
    "latitude": 44.0165,
    "longitude": 21.0059,
    "name": "Serbia",
    "country": "RS",
    "dead": 1,
    "lastUpdated": "2020-03-21T06:13:03.319Z",
    "id": "zyxFwuiyCJHhRyNEg60C",
    "infected": 135,
    "recovered": 2,
    "sick": 132
  }
]