[
  {
    "id": "0GJcws44NSPsDHAuxJhW",
    "infected": 2231,
    "recovered": 107,
    "latitude": 41.066666,
    "pop": 5827000,
    "longitude": 14.333333,
    "name": "Campania",
    "country": "IT",
    "lastUpdated": "2020-04-01T21:40:10.668Z",
    "dead": 148,
    "sick": 1976
  },
  {
    "lastUpdated": "2020-04-01T21:40:03.418Z",
    "dead": 0,
    "id": "0VG7S6aaK4eSo59fL9JO",
    "infected": 4,
    "recovered": 0,
    "latitude": 20.9517,
    "pop": 45990000,
    "longitude": 85.0985,
    "name": "Odisha",
    "country": "IN",
    "sick": 4
  },
  {
    "latitude": 11.7401,
    "pop": 427246,
    "longitude": 92.6586,
    "name": "Andaman and Nicobar Islands",
    "country": "IN",
    "lastUpdated": "2020-04-01T21:40:03.407Z",
    "dead": 0,
    "id": "0jStOpTUNRaQYJqgmRoK",
    "infected": 10,
    "recovered": 1,
    "sick": 9
  },
  {
    "infected": 835,
    "recovered": 71,
    "latitude": 25.315058,
    "pop": 2639000,
    "longitude": 51.145517,
    "name": "Qatar",
    "country": "QA",
    "lastUpdated": "2020-04-01T21:40:09.873Z",
    "dead": 2,
    "id": "0m4aECS0Z2DGFEr8ldgI",
    "sick": 762
  },
  {
    "infected": 37,
    "recovered": 6,
    "latitude": 22.9868,
    "pop": 90320000,
    "longitude": 87.855,
    "name": "West Bengal",
    "country": "IN",
    "lastUpdated": "2020-04-01T21:40:03.353Z",
    "dead": 3,
    "id": "0n54EMSDJcRoT1QEvw80",
    "sick": 28
  },
  {
    "latitude": 22.9734,
    "pop": 73340000,
    "longitude": 78.6569,
    "name": "Madhya Pradesh",
    "country": "IN",
    "lastUpdated": "2020-04-01T21:40:03.403Z",
    "dead": 3,
    "id": "0s18o5DrDAHjbu5MFcrj",
    "infected": 66,
    "recovered": 0,
    "sick": 63
  },
  {
    "dead": 0,
    "lastUpdated": "2020-04-01T21:40:09.969Z",
    "id": "0tFoopNTs6e4tOoaltu2",
    "infected": 0,
    "recovered": 8805,
    "latitude": 37.0902,
    "longitude": -95.7129,
    "name": "Unknown US state",
    "country": "US",
    "sick": 0
  },
  {
    "latitude": 35.64249,
    "pop": 37330000,
    "longitude": 108.472214,
    "name": "Shaanxi",
    "country": "CN",
    "lastUpdated": "2020-04-01T21:14:05.342Z",
    "dead": 3,
    "id": "0x2HLhr5z5xAtEdO4iZm",
    "infected": 255,
    "recovered": 242,
    "sick": 10
  },
  {
    "longitude": 21.668393,
    "name": "North Macedonia",
    "country": "MK",
    "lastUpdated": "2020-04-01T21:40:09.838Z",
    "dead": 11,
    "id": "19MvIhipqTyYv1H37Upw",
    "infected": 354,
    "recovered": 17,
    "latitude": 41.643351,
    "pop": 2077000,
    "sick": 326
  },
  {
    "lastUpdated": "2020-04-01T21:45:01.746Z",
    "dead": 1,
    "id": "1DOMOmCWDtva46OVSZLv",
    "infected": 175,
    "recovered": 0,
    "latitude": 53.1355,
    "pop": 521542,
    "longitude": -57.6604,
    "name": "Newfoundland and Labrador",
    "country": "CA",
    "sick": 174
  },
  {
    "infected": 18,
    "recovered": 18,
    "latitude": 35.801933,
    "pop": 5627000,
    "longitude": 96.779286,
    "name": "Qinghai",
    "country": "CN",
    "lastUpdated": "2020-04-01T21:14:05.529Z",
    "dead": 0,
    "id": "1Fap7rZu9SIRqf5TG9Dg",
    "sick": 0
  },
  {
    "latitude": 44.9,
    "pop": 4376000,
    "longitude": 8.206944,
    "name": "Piemonte",
    "country": "IT",
    "lastUpdated": "2020-04-01T21:40:10.585Z",
    "dead": 886,
    "id": "1eTSQyfp8RoDPeFrIwun",
    "infected": 9795,
    "recovered": 439,
    "sick": 8470
  },
  {
    "latitude": -14.235004,
    "pop": 209300000,
    "longitude": -51.925282,
    "name": "Brazil",
    "country": "BR",
    "lastUpdated": "2020-04-01T21:40:09.581Z",
    "dead": 240,
    "id": "1f0YoV0vAcexEhpESyZc",
    "infected": 6836,
    "recovered": 127,
    "sick": 6469
  },
  {
    "latitude": 47.4116,
    "pop": 3550000,
    "longitude": 28.3699,
    "name": "Moldova",
    "country": "MD",
    "lastUpdated": "2020-04-01T21:40:09.712Z",
    "dead": 5,
    "id": "1qTPB8X3tyLyIdsb5TN3",
    "infected": 423,
    "recovered": 23,
    "sick": 395
  },
  {
    "lastUpdated": "2020-04-01T21:14:05.537Z",
    "dead": 0,
    "id": "25qIBtsW2nfQj3pwBKg9",
    "infected": 1,
    "recovered": 1,
    "latitude": 30.15336,
    "pop": 3180000,
    "longitude": 88.787865,
    "name": "Tibet",
    "country": "CN",
    "sick": 0
  },
  {
    "longitude": 115.66779,
    "name": "Indonesia",
    "country": "ID",
    "lastUpdated": "2020-04-01T21:40:09.918Z",
    "dead": 157,
    "id": "2KHYUb5t3lwzVVmDjwNX",
    "infected": 1677,
    "recovered": 103,
    "latitude": -1.572184,
    "pop": 264000000,
    "sick": 1417
  },
  {
    "pop": 4191000,
    "longitude": -120.585594,
    "name": "Oregon",
    "country": "US",
    "lastUpdated": "2020-04-01T21:51:13.823Z",
    "dead": 18,
    "id": "2OrsssmGUs4XCzaZzvTv",
    "infected": 692,
    "recovered": 0,
    "latitude": 43.807191,
    "sick": 674
  },
  {
    "infected": 98,
    "recovered": 92,
    "latitude": 43.851921,
    "pop": 27460000,
    "longitude": 126.548103,
    "name": "Jilin",
    "country": "CN",
    "lastUpdated": "2020-04-01T21:14:05.337Z",
    "dead": 1,
    "id": "2jxHvSsxdnom0nPNvOT8",
    "sick": 5
  },
  {
    "infected": 81,
    "recovered": 34,
    "latitude": 36.1408,
    "pop": 34571,
    "longitude": -5.3536,
    "name": "Gibraltar",
    "country": "GI",
    "lastUpdated": "2020-04-01T21:40:09.349Z",
    "dead": 0,
    "id": "2p11BjSAs3wVyymgqBOe",
    "sick": 47
  },
  {
    "pop": 2567000,
    "longitude": 1.6751,
    "name": "Centre-Val de Loire",
    "country": "FR",
    "lastUpdated": "2020-04-01T18:12:55.274Z",
    "dead": 77,
    "id": "2sLNkkHpyaHx7dD3aMDO",
    "infected": 1169,
    "recovered": 138,
    "latitude": 47.7516,
    "sick": 954
  },
  {
    "infected": 1095,
    "recovered": 194,
    "latitude": 42.565044,
    "pop": 884640,
    "longitude": 12.643751,
    "name": "Umbria",
    "country": "IT",
    "lastUpdated": "2020-04-01T21:40:10.626Z",
    "dead": 37,
    "id": "319tiZOMczx1y0DfvOib",
    "sick": 864
  },
  {
    "latitude": 51.1657,
    "longitude": 10.4515,
    "name": "Deutschland",
    "country": "DE",
    "dead": 0,
    "lastUpdated": "2020-03-30T08:07:03.337Z",
    "id": "321X89hv9Zm8QyXGHYjy",
    "infected": 0,
    "recovered": 4700,
    "sick": 0
  },
  {
    "lastUpdated": "2020-04-01T21:40:09.311Z",
    "dead": 0,
    "id": "3IlPjAbP5qVMn1nlgLTJ",
    "infected": 36,
    "recovered": 0,
    "latitude": -13.133896,
    "pop": 17090000,
    "longitude": 27.849332,
    "name": "Zambia",
    "country": "ZM",
    "sick": 36
  },
  {
    "longitude": 19.3958,
    "name": "Montenegro",
    "country": "ME",
    "lastUpdated": "2020-04-01T21:40:09.314Z",
    "dead": 2,
    "id": "3LstMSN5XMYBkxbe5HN7",
    "infected": 123,
    "recovered": 0,
    "latitude": 42.7044,
    "pop": 631219,
    "sick": 121
  },
  {
    "lastUpdated": "2020-04-01T21:42:08.744Z",
    "dead": 0,
    "id": "3OZoQsKrzxZ18EKyfGE6",
    "infected": 84,
    "recovered": 1,
    "latitude": -35.4735,
    "pop": 418440,
    "longitude": 149.0124,
    "name": "Australian Capital Territory",
    "country": "AU",
    "sick": 83
  },
  {
    "latitude": 26.2006,
    "pop": 30940000,
    "longitude": 92.9376,
    "name": "Assam",
    "country": "IN",
    "lastUpdated": "2020-04-01T21:40:03.361Z",
    "dead": 0,
    "id": "3cCbnJCsK7mKlTO08K1o",
    "infected": 1,
    "recovered": 0,
    "sick": 1
  },
  {
    "lastUpdated": "2020-04-01T21:51:13.810Z",
    "dead": 65,
    "id": "3fC3bAyIRUquOQOEnQNe",
    "infected": 2547,
    "recovered": 0,
    "latitude": 40.4173,
    "pop": 11690000,
    "longitude": -82.9071,
    "name": "Ohio",
    "country": "US",
    "sick": 2482
  },
  {
    "lastUpdated": "2020-04-01T21:40:09.516Z",
    "dead": 1,
    "id": "4NnFMekRK2m14IlnZZoj",
    "infected": 6,
    "recovered": 2,
    "latitude": 21.0079,
    "pop": 4420000,
    "longitude": -10.9408,
    "name": "Mauritania",
    "country": "MR",
    "sick": 3
  },
  {
    "lastUpdated": "2020-04-01T21:45:01.748Z",
    "dead": 24,
    "id": "4hfZRUoUgI4a3vrG0GBk",
    "infected": 1013,
    "recovered": 0,
    "latitude": 53.7267,
    "pop": 5071000,
    "longitude": -127.6476,
    "name": "British Columbia",
    "country": "CA",
    "sick": 989
  },
  {
    "longitude": -7.920053,
    "name": "Portugal",
    "country": "PT",
    "lastUpdated": "2020-04-01T21:40:09.797Z",
    "dead": 187,
    "id": "4rQLxUCMmQLpbi6E9tbH",
    "infected": 8251,
    "recovered": 43,
    "latitude": 41.065877,
    "pop": 10290000,
    "sick": 8021
  },
  {
    "lastUpdated": "2020-04-01T21:40:09.981Z",
    "dead": 5,
    "id": "4zqzRm2xHn0CDVOUQJ8p",
    "infected": 359,
    "recovered": 26,
    "latitude": 40.3426,
    "pop": 9898000,
    "longitude": 47.93802,
    "name": "Azerbaijan",
    "country": "AZ",
    "sick": 328
  },
  {
    "lastUpdated": "2020-04-01T21:40:09.529Z",
    "dead": 1,
    "id": "5MHegCUO9L3LiAU7DDey",
    "infected": 21,
    "recovered": 1,
    "latitude": 25.025885,
    "pop": 395361,
    "longitude": -78.035889,
    "name": "Bahamas",
    "country": "BS",
    "sick": 19
  },
  {
    "pop": 7544000,
    "longitude": 146.921097,
    "name": "New South Wales",
    "country": "AU",
    "lastUpdated": "2020-04-01T21:42:08.746Z",
    "dead": 8,
    "id": "5N16a2OXXRpsEFanw0TC",
    "infected": 2182,
    "recovered": 4,
    "latitude": -31.253218,
    "sick": 2170
  },
  {
    "longitude": 165.618042,
    "name": "New Caledonia",
    "country": "NC",
    "lastUpdated": "2020-04-01T21:40:09.465Z",
    "dead": 0,
    "id": "5fg04eyDwFw3kEXnrxez",
    "infected": 16,
    "recovered": 0,
    "latitude": -20.9043045,
    "pop": 280460,
    "sick": 16
  },
  {
    "latitude": 28.394857,
    "pop": 29300000,
    "longitude": 84.124008,
    "name": "Nepal",
    "country": "NP",
    "lastUpdated": "2020-04-01T21:40:09.436Z",
    "dead": 0,
    "id": "5gXZIjRgAvd6xWN1LOv8",
    "infected": 5,
    "recovered": 1,
    "sick": 4
  },
  {
    "infected": 2311,
    "recovered": 50,
    "latitude": 12.879721,
    "pop": 104900000,
    "longitude": 121.774017,
    "name": "Philippines",
    "country": "PH",
    "lastUpdated": "2020-04-01T21:40:09.999Z",
    "dead": 96,
    "id": "5pwmh7aSdGRKqRbnuyc0",
    "sick": 2165
  },
  {
    "infected": 8,
    "recovered": 0,
    "latitude": -17.824858,
    "pop": 14802190,
    "longitude": 31.053028,
    "name": "Zimbabwe",
    "country": "ZW",
    "lastUpdated": "2020-04-01T21:40:08.810Z",
    "dead": 1,
    "id": "5qtR9nx4BLwu1ODTniaY",
    "sick": 7
  },
  {
    "latitude": 55.621011,
    "pop": 2794000,
    "longitude": 23.804991,
    "name": "Lithuania",
    "country": "LT",
    "lastUpdated": "2020-04-01T21:40:09.915Z",
    "dead": 8,
    "id": "694ON7d0mRJDeM1gHBTR",
    "infected": 581,
    "recovered": 7,
    "sick": 566
  },
  {
    "id": "6IcHIIH0zXpY0POmBZTv",
    "infected": 765,
    "recovered": 147,
    "latitude": 22.396427,
    "pop": 7392000,
    "longitude": 114.109497,
    "name": "Hong Kong",
    "country": "HK",
    "lastUpdated": "2020-04-01T21:40:09.707Z",
    "dead": 4,
    "sick": 614
  },
  {
    "lastUpdated": "2020-04-01T21:40:09.476Z",
    "dead": 0,
    "id": "6SlpghTyB6lpMFvx3g9U",
    "infected": 13,
    "recovered": 1,
    "latitude": 9.3077,
    "pop": 11180000,
    "longitude": 2.3158,
    "name": "Benin",
    "country": "BJ",
    "sick": 12
  },
  {
    "id": "6ZHcvMIzVWIaRnc4R3Qp",
    "infected": 44773,
    "recovered": 11415,
    "latitude": 45.6667,
    "pop": 10040000,
    "longitude": 9.5,
    "name": "Lombardia",
    "country": "IT",
    "lastUpdated": "2020-04-01T21:40:10.648Z",
    "dead": 7593,
    "sick": 25765
  },
  {
    "lastUpdated": "2020-04-01T21:40:09.899Z",
    "dead": 15,
    "id": "6ahNiyKDSDAftCctgLH3",
    "infected": 841,
    "recovered": 10,
    "latitude": 46.0569,
    "pop": 2067000,
    "longitude": 14.5058,
    "name": "Slovenia",
    "country": "SI",
    "sick": 816
  },
  {
    "latitude": -0.8037,
    "pop": 2025000,
    "longitude": 11.6094,
    "name": "Gabon",
    "country": "GA",
    "lastUpdated": "2020-04-01T21:40:09.443Z",
    "dead": 1,
    "id": "6pBi38TUgYfFm0bry2uh",
    "infected": 18,
    "recovered": 0,
    "sick": 17
  },
  {
    "lastUpdated": "2020-04-01T21:40:09.287Z",
    "dead": 0,
    "id": "78Ox26bNHDA2Pk2b3Uwn",
    "infected": 6,
    "recovered": 1,
    "latitude": 17.901672,
    "pop": 9131,
    "longitude": -62.818544,
    "name": "Saint-Barthélémy",
    "country": "FR",
    "sick": 5
  },
  {
    "infected": 7,
    "recovered": 0,
    "latitude": 17.0608,
    "pop": 102012,
    "longitude": -61.7964,
    "name": "Antigua and Barbuda",
    "country": "AG",
    "lastUpdated": "2020-04-01T21:40:09.307Z",
    "dead": 0,
    "id": "7hVFcEV7nV0MrQr3LHrl",
    "sick": 7
  },
  {
    "id": "7kCrrlOBE3jN6FtOVNUB",
    "infected": 18501,
    "recovered": 1033,
    "latitude": 48.7904,
    "pop": 13000000,
    "longitude": 11.4979,
    "name": "Bayern",
    "country": "DE",
    "lastUpdated": "2020-04-01T21:38:03.038Z",
    "dead": 256,
    "sick": 17212
  },
  {
    "pop": 9773000,
    "longitude": 19.0402,
    "name": "Hungary",
    "country": "HU",
    "lastUpdated": "2020-04-01T21:40:09.870Z",
    "dead": 20,
    "id": "7rYC2iFB50c55Ihgbs4Q",
    "infected": 525,
    "recovered": 40,
    "latitude": 47.4979,
    "sick": 465
  },
  {
    "pop": 24050000,
    "longitude": 12.3547,
    "name": "Cameroon",
    "country": "CM",
    "lastUpdated": "2020-04-01T21:40:09.938Z",
    "dead": 6,
    "id": "8C0d7WVCjyUGtnc2gUAR",
    "infected": 233,
    "recovered": 10,
    "latitude": 7.3697,
    "sick": 217
  },
  {
    "latitude": -16.2902,
    "pop": 11050000,
    "longitude": -63.5887,
    "name": "Bolivia",
    "country": "BO",
    "lastUpdated": "2020-04-01T21:40:09.408Z",
    "dead": 7,
    "id": "8RihJrXw4NQXPxaRxr1u",
    "infected": 115,
    "recovered": 1,
    "sick": 107
  },
  {
    "latitude": 12.9843,
    "pop": 109897,
    "longitude": -61.2872,
    "name": "St. Vincent Grenadines",
    "country": "VC",
    "lastUpdated": "2020-04-01T21:40:08.480Z",
    "dead": 0,
    "id": "8ZTySQROQejkDAad0qxQ",
    "infected": 1,
    "recovered": 1,
    "sick": 0
  },
  {
    "latitude": 1.352083,
    "pop": 5621000,
    "longitude": 103.819839,
    "name": "Singapore",
    "country": "SG",
    "lastUpdated": "2020-04-01T21:40:09.972Z",
    "dead": 3,
    "id": "8pA3fM4xC2c2wv1b4TnE",
    "infected": 1000,
    "recovered": 245,
    "sick": 752
  },
  {
    "infected": 1308,
    "recovered": 296,
    "latitude": 47.2184,
    "pop": 3787000,
    "longitude": -1.5536,
    "name": "Pays de la Loire",
    "country": "FR",
    "lastUpdated": "2020-04-01T18:20:38.056Z",
    "dead": 82,
    "id": "98hwAoohgWEOQVa3NlM5",
    "sick": 930
  },
  {
    "pop": 40530000,
    "longitude": 30.2176,
    "name": "Sudan",
    "country": "SD",
    "lastUpdated": "2020-04-01T21:40:09.343Z",
    "dead": 2,
    "id": "9DPOkpIqrFy9mR4e9fuv",
    "infected": 7,
    "recovered": 2,
    "latitude": 12.8628,
    "sick": 3
  },
  {
    "infected": 2460,
    "recovered": 252,
    "latitude": 45.943161,
    "pop": 19530000,
    "longitude": 24.966761,
    "name": "Romania",
    "country": "RO",
    "lastUpdated": "2020-04-01T21:40:09.629Z",
    "dead": 92,
    "id": "9QcETqEcM2fTv9zRvx5T",
    "sick": 2116
  },
  {
    "pop": 6218000,
    "longitude": -86.251389,
    "name": "Nicaragua",
    "country": "NI",
    "lastUpdated": "2020-04-01T21:40:09.300Z",
    "dead": 1,
    "id": "9Y5wmCqNCC6ZrenM31uA",
    "infected": 5,
    "recovered": 0,
    "latitude": 12.136389,
    "sick": 4
  },
  {
    "id": "9dIzxqDSVqPyINkHqwGv",
    "infected": 31,
    "recovered": 0,
    "latitude": 17.5706921,
    "pop": 18540000,
    "longitude": -3.996166,
    "name": "Mali",
    "country": "ML",
    "lastUpdated": "2020-04-01T21:40:09.317Z",
    "dead": 3,
    "sick": 28
  },
  {
    "latitude": 61.92411,
    "pop": 5513000,
    "longitude": 25.748152,
    "name": "Finland",
    "country": "FI",
    "lastUpdated": "2020-04-01T21:40:09.704Z",
    "dead": 17,
    "id": "9p6OCdZbUUwBLA60Gk3W",
    "infected": 1446,
    "recovered": 10,
    "sick": 1419
  },
  {
    "infected": 367,
    "recovered": 0,
    "latitude": 43.311643,
    "pop": 1356000,
    "longitude": -71.590315,
    "name": "New Hampshire",
    "country": "US",
    "lastUpdated": "2020-04-01T21:51:13.813Z",
    "dead": 3,
    "id": "A84CwQ52kA46Hr7pn6Bm",
    "sick": 364
  },
  {
    "lastUpdated": "2020-04-01T21:51:13.817Z",
    "dead": 10,
    "id": "AEUWUHS65qvjEslew11c",
    "infected": 566,
    "recovered": 0,
    "latitude": 41.823261,
    "pop": 1057000,
    "longitude": -71.412257,
    "name": "Rhode Island",
    "country": "US",
    "sick": 556
  },
  {
    "lastUpdated": "2020-04-01T18:05:04.618Z",
    "dead": 1732,
    "id": "AJ9jQ0iyKsafsmf5yHAR",
    "infected": 14787,
    "recovered": 1566,
    "latitude": 44.498955,
    "pop": 4453000,
    "longitude": 11.327591,
    "name": "Emilia Romagna",
    "country": "IT",
    "sick": 11489
  },
  {
    "latitude": 49.3964,
    "pop": 990509,
    "longitude": 7.023,
    "name": "Saarland",
    "country": "DE",
    "lastUpdated": "2020-04-01T21:52:02.821Z",
    "dead": 12,
    "id": "AKjFRQGnzuuZQhv5Qwx7",
    "infected": 961,
    "recovered": 61,
    "sick": 888
  },
  {
    "pop": 56171,
    "longitude": -42.6043,
    "name": "Greenland",
    "country": "GL",
    "lastUpdated": "2020-04-01T21:40:08.805Z",
    "dead": 0,
    "id": "APaZzlGCEeuoLBtzTJMe",
    "infected": 10,
    "recovered": 2,
    "latitude": 71.7069,
    "sick": 8
  },
  {
    "latitude": 45.65107,
    "pop": 971395,
    "longitude": -63.582687,
    "name": "Nova Scotia",
    "country": "CA",
    "lastUpdated": "2020-04-01T21:45:01.633Z",
    "dead": 0,
    "id": "AVCpxeh0fuH2WrHWNDYH",
    "infected": 173,
    "recovered": 0,
    "sick": 173
  },
  {
    "latitude": 47.012918,
    "pop": 1062000,
    "longitude": -109.128641,
    "name": "Montana",
    "country": "US",
    "lastUpdated": "2020-04-01T21:51:13.772Z",
    "dead": 5,
    "id": "AcULcZBozObOhwuRKMjJ",
    "infected": 208,
    "recovered": 0,
    "sick": 203
  },
  {
    "lastUpdated": "2020-04-01T21:14:05.333Z",
    "dead": 1,
    "id": "AmBYm5J6E9Cuez1FQjiN",
    "infected": 937,
    "recovered": 935,
    "latitude": 27.285971,
    "pop": 45200000,
    "longitude": 116.01609,
    "name": "Jiangxi",
    "country": "CN",
    "sick": 1
  },
  {
    "infected": 847,
    "recovered": 61,
    "latitude": 28.033886,
    "pop": 41320000,
    "longitude": 1.659626,
    "name": "Algeria",
    "country": "DZ",
    "lastUpdated": "2020-04-01T21:40:09.902Z",
    "dead": 58,
    "id": "AwN0CScPDApcLFgz6e3z",
    "sick": 728
  },
  {
    "lastUpdated": "2020-04-01T21:40:09.883Z",
    "dead": 6,
    "id": "B82Ef45M8cDu4q7VsSHF",
    "infected": 963,
    "recovered": 73,
    "latitude": 45.099998,
    "pop": 4076000,
    "longitude": 15.2,
    "name": "Croatia",
    "country": "HR",
    "sick": 884
  },
  {
    "infected": 74,
    "recovered": 0,
    "latitude": 17.6077881,
    "pop": 23716000,
    "longitude": 8.081666,
    "name": "Niger",
    "country": "NE",
    "lastUpdated": "2020-04-01T21:40:09.428Z",
    "dead": 5,
    "id": "BENubqQInFUJzhpZTsLT",
    "sick": 69
  },
  {
    "id": "BF51mWl51fgEcyBpCSzb",
    "infected": 1986,
    "recovered": 0,
    "latitude": 39.509109,
    "pop": 6043000,
    "longitude": -76.98432,
    "name": "Maryland",
    "country": "US",
    "lastUpdated": "2020-04-01T21:51:13.670Z",
    "dead": 31,
    "sick": 1955
  },
  {
    "latitude": 53.709808,
    "pop": 9508000,
    "longitude": 27.953388,
    "name": "Belarus",
    "country": "BY",
    "lastUpdated": "2020-04-01T21:40:09.281Z",
    "dead": 2,
    "id": "BGg6yVU5VP71B8NXU0oh",
    "infected": 163,
    "recovered": 53,
    "sick": 108
  },
  {
    "latitude": 48.8799,
    "pop": 3319000,
    "longitude": 0.1713,
    "name": "Normandie",
    "country": "FR",
    "lastUpdated": "2020-04-01T18:19:02.123Z",
    "dead": 69,
    "id": "BGtoyzb7y54LVlJ91rbf",
    "infected": 1224,
    "recovered": 201,
    "sick": 954
  },
  {
    "infected": 1413,
    "recovered": 0,
    "latitude": 34.048927,
    "pop": 7172000,
    "longitude": -111.093735,
    "name": "Arizona",
    "country": "US",
    "lastUpdated": "2020-04-01T21:51:13.792Z",
    "dead": 29,
    "id": "BTEESCuD2ZbS1afunR2A",
    "sick": 1384
  },
  {
    "lastUpdated": "2020-04-01T21:51:13.667Z",
    "dead": 1941,
    "id": "C3BCUzV80z9GfiuByIcr",
    "infected": 83948,
    "recovered": 0,
    "latitude": 40.719042,
    "pop": 19540000,
    "longitude": -73.982597,
    "name": "New York",
    "country": "US",
    "sick": 82007
  },
  {
    "infected": 3508,
    "recovered": 61,
    "latitude": 49.731626,
    "pop": 10650000,
    "longitude": 15.359413,
    "name": "Czechia",
    "country": "CZ",
    "lastUpdated": "2020-04-01T21:40:09.808Z",
    "dead": 39,
    "id": "C6S76AggdWVU8G22jFHQ",
    "sick": 3408
  },
  {
    "lastUpdated": "2020-04-01T21:40:09.875Z",
    "dead": 4,
    "id": "C7cj4nwRITs13KnaJrQ2",
    "infected": 569,
    "recovered": 337,
    "latitude": 26.0667,
    "pop": 1493000,
    "longitude": 50.557701,
    "name": "Bahrain",
    "country": "BH",
    "sick": 228
  },
  {
    "id": "CKZCZTPlrcq5fbfUPA9k",
    "infected": 93,
    "recovered": 3,
    "latitude": 27.0238,
    "pop": 68890000,
    "longitude": 74.2179,
    "name": "Rajasthan",
    "country": "IN",
    "lastUpdated": "2020-04-01T21:40:03.393Z",
    "dead": 0,
    "sick": 90
  },
  {
    "latitude": 13.803,
    "pop": 6378000,
    "longitude": -88.9053,
    "name": "El Salvador",
    "country": "SV",
    "lastUpdated": "2020-04-01T21:40:09.520Z",
    "dead": 1,
    "id": "Cgvmtle61ehMvCzRzYx7",
    "infected": 32,
    "recovered": 0,
    "sick": 31
  },
  {
    "lastUpdated": "2020-04-01T21:40:09.610Z",
    "dead": 2352,
    "id": "CrXu6i5Sqx11iwdfHfBs",
    "infected": 29474,
    "recovered": 135,
    "latitude": 52.355518,
    "pop": 66440000,
    "longitude": -1.17432,
    "name": "United Kingdom",
    "country": "GB",
    "sick": 26987
  },
  {
    "infected": 571,
    "recovered": 31,
    "latitude": 40.259003,
    "pop": 2973000,
    "longitude": 44.818474,
    "name": "Armenia",
    "country": "AM",
    "lastUpdated": "2020-04-01T21:40:09.877Z",
    "dead": 4,
    "id": "DCJCtZoBTWQ4mzdDNljD",
    "sick": 536
  },
  {
    "latitude": 22.192039,
    "pop": 622567,
    "longitude": 113.551262,
    "name": "Macao",
    "country": "MO",
    "lastUpdated": "2020-04-01T21:40:09.523Z",
    "dead": 0,
    "id": "DdBt8qsG6A3g92oOR3ow",
    "infected": 41,
    "recovered": 10,
    "sick": 31
  },
  {
    "latitude": 42.962334,
    "pop": 577737,
    "longitude": -107.534868,
    "name": "Wyoming",
    "country": "US",
    "lastUpdated": "2020-04-01T21:51:13.786Z",
    "dead": 0,
    "id": "DrGzziUglmBognCGY7R2",
    "infected": 130,
    "recovered": 0,
    "sick": 130
  },
  {
    "infected": 1415,
    "recovered": 52,
    "latitude": 40.6401,
    "pop": 10740000,
    "longitude": 22.9444,
    "name": "Greece",
    "country": "GR",
    "lastUpdated": "2020-04-01T21:40:10.005Z",
    "dead": 50,
    "id": "Dtr1lap1RpJpXJdXGJiW",
    "sick": 1313
  },
  {
    "infected": 329,
    "recovered": 45,
    "latitude": 25.03841,
    "pop": 23780000,
    "longitude": 121.563698,
    "name": "Taiwan",
    "country": "TW",
    "lastUpdated": "2020-04-01T21:40:09.590Z",
    "dead": 5,
    "id": "EKTfs8e7M6DXzI1HqyyX",
    "sick": 279
  },
  {
    "infected": 375,
    "recovered": 4,
    "latitude": 10.327273,
    "pop": 4906000,
    "longitude": -84.387618,
    "name": "Costa Rica",
    "country": "CR",
    "lastUpdated": "2020-04-01T21:40:09.910Z",
    "dead": 2,
    "id": "EQzJvzVHKjs8kLmK7BMu",
    "sick": 369
  },
  {
    "lastUpdated": "2020-04-01T21:40:03.419Z",
    "dead": 6,
    "id": "ERwk9R9en4m9WbdoMbIg",
    "infected": 82,
    "recovered": 5,
    "latitude": 22.2587,
    "pop": 62700000,
    "longitude": 71.1924,
    "name": "Gujarat",
    "country": "IN",
    "sick": 71
  },
  {
    "pop": 1055000,
    "longitude": 76.7794,
    "name": "Chandigarh",
    "country": "IN",
    "lastUpdated": "2020-04-01T21:40:03.422Z",
    "dead": 0,
    "id": "Esl5UlCVB9s8pmGB5Ofr",
    "infected": 16,
    "recovered": 0,
    "latitude": 30.7333,
    "sick": 16
  },
  {
    "infected": 286,
    "recovered": 0,
    "latitude": 18.200178,
    "pop": 3195000,
    "longitude": -66.664513,
    "name": "Puerto Rico",
    "country": "PR",
    "lastUpdated": "2020-04-01T21:51:13.686Z",
    "dead": 11,
    "id": "F4rPrEVGAIMM5rfPEMv4",
    "sick": 275
  },
  {
    "latitude": 33.93911,
    "pop": 35530000,
    "longitude": 67.709953,
    "name": "Afghanistan",
    "country": "AF",
    "lastUpdated": "2020-04-01T19:55:03.208Z",
    "dead": 4,
    "id": "FCDmlmnIIswd8bQiUjfN",
    "infected": 239,
    "recovered": 5,
    "sick": 230
  },
  {
    "latitude": 29.431585,
    "pop": 30480000,
    "longitude": 106.912254,
    "name": "Chongqing",
    "country": "CN",
    "lastUpdated": "2020-04-01T21:14:05.335Z",
    "dead": 6,
    "id": "FErOU1m4Tj7jIkRam3vF",
    "infected": 579,
    "recovered": 570,
    "sick": 3
  },
  {
    "lastUpdated": "2020-04-01T21:40:09.843Z",
    "dead": 0,
    "id": "FZsUkhxBEgqsPb4eO0PN",
    "infected": 317,
    "recovered": 80,
    "latitude": 29.311661,
    "pop": 4137000,
    "longitude": 47.481766,
    "name": "Kuwait",
    "country": "KW",
    "sick": 237
  },
  {
    "longitude": 78.6569,
    "name": "Tamil Nadu",
    "country": "IN",
    "lastUpdated": "2020-04-01T21:40:03.366Z",
    "dead": 1,
    "id": "FeS45oMNC27pI17F0xEV",
    "infected": 234,
    "recovered": 6,
    "latitude": 11.1271,
    "pop": 67860000,
    "sick": 227
  },
  {
    "infected": 1284,
    "recovered": 9,
    "latitude": 18.947829,
    "pop": 10770000,
    "longitude": -70.430399,
    "name": "Dominican Republic",
    "country": "DO",
    "lastUpdated": "2020-04-01T21:40:09.868Z",
    "dead": 57,
    "id": "FuiVEJvWb0QMCpxJ3563",
    "sick": 1218
  },
  {
    "lastUpdated": "2020-04-01T21:40:03.395Z",
    "dead": 3,
    "id": "FyC551oNwmENxbr9Yght",
    "infected": 96,
    "recovered": 1,
    "latitude": 18.1124,
    "pop": 35190000,
    "longitude": 79.0193,
    "name": "Telengana",
    "country": "IN",
    "sick": 92
  },
  {
    "pop": 5450000,
    "longitude": 19.699,
    "name": "Slovakia",
    "country": "SK",
    "lastUpdated": "2020-04-01T21:40:10.002Z",
    "dead": 1,
    "id": "FzIDXoqWnTI3nUfhPyT2",
    "infected": 400,
    "recovered": 3,
    "latitude": 48.669,
    "sick": 396
  },
  {
    "lastUpdated": "2020-04-01T21:40:09.779Z",
    "dead": 27,
    "id": "GAp7Wb6IMhdgbvEtMza9",
    "infected": 2118,
    "recovered": 94,
    "latitude": 30.37532,
    "pop": 197000000,
    "longitude": 69.345116,
    "name": "Pakistan",
    "country": "PK",
    "sick": 1997
  },
  {
    "lastUpdated": "2020-04-01T21:40:03.401Z",
    "dead": 3,
    "id": "GGru8cG08mANO8XDDUtZ",
    "infected": 42,
    "recovered": 1,
    "latitude": 31.1471,
    "pop": 27980000,
    "longitude": 75.3412,
    "name": "Punjab",
    "country": "IN",
    "sick": 38
  },
  {
    "recovered": 61,
    "latitude": 23.424076,
    "pop": 9400000,
    "longitude": 53.847816,
    "name": "United Arab Emirates",
    "country": "AE",
    "lastUpdated": "2020-04-01T21:40:09.958Z",
    "dead": 8,
    "id": "GHzBIsHy2GiBc5JV2HMs",
    "infected": 814,
    "sick": 745
  },
  {
    "infected": 9399,
    "recovered": 0,
    "latitude": 36.621981,
    "pop": 39560000,
    "longitude": -119.339046,
    "name": "California",
    "country": "US",
    "lastUpdated": "2020-04-01T21:51:13.794Z",
    "dead": 200,
    "id": "Gh46r6vuaY7fbGt3IboN",
    "sick": 9199
  },
  {
    "longitude": -97.145514,
    "name": "Oklahoma",
    "country": "US",
    "lastUpdated": "2020-04-01T21:51:13.731Z",
    "dead": 30,
    "id": "GpF8ULuKOQiFDCUHN44h",
    "infected": 721,
    "recovered": 0,
    "latitude": 35.87189,
    "pop": 3943000,
    "sick": 691
  },
  {
    "recovered": 190,
    "latitude": 46.5,
    "pop": 520891,
    "longitude": 11.35,
    "name": "P.A. Bolzano",
    "country": "IT",
    "lastUpdated": "2020-04-01T21:40:10.654Z",
    "dead": 116,
    "id": "Gzx6GX1qhBm714BkEC6l",
    "infected": 1418,
    "sick": 1112
  },
  {
    "infected": 111,
    "recovered": 74,
    "latitude": 42.83263,
    "pop": 24710000,
    "longitude": 113.750972,
    "name": "Inner Mongolia",
    "country": "CN",
    "lastUpdated": "2020-04-01T21:14:05.527Z",
    "dead": 1,
    "id": "H3JeVigVbo5CSYfZG4WI",
    "sick": 36
  },
  {
    "latitude": 39.74536,
    "pop": 3034000,
    "longitude": -116.724977,
    "name": "Nevada",
    "country": "US",
    "lastUpdated": "2020-04-01T21:51:13.701Z",
    "dead": 31,
    "id": "H3bDg4eV30up4WWrIDAS",
    "infected": 1279,
    "recovered": 0,
    "sick": 1248
  },
  {
    "pop": 64060000,
    "longitude": 75.7139,
    "name": "Karnataka",
    "country": "IN",
    "lastUpdated": "2020-04-01T21:40:03.388Z",
    "dead": 3,
    "id": "HN5mGmxlqlSeFSNeu1K5",
    "infected": 101,
    "recovered": 8,
    "latitude": 15.3173,
    "sick": 90
  },
  {
    "latitude": 27.5142,
    "pop": 807610,
    "longitude": 90.4336,
    "name": "Bhutan",
    "country": "BT",
    "lastUpdated": "2020-04-01T21:40:09.489Z",
    "dead": 0,
    "id": "HRDpwyxpqW9RN0xLFyNu",
    "infected": 4,
    "recovered": 0,
    "sick": 4
  },
  {
    "infected": 181,
    "recovered": 12,
    "latitude": 41.3775,
    "pop": 32390000,
    "longitude": 64.5853,
    "name": "Uzbekistan",
    "country": "UZ",
    "lastUpdated": "2020-04-01T21:40:09.743Z",
    "dead": 2,
    "id": "HRTA10dtrruDEwjJEGMp",
    "sick": 167
  },
  {
    "pop": 2095000,
    "longitude": -105.576255,
    "name": "New Mexico",
    "country": "US",
    "lastUpdated": "2020-04-01T21:51:13.783Z",
    "dead": 5,
    "id": "HSSFomRju0doHhWgW8On",
    "infected": 316,
    "recovered": 0,
    "latitude": 34.138916,
    "sick": 311
  },
  {
    "infected": 446,
    "recovered": 50,
    "latitude": 53.6127,
    "pop": 1635000,
    "longitude": 12.4296,
    "name": "Mecklenburg-Vorpommern",
    "country": "DE",
    "lastUpdated": "2020-04-01T21:38:03.139Z",
    "dead": 3,
    "id": "He1gSS1v50t06i3YrqvB",
    "sick": 393
  },
  {
    "lastUpdated": "2020-04-01T21:40:09.676Z",
    "dead": 29,
    "id": "I4OJ6z9Vjs1byOcbsJrd",
    "infected": 1215,
    "recovered": 35,
    "latitude": 23.634501,
    "pop": 129200000,
    "longitude": -102.552788,
    "name": "Mexico",
    "country": "MX",
    "sick": 1151
  },
  {
    "infected": 1436,
    "recovered": 102,
    "latitude": 42.25,
    "pop": 1315000,
    "longitude": 13.75,
    "name": "Abruzzo",
    "country": "IT",
    "lastUpdated": "2020-04-01T21:40:10.557Z",
    "dead": 123,
    "id": "I9EqrZfbPnkioNU4wZGz",
    "sick": 1211
  },
  {
    "infected": 1501,
    "recovered": 1357,
    "latitude": 23.363855,
    "pop": 113460000,
    "longitude": 113.373448,
    "name": "Guangdong",
    "country": "CN",
    "lastUpdated": "2020-04-01T21:14:05.433Z",
    "dead": 8,
    "id": "IAX0OQLVnUwU7FX0ENF1",
    "sick": 136
  },
  {
    "lastUpdated": "2020-04-01T21:14:05.345Z",
    "dead": 22,
    "id": "IFuMrMvSjoiX5agYvllh",
    "infected": 1276,
    "recovered": 1251,
    "latitude": 33.875408,
    "pop": 94000000,
    "longitude": 113.484016,
    "name": "Henan",
    "country": "CN",
    "sick": 3
  },
  {
    "longitude": -73.0513,
    "name": "Haiti",
    "country": "HT",
    "lastUpdated": "2020-04-01T21:40:09.504Z",
    "dead": 0,
    "id": "InZ38sIqyK7FN7XAOZoX",
    "infected": 16,
    "recovered": 1,
    "latitude": 19.0558,
    "pop": 10980000,
    "sick": 15
  },
  {
    "pop": 10520000,
    "longitude": -83.280125,
    "name": "Georgia (US)",
    "country": "US",
    "lastUpdated": "2020-04-01T18:21:13.990Z",
    "dead": 139,
    "id": "IvQkDJkTAsoIqPRAU25n",
    "infected": 4694,
    "recovered": 0,
    "latitude": 32.528564,
    "sick": 4555
  },
  {
    "recovered": 83,
    "latitude": -42.8285,
    "pop": 4794000,
    "longitude": 172.488081,
    "name": "New Zealand",
    "country": "NZ",
    "lastUpdated": "2020-04-01T21:40:09.856Z",
    "dead": 1,
    "id": "IvVhpOoGpH6JVkGyUhXN",
    "infected": 708,
    "sick": 624
  },
  {
    "infected": 143,
    "recovered": 41,
    "latitude": 6.4238,
    "pop": 31980000,
    "longitude": -66.5897,
    "name": "Venezuela",
    "country": "VE",
    "lastUpdated": "2020-04-01T21:40:09.431Z",
    "dead": 3,
    "id": "J3mZXlfEnnJx4CDZLvRG",
    "sick": 99
  },
  {
    "latitude": 35.1264,
    "pop": 1170000,
    "longitude": 33.4299,
    "name": "Cyprus",
    "country": "CY",
    "lastUpdated": "2020-04-01T21:40:09.833Z",
    "dead": 9,
    "id": "JQByE4l2OA6sGOqIcWrM",
    "infected": 320,
    "recovered": 28,
    "sick": 283
  },
  {
    "latitude": 25.0961,
    "pop": 99020000,
    "longitude": 85.3131,
    "name": "Bihar",
    "country": "IN",
    "lastUpdated": "2020-04-01T21:40:03.397Z",
    "dead": 1,
    "id": "JR7hOGked7CZtIs2nCV5",
    "infected": 23,
    "recovered": 0,
    "sick": 22
  },
  {
    "pop": 16910000,
    "longitude": -90.522713,
    "name": "Guatemala",
    "country": "GT",
    "lastUpdated": "2020-04-01T21:40:09.363Z",
    "dead": 1,
    "id": "JUWE6bG3b5oL7fKQMSvv",
    "infected": 39,
    "recovered": 12,
    "latitude": 14.628434,
    "sick": 26
  },
  {
    "longitude": 6.1296,
    "name": "Luxembourg",
    "country": "LU",
    "lastUpdated": "2020-04-01T21:40:09.607Z",
    "dead": 29,
    "id": "JcFsHSn2WvZ5LJW42ovG",
    "infected": 2319,
    "recovered": 80,
    "latitude": 49.8153,
    "pop": 602005,
    "sick": 2210
  },
  {
    "id": "JrBbirlBKGdWSdcDt7PF",
    "infected": 36,
    "recovered": 10,
    "latitude": 8.6195,
    "pop": 7798000,
    "longitude": 0.8248,
    "name": "Togo",
    "country": "TG",
    "lastUpdated": "2020-04-01T21:40:09.295Z",
    "dead": 2,
    "sick": 24
  },
  {
    "lastUpdated": "2020-04-01T21:40:09.925Z",
    "dead": 10,
    "id": "JzZ8sbqzjutThVjkPKPL",
    "infected": 422,
    "recovered": 20,
    "latitude": 42.7339,
    "pop": 7050000,
    "longitude": 25.4858,
    "name": "Bulgaria",
    "country": "BG",
    "sick": 392
  },
  {
    "infected": 3660,
    "recovered": 555,
    "latitude": 44.5,
    "pop": 1557000,
    "longitude": 8.833,
    "name": "Liguria",
    "country": "IT",
    "lastUpdated": "2020-04-01T21:40:10.674Z",
    "dead": 460,
    "id": "KLXicxFogWnu0dLp4bNK",
    "sick": 2645
  },
  {
    "latitude": 43.4167,
    "pop": 3737000,
    "longitude": 11,
    "name": "Toscana",
    "country": "IT",
    "lastUpdated": "2020-04-01T21:40:10.672Z",
    "dead": 253,
    "id": "KrLrJbpDqqiXgUPGCCW9",
    "infected": 4867,
    "recovered": 182,
    "sick": 4432
  },
  {
    "infected": 146,
    "recovered": 21,
    "latitude": 7.873054,
    "pop": 21440000,
    "longitude": 80.771797,
    "name": "Sri Lanka",
    "country": "LK",
    "lastUpdated": "2020-04-01T21:40:09.500Z",
    "dead": 3,
    "id": "KsWzJO06cf0d6LJ4ZNh9",
    "sick": 122
  },
  {
    "infected": 83,
    "recovered": 1,
    "latitude": 15.9129,
    "pop": 49670000,
    "longitude": 79.74,
    "name": "Andhra Pradesh",
    "country": "IN",
    "lastUpdated": "2020-04-01T17:25:02.284Z",
    "dead": 0,
    "id": "KtQIo2DoqjELtPAlyDVO",
    "sick": 82
  },
  {
    "id": "KwOuGBKSMRlmwftxAvLX",
    "infected": 2777,
    "recovered": 190,
    "latitude": 61.52401,
    "pop": 144500000,
    "longitude": 105.318756,
    "name": "Russia",
    "country": "RU",
    "lastUpdated": "2020-04-01T21:40:09.967Z",
    "dead": 24,
    "sick": 2563
  },
  {
    "latitude": 18.0708,
    "pop": 32125,
    "longitude": -63.0501,
    "name": "Saint-Martin",
    "country": "FR",
    "lastUpdated": "2020-04-01T18:21:12.436Z",
    "dead": 2,
    "id": "LBUtrLDKJiupXjlUNTUe",
    "infected": 21,
    "recovered": 2,
    "sick": 17
  },
  {
    "lastUpdated": "2020-04-01T21:40:09.398Z",
    "dead": 0,
    "id": "LTGEU2E9MFkrCcFhZYVk",
    "infected": 68,
    "recovered": 0,
    "latitude": 47.166,
    "pop": 38557,
    "longitude": 9.5554,
    "name": "Liechtenstein",
    "country": "LI",
    "sick": 68
  },
  {
    "infected": 30,
    "recovered": 0,
    "latitude": 9.9456,
    "pop": 12720000,
    "longitude": -9.6966,
    "name": "Guinea",
    "country": "GN",
    "lastUpdated": "2020-04-01T21:40:09.355Z",
    "dead": 0,
    "id": "LU2QWt5ao8IJa8evNYVV",
    "sick": 30
  },
  {
    "lastUpdated": "2020-04-01T21:40:09.479Z",
    "dead": 0,
    "id": "LglKINHyQpYpFxjckbQ6",
    "infected": 10,
    "recovered": 0,
    "latitude": 3.9193051,
    "pop": 563402,
    "longitude": -56.0277824,
    "name": "Suriname",
    "country": "SR",
    "sick": 10
  },
  {
    "infected": 193,
    "recovered": 0,
    "latitude": 52.9399,
    "pop": 1174000,
    "longitude": -106.4509,
    "name": "Saskatchewan",
    "country": "CA",
    "lastUpdated": "2020-04-01T21:45:01.628Z",
    "dead": 3,
    "id": "LkIDKY0CMAqzbwBHyYCP",
    "sick": 190
  },
  {
    "recovered": 0,
    "latitude": 37.8393,
    "pop": 4468000,
    "longitude": -84.27,
    "name": "Kentucky",
    "country": "US",
    "lastUpdated": "2020-04-01T21:51:13.683Z",
    "dead": 18,
    "id": "MC8MXFw9iXYybnF8v7e6",
    "infected": 632,
    "sick": 614
  },
  {
    "pop": 6692000,
    "longitude": -86.1349,
    "name": "Indiana",
    "country": "US",
    "lastUpdated": "2020-04-01T21:51:13.801Z",
    "dead": 65,
    "id": "MOxDkmQ4wBi1CuAdVxDE",
    "infected": 2565,
    "recovered": 0,
    "latitude": 40.2672,
    "sick": 2500
  },
  {
    "infected": 190,
    "recovered": 9,
    "latitude": 7.54,
    "pop": 24290000,
    "longitude": -5.5471,
    "name": "Ivory Coast",
    "country": "CI",
    "lastUpdated": "2020-04-01T21:40:09.853Z",
    "dead": 1,
    "id": "MdQOfc1gNh2DOqwSP6UV",
    "sick": 180
  },
  {
    "infected": 16531,
    "recovered": 4385,
    "latitude": 51.4332,
    "pop": 17910000,
    "longitude": 7.6616,
    "name": "Nordrhein-Westfalen",
    "country": "DE",
    "lastUpdated": "2020-04-01T21:38:03.035Z",
    "dead": 182,
    "id": "MjpYq3zQyAvSQlVVYjD2",
    "sick": 11964
  },
  {
    "infected": 75,
    "recovered": 75,
    "latitude": 37.330509,
    "pop": 6301000,
    "longitude": 105.977203,
    "name": "Ningxia",
    "country": "CN",
    "lastUpdated": "2020-04-01T21:14:05.330Z",
    "dead": 0,
    "id": "MntmjjuHljarCdt6aIeE",
    "sick": 0
  },
  {
    "latitude": 48.6616,
    "pop": 11020000,
    "longitude": 9.3501,
    "name": "Baden-Württemberg",
    "country": "DE",
    "lastUpdated": "2020-04-01T21:38:03.245Z",
    "dead": 250,
    "id": "N3XsRBwJSsNclkEf7Zz5",
    "infected": 16076,
    "recovered": 1779,
    "sick": 14047
  },
  {
    "latitude": 44.696652,
    "pop": 3507000,
    "longitude": 17.824332,
    "name": "Bosnia and Herzegovina",
    "country": "BA",
    "lastUpdated": "2020-04-01T21:40:09.887Z",
    "dead": 13,
    "id": "N7c13sCQF0G789XAVazJ",
    "infected": 459,
    "recovered": 19,
    "sick": 427
  },
  {
    "latitude": 37.242565,
    "pop": 36500000,
    "longitude": 111.856857,
    "name": "Shanxi",
    "country": "CN",
    "lastUpdated": "2020-04-01T21:14:05.625Z",
    "dead": 0,
    "id": "NBRIGIRrJB1Ry8prDNAC",
    "infected": 137,
    "recovered": 133,
    "sick": 4
  },
  {
    "latitude": 35.7596,
    "pop": 10380000,
    "longitude": -79.0193,
    "name": "North Carolina",
    "country": "US",
    "lastUpdated": "2020-04-01T21:51:13.729Z",
    "dead": 14,
    "id": "NC64Qp5kTqAfiTuR27k8",
    "infected": 1673,
    "recovered": 0,
    "sick": 1659
  },
  {
    "id": "NJjo2gfBvnbK4xatrsUz",
    "infected": 1107,
    "recovered": 126,
    "latitude": 52.4125,
    "pop": 2504000,
    "longitude": 12.5316,
    "name": "Brandenburg",
    "country": "DE",
    "lastUpdated": "2020-04-01T21:38:03.134Z",
    "dead": 8,
    "sick": 973
  },
  {
    "latitude": 30.0668,
    "pop": 10080000,
    "longitude": 79.0193,
    "name": "Uttarakhand",
    "country": "IN",
    "lastUpdated": "2020-04-01T21:40:03.428Z",
    "dead": 0,
    "id": "NMeZEcGToxXfpi16PfFV",
    "infected": 7,
    "recovered": 2,
    "sick": 5
  },
  {
    "latitude": 50.6521,
    "pop": 6243000,
    "longitude": 9.1624,
    "name": "Hessen",
    "country": "DE",
    "lastUpdated": "2020-04-01T21:38:03.053Z",
    "dead": 29,
    "id": "Nk5vPgUIXsWVfbWZf15O",
    "infected": 3758,
    "recovered": 431,
    "sick": 3298
  },
  {
    "lastUpdated": "2020-04-01T21:40:09.941Z",
    "dead": 0,
    "id": "NmmMKy0YqA8StHdGzB5N",
    "infected": 446,
    "recovered": 1,
    "latitude": 56.96776,
    "pop": 1920000,
    "longitude": 25.837107,
    "name": "Latvia",
    "country": "LV",
    "sick": 445
  },
  {
    "recovered": 0,
    "latitude": 6.4281,
    "pop": 4732000,
    "longitude": -9.4295,
    "name": "Liberia",
    "country": "LR",
    "lastUpdated": "2020-04-01T21:40:09.406Z",
    "dead": 0,
    "id": "O4g88K49HKEZLFXm5gxb",
    "infected": 6,
    "sick": 6
  },
  {
    "longitude": -80.525613,
    "name": "South Carolina",
    "country": "US",
    "lastUpdated": "2020-04-01T21:51:13.723Z",
    "dead": 26,
    "id": "ONU4CK8QjViFHKg2w5if",
    "infected": 1083,
    "recovered": 0,
    "latitude": 34.003307,
    "pop": 5084000,
    "sick": 1057
  },
  {
    "infected": 1073,
    "recovered": 0,
    "latitude": 33.51822,
    "pop": 2987000,
    "longitude": -89.582775,
    "name": "Mississippi",
    "country": "US",
    "lastUpdated": "2020-04-01T21:51:13.811Z",
    "dead": 22,
    "id": "OYa0jFzdbAgo8zUsRv6q",
    "sick": 1051
  },
  {
    "infected": 303,
    "recovered": 0,
    "latitude": 45.2538,
    "pop": 1338000,
    "longitude": -69.4455,
    "name": "Maine",
    "country": "US",
    "lastUpdated": "2020-04-01T21:51:13.831Z",
    "dead": 5,
    "id": "OcXNp9kNVSwrRlG3bNVN",
    "sick": 298
  },
  {
    "id": "OnOseaqWdnuP18oruABW",
    "infected": 68,
    "recovered": 3,
    "latitude": -41.915264,
    "pop": 515000,
    "longitude": 146.725256,
    "name": "Tasmania",
    "country": "AU",
    "lastUpdated": "2020-04-01T21:42:08.740Z",
    "dead": 0,
    "sick": 65
  },
  {
    "infected": 22,
    "recovered": 0,
    "latitude": 19.3133,
    "pop": 61559,
    "longitude": -81.2546,
    "name": "Cayman Islands",
    "country": "KY",
    "lastUpdated": "2020-04-01T21:40:09.487Z",
    "dead": 1,
    "id": "P4mwRFLbrvT0t75uD8Wo",
    "sick": 21
  },
  {
    "lastUpdated": "2020-04-01T21:40:09.493Z",
    "dead": 0,
    "id": "PEDkeFMTOZpvHiSVxBk7",
    "infected": 5,
    "recovered": 0,
    "latitude": 16.7424984,
    "pop": 5900,
    "longitude": -62.1873665,
    "name": "Montserrat",
    "country": "MS",
    "sick": 5
  },
  {
    "lastUpdated": "2020-04-01T21:40:09.309Z",
    "dead": 0,
    "id": "PEcgZGEkyhABztt1Ufgc",
    "infected": 82,
    "recovered": 0,
    "latitude": -1.9403,
    "pop": 12210000,
    "longitude": 29.8739,
    "name": "Rwanda",
    "country": "RW",
    "sick": 82
  },
  {
    "latitude": 46.7296,
    "pop": 5611000,
    "longitude": -94.6859,
    "name": "Minnesota",
    "country": "US",
    "lastUpdated": "2020-04-01T21:51:13.725Z",
    "dead": 17,
    "id": "PJvVYosLIhbcRZYnKX1R",
    "infected": 689,
    "recovered": 0,
    "sick": 672
  },
  {
    "latitude": 40.6331,
    "pop": 12740000,
    "longitude": -89.3985,
    "name": "Illinois",
    "country": "US",
    "lastUpdated": "2020-04-01T21:51:13.676Z",
    "dead": 141,
    "id": "PTwQr9ijo0TBBsPH2sdJ",
    "infected": 6980,
    "recovered": 0,
    "sick": 6839
  },
  {
    "latitude": 13.909444,
    "pop": 178844,
    "longitude": -60.978893,
    "name": "Saint Lucia",
    "country": "LC",
    "lastUpdated": "2020-04-01T21:40:09.299Z",
    "dead": 0,
    "id": "PjLqCeFdyzdZNcZxMkK1",
    "infected": 13,
    "recovered": 1,
    "sick": 12
  },
  {
    "latitude": 34.201507,
    "pop": 11530000,
    "longitude": 9.460554,
    "name": "Tunisia",
    "country": "TN",
    "lastUpdated": "2020-04-01T21:40:09.680Z",
    "dead": 12,
    "id": "Pr76V4raf108uSRoEXac",
    "infected": 423,
    "recovered": 5,
    "sick": 406
  },
  {
    "latitude": -26.5225,
    "pop": 1367000,
    "longitude": 31.4659,
    "name": "Eswatini",
    "country": "SZ",
    "lastUpdated": "2020-04-01T21:40:09.506Z",
    "dead": 0,
    "id": "PuQgOd9KWiMzGZXm11sR",
    "infected": 9,
    "recovered": 0,
    "sick": 9
  },
  {
    "longitude": 143.94853,
    "name": "Victoria",
    "country": "AU",
    "lastUpdated": "2020-04-01T21:42:08.738Z",
    "dead": 4,
    "id": "Q18mrGvFWTLX2BU9SqhQ",
    "infected": 968,
    "recovered": 171,
    "latitude": -37.009609,
    "pop": 6359000,
    "sick": 793
  },
  {
    "infected": 1272,
    "recovered": 61,
    "latitude": 54.2194,
    "pop": 2890000,
    "longitude": 9.6961,
    "name": "Schleswig-Holstein",
    "country": "DE",
    "lastUpdated": "2020-04-01T21:38:03.340Z",
    "dead": 11,
    "id": "Q39XkabIYxt15mHINzTa",
    "sick": 1200
  },
  {
    "lastUpdated": "2020-04-01T21:40:09.976Z",
    "dead": 5,
    "id": "QR9go2hQKXjty7JHUYe4",
    "infected": 779,
    "recovered": 33,
    "latitude": 58.595272,
    "pop": 1328000,
    "longitude": 25.013607,
    "name": "Estonia",
    "country": "EE",
    "sick": 741
  },
  {
    "longitude": 143.9555,
    "name": "Papua New Guinea",
    "country": "PG",
    "lastUpdated": "2020-04-01T21:40:08.497Z",
    "dead": 0,
    "id": "QlZrE4nosm5WfdA2aCDg",
    "infected": 1,
    "recovered": 0,
    "latitude": -6.315,
    "pop": 8251000,
    "sick": 1
  },
  {
    "infected": 30,
    "recovered": 0,
    "latitude": 18.3358,
    "pop": 107268,
    "longitude": -64.8963,
    "name": "U.S. Virgin Islands",
    "country": "US",
    "lastUpdated": "2020-04-01T21:51:13.788Z",
    "dead": 0,
    "id": "QqhD3YDMKXojvQY3Yu41",
    "sick": 30
  },
  {
    "infected": 12,
    "recovered": 0,
    "latitude": 15.414999,
    "pop": 71937,
    "longitude": -61.3709755,
    "name": "Dominica",
    "country": "DM",
    "lastUpdated": "2020-04-01T21:40:09.507Z",
    "dead": 0,
    "id": "Qy2qW2ep5wltnYjPJBxh",
    "sick": 12
  },
  {
    "longitude": -80.7821,
    "name": "Panama",
    "country": "PA",
    "lastUpdated": "2020-04-01T21:40:09.948Z",
    "dead": 30,
    "id": "R8YCgephnxTufvcPWMgx",
    "infected": 1181,
    "recovered": 9,
    "latitude": 8.538,
    "pop": 4099000,
    "sick": 1142
  },
  {
    "id": "RA2SE0p2bVhqo0P2hzGY",
    "infected": 172,
    "recovered": 3,
    "latitude": 15.2,
    "pop": 9265000,
    "longitude": -86.2419,
    "name": "Honduras",
    "country": "HN",
    "lastUpdated": "2020-04-01T21:40:09.892Z",
    "dead": 10,
    "sick": 159
  },
  {
    "latitude": 45.633331,
    "pop": 1216000,
    "longitude": 13.8,
    "name": "Friuli Venezia Giulia",
    "country": "IT",
    "lastUpdated": "2020-04-01T21:40:10.623Z",
    "dead": 122,
    "id": "RCrDBCdBNYzgLNr0aB2H",
    "infected": 1685,
    "recovered": 357,
    "sick": 1206
  },
  {
    "longitude": -93.0977,
    "name": "Iowa",
    "country": "US",
    "lastUpdated": "2020-04-01T21:51:13.753Z",
    "dead": 9,
    "id": "RX0KDu1AFrlCsrRso0nb",
    "infected": 549,
    "recovered": 0,
    "latitude": 41.878,
    "pop": 3156000,
    "sick": 540
  },
  {
    "recovered": 1,
    "latitude": 26.3351002,
    "pop": 6846000,
    "longitude": 17.2283306,
    "name": "Libya",
    "country": "LY",
    "lastUpdated": "2020-04-01T19:40:07.508Z",
    "dead": 0,
    "id": "RaJxbzlnRFTuj4B8IbpC",
    "infected": 10,
    "sick": 9
  },
  {
    "latitude": 39.0119,
    "pop": 2912000,
    "longitude": -98.4842,
    "name": "Kansas",
    "country": "US",
    "lastUpdated": "2020-04-01T21:51:13.748Z",
    "dead": 10,
    "id": "Rf4uvBfP3GRDSHdZElRd",
    "infected": 485,
    "recovered": 0,
    "sick": 475
  },
  {
    "infected": 10674,
    "recovered": 1975,
    "latitude": 48.6998,
    "pop": 5518000,
    "longitude": 6.1878,
    "name": "Grand Est",
    "country": "FR",
    "lastUpdated": "2020-04-01T18:14:19.822Z",
    "dead": 1126,
    "id": "RmEgf1xeclWt7XCF9oiR",
    "sick": 7573
  },
  {
    "infected": 2392,
    "recovered": 0,
    "latitude": 51.2538,
    "pop": 14570000,
    "longitude": -85.3232,
    "name": "Ontario",
    "country": "CA",
    "lastUpdated": "2020-04-01T21:45:01.739Z",
    "dead": 37,
    "id": "Rx4TuyMpfGb3S8wYJX0x",
    "sick": 2355
  },
  {
    "infected": 158,
    "recovered": 27,
    "latitude": 14.652027,
    "pop": 376480,
    "longitude": -61.011715,
    "name": "Martinique",
    "country": "FR",
    "lastUpdated": "2020-04-01T18:25:04.124Z",
    "dead": 3,
    "id": "SDdefnq1bc3ZNr7SpEsW",
    "sick": 128
  },
  {
    "recovered": 31,
    "latitude": 7.9465,
    "pop": 28830000,
    "longitude": -1.0232,
    "name": "Ghana",
    "country": "GH",
    "lastUpdated": "2020-04-01T21:40:09.880Z",
    "dead": 5,
    "id": "SG9VWLOV3x2JsTkXmVSz",
    "infected": 195,
    "sick": 159
  },
  {
    "infected": 17768,
    "recovered": 2967,
    "latitude": 46.818188,
    "pop": 8570000,
    "longitude": 8.227512,
    "name": "Switzerland",
    "country": "CH",
    "lastUpdated": "2020-04-01T21:40:09.727Z",
    "dead": 488,
    "id": "SGe9sCPayMqh6RsGFaBA",
    "sick": 14313
  },
  {
    "infected": 4611,
    "recovered": 0,
    "latitude": 46.8139,
    "pop": 8485000,
    "longitude": -71.208,
    "name": "Quebec",
    "country": "CA",
    "lastUpdated": "2020-04-01T21:45:01.545Z",
    "dead": 33,
    "id": "SHoOE3NiJgWAlDVBzwYH",
    "sick": 4578
  },
  {
    "lastUpdated": "2020-04-01T21:44:09.202Z",
    "dead": 1,
    "id": "SMWvuMMuKp2QK7O2tNia",
    "infected": 125,
    "recovered": 10,
    "latitude": 42.6026,
    "pop": 1831000,
    "longitude": 20.903,
    "name": "Kosovo",
    "country": "XK",
    "sick": 114
  },
  {
    "infected": 5,
    "recovered": 0,
    "latitude": 15.2993,
    "pop": 1817000,
    "longitude": 74.124,
    "name": "Goa",
    "country": "IN",
    "lastUpdated": "2020-04-01T21:40:03.364Z",
    "dead": 0,
    "id": "SPcujsH2YlUaoAr8AiWF",
    "sick": 5
  },
  {
    "infected": 669,
    "recovered": 21,
    "latitude": 39,
    "pop": 1957000,
    "longitude": 16.5,
    "name": "Calabria",
    "country": "IT",
    "lastUpdated": "2020-04-01T21:40:10.638Z",
    "dead": 38,
    "id": "SZdF624x0v1LlyzZjKFu",
    "sick": 610
  },
  {
    "latitude": 41.4925,
    "pop": 1929000,
    "longitude": -99.9018,
    "name": "Nebraska",
    "country": "US",
    "lastUpdated": "2020-04-01T21:51:13.780Z",
    "dead": 4,
    "id": "SakhKQzKu1LRI8laqdQq",
    "infected": 210,
    "recovered": 0,
    "sick": 206
  },
  {
    "lastUpdated": "2020-04-01T21:40:09.955Z",
    "dead": 0,
    "id": "SgHzWAAYK1j2sipovxM6",
    "infected": 281,
    "recovered": 40,
    "latitude": -21.1151,
    "pop": 859959,
    "longitude": 55.5364,
    "name": "La Réunion",
    "country": "FR",
    "sick": 241
  },
  {
    "longitude": 104.990967,
    "name": "Cambodia",
    "country": "KH",
    "lastUpdated": "2020-04-01T21:40:09.448Z",
    "dead": 0,
    "id": "SioMALgUbo7peXmbco2f",
    "infected": 109,
    "recovered": 25,
    "latitude": 12.565679,
    "pop": 16010000,
    "sick": 84
  },
  {
    "id": "SsWhuEElU7dCTTuH5fdQ",
    "infected": 77,
    "recovered": 0,
    "latitude": 13.4443,
    "pop": 164229,
    "longitude": 144.7937,
    "name": "Guam",
    "country": "GU",
    "lastUpdated": "2020-04-01T21:51:13.770Z",
    "dead": 3,
    "sick": 74
  },
  {
    "infected": 109,
    "recovered": 3,
    "latitude": -4.0383,
    "pop": 81340000,
    "longitude": 21.7587,
    "name": "DR Congo",
    "country": "CD",
    "lastUpdated": "2020-04-01T21:40:08.788Z",
    "dead": 9,
    "id": "T3iRf8mTUTAzbKrORTap",
    "sick": 97
  },
  {
    "infected": 1720,
    "recovered": 264,
    "latitude": 23.635796,
    "pop": 32940000,
    "longitude": 44.344334,
    "name": "Saudi Arabia",
    "country": "SA",
    "lastUpdated": "2020-04-01T21:40:09.683Z",
    "dead": 16,
    "id": "T7NffoeCgTUpAbOHvYwP",
    "sick": 1440
  },
  {
    "infected": 131,
    "recovered": 52,
    "latitude": 4.506106,
    "pop": 428697,
    "longitude": 114.650692,
    "name": "Brunei",
    "country": "BN",
    "lastUpdated": "2020-04-01T21:40:09.415Z",
    "dead": 1,
    "id": "TQZmzsLhJqjtCSExAkCP",
    "sick": 78
  },
  {
    "latitude": 45.4471,
    "pop": 8027000,
    "longitude": 4.3853,
    "name": "Auvergne-Rhône-Alpes",
    "country": "FR",
    "lastUpdated": "2020-04-01T18:11:36.041Z",
    "dead": 349,
    "id": "TT0MKODSjrxHvG19xZCa",
    "infected": 6006,
    "recovered": 1193,
    "sick": 4464
  },
  {
    "latitude": 39.318928,
    "pop": 5696000,
    "longitude": -105.461392,
    "name": "Colorado",
    "country": "US",
    "lastUpdated": "2020-04-01T21:51:13.822Z",
    "dead": 69,
    "id": "Th4dlpXXmSDgi1OHs36P",
    "infected": 2982,
    "recovered": 0,
    "sick": 2913
  },
  {
    "infected": 282,
    "recovered": 46,
    "latitude": 12.2383,
    "pop": 19190000,
    "longitude": -1.5616,
    "name": "Burkina Faso",
    "country": "BF",
    "lastUpdated": "2020-04-01T21:40:09.860Z",
    "dead": 16,
    "id": "Tup6oDCHj6DgqZR3nQ3x",
    "sick": 220
  },
  {
    "latitude": 12.104818,
    "pop": 112381,
    "longitude": -61.670761,
    "name": "Grenada",
    "country": "GD",
    "lastUpdated": "2020-04-01T21:40:09.467Z",
    "dead": 0,
    "id": "TvqURPN5xzVBXsmGP46N",
    "infected": 9,
    "recovered": 0,
    "sick": 9
  },
  {
    "latitude": 55.675758,
    "pop": 5603000,
    "longitude": 12.56902,
    "name": "Denmark",
    "country": "DK",
    "lastUpdated": "2020-04-01T21:40:09.934Z",
    "dead": 104,
    "id": "Ty1AY3VLPJcRZgdBIERx",
    "infected": 3107,
    "recovered": 894,
    "sick": 2109
  },
  {
    "longitude": 118.769882,
    "name": "Shandong",
    "country": "CN",
    "lastUpdated": "2020-04-01T21:14:05.346Z",
    "dead": 7,
    "id": "U0tkTJ9CGsBuFJ2Gdoum",
    "infected": 774,
    "recovered": 753,
    "latitude": 36.395859,
    "pop": 100472400,
    "sick": 14
  },
  {
    "latitude": 43.94236,
    "pop": 33400,
    "longitude": 12.457777,
    "name": "San Marino",
    "country": "SM",
    "lastUpdated": "2020-04-01T21:40:09.723Z",
    "dead": 26,
    "id": "U12rMD5GDW58Q0lIwrB1",
    "infected": 236,
    "recovered": 13,
    "sick": 197
  },
  {
    "infected": 2178,
    "recovered": 472,
    "latitude": 36.204823,
    "pop": 126800000,
    "longitude": 138.25293,
    "name": "Japan",
    "country": "JP",
    "lastUpdated": "2020-04-01T21:40:09.733Z",
    "dead": 57,
    "id": "U13Gy4BpRLAZ95bPmBXd",
    "sick": 1649
  },
  {
    "recovered": 0,
    "latitude": 1.3733,
    "pop": 42860000,
    "longitude": 32.2903,
    "name": "Uganda",
    "country": "UG",
    "lastUpdated": "2020-04-01T21:40:08.798Z",
    "dead": 0,
    "id": "UCZXEgnHtxUoChWLR6fQ",
    "infected": 44,
    "sick": 44
  },
  {
    "latitude": -11.2027,
    "pop": 29780000,
    "longitude": 17.8739,
    "name": "Angola",
    "country": "AO",
    "lastUpdated": "2020-04-01T21:40:09.371Z",
    "dead": 2,
    "id": "UIbrFy6kiTTF0D37Kqmp",
    "infected": 7,
    "recovered": 1,
    "sick": 4
  },
  {
    "recovered": 202,
    "latitude": 48.202,
    "pop": 3329000,
    "longitude": -2.9326,
    "name": "Bretagne",
    "country": "FR",
    "lastUpdated": "2020-04-01T18:12:19.877Z",
    "dead": 55,
    "id": "URKMlJ7OTNldjpaxFbjE",
    "infected": 836,
    "sick": 579
  },
  {
    "longitude": 9.9937,
    "name": "Hamburg",
    "country": "DE",
    "lastUpdated": "2020-04-01T21:52:02.925Z",
    "dead": 9,
    "id": "UfFaUECHINUutv1M9tzq",
    "infected": 2290,
    "recovered": 750,
    "latitude": 53.5511,
    "pop": 1822000,
    "sick": 1531
  },
  {
    "lastUpdated": "2020-04-01T21:42:08.749Z",
    "dead": 0,
    "id": "UrF45V1VqMo6YBib2KlL",
    "infected": 18,
    "recovered": 0,
    "latitude": -19.4914,
    "pop": 211945,
    "longitude": 132.551,
    "name": "Northern Territory",
    "country": "AU",
    "sick": 18
  },
  {
    "latitude": 18.0424805,
    "pop": 41109,
    "longitude": -63.0548286,
    "name": "Sint Maarten",
    "country": "SX",
    "lastUpdated": "2020-04-01T21:40:09.359Z",
    "dead": 1,
    "id": "UsxgpiuFCtlR2CW1UUFm",
    "infected": 16,
    "recovered": 6,
    "sick": 9
  },
  {
    "infected": 3,
    "recovered": 1,
    "latitude": 11.943179,
    "pop": 241773,
    "longitude": 79.808206,
    "name": "Puducherry",
    "country": "IN",
    "lastUpdated": "2020-04-01T21:40:03.408Z",
    "dead": 0,
    "id": "V1qE740s3EUGyKGr6SVv",
    "sick": 2
  },
  {
    "lastUpdated": "2020-04-01T21:40:09.738Z",
    "dead": 17,
    "id": "VAAmtxtDuCY0o55zRsOh",
    "infected": 1065,
    "recovered": 39,
    "latitude": 3.527606,
    "pop": 49070000,
    "longitude": -72.998674,
    "name": "Colombia",
    "country": "CO",
    "sick": 1009
  },
  {
    "id": "VAG9AcMABTf8oIAfELPh",
    "infected": 212,
    "recovered": 12,
    "latitude": 21.5218,
    "pop": 11480000,
    "longitude": -77.7812,
    "name": "Cuba",
    "country": "CU",
    "lastUpdated": "2020-04-01T21:40:09.736Z",
    "dead": 6,
    "sick": 194
  },
  {
    "id": "VIf8T8PD3ZzlzAm5eBCX",
    "infected": 182,
    "recovered": 172,
    "latitude": 25.181129,
    "pop": 45970000,
    "longitude": 101.864143,
    "name": "Yunnan",
    "country": "CN",
    "lastUpdated": "2020-04-01T21:14:05.539Z",
    "dead": 2,
    "sick": 8
  },
  {
    "latitude": 26.8467,
    "pop": 204200000,
    "longitude": 80.9462,
    "name": "Uttar Pradesh",
    "country": "IN",
    "lastUpdated": "2020-04-01T21:40:03.398Z",
    "dead": 2,
    "id": "VcKcLdCkC6YpPfIDnRVD",
    "infected": 103,
    "recovered": 14,
    "sick": 87
  },
  {
    "latitude": 64.8255,
    "pop": 44826,
    "longitude": -124.8457,
    "name": "Northwest Territories",
    "country": "CA",
    "lastUpdated": "2020-04-01T21:45:01.636Z",
    "dead": 0,
    "id": "Vd3lLgrNsr81plzTgZkz",
    "infected": 1,
    "recovered": 0,
    "sick": 1
  },
  {
    "infected": 2204,
    "recovered": 524,
    "latitude": 43.8927,
    "pop": 5893000,
    "longitude": 3.2828,
    "name": "Occitanie",
    "country": "FR",
    "lastUpdated": "2020-04-01T18:20:21.303Z",
    "dead": 108,
    "id": "WAnbFrEjtZDTCIYBt8rz",
    "sick": 1572
  },
  {
    "latitude": 40.5,
    "pop": 567118,
    "longitude": 16.5,
    "name": "Basilicata",
    "country": "IT",
    "lastUpdated": "2020-04-01T21:40:10.607Z",
    "dead": 9,
    "id": "WD502XimGXnWzqYg7zxL",
    "infected": 237,
    "recovered": 3,
    "sick": 225
  },
  {
    "latitude": 24.6637,
    "pop": 2722000,
    "longitude": 93.9063,
    "name": "Manipur",
    "country": "IN",
    "lastUpdated": "2020-04-01T21:40:03.405Z",
    "dead": 0,
    "id": "WKsJQmcpWKxnp0nCwN77",
    "infected": 1,
    "recovered": 0,
    "sick": 1
  },
  {
    "infected": 1380,
    "recovered": 50,
    "latitude": -30.5595,
    "pop": 56720000,
    "longitude": 22.9375,
    "name": "South Africa",
    "country": "ZA",
    "lastUpdated": "2020-04-01T21:40:09.944Z",
    "dead": 5,
    "id": "Whrue10NtwIObLvFFyBr",
    "sick": 1325
  },
  {
    "pop": 2101000,
    "longitude": -15.3101387,
    "name": "Gambia",
    "country": "GM",
    "lastUpdated": "2020-04-01T21:40:09.544Z",
    "dead": 1,
    "id": "Wk811YwpQxsOCfz8As86",
    "infected": 4,
    "recovered": 2,
    "latitude": 13.443182,
    "sick": 1
  },
  {
    "lastUpdated": "2020-04-01T21:40:09.531Z",
    "dead": 6,
    "id": "WpLayPPLIJ7VcHZdQaoM",
    "infected": 54,
    "recovered": 25,
    "latitude": 23.685,
    "pop": 164700000,
    "longitude": 90.3563,
    "name": "Bangladesh",
    "country": "BD",
    "sick": 23
  },
  {
    "infected": 9625,
    "recovered": 902,
    "latitude": 45.5,
    "pop": 4905000,
    "longitude": 11.75,
    "name": "Veneto",
    "country": "IT",
    "lastUpdated": "2020-04-01T21:40:10.602Z",
    "dead": 499,
    "id": "X2iRhHF6f9pUnJcxPc3J",
    "sick": 8224
  },
  {
    "latitude": -8.556856,
    "pop": 1311000,
    "longitude": 125.56031,
    "name": "Timor-Leste",
    "country": "TL",
    "lastUpdated": "2020-04-01T21:40:09.453Z",
    "dead": 0,
    "id": "X3GMAVINj2GDzIRVfo7n",
    "infected": 1,
    "recovered": 0,
    "sick": 1
  },
  {
    "latitude": 34.152588,
    "pop": 274289,
    "longitude": 77.577049,
    "name": "Ladakh",
    "country": "IN",
    "lastUpdated": "2020-04-01T21:40:03.439Z",
    "dead": 0,
    "id": "X3PZqaJxtnlxcgP4tzya",
    "infected": 13,
    "recovered": 3,
    "sick": 10
  },
  {
    "infected": 345,
    "recovered": 298,
    "latitude": 25.92448,
    "pop": 38560000,
    "longitude": 118.278992,
    "name": "Fujian",
    "country": "CN",
    "lastUpdated": "2020-04-01T21:14:05.427Z",
    "dead": 1,
    "id": "XBBw0iMPrmiEu3qogkbi",
    "sick": 46
  },
  {
    "id": "XrsuLstdybIqIvv0E0aJ",
    "infected": 338,
    "recovered": 41,
    "latitude": -32.5228,
    "pop": 3457000,
    "longitude": -55.7658,
    "name": "Uruguay",
    "country": "UY",
    "lastUpdated": "2020-04-01T21:40:10.022Z",
    "dead": 2,
    "sick": 295
  },
  {
    "latitude": 42.0396,
    "pop": 339178,
    "longitude": 9.0129,
    "name": "Corse",
    "country": "FR",
    "lastUpdated": "2020-04-01T18:13:54.046Z",
    "dead": 21,
    "id": "YGXgIObKVabP2CYEdcb9",
    "infected": 291,
    "recovered": 102,
    "sick": 168
  },
  {
    "recovered": 18,
    "latitude": 31.9522,
    "pop": 5052000,
    "longitude": 35.2332,
    "name": "Palestine",
    "country": "PS",
    "lastUpdated": "2020-04-01T21:40:09.395Z",
    "dead": 1,
    "id": "YMzKw0SnXG71VT7H1jff",
    "infected": 134,
    "sick": 115
  },
  {
    "lastUpdated": "2020-04-01T21:40:09.401Z",
    "dead": 0,
    "id": "YZoy8ReFucvC3IFnWZHn",
    "infected": 9,
    "recovered": 0,
    "latitude": 11.8037491,
    "pop": 1955000,
    "longitude": -15.1804132,
    "name": "Guinea-Bissau",
    "country": "GW",
    "sick": 9
  },
  {
    "infected": 133,
    "recovered": 0,
    "latitude": 64.2008,
    "pop": 737438,
    "longitude": -149.4937,
    "name": "Alaska",
    "country": "US",
    "lastUpdated": "2020-04-01T21:51:13.826Z",
    "dead": 3,
    "id": "YaCODTMD1KKRnrAlkg2u",
    "sick": 130
  },
  {
    "infected": 9887,
    "recovered": 5567,
    "latitude": 37.568291,
    "pop": 51470000,
    "longitude": 126.99778,
    "name": "South Korea",
    "country": "KR",
    "lastUpdated": "2020-04-01T21:40:09.583Z",
    "dead": 165,
    "id": "Yw9uBekNlefXBcOCNMfP",
    "sick": 4155
  },
  {
    "recovered": 0,
    "latitude": 13.193887,
    "pop": 285719,
    "longitude": -59.543198,
    "name": "Barbados",
    "country": "BB",
    "lastUpdated": "2020-04-01T21:40:09.502Z",
    "dead": 0,
    "id": "YzZqZMJGvG6joQCdiuXC",
    "infected": 34,
    "sick": 34
  },
  {
    "id": "ZAZNuCK1VweBaTLCFzCk",
    "infected": 2554,
    "recovered": 7,
    "latitude": 52.2297,
    "pop": 37980000,
    "longitude": 21.0122,
    "name": "Poland",
    "country": "PL",
    "lastUpdated": "2020-04-01T20:25:04.076Z",
    "dead": 43,
    "sick": 2504
  },
  {
    "latitude": -17.713371,
    "pop": 905502,
    "longitude": 178.065033,
    "name": "Fiji",
    "country": "FJ",
    "lastUpdated": "2020-04-01T21:40:09.492Z",
    "dead": 0,
    "id": "ZmzOT0sJgfWXEpRImItC",
    "infected": 5,
    "recovered": 0,
    "sick": 5
  },
  {
    "latitude": 41.6032,
    "pop": 3573000,
    "longitude": -73.0877,
    "name": "Connecticut",
    "country": "US",
    "lastUpdated": "2020-04-01T21:51:13.829Z",
    "dead": 85,
    "id": "Zqy0gftQzocR49jEJNMl",
    "infected": 3557,
    "recovered": 0,
    "sick": 3472
  },
  {
    "infected": 3962,
    "recovered": 29,
    "latitude": 43.616943,
    "pop": 1532000,
    "longitude": 13.516667,
    "name": "Marche",
    "country": "IT",
    "lastUpdated": "2020-04-01T21:40:10.628Z",
    "dead": 477,
    "id": "Zwbjs4XN7P9s849Q3zFj",
    "sick": 3456
  },
  {
    "latitude": 51.011,
    "pop": 2137000,
    "longitude": 10.8453,
    "name": "Thüringen",
    "country": "DE",
    "lastUpdated": "2020-04-01T21:52:02.632Z",
    "dead": 6,
    "id": "a9OgUWo6ZSWA3HyF0xnj",
    "infected": 840,
    "recovered": 129,
    "sick": 705
  },
  {
    "latitude": -30.000233,
    "pop": 1677000,
    "longitude": 136.209152,
    "name": "South Australia",
    "country": "AU",
    "lastUpdated": "2020-04-01T21:42:08.736Z",
    "dead": 0,
    "id": "a9p9pAOsjg1WAjPGc2a6",
    "infected": 367,
    "recovered": 6,
    "sick": 361
  },
  {
    "infected": 1614,
    "recovered": 0,
    "latitude": 37.9643,
    "pop": 6126000,
    "longitude": -91.8318,
    "name": "Missouri",
    "country": "US",
    "lastUpdated": "2020-04-01T21:51:13.735Z",
    "dead": 18,
    "id": "aPubGfQ8ToSEuKJldKRT",
    "sick": 1596
  },
  {
    "id": "aTa8MiBjtH3iY0SRs2HQ",
    "infected": 254,
    "recovered": 250,
    "latitude": 23.64407,
    "pop": 48380000,
    "longitude": 108.26651,
    "name": "Guangxi",
    "country": "CN",
    "lastUpdated": "2020-04-01T21:14:05.327Z",
    "dead": 2,
    "sick": 2
  },
  {
    "longitude": 20.9394,
    "name": "CAR",
    "country": "CF",
    "lastUpdated": "2020-04-01T21:40:09.305Z",
    "dead": 0,
    "id": "adcBUeAYp6ey0ZXCzKNs",
    "infected": 3,
    "recovered": 0,
    "latitude": 6.6111,
    "pop": 4659000,
    "sick": 3
  },
  {
    "recovered": 0,
    "latitude": 37.4316,
    "pop": 8518000,
    "longitude": -78.6569,
    "name": "Virginia",
    "country": "US",
    "lastUpdated": "2020-04-01T21:51:13.819Z",
    "dead": 34,
    "id": "afeZTVC1J1SMMNFxkrcc",
    "infected": 1484,
    "sick": 1450
  },
  {
    "latitude": 39.904202,
    "pop": 21540000,
    "longitude": 116.407394,
    "name": "Beijing",
    "country": "CN",
    "lastUpdated": "2020-04-01T21:14:05.436Z",
    "dead": 8,
    "id": "alj4hkxg9cjrTxOzwFKt",
    "infected": 580,
    "recovered": 418,
    "sick": 154
  },
  {
    "lastUpdated": "2020-04-01T21:40:09.839Z",
    "dead": 52,
    "id": "b7TwXX46FA0EmH1CjHET",
    "infected": 728,
    "recovered": 182,
    "latitude": 33.22319,
    "pop": 38270000,
    "longitude": 43.679291,
    "name": "Iraq",
    "country": "IQ",
    "sick": 494
  },
  {
    "latitude": 14.457474,
    "pop": 15850000,
    "longitude": -14.358636,
    "name": "Senegal",
    "country": "SN",
    "lastUpdated": "2020-04-01T21:40:09.907Z",
    "dead": 1,
    "id": "b9p1JhVml3GGC7iiPmKv",
    "infected": 190,
    "recovered": 45,
    "sick": 144
  },
  {
    "infected": 81,
    "recovered": 3,
    "latitude": -0.0236,
    "pop": 49700000,
    "longitude": 37.9062,
    "name": "Kenya",
    "country": "KE",
    "lastUpdated": "2020-04-01T21:40:09.425Z",
    "dead": 1,
    "id": "bVHiTolbUJGHIeVht3eG",
    "sick": 77
  },
  {
    "latitude": 39.561889,
    "pop": 8909000,
    "longitude": -74.672169,
    "name": "New Jersey",
    "country": "US",
    "lastUpdated": "2020-04-01T21:51:13.679Z",
    "dead": 355,
    "id": "bYp4RRHv19M7lYtSzQeV",
    "infected": 22255,
    "recovered": 0,
    "sick": 21900
  },
  {
    "latitude": 3.139,
    "pop": 31620000,
    "longitude": 101.6869,
    "name": "Malaysia",
    "country": "MY",
    "lastUpdated": "2020-04-01T21:40:09.687Z",
    "dead": 45,
    "id": "bdqD4kpdqGgUaX70Tm2Q",
    "infected": 2908,
    "recovered": 645,
    "sick": 2218
  },
  {
    "lastUpdated": "2020-04-01T21:25:03.587Z",
    "dead": 239,
    "id": "bignnyt2A8BBx8VNo32p",
    "infected": 4947,
    "recovered": 16,
    "latitude": 60.128162,
    "pop": 10120000,
    "longitude": 18.643501,
    "name": "Sweden",
    "country": "SE",
    "sick": 4692
  },
  {
    "recovered": 0,
    "latitude": 23.6102,
    "pop": 31900000,
    "longitude": 85.2799,
    "name": "Jharkhand",
    "country": "IN",
    "lastUpdated": "2020-04-01T21:40:03.410Z",
    "dead": 0,
    "id": "bo2XnTYrVRoaktD5uF93",
    "infected": 1,
    "sick": 1
  },
  {
    "infected": 8,
    "recovered": 0,
    "latitude": 17.363747,
    "pop": 53100,
    "longitude": -62.754593,
    "name": "Saint Kitts and Nevis",
    "country": "KN",
    "lastUpdated": "2020-04-01T21:40:09.304Z",
    "dead": 0,
    "id": "bor36ktvkrB3iSxlsegc",
    "sick": 8
  },
  {
    "longitude": 20.010162,
    "name": "Albania",
    "country": "AL",
    "lastUpdated": "2020-04-01T21:40:09.762Z",
    "dead": 15,
    "id": "cCGmFmwHOoBrEpvG3qBP",
    "infected": 259,
    "recovered": 67,
    "latitude": 40.973765,
    "pop": 2877000,
    "sick": 177
  },
  {
    "infected": 15,
    "recovered": 0,
    "latitude": 16.871311,
    "pop": 55901000,
    "longitude": 96.199379,
    "name": "Myanmar",
    "country": "MM",
    "lastUpdated": "2020-04-01T21:40:09.460Z",
    "dead": 1,
    "id": "cIbchhSBTuxXmXYgpkdB",
    "sick": 14
  },
  {
    "infected": 10,
    "recovered": 0,
    "latitude": -25.953724,
    "pop": 29670000,
    "longitude": 32.588711,
    "name": "Mozambique",
    "country": "MZ",
    "lastUpdated": "2020-04-01T21:40:09.512Z",
    "dead": 0,
    "id": "cO8TChMvQvAtoZMNurTQ",
    "sick": 10
  },
  {
    "lastUpdated": "2020-04-01T21:40:09.392Z",
    "dead": 0,
    "id": "cPxONYsVo6BgvCW9HUeQ",
    "infected": 14,
    "recovered": 2,
    "latitude": 46.8625,
    "pop": 3076000,
    "longitude": 103.8467,
    "name": "Mongolia",
    "country": "MN",
    "sick": 12
  },
  {
    "latitude": 64.963051,
    "pop": 364260,
    "longitude": -19.020836,
    "name": "Iceland",
    "country": "IS",
    "lastUpdated": "2020-04-01T21:40:09.810Z",
    "dead": 2,
    "id": "cPxe7nsRnOf6aOPqHElJ",
    "infected": 1220,
    "recovered": 225,
    "sick": 993
  },
  {
    "infected": 6092,
    "recovered": 241,
    "latitude": 31.046051,
    "pop": 8712000,
    "longitude": 34.851612,
    "name": "Israel",
    "country": "IL",
    "lastUpdated": "2020-04-01T21:40:09.586Z",
    "dead": 26,
    "id": "cX891t0ONLNFj0MYq6La",
    "sick": 5825
  },
  {
    "lastUpdated": "2020-04-01T18:18:40.287Z",
    "dead": 0,
    "id": "cc7s6hYGQ2MovBBBgkKb",
    "infected": 55,
    "recovered": 15,
    "latitude": 4.749531,
    "pop": 290691,
    "longitude": -53.112909,
    "name": "Guyane",
    "country": "FR",
    "sick": 40
  },
  {
    "recovered": 75,
    "latitude": 61.8926,
    "pop": 49290,
    "longitude": -6.9118,
    "name": "Faeroe Islands",
    "country": "FO",
    "lastUpdated": "2020-04-01T21:40:09.741Z",
    "dead": 0,
    "id": "cgzd5EM8PZv5ziJtTz1w",
    "infected": 173,
    "sick": 98
  },
  {
    "infected": 5812,
    "recovered": 0,
    "latitude": 41.2033,
    "pop": 12810000,
    "longitude": -77.1945,
    "name": "Pennsylvania",
    "country": "US",
    "lastUpdated": "2020-04-01T18:36:13.403Z",
    "dead": 75,
    "id": "chj2FF3zb4Xxcop9RHre",
    "sick": 5737
  },
  {
    "infected": 1682,
    "recovered": 414,
    "latitude": 45.7087,
    "pop": 5987000,
    "longitude": 0.6269,
    "name": "Nouvelle-Aquitaine",
    "country": "FR",
    "lastUpdated": "2020-04-01T18:20:03.971Z",
    "dead": 82,
    "id": "cpf3Y5PQTYywIm3PrpIQ",
    "sick": 1186
  },
  {
    "infected": 102179,
    "recovered": 22647,
    "latitude": 40.463669,
    "pop": 46660000,
    "longitude": -3.74922,
    "name": "Spain",
    "country": "ES",
    "lastUpdated": "2020-04-01T21:40:09.696Z",
    "dead": 9131,
    "id": "d0ExINgPaWUBm3l4ioJL",
    "sick": 70401
  },
  {
    "recovered": 10,
    "latitude": 42.50837,
    "pop": 76965,
    "longitude": 1.517155,
    "name": "Andorra",
    "country": "AD",
    "lastUpdated": "2020-04-01T21:40:09.804Z",
    "dead": 14,
    "id": "dedMXSYR2k92wkSXNZqn",
    "infected": 390,
    "sick": 366
  },
  {
    "infected": 368,
    "recovered": 0,
    "latitude": 38.831163,
    "pop": 967171,
    "longitude": -75.375673,
    "name": "Delaware",
    "country": "US",
    "lastUpdated": "2020-04-01T21:51:13.803Z",
    "dead": 11,
    "id": "dzCgqYduzyncjNKU9z6G",
    "sick": 357
  },
  {
    "infected": 15679,
    "recovered": 333,
    "latitude": 38.9637,
    "pop": 80810000,
    "longitude": 35.2433,
    "name": "Turkey",
    "country": "TR",
    "lastUpdated": "2020-04-01T21:40:09.890Z",
    "dead": 277,
    "id": "dzIcCaUZlbIXuRw0SyDE",
    "sick": 15069
  },
  {
    "latitude": 47.516232,
    "pop": 8822000,
    "longitude": 14.550072,
    "name": "Austria",
    "country": "AT",
    "lastUpdated": "2020-04-01T21:40:09.908Z",
    "dead": 146,
    "id": "e3BtI12qbqhE8jypOoZu",
    "infected": 10711,
    "recovered": 1436,
    "sick": 9129
  },
  {
    "infected": 4897,
    "recovered": 1110,
    "latitude": 52.6367,
    "pop": 7963000,
    "longitude": 9.8451,
    "name": "Niedersachsen",
    "country": "DE",
    "lastUpdated": "2020-04-01T21:38:03.050Z",
    "dead": 51,
    "id": "e3CJgTO8wVbBQZaxqNze",
    "sick": 3736
  },
  {
    "infected": 140,
    "recovered": 124,
    "latitude": 41.097481,
    "pop": 43900000,
    "longitude": 122.310669,
    "name": "Liaoning",
    "country": "CN",
    "lastUpdated": "2020-04-01T21:14:05.631Z",
    "dead": 2,
    "id": "e7P83iImanpd9r36oXK3",
    "sick": 14
  },
  {
    "lastUpdated": "2020-04-01T21:14:05.535Z",
    "dead": 6,
    "id": "e9pQqQa7CEblCYoDtfKo",
    "infected": 516,
    "recovered": 341,
    "latitude": 31.230391,
    "pop": 24240000,
    "longitude": 121.473701,
    "name": "Shanghai",
    "country": "CN",
    "sick": 169
  },
  {
    "recovered": 0,
    "latitude": 42.407211,
    "pop": 6902000,
    "longitude": -71.382439,
    "name": "Massachusetts",
    "country": "US",
    "lastUpdated": "2020-04-01T21:51:13.781Z",
    "dead": 122,
    "id": "eCKDGssww4pF7NrxOySu",
    "infected": 7738,
    "sick": 7616
  },
  {
    "infected": 55,
    "recovered": 2,
    "latitude": 43.740451,
    "pop": 38695,
    "longitude": 7.432032,
    "name": "Monaco",
    "country": "MC",
    "lastUpdated": "2020-04-01T21:40:09.446Z",
    "dead": 1,
    "id": "eLgKPNUwYM5MNDAtF6ql",
    "sick": 52
  },
  {
    "infected": 2537,
    "recovered": 675,
    "latitude": 47.2805,
    "pop": 2686000,
    "longitude": 4.9994,
    "name": "Bourgogne-Franche-Comté",
    "country": "FR",
    "lastUpdated": "2020-04-01T18:11:56.227Z",
    "dead": 230,
    "id": "ejrjMKfHexGnK52FS9Aa",
    "sick": 1632
  },
  {
    "latitude": 48.0196,
    "pop": 18040000,
    "longitude": 66.9237,
    "name": "Kazakhstan",
    "country": "KZ",
    "lastUpdated": "2020-04-01T21:40:09.792Z",
    "dead": 3,
    "id": "etrmrftkQg6Kbd9seAga",
    "infected": 380,
    "recovered": 26,
    "sick": 351
  },
  {
    "infected": 552,
    "recovered": 537,
    "latitude": 30.14208,
    "pop": 81100000,
    "longitude": 102.960701,
    "name": "Sichuan",
    "country": "CN",
    "lastUpdated": "2020-04-01T21:14:05.635Z",
    "dead": 3,
    "id": "eyK5bxFkwdoAouIBvLFM",
    "sick": 12
  },
  {
    "recovered": 34,
    "latitude": 21.473534,
    "pop": 4636000,
    "longitude": 55.975414,
    "name": "Oman",
    "country": "OM",
    "lastUpdated": "2020-04-01T21:40:09.927Z",
    "dead": 1,
    "id": "f9kmlhYtc3WA3kjbWszW",
    "infected": 210,
    "sick": 175
  },
  {
    "infected": 19,
    "recovered": 0,
    "latitude": -0.228021,
    "pop": 81340000,
    "longitude": 15.8276587,
    "name": "Congo",
    "country": "CG",
    "lastUpdated": "2020-04-01T21:40:09.481Z",
    "dead": 0,
    "id": "fEyJ83bQtvcaes8KLhVx",
    "sick": 19
  },
  {
    "id": "fGqVm2khm3IBRs709S1f",
    "infected": 2248,
    "recovered": 53,
    "latitude": 51.1045,
    "pop": 4081000,
    "longitude": 13.2017,
    "name": "Sachsen",
    "country": "DE",
    "lastUpdated": "2020-04-01T21:38:03.143Z",
    "dead": 18,
    "sick": 2177
  },
  {
    "infected": 7,
    "recovered": 0,
    "latitude": 15.4542,
    "pop": 14900000,
    "longitude": 18.7322,
    "name": "Chad",
    "country": "TD",
    "lastUpdated": "2020-04-01T21:40:08.800Z",
    "dead": 0,
    "id": "fJc9CaZGR1OCHaW8Tn4V",
    "sick": 7
  },
  {
    "infected": 278,
    "recovered": 36,
    "latitude": 31.295929,
    "pop": 9702000,
    "longitude": 36.691952,
    "name": "Jordan",
    "country": "JO",
    "lastUpdated": "2020-04-01T21:40:09.795Z",
    "dead": 5,
    "id": "fK06AziL8wyrcoz7rsmJ",
    "sick": 237
  },
  {
    "recovered": 0,
    "latitude": 27.716933,
    "pop": 21300000,
    "longitude": -81.555239,
    "name": "Florida",
    "country": "US",
    "lastUpdated": "2020-04-01T21:51:13.761Z",
    "dead": 87,
    "id": "fNganaGVPifA4QahEQPS",
    "infected": 6956,
    "sick": 6869
  },
  {
    "id": "fNnE9CD0SttEVrCUo1Ym",
    "infected": 712,
    "recovered": 587,
    "latitude": 35.452016,
    "longitude": 139.664285,
    "name": "Diamond Princess (Cruise)",
    "country": "ZZ",
    "dead": 10,
    "lastUpdated": "2020-04-01T03:25:43.256Z",
    "sick": 115
  },
  {
    "latitude": 46.0679,
    "pop": 538223,
    "longitude": 11.1211,
    "name": "P.A. Trento",
    "country": "IT",
    "lastUpdated": "2020-04-01T21:40:10.658Z",
    "dead": 173,
    "id": "fOlU5JggPKOO8jbHh5GD",
    "infected": 1870,
    "recovered": 214,
    "sick": 1483
  },
  {
    "infected": 2993,
    "recovered": 1369,
    "latitude": 52.52,
    "pop": 3748000,
    "longitude": 13.405,
    "name": "Berlin",
    "country": "DE",
    "lastUpdated": "2020-04-01T21:38:03.046Z",
    "dead": 17,
    "id": "ffKhENYKy3bwsyBLiYtE",
    "sick": 1607
  },
  {
    "infected": 67802,
    "recovered": 63326,
    "latitude": 31.160629,
    "pop": 58500000,
    "longitude": 112.255402,
    "name": "Hubei",
    "country": "CN",
    "lastUpdated": "2020-04-01T21:14:05.155Z",
    "dead": 3193,
    "id": "fiJ14DCxw15e3SMemh8R",
    "sick": 1283
  },
  {
    "lastUpdated": "2020-04-01T21:40:09.962Z",
    "dead": 20,
    "id": "flbZ2kaR5kBuV8XZ2Nsu",
    "infected": 794,
    "recovered": 13,
    "latitude": 50.4501,
    "pop": 42220000,
    "longitude": 30.5234,
    "name": "Ukraine",
    "country": "UA",
    "sick": 761
  },
  {
    "latitude": 41.2044,
    "pop": 6202000,
    "longitude": 74.7661,
    "name": "Kyrgyzstan",
    "country": "KG",
    "lastUpdated": "2020-04-01T21:40:09.413Z",
    "dead": 0,
    "id": "fst48lrFxiMJbQPf4nur",
    "infected": 111,
    "recovered": 3,
    "sick": 108
  },
  {
    "latitude": 52.132633,
    "pop": 17180000,
    "longitude": 5.291266,
    "name": "Netherlands",
    "country": "NL",
    "lastUpdated": "2020-04-01T21:40:09.845Z",
    "dead": 1173,
    "id": "g0lRMtEJbucWIGqSPn0I",
    "infected": 13614,
    "recovered": 250,
    "sick": 12191
  },
  {
    "infected": 584,
    "recovered": 0,
    "latitude": 34.69522,
    "pop": 3014000,
    "longitude": -92.288012,
    "name": "Arkansas",
    "country": "US",
    "lastUpdated": "2020-04-01T21:51:13.703Z",
    "dead": 10,
    "id": "gIdgxJZfTl2QOSYEwMAz",
    "sick": 574
  },
  {
    "lastUpdated": "2020-04-01T21:40:09.483Z",
    "dead": 2,
    "id": "gXd2X2PjmGP0XVwxpWqT",
    "infected": 12,
    "recovered": 0,
    "latitude": 4.8604159,
    "pop": 777859,
    "longitude": -58.9301796,
    "name": "Guyana",
    "country": "GY",
    "sick": 10
  },
  {
    "id": "gYDsNgvuvtbg8t77w6FS",
    "infected": 129,
    "recovered": 0,
    "latitude": 43.9695,
    "pop": 882235,
    "longitude": -99.9018,
    "name": "South Dakota",
    "country": "US",
    "lastUpdated": "2020-04-01T21:51:13.808Z",
    "dead": 2,
    "sick": 127
  },
  {
    "latitude": 35.894231,
    "pop": 493559,
    "longitude": 14.432846,
    "name": "Malta",
    "country": "MT",
    "lastUpdated": "2020-04-01T21:40:09.782Z",
    "dead": 0,
    "id": "h9UqxYZ5xC4JZrmdDz0q",
    "infected": 188,
    "recovered": 2,
    "sick": 186
  },
  {
    "latitude": 28.7041,
    "pop": 18980000,
    "longitude": 77.1025,
    "name": "Delhi",
    "country": "IN",
    "lastUpdated": "2020-04-01T21:40:03.413Z",
    "dead": 2,
    "id": "hqwsh1rmvkWI3LFUVuMk",
    "infected": 152,
    "recovered": 6,
    "sick": 144
  },
  {
    "infected": 138,
    "recovered": 127,
    "latitude": 35.751835,
    "pop": 25580000,
    "longitude": 104.28611,
    "name": "Gansu",
    "country": "CN",
    "lastUpdated": "2020-04-01T21:14:05.533Z",
    "dead": 2,
    "id": "iGkTscdD0XyHFSP23Qrp",
    "sick": 9
  },
  {
    "latitude": 34.8021,
    "pop": 18270000,
    "longitude": 38.9968,
    "name": "Syria",
    "country": "SY",
    "lastUpdated": "2020-04-01T21:40:09.533Z",
    "dead": 2,
    "id": "iHf1IZQP3CA3sT2erzyh",
    "infected": 10,
    "recovered": 0,
    "sick": 8
  },
  {
    "lastUpdated": "2020-04-01T21:40:03.414Z",
    "dead": 2,
    "id": "idymmgoqLHImnBdyC7r7",
    "infected": 241,
    "recovered": 23,
    "latitude": 10.8505,
    "pop": 34800000,
    "longitude": 76.2711,
    "name": "Kerala",
    "country": "IN",
    "sick": 216
  },
  {
    "lastUpdated": "2020-04-01T18:18:26.603Z",
    "dead": 7,
    "id": "j8eMjjqNAqHAJhAKdBYN",
    "infected": 125,
    "recovered": 25,
    "latitude": 16.265,
    "pop": 395700,
    "longitude": -61.551,
    "name": "Guadeloupe",
    "country": "FR",
    "sick": 93
  },
  {
    "infected": 3141,
    "recovered": 129,
    "latitude": 50.1183,
    "pop": 4074000,
    "longitude": 7.309,
    "name": "Rheinland-Pfalz",
    "country": "DE",
    "lastUpdated": "2020-04-01T12:53:03.941Z",
    "dead": 25,
    "id": "jKn2pIFlIBScjb47GjRX",
    "sick": 2987
  },
  {
    "recovered": 135,
    "latitude": 39.343357,
    "pop": 15000000,
    "longitude": 117.361649,
    "name": "Tianjin",
    "country": "CN",
    "lastUpdated": "2020-04-01T21:14:05.435Z",
    "dead": 3,
    "id": "jMlHjIOb7eMPSxFBrmG1",
    "infected": 176,
    "sick": 38
  },
  {
    "recovered": 0,
    "latitude": 17.1898766,
    "pop": 397000,
    "longitude": -88.4976501,
    "name": "Belize",
    "country": "BZ",
    "lastUpdated": "2020-04-01T21:40:09.346Z",
    "dead": 0,
    "id": "jOc8JUDWxCmquh49oZxV",
    "infected": 3,
    "sick": 3
  },
  {
    "lastUpdated": "2020-04-01T21:51:13.790Z",
    "dead": 16,
    "id": "jPC0eOG50FWknCDe3K6P",
    "infected": 321,
    "recovered": 0,
    "latitude": 44.5588,
    "pop": 629299,
    "longitude": -72.5778,
    "name": "Vermont",
    "country": "US",
    "sick": 305
  },
  {
    "recovered": 5,
    "latitude": 53.3498,
    "pop": 4830000,
    "longitude": -6.2603,
    "name": "Ireland",
    "country": "IE",
    "lastUpdated": "2020-04-01T21:40:09.850Z",
    "dead": 85,
    "id": "jpVXEDCyfyq26gPoCtHL",
    "infected": 3447,
    "sick": 3357
  },
  {
    "lastUpdated": "2020-04-01T21:45:01.752Z",
    "dead": 0,
    "id": "k73gNv36u1SmziUF6mUw",
    "infected": 5,
    "recovered": 0,
    "latitude": 64.2823,
    "pop": 35874,
    "longitude": -135,
    "name": "Yukon",
    "country": "CA",
    "sick": 5
  },
  {
    "recovered": 36,
    "latitude": 40.078072,
    "pop": 1648000,
    "longitude": 9.283447,
    "name": "Sardegna",
    "country": "IT",
    "lastUpdated": "2020-04-01T21:40:10.663Z",
    "dead": 34,
    "id": "kF99avagXvBfZTHv9ETi",
    "infected": 745,
    "sick": 675
  },
  {
    "latitude": 11.572076,
    "pop": 956985,
    "longitude": 43.145645,
    "name": "Djibouti",
    "country": "DJ",
    "lastUpdated": "2020-04-01T21:40:09.438Z",
    "dead": 0,
    "id": "l4nYeaqwy2yrEVqnijFj",
    "infected": 33,
    "recovered": 0,
    "sick": 33
  },
  {
    "longitude": -114.742,
    "name": "Idaho",
    "country": "US",
    "lastUpdated": "2020-04-01T21:51:13.762Z",
    "dead": 9,
    "id": "l7fHSKOmcaRX3tq9FCT6",
    "infected": 567,
    "recovered": 0,
    "latitude": 44.0682,
    "pop": 1754000,
    "sick": 558
  },
  {
    "latitude": 40.816666,
    "pop": 4048000,
    "longitude": 16.549999,
    "name": "Puglia",
    "country": "IT",
    "lastUpdated": "2020-04-01T21:40:10.662Z",
    "dead": 129,
    "id": "lAKH5Wfg4GhaM54VElFN",
    "infected": 1946,
    "recovered": 61,
    "sick": 1756
  },
  {
    "latitude": 10.6918,
    "pop": 1369000,
    "longitude": -61.2225,
    "name": "Trinidad and Tobago",
    "country": "TT",
    "lastUpdated": "2020-04-01T21:40:08.791Z",
    "dead": 5,
    "id": "lfLdfRP7hyiA6MVnQqqn",
    "infected": 90,
    "recovered": 1,
    "sick": 84
  },
  {
    "infected": 6,
    "recovered": 0,
    "latitude": 16.5388,
    "pop": 546388,
    "longitude": -23.0418,
    "name": "Cape Verde",
    "country": "CV",
    "lastUpdated": "2020-04-01T21:40:09.518Z",
    "dead": 1,
    "id": "lgqPuia1S3ApA5Lsl2la",
    "sick": 5
  },
  {
    "infected": 76,
    "recovered": 73,
    "latitude": 42.524635,
    "pop": 21810000,
    "longitude": 87.539589,
    "name": "Xinjiang",
    "country": "CN",
    "lastUpdated": "2020-04-01T21:14:05.633Z",
    "dead": 3,
    "id": "lhPjpn6CzqTRDN0RW8uE",
    "sick": 0
  },
  {
    "infected": 19,
    "recovered": 13,
    "latitude": 3.2028,
    "pop": 436330,
    "longitude": 73.2207,
    "name": "Maldives",
    "country": "MV",
    "lastUpdated": "2020-04-01T21:40:09.423Z",
    "dead": 0,
    "id": "m45gI2UbWMuTrOnTtp9k",
    "sick": 6
  },
  {
    "latitude": 41.9029,
    "pop": 1000,
    "longitude": 12.4534,
    "name": "Vatican City",
    "country": "VA",
    "lastUpdated": "2020-04-01T21:40:09.458Z",
    "dead": 0,
    "id": "mF7rVMdVnazAuw8G22xs",
    "infected": 6,
    "recovered": 0,
    "sick": 6
  },
  {
    "latitude": 19.7515,
    "pop": 114200000,
    "longitude": 75.7139,
    "name": "Maharashtra",
    "country": "IN",
    "lastUpdated": "2020-04-01T21:40:03.409Z",
    "dead": 9,
    "id": "mJtdLs4ub6CkcAOeMWUm",
    "infected": 302,
    "recovered": 39,
    "sick": 254
  },
  {
    "latitude": -33.4489,
    "pop": 18050000,
    "longitude": -70.6693,
    "name": "Chile",
    "country": "CL",
    "lastUpdated": "2020-04-01T21:40:09.820Z",
    "dead": 16,
    "id": "mSACWVbCy5QE7ciLA93J",
    "infected": 3031,
    "recovered": 234,
    "sick": 2781
  },
  {
    "recovered": 1,
    "latitude": -6.369,
    "pop": 57310000,
    "longitude": 34.8888,
    "name": "Tanzania",
    "country": "TZ",
    "lastUpdated": "2020-04-01T21:40:09.511Z",
    "dead": 1,
    "id": "mnew3ojzmWV0dWSPfCQ9",
    "infected": 20,
    "sick": 18
  },
  {
    "longitude": 39.7823,
    "name": "Eritrea",
    "country": "ER",
    "lastUpdated": "2020-04-01T21:40:09.378Z",
    "dead": 0,
    "id": "n6OSwOVBdUie3xeZJmOf",
    "infected": 15,
    "recovered": 0,
    "latitude": 15.1794,
    "pop": 4475000,
    "sick": 15
  },
  {
    "infected": 2933,
    "recovered": 0,
    "latitude": 35.693323,
    "pop": 6770000,
    "longitude": -86.605748,
    "name": "Tennessee",
    "country": "US",
    "lastUpdated": "2020-04-01T21:51:13.777Z",
    "dead": 24,
    "id": "nLhJXE2apq8yNNj363ai",
    "sick": 2909
  },
  {
    "infected": 10,
    "recovered": 0,
    "latitude": 19.8562698,
    "pop": 7247000,
    "longitude": 102.4954987,
    "name": "Laos",
    "country": "LA",
    "lastUpdated": "2020-04-01T21:40:09.542Z",
    "dead": 0,
    "id": "nZzFt6liil98URpNfQyX",
    "sick": 10
  },
  {
    "latitude": -4.6796,
    "pop": 95843,
    "longitude": 55.492,
    "name": "Seychelles",
    "country": "SC",
    "lastUpdated": "2020-04-01T21:40:09.527Z",
    "dead": 0,
    "id": "oB5fSyjWJ0FbNAkssuci",
    "infected": 10,
    "recovered": 0,
    "sick": 10
  },
  {
    "infected": 654,
    "recovered": 29,
    "latitude": 31.893778,
    "pop": 35740000,
    "longitude": -6.196132,
    "name": "Morocco",
    "country": "MA",
    "lastUpdated": "2020-04-01T21:40:09.866Z",
    "dead": 39,
    "id": "oJ5vSDE9vgXC2PG8LElp",
    "sick": 586
  },
  {
    "lastUpdated": "2020-04-01T18:19:27.422Z",
    "dead": 330,
    "id": "ofWLu9EuQoK2nHjwU1mA",
    "infected": 3798,
    "recovered": 732,
    "latitude": 50.4801,
    "pop": 5978000,
    "longitude": 2.7937,
    "name": "Hauts-de-France",
    "country": "FR",
    "sick": 2736
  },
  {
    "lastUpdated": "2020-04-01T21:40:03.412Z",
    "dead": 1,
    "id": "oqLEd2Z9P3FJeQsfIk8e",
    "infected": 3,
    "recovered": 0,
    "latitude": 31.1048,
    "pop": 6856000,
    "longitude": 77.1734,
    "name": "Himachal Pradesh",
    "country": "IN",
    "sick": 2
  },
  {
    "latitude": -20.917574,
    "pop": 5071000,
    "longitude": 142.702789,
    "name": "Queensland",
    "country": "AU",
    "lastUpdated": "2020-04-01T21:42:08.695Z",
    "dead": 2,
    "id": "oxz2l1rJipCsfMfy8Mmk",
    "infected": 781,
    "recovered": 8,
    "sick": 771
  },
  {
    "lastUpdated": "2020-04-01T21:14:05.341Z",
    "dead": 13,
    "id": "p1aZboN4BtRJe7hPl8cw",
    "infected": 484,
    "recovered": 469,
    "latitude": 47.121647,
    "pop": 38310000,
    "longitude": 128.738235,
    "name": "Heilongjiang",
    "country": "CN",
    "sick": 2
  },
  {
    "infected": 990,
    "recovered": 984,
    "latitude": 32.026379,
    "pop": 62000000,
    "longitude": 117.252747,
    "name": "Anhui",
    "country": "CN",
    "lastUpdated": "2020-04-01T21:14:05.545Z",
    "dead": 6,
    "id": "pFhBwPnGGpQ6DLppJ6YS",
    "sick": 0
  },
  {
    "id": "pHrUAOBW5WDdMsVWpEEi",
    "infected": 5,
    "recovered": 1,
    "latitude": 2.046934,
    "pop": 14740000,
    "longitude": 45.318161,
    "name": "Somalia",
    "country": "SO",
    "lastUpdated": "2020-04-01T21:40:09.535Z",
    "dead": 0,
    "sick": 4
  },
  {
    "latitude": 21.2787,
    "pop": 25550000,
    "longitude": 81.8661,
    "name": "Chhattisgarh",
    "country": "IN",
    "lastUpdated": "2020-04-01T21:40:03.391Z",
    "dead": 0,
    "id": "pu6AXEsDnpmmqnhajobN",
    "infected": 9,
    "recovered": 2,
    "sick": 7
  },
  {
    "infected": 586,
    "recovered": 0,
    "latitude": 38.9072,
    "pop": 633427,
    "longitude": -77.0369,
    "name": "Washington, D.C.",
    "country": "US",
    "lastUpdated": "2020-04-01T21:51:13.733Z",
    "dead": 9,
    "id": "q5cfvHprVTraL1yXnhDx",
    "sick": 577
  },
  {
    "dead": 0,
    "lastUpdated": "2020-03-30T14:58:07.823Z",
    "id": "qAbgEfrtA8NbQkzMFkEk",
    "infected": 0,
    "recovered": 573,
    "latitude": 56.1304,
    "longitude": -106.3468,
    "name": "Unknown Canadian province",
    "country": "CA",
    "sick": 0
  },
  {
    "id": "qnQ0dkxAxnDP01YpdZgk",
    "infected": 392,
    "recovered": 1,
    "latitude": -26.190439,
    "pop": 2589000,
    "longitude": 123.325947,
    "name": "Western Australia",
    "country": "AU",
    "lastUpdated": "2020-04-01T21:42:08.734Z",
    "dead": 2,
    "sick": 389
  },
  {
    "lastUpdated": "2020-04-01T21:40:09.632Z",
    "dead": 828,
    "id": "qpAxVz0garcS0gNZxtOw",
    "infected": 13964,
    "recovered": 2132,
    "latitude": 50.503887,
    "pop": 11400000,
    "longitude": 4.469936,
    "name": "Belgium",
    "country": "BE",
    "sick": 11004
  },
  {
    "latitude": 39,
    "pop": 1806000,
    "longitude": -80.5,
    "name": "West Virginia",
    "country": "US",
    "lastUpdated": "2020-04-01T21:51:13.768Z",
    "dead": 1,
    "id": "qrYN2o4c4gAK3ffF5JIw",
    "infected": 191,
    "recovered": 0,
    "sick": 190
  },
  {
    "latitude": 31,
    "pop": 28700000,
    "longitude": -100,
    "name": "Texas",
    "country": "US",
    "lastUpdated": "2020-04-01T21:51:13.765Z",
    "dead": 66,
    "id": "qsrWiq0qCmIG66hpWojP",
    "infected": 4355,
    "recovered": 0,
    "sick": 4289
  },
  {
    "id": "qyX9xXEuKg3co8yKe3Fl",
    "infected": 3439,
    "recovered": 1016,
    "latitude": 43.9352,
    "pop": 5059000,
    "longitude": 6.0679,
    "name": "Provence-Alpes-Côte d’Azur",
    "country": "FR",
    "lastUpdated": "2020-04-01T18:20:58.203Z",
    "dead": 124,
    "sick": 2299
  },
  {
    "latitude": 30.9843,
    "pop": 4660000,
    "longitude": -91.9623,
    "name": "Louisiana",
    "country": "US",
    "lastUpdated": "2020-04-01T21:51:13.697Z",
    "dead": 273,
    "id": "qzuktS0qQVU4PEookjss",
    "infected": 6424,
    "recovered": 0,
    "sick": 6151
  },
  {
    "infected": 1,
    "recovered": 0,
    "latitude": 23.1645,
    "pop": 1116000,
    "longitude": 92.9376,
    "name": "Mizoram",
    "country": "IN",
    "lastUpdated": "2020-04-01T21:40:03.416Z",
    "dead": 0,
    "id": "r54PtV0VHsIOc0YPTyhd",
    "sick": 1
  },
  {
    "infected": 55,
    "recovered": 1,
    "latitude": 12.5211,
    "pop": 105264,
    "longitude": -69.9683,
    "name": "Aruba",
    "country": "AW",
    "lastUpdated": "2020-04-01T21:40:09.514Z",
    "dead": 0,
    "id": "rKbrli0DkAmp1UpbrqHQ",
    "sick": 54
  },
  {
    "infected": 218,
    "recovered": 63,
    "latitude": 14.058324,
    "pop": 95540000,
    "longitude": 108.277199,
    "name": "Vietnam",
    "country": "VN",
    "lastUpdated": "2020-04-01T21:40:09.784Z",
    "dead": 0,
    "id": "rKnSEyG03ak4YmGzonlg",
    "sick": 155
  },
  {
    "infected": 15,
    "recovered": 1,
    "latitude": 1.6508009,
    "pop": 1268000,
    "longitude": 10.2678947,
    "name": "Equatorial Guinea",
    "country": "GQ",
    "lastUpdated": "2020-04-01T21:40:09.388Z",
    "dead": 0,
    "id": "rS04qvFoAknfeZsL2w5f",
    "sick": 14
  },
  {
    "latitude": -12.8275,
    "pop": 270372,
    "longitude": 45.1662,
    "name": "Mayotte",
    "country": "FR",
    "lastUpdated": "2020-04-01T21:40:09.497Z",
    "dead": 1,
    "id": "rUQ6Z3pmWTPVlqEUSmN7",
    "infected": 94,
    "recovered": 10,
    "sick": 83
  },
  {
    "latitude": 29.159849,
    "pop": 57370000,
    "longitude": 120.326447,
    "name": "Zhejiang",
    "country": "CN",
    "lastUpdated": "2020-04-01T21:14:05.429Z",
    "dead": 1,
    "id": "rgBVJ4hPofqjjchnroiY",
    "infected": 1257,
    "recovered": 1226,
    "sick": 30
  },
  {
    "infected": 631,
    "recovered": 32,
    "latitude": 45.734955,
    "pop": 126202,
    "longitude": 7.313076,
    "name": "Valle d'Aosta",
    "country": "IT",
    "lastUpdated": "2020-04-01T21:40:10.667Z",
    "dead": 59,
    "id": "rqbHQdev461heM0vyE9L",
    "sick": 540
  },
  {
    "latitude": 60.472023,
    "pop": 5368000,
    "longitude": 8.468946,
    "name": "Norway",
    "country": "NO",
    "lastUpdated": "2020-04-01T21:40:09.655Z",
    "dead": 44,
    "id": "rxSafpWsyKhfkV0HTtb4",
    "infected": 4863,
    "recovered": 13,
    "sick": 4806
  },
  {
    "infected": 754,
    "recovered": 0,
    "latitude": 53.9333,
    "pop": 4371000,
    "longitude": -116.5765,
    "name": "Alberta",
    "country": "CA",
    "lastUpdated": "2020-04-01T21:45:01.638Z",
    "dead": 9,
    "id": "sBFMOzZJdrdXdyLZpweO",
    "sick": 745
  },
  {
    "infected": 168,
    "recovered": 162,
    "latitude": 19.566395,
    "pop": 9258000,
    "longitude": 109.949684,
    "name": "Hainan",
    "country": "CN",
    "lastUpdated": "2020-04-01T21:14:05.437Z",
    "dead": 6,
    "id": "sKNhMvgXeyivpNFg02RA",
    "sick": 0
  },
  {
    "pop": 32170000,
    "longitude": -75.630295,
    "name": "Peru",
    "country": "PE",
    "lastUpdated": "2020-04-01T21:40:09.997Z",
    "dead": 38,
    "id": "sLL1jETcJYjT6g5bfcEG",
    "infected": 1323,
    "recovered": 394,
    "latitude": -10.33755,
    "sick": 891
  },
  {
    "latitude": 37.89566,
    "pop": 74700000,
    "longitude": 114.904221,
    "name": "Hebei",
    "country": "CN",
    "lastUpdated": "2020-04-01T21:14:05.229Z",
    "dead": 6,
    "id": "sgsBhTwHxF1VVnqXbXXp",
    "infected": 323,
    "recovered": 310,
    "sick": 7
  },
  {
    "longitude": 43.3569,
    "name": "Georgia",
    "country": "GE",
    "lastUpdated": "2020-04-01T21:40:09.410Z",
    "dead": 0,
    "id": "sjW9OwjFqrOvjVHRXWoR",
    "infected": 117,
    "recovered": 23,
    "latitude": 42.3154,
    "pop": 3717000,
    "sick": 94
  },
  {
    "recovered": 1,
    "latitude": -23.4425,
    "pop": 6811000,
    "longitude": -58.4438,
    "name": "Paraguay",
    "country": "PY",
    "lastUpdated": "2020-04-01T21:40:09.375Z",
    "dead": 3,
    "id": "t2fq7L9UcXfhuXfQNVRj",
    "infected": 69,
    "sick": 65
  },
  {
    "latitude": 39.147061,
    "pop": 3161000,
    "longitude": -111.596466,
    "name": "Utah",
    "country": "US",
    "lastUpdated": "2020-04-01T21:51:13.754Z",
    "dead": 5,
    "id": "tSmr8vNsiDhhpXMSBsms",
    "infected": 888,
    "recovered": 0,
    "sick": 883
  },
  {
    "infected": 1018,
    "recovered": 1014,
    "latitude": 27.3818,
    "pop": 67370000,
    "longitude": 111.510681,
    "name": "Hunan",
    "country": "CN",
    "lastUpdated": "2020-04-01T21:14:05.232Z",
    "dead": 4,
    "id": "tdNRDDrgvBQqqwzdFGh4",
    "sick": 0
  },
  {
    "infected": 147,
    "recovered": 144,
    "latitude": 26.842964,
    "pop": 34750000,
    "longitude": 107.290283,
    "name": "Guizhou",
    "country": "CN",
    "lastUpdated": "2020-04-01T21:14:05.445Z",
    "dead": 2,
    "id": "tyY4QSHWG9sXqSO9jm0Y",
    "sick": 1
  },
  {
    "latitude": -20.2067,
    "pop": 1265000,
    "longitude": 57.6755,
    "name": "Mauritius",
    "country": "MU",
    "lastUpdated": "2020-04-01T21:40:09.473Z",
    "dead": 6,
    "id": "uZg9Xtu4zR5tp12TMpOQ",
    "infected": 161,
    "recovered": 0,
    "sick": 155
  },
  {
    "recovered": 21,
    "latitude": 29.0588,
    "pop": 25350000,
    "longitude": 76.0856,
    "name": "Haryana",
    "country": "IN",
    "lastUpdated": "2020-04-01T21:40:03.368Z",
    "dead": 0,
    "id": "ubUuY89n0cXVgahI4Ytp",
    "infected": 43,
    "sick": 22
  },
  {
    "latitude": 41.6667,
    "pop": 308493,
    "longitude": 14.5,
    "name": "Molise",
    "country": "IT",
    "lastUpdated": "2020-04-01T21:40:10.599Z",
    "dead": 10,
    "id": "ueDdQxnY3NvbnoCcPaDH",
    "infected": 160,
    "recovered": 19,
    "sick": 131
  },
  {
    "lastUpdated": "2020-04-01T21:14:05.443Z",
    "dead": 0,
    "id": "uvxN28EpGmRq3K9REtBP",
    "infected": 646,
    "recovered": 631,
    "latitude": 32.93708,
    "pop": 80400000,
    "longitude": 119.151932,
    "name": "Jiangsu",
    "country": "CN",
    "sick": 15
  },
  {
    "lastUpdated": "2020-04-01T21:38:03.128Z",
    "dead": 8,
    "id": "uxAceZxiizwmo60pyyGn",
    "infected": 785,
    "recovered": 39,
    "latitude": 51.9503,
    "pop": 2277000,
    "longitude": 11.6923,
    "name": "Sachsen-Anhalt",
    "country": "DE",
    "sick": 738
  },
  {
    "infected": 62,
    "recovered": 2,
    "latitude": 33.7782,
    "pop": 12550000,
    "longitude": 76.5762,
    "name": "Jammu and Kashmir",
    "country": "IN",
    "lastUpdated": "2020-04-01T21:40:03.358Z",
    "dead": 2,
    "id": "v5wfBhxjYTpTMaKko6AW",
    "sick": 58
  },
  {
    "longitude": 30.802498,
    "name": "Egypt",
    "country": "EG",
    "lastUpdated": "2020-04-01T21:40:09.757Z",
    "dead": 52,
    "id": "v8JcH4FHH7BDpJlNNHjv",
    "infected": 779,
    "recovered": 179,
    "latitude": 26.820553,
    "pop": 97550000,
    "sick": 548
  },
  {
    "latitude": 47.288374,
    "pop": 7536000,
    "longitude": -119.928431,
    "name": "Washington",
    "country": "US",
    "lastUpdated": "2020-04-01T21:51:13.812Z",
    "dead": 226,
    "id": "vCUVQn7RK8pkw5y2rvYN",
    "infected": 5514,
    "recovered": 0,
    "sick": 5288
  },
  {
    "latitude": 18.1096,
    "pop": 2890000,
    "longitude": -77.2975,
    "name": "Jamaica",
    "country": "JM",
    "lastUpdated": "2020-04-01T21:40:09.456Z",
    "dead": 3,
    "id": "vMGALmMJbagxGIbLyFfS",
    "infected": 38,
    "recovered": 2,
    "sick": 33
  },
  {
    "infected": 1060,
    "recovered": 0,
    "latitude": 32.3182,
    "pop": 4888000,
    "longitude": -86.9023,
    "name": "Alabama",
    "country": "US",
    "lastUpdated": "2020-04-01T21:51:13.721Z",
    "dead": 27,
    "id": "vSMJR4m49MZM15umlC9B",
    "sick": 1033
  },
  {
    "latitude": 48.8499,
    "pop": 12210000,
    "longitude": 2.637,
    "name": "Ile-de-France",
    "country": "FR",
    "lastUpdated": "2020-04-01T18:19:45.018Z",
    "dead": 1369,
    "id": "vSwFXxTSLgzsG25zOJUy",
    "infected": 21081,
    "recovered": 3432,
    "sick": 16280
  },
  {
    "latitude": 46.5107,
    "pop": 156947,
    "longitude": -63.4168,
    "name": "Prince Edward Island",
    "country": "CA",
    "lastUpdated": "2020-04-01T21:45:01.640Z",
    "dead": 0,
    "id": "vjK6292ALJl5wq8XHw3P",
    "infected": 21,
    "recovered": 0,
    "sick": 21
  },
  {
    "lastUpdated": "2020-04-01T21:40:09.759Z",
    "dead": 3036,
    "id": "vkkXVaqUswO5JsMZx0mX",
    "infected": 47593,
    "recovered": 15473,
    "latitude": 32.42791,
    "pop": 81160000,
    "longitude": 53.688046,
    "name": "Iran",
    "country": "IR",
    "sick": 29084
  },