[
  {
    "infected": 6,
    "recovered": 4,
    "latitude": 12.5847,
    "pop": 72600,
    "longitude": -81.7006,
    "name": "San Andrés",
    "country": "CO",
    "lastUpdated": "2020-05-03T15:33:09.449Z",
    "dead": 0,
    "id": "01b09TY4vmuZwzVuiRFK",
    "sick": 2,
    "invisible": false
  },
  {
    "infected": 252,
    "recovered": 217,
    "latitude": 49.4482,
    "pop": 63196,
    "longitude": -2.5895,
    "name": "Guernsey",
    "country": "GG",
    "lastUpdated": "2020-05-03T15:40:03.521Z",
    "dead": 13,
    "id": "0FOJefeLxQYXQ1CnJm9o",
    "sick": 22,
    "invisible": false
  },
  {
    "lastUpdated": "2020-05-03T15:31:02.712Z",
    "dead": 362,
    "id": "0GJcws44NSPsDHAuxJhW",
    "infected": 4459,
    "recovered": 1376,
    "latitude": 41.066666,
    "pop": 5827000,
    "longitude": 14.333333,
    "name": "Campania",
    "country": "IT",
    "sick": 2721,
    "invisible": false
  },
  {
    "infected": 212,
    "recovered": 0,
    "latitude": -20.2167,
    "pop": 383870,
    "longitude": -70.14222,
    "name": "Tarapacá",
    "country": "CL",
    "lastUpdated": "2020-05-03T15:41:13.764Z",
    "dead": 1,
    "id": "0HDQbiHe462xMCUV5HiI",
    "sick": 211,
    "invisible": false
  },
  {
    "lastUpdated": "2020-05-03T15:41:01.252Z",
    "dead": 1,
    "id": "0VG7S6aaK4eSo59fL9JO",
    "infected": 162,
    "recovered": 60,
    "latitude": 20.9517,
    "pop": 45990000,
    "longitude": 85.0985,
    "name": "Odisha",
    "country": "IN",
    "sick": 101,
    "invisible": false
  },
  {
    "recovered": 0,
    "latitude": 20.4737,
    "pop": 2990300,
    "longitude": -98.8582,
    "name": "Hidalgo",
    "country": "MX",
    "lastUpdated": "2020-05-03T15:31:07.811Z",
    "dead": 34,
    "id": "0XmCRqiK2ZaehoEJvfer",
    "infected": 306,
    "sick": 272,
    "invisible": false
  },
  {
    "lastUpdated": "2020-05-03T15:41:01.252Z",
    "dead": 0,
    "id": "0jStOpTUNRaQYJqgmRoK",
    "infected": 33,
    "recovered": 32,
    "latitude": 11.7401,
    "pop": 427246,
    "longitude": 92.6586,
    "name": "Andaman and Nicobar Islands",
    "country": "IN",
    "sick": 1,
    "invisible": false
  },
  {
    "lastUpdated": "2020-05-03T15:55:03.518Z",
    "dead": 12,
    "id": "0m4aECS0Z2DGFEr8ldgI",
    "infected": 15551,
    "recovered": 1664,
    "latitude": 25.315058,
    "pop": 2639000,
    "longitude": 51.145517,
    "name": "Qatar",
    "country": "QA",
    "sick": 13875,
    "invisible": false
  },
  {
    "lastUpdated": "2020-05-03T15:41:01.250Z",
    "dead": 50,
    "id": "0n54EMSDJcRoT1QEvw80",
    "infected": 922,
    "recovered": 151,
    "latitude": 22.9868,
    "pop": 90320000,
    "longitude": 87.855,
    "name": "West Bengal",
    "country": "IN",
    "sick": 721,
    "invisible": false
  },
  {
    "latitude": 22.9734,
    "pop": 73340000,
    "longitude": 78.6569,
    "name": "Madhya Pradesh",
    "country": "IN",
    "lastUpdated": "2020-05-03T15:41:01.249Z",
    "dead": 156,
    "id": "0s18o5DrDAHjbu5MFcrj",
    "infected": 2837,
    "recovered": 624,
    "sick": 2057,
    "invisible": false
  },
  {
    "latitude": 37.0902,
    "longitude": -95.7129,
    "name": "Unknown US state",
    "country": "US",
    "lastUpdated": "2020-05-03T15:55:03.515Z",
    "dead": 0,
    "id": "0tFoopNTs6e4tOoaltu2",
    "invisible": true,
    "infected": 0,
    "recovered": 173927,
    "sick": 0
  },
  {
    "id": "0x2HLhr5z5xAtEdO4iZm",
    "infected": 306,
    "recovered": 260,
    "latitude": 35.64249,
    "pop": 37330000,
    "longitude": 108.472214,
    "name": "Shaanxi",
    "country": "CN",
    "lastUpdated": "2020-05-03T15:38:13.837Z",
    "dead": 3,
    "sick": 43,
    "invisible": false
  },
  {
    "infected": 1511,
    "recovered": 945,
    "latitude": 41.643351,
    "pop": 2077000,
    "longitude": 21.668393,
    "name": "North Macedonia",
    "country": "MK",
    "lastUpdated": "2020-05-03T15:55:03.523Z",
    "dead": 84,
    "id": "19MvIhipqTyYv1H37Upw",
    "sick": 482,
    "invisible": false
  },
  {
    "infected": 259,
    "recovered": 0,
    "latitude": 53.1355,
    "pop": 521542,
    "longitude": -57.6604,
    "name": "Newfoundland and Labrador",
    "country": "CA",
    "lastUpdated": "2020-05-03T15:36:01.650Z",
    "dead": 3,
    "id": "1DOMOmCWDtva46OVSZLv",
    "sick": 256,
    "invisible": false
  },
  {
    "latitude": 35.801933,
    "pop": 5627000,
    "longitude": 96.779286,
    "name": "Qinghai",
    "country": "CN",
    "lastUpdated": "2020-05-03T15:38:13.841Z",
    "dead": 0,
    "id": "1Fap7rZu9SIRqf5TG9Dg",
    "infected": 18,
    "recovered": 18,
    "sick": 0,
    "invisible": false
  },
  {
    "latitude": 23.6345,
    "pop": 126200000,
    "longitude": -102.5528,
    "name": "Unknown Mexico state",
    "country": "MX",
    "lastUpdated": "2020-05-03T15:55:03.517Z",
    "dead": 0,
    "id": "1YXQMlVL3fUeDZmcVfJw",
    "invisible": true,
    "infected": 0,
    "recovered": 13447,
    "sick": 0
  },
  {
    "longitude": 8.206944,
    "name": "Piemonte",
    "country": "IT",
    "lastUpdated": "2020-05-03T15:31:02.714Z",
    "dead": 3126,
    "id": "1eTSQyfp8RoDPeFrIwun",
    "infected": 27179,
    "recovered": 8334,
    "latitude": 44.9,
    "pop": 4376000,
    "sick": 15719,
    "invisible": false
  },
  {
    "latitude": 51.993,
    "pop": 1003000,
    "longitude": 15.461,
    "name": "Lubuskie",
    "country": "PL",
    "lastUpdated": "2020-05-03T15:33:02.123Z",
    "dead": 0,
    "id": "1j1OurxLTpZYuWIWwQ9F",
    "infected": 88,
    "recovered": 0,
    "sick": 88,
    "invisible": false
  },
  {
    "lastUpdated": "2020-05-03T15:55:03.520Z",
    "dead": 125,
    "id": "1qTPB8X3tyLyIdsb5TN3",
    "infected": 4121,
    "recovered": 1382,
    "latitude": 47.4116,
    "pop": 3550000,
    "longitude": 28.3699,
    "name": "Moldova",
    "country": "MD",
    "sick": 2614,
    "invisible": false
  },
  {
    "latitude": 37.0902,
    "longitude": -95.7129,
    "name": "Federal Bureau of Prisons",
    "country": "US",
    "lastUpdated": "2020-05-03T15:39:01.523Z",
    "dead": 37,
    "id": "22PJOAThcDFKgSbyQIkD",
    "invisible": true,
    "infected": 2268,
    "recovered": 0,
    "sick": 2231
  },
  {
    "lastUpdated": "2020-05-03T15:38:13.842Z",
    "dead": 0,
    "id": "25qIBtsW2nfQj3pwBKg9",
    "infected": 1,
    "recovered": 1,
    "latitude": 30.15336,
    "pop": 3180000,
    "longitude": 88.787865,
    "name": "Tibet",
    "country": "CN",
    "sick": 0,
    "invisible": false
  },
  {
    "latitude": -1.572184,
    "pop": 264000000,
    "longitude": 115.66779,
    "name": "Indonesia",
    "country": "ID",
    "lastUpdated": "2020-05-03T15:55:03.518Z",
    "dead": 845,
    "id": "2KHYUb5t3lwzVVmDjwNX",
    "infected": 11192,
    "recovered": 1876,
    "sick": 8471,
    "invisible": false
  },
  {
    "latitude": 43.807191,
    "pop": 4191000,
    "longitude": -120.585594,
    "name": "Oregon",
    "country": "US",
    "lastUpdated": "2020-05-03T15:39:01.516Z",
    "dead": 109,
    "id": "2OrsssmGUs4XCzaZzvTv",
    "infected": 2635,
    "recovered": 0,
    "sick": 2526,
    "invisible": false
  },
  {
    "infected": 679,
    "recovered": 0,
    "latitude": -23.65,
    "pop": 425000,
    "longitude": -70.400002,
    "name": "Antofagasta",
    "country": "CL",
    "lastUpdated": "2020-05-03T15:41:13.765Z",
    "dead": 7,
    "id": "2c5HBZ1ffkCVXnMYUWnY",
    "sick": 672,
    "invisible": false
  },
  {
    "latitude": 0.035574,
    "pop": 9029000,
    "longitude": -51.070534,
    "name": "Amapá",
    "country": "BR",
    "lastUpdated": "2020-05-03T15:41:08.669Z",
    "dead": 40,
    "id": "2dzhyWsBSPpENWlNew0b",
    "infected": 1187,
    "recovered": 0,
    "sick": 1147,
    "invisible": false
  },
  {
    "id": "2jxHvSsxdnom0nPNvOT8",
    "infected": 112,
    "recovered": 103,
    "latitude": 43.851921,
    "pop": 27460000,
    "longitude": 126.548103,
    "name": "Jilin",
    "country": "CN",
    "lastUpdated": "2020-05-03T15:38:13.838Z",
    "dead": 1,
    "sick": 8,
    "invisible": false
  },
  {
    "latitude": 36.1408,
    "pop": 34571,
    "longitude": -5.3536,
    "name": "Gibraltar",
    "country": "GI",
    "lastUpdated": "2020-05-03T15:55:03.537Z",
    "dead": 0,
    "id": "2p11BjSAs3wVyymgqBOe",
    "infected": 144,
    "recovered": 132,
    "sick": 12,
    "invisible": false
  },
  {
    "latitude": 47.7516,
    "pop": 2567000,
    "longitude": 1.6751,
    "name": "Centre-Val de Loire",
    "country": "FR",
    "lastUpdated": "2020-05-02T22:10:26.055Z",
    "dead": 397,
    "id": "2sLNkkHpyaHx7dD3aMDO",
    "infected": 3700,
    "recovered": 1229,
    "sick": 2074,
    "invisible": false
  },
  {
    "latitude": 42.565044,
    "pop": 884640,
    "longitude": 12.643751,
    "name": "Umbria",
    "country": "IT",
    "lastUpdated": "2020-05-03T15:31:02.715Z",
    "dead": 68,
    "id": "319tiZOMczx1y0DfvOib",
    "infected": 1394,
    "recovered": 1130,
    "sick": 196,
    "invisible": false
  },
  {
    "infected": 35,
    "recovered": 13,
    "latitude": 2.43823,
    "pop": 1355000,
    "longitude": -76.6131592,
    "name": "Cauca",
    "country": "CO",
    "lastUpdated": "2020-05-03T15:33:09.449Z",
    "dead": 4,
    "id": "38T96Q3XNjt5FSJygPed",
    "sick": 18,
    "invisible": false
  },
  {
    "infected": 124,
    "recovered": 78,
    "latitude": -13.133896,
    "pop": 17090000,
    "longitude": 27.849332,
    "name": "Zambia",
    "country": "ZM",
    "lastUpdated": "2020-05-03T15:55:03.537Z",
    "dead": 3,
    "id": "3IlPjAbP5qVMn1nlgLTJ",
    "sick": 43,
    "invisible": false
  },
  {
    "latitude": 42.7044,
    "pop": 631219,
    "longitude": 19.3958,
    "name": "Montenegro",
    "country": "ME",
    "lastUpdated": "2020-05-03T15:55:03.529Z",
    "dead": 8,
    "id": "3LstMSN5XMYBkxbe5HN7",
    "infected": 322,
    "recovered": 249,
    "sick": 65,
    "invisible": false
  },
  {
    "longitude": 149.0124,
    "name": "Australian Capital Territory",
    "country": "AU",
    "lastUpdated": "2020-05-03T15:36:01.651Z",
    "dead": 3,
    "id": "3OZoQsKrzxZ18EKyfGE6",
    "infected": 106,
    "recovered": 103,
    "latitude": -35.4735,
    "pop": 418440,
    "sick": 0,
    "invisible": false
  },
  {
    "latitude": 26.2006,
    "pop": 30940000,
    "longitude": 92.9376,
    "name": "Assam",
    "country": "IN",
    "lastUpdated": "2020-05-03T15:41:01.252Z",
    "dead": 1,
    "id": "3cCbnJCsK7mKlTO08K1o",
    "infected": 43,
    "recovered": 33,
    "sick": 9,
    "invisible": false
  },
  {
    "lastUpdated": "2020-05-03T15:39:01.512Z",
    "dead": 1021,
    "id": "3fC3bAyIRUquOQOEnQNe",
    "infected": 19335,
    "recovered": 0,
    "latitude": 40.4173,
    "pop": 11690000,
    "longitude": -82.9071,
    "name": "Ohio",
    "country": "US",
    "sick": 18314,
    "invisible": false
  },
  {
    "infected": 1076,
    "recovered": 0,
    "latitude": 25,
    "pop": 3066400,
    "longitude": -107.5,
    "name": "Sinaloa",
    "country": "MX",
    "lastUpdated": "2020-05-03T15:31:07.809Z",
    "dead": 165,
    "id": "3kFCzJguabtBvXaHxgiu",
    "sick": 911,
    "invisible": false
  },
  {
    "latitude": 3.420556,
    "pop": 4708300,
    "longitude": -76.522224,
    "name": "Valle del Cauca",
    "country": "CO",
    "lastUpdated": "2020-05-03T15:33:09.447Z",
    "dead": 60,
    "id": "3mC2LveOpXV8P1PmQGUj",
    "infected": 1021,
    "recovered": 234,
    "sick": 727,
    "invisible": false
  },
  {
    "lastUpdated": "2020-05-03T15:55:03.541Z",
    "dead": 1,
    "id": "4NnFMekRK2m14IlnZZoj",
    "infected": 8,
    "recovered": 6,
    "latitude": 21.0079,
    "pop": 4420000,
    "longitude": -10.9408,
    "name": "Mauritania",
    "country": "MR",
    "sick": 1,
    "invisible": false
  },
  {
    "latitude": 53.7267,
    "pop": 5071000,
    "longitude": -127.6476,
    "name": "British Columbia",
    "country": "CA",
    "lastUpdated": "2020-05-03T15:36:01.649Z",
    "dead": 114,
    "id": "4hfZRUoUgI4a3vrG0GBk",
    "infected": 2171,
    "recovered": 0,
    "sick": 2057,
    "invisible": false
  },
  {
    "recovered": 0,
    "latitude": -22.908333,
    "pop": 17159960,
    "longitude": -43.196388,
    "name": "Rio de Janeiro",
    "country": "BR",
    "lastUpdated": "2020-05-03T15:41:08.674Z",
    "dead": 971,
    "id": "4kq0z3kh5zt3YAUWxvtE",
    "infected": 10546,
    "sick": 9575,
    "invisible": false
  },
  {
    "recovered": 0,
    "latitude": -11.409874,
    "pop": 14812617,
    "longitude": -41.280857,
    "name": "Bahia",
    "country": "BR",
    "lastUpdated": "2020-05-03T15:41:08.670Z",
    "dead": 123,
    "id": "4yDbkEyqsNzZJjfrciYV",
    "infected": 3315,
    "sick": 3192,
    "invisible": false
  },
  {
    "infected": 1932,
    "recovered": 1441,
    "latitude": 40.3426,
    "pop": 9898000,
    "longitude": 47.93802,
    "name": "Azerbaijan",
    "country": "AZ",
    "lastUpdated": "2020-05-03T15:55:03.522Z",
    "dead": 25,
    "id": "4zqzRm2xHn0CDVOUQJ8p",
    "sick": 466,
    "invisible": false
  },
  {
    "id": "54cfsdsRF76XVHWtZs19",
    "infected": 561,
    "recovered": 0,
    "latitude": 22.233105,
    "pop": 3672300,
    "longitude": -97.861099,
    "name": "Tamaulipas",
    "country": "MX",
    "lastUpdated": "2020-05-03T15:31:07.811Z",
    "dead": 27,
    "sick": 534,
    "invisible": false
  },
  {
    "infected": 27516,
    "recovered": 6884,
    "latitude": 51.0109,
    "pop": 6596000,
    "longitude": 3.7265,
    "name": "Flanders",
    "country": "BE",
    "lastUpdated": "2020-05-03T15:56:10.570Z",
    "dead": 3904,
    "id": "57ydD48mLRD2YoyteJZj",
    "sick": 16728,
    "invisible": false
  },
  {
    "lastUpdated": "2020-05-03T15:55:03.538Z",
    "dead": 11,
    "id": "5MHegCUO9L3LiAU7DDey",
    "infected": 83,
    "recovered": 24,
    "latitude": 25.025885,
    "pop": 395361,
    "longitude": -78.035889,
    "name": "Bahamas",
    "country": "BS",
    "sick": 48,
    "invisible": false
  },
  {
    "longitude": 146.921097,
    "name": "New South Wales",
    "country": "AU",
    "lastUpdated": "2020-05-03T15:36:01.649Z",
    "dead": 42,
    "id": "5N16a2OXXRpsEFanw0TC",
    "infected": 3025,
    "recovered": 2306,
    "latitude": -31.253218,
    "pop": 7544000,
    "sick": 677,
    "invisible": false
  },
  {
    "infected": 46,
    "recovered": 0,
    "latitude": 6.8769908,
    "pop": 12580000,
    "longitude": 31.3069782,
    "name": "South Sudan",
    "country": "SS",
    "lastUpdated": "2020-05-03T15:55:03.539Z",
    "dead": 0,
    "id": "5N4PRxsCDzzwk7R200V1",
    "sick": 46,
    "invisible": false
  },
  {
    "longitude": -0.7533,
    "name": "C. Valenciana",
    "country": "ES",
    "lastUpdated": "2020-05-03T15:39:09.838Z",
    "dead": 1264,
    "id": "5Va9A7CXR8AXdUz4HTJj",
    "infected": 12686,
    "recovered": 7447,
    "latitude": 39.484,
    "pop": 4975000,
    "sick": 3975,
    "invisible": false
  },
  {
    "infected": 18,
    "recovered": 17,
    "latitude": -20.9043045,
    "pop": 280460,
    "longitude": 165.618042,
    "name": "New Caledonia",
    "country": "NC",
    "lastUpdated": "2020-05-03T15:55:03.540Z",
    "dead": 0,
    "id": "5fg04eyDwFw3kEXnrxez",
    "sick": 1,
    "invisible": false
  },
  {
    "longitude": 84.124008,
    "name": "Nepal",
    "country": "NP",
    "lastUpdated": "2020-05-03T15:55:03.538Z",
    "dead": 0,
    "id": "5gXZIjRgAvd6xWN1LOv8",
    "infected": 75,
    "recovered": 16,
    "latitude": 28.394857,
    "pop": 29300000,
    "sick": 59,
    "invisible": false
  },
  {
    "latitude": 12.879721,
    "pop": 104900000,
    "longitude": 121.774017,
    "name": "Philippines",
    "country": "PH",
    "lastUpdated": "2020-05-03T15:55:03.519Z",
    "dead": 607,
    "id": "5pwmh7aSdGRKqRbnuyc0",
    "infected": 9223,
    "recovered": 1214,
    "sick": 7402,
    "invisible": false
  },
  {
    "lastUpdated": "2020-05-03T15:55:03.539Z",
    "dead": 4,
    "id": "5qtR9nx4BLwu1ODTniaY",
    "infected": 34,
    "recovered": 5,
    "latitude": -17.824858,
    "pop": 14802190,
    "longitude": 31.053028,
    "name": "Zimbabwe",
    "country": "ZW",
    "sick": 25,
    "invisible": false
  },
  {
    "latitude": 36.0672,
    "pop": 356890,
    "longitude": -109.188,
    "name": "Navajo Nation",
    "country": "US",
    "lastUpdated": "2020-05-03T15:39:01.522Z",
    "dead": 73,
    "id": "5vkKgxTaKq1IH0Go357L",
    "invisible": true,
    "infected": 2307,
    "recovered": 0,
    "sick": 2234
  },
  {
    "latitude": 19.432241,
    "pop": 8781300,
    "longitude": -99.177254,
    "name": "Ciudad de México",
    "country": "MX",
    "lastUpdated": "2020-05-03T15:31:07.810Z",
    "dead": 418,
    "id": "61E7TGjUwAo9xu6Y6gAH",
    "infected": 6013,
    "recovered": 0,
    "sick": 5595,
    "invisible": false
  },
  {
    "lastUpdated": "2020-05-03T15:55:03.523Z",
    "dead": 46,
    "id": "694ON7d0mRJDeM1gHBTR",
    "infected": 1410,
    "recovered": 635,
    "latitude": 55.621011,
    "pop": 2794000,
    "longitude": 23.804991,
    "name": "Lithuania",
    "country": "LT",
    "sick": 729,
    "invisible": false
  },
  {
    "infected": 17324,
    "recovered": 0,
    "latitude": 51.1781,
    "pop": 9175000,
    "longitude": -0.5596,
    "name": "South East",
    "country": "GB",
    "lastUpdated": "2020-05-03T15:40:24.652Z",
    "dead": 0,
    "id": "6IQAsvrmBv0HPdeTnh4x",
    "sick": 17324,
    "invisible": false
  },
  {
    "infected": 1040,
    "recovered": 879,
    "latitude": 22.396427,
    "pop": 7392000,
    "longitude": 114.109497,
    "name": "Hong Kong",
    "country": "HK",
    "lastUpdated": "2020-05-03T15:55:03.523Z",
    "dead": 4,
    "id": "6IcHIIH0zXpY0POmBZTv",
    "sick": 157,
    "invisible": false
  },
  {
    "infected": 553,
    "recovered": 0,
    "latitude": -8.65,
    "pop": 869265,
    "longitude": -72.4,
    "name": "Acre",
    "country": "BR",
    "lastUpdated": "2020-05-03T15:41:08.664Z",
    "dead": 22,
    "id": "6LQesrx5bHJsVUi1TXBp",
    "sick": 531,
    "invisible": false
  },
  {
    "infected": 90,
    "recovered": 42,
    "latitude": 9.3077,
    "pop": 11180000,
    "longitude": 2.3158,
    "name": "Benin",
    "country": "BJ",
    "lastUpdated": "2020-05-03T15:55:03.538Z",
    "dead": 2,
    "id": "6SlpghTyB6lpMFvx3g9U",
    "sick": 46,
    "invisible": false
  },
  {
    "latitude": 45.6667,
    "pop": 10040000,
    "longitude": 9.5,
    "name": "Lombardia",
    "country": "IT",
    "lastUpdated": "2020-05-03T15:31:02.714Z",
    "dead": 14189,
    "id": "6ZHcvMIzVWIaRnc4R3Qp",
    "infected": 77002,
    "recovered": 26146,
    "sick": 36667,
    "invisible": false
  },
  {
    "id": "6ahNiyKDSDAftCctgLH3",
    "infected": 1439,
    "recovered": 241,
    "latitude": 46.0569,
    "pop": 2067000,
    "longitude": 14.5058,
    "name": "Slovenia",
    "country": "SI",
    "lastUpdated": "2020-05-03T15:55:03.523Z",
    "dead": 96,
    "sick": 1102,
    "invisible": false
  },
  {
    "recovered": 0,
    "latitude": -27.3667908,
    "pop": 300000,
    "longitude": -70.331398,
    "name": "Atacama",
    "country": "CL",
    "lastUpdated": "2020-05-03T15:41:13.766Z",
    "dead": 0,
    "id": "6nyns7UGGgkU7pxrHf8i",
    "infected": 59,
    "sick": 59,
    "invisible": false
  },
  {
    "infected": 335,
    "recovered": 85,
    "latitude": -0.8037,
    "pop": 2025000,
    "longitude": 11.6094,
    "name": "Gabon",
    "country": "GA",
    "lastUpdated": "2020-05-03T15:55:03.529Z",
    "dead": 5,
    "id": "6pBi38TUgYfFm0bry2uh",
    "sick": 245,
    "invisible": false
  },
  {
    "latitude": 22.1498,
    "pop": 2831900,
    "longitude": -100.9792,
    "name": "San Luis Potosí",
    "country": "MX",
    "lastUpdated": "2020-05-03T15:31:07.811Z",
    "dead": 9,
    "id": "6vjIVg1gSANFZghV7xtS",
    "infected": 141,
    "recovered": 0,
    "sick": 132,
    "invisible": false
  },
  {
    "lastUpdated": "2020-05-03T15:55:03.541Z",
    "dead": 0,
    "id": "78Ox26bNHDA2Pk2b3Uwn",
    "infected": 6,
    "recovered": 6,
    "latitude": 17.901672,
    "pop": 9131,
    "longitude": -62.818544,
    "name": "Saint-Barthélémy",
    "country": "FR",
    "sick": 0,
    "invisible": false
  },
  {
    "infected": 444,
    "recovered": 0,
    "latitude": 54.367,
    "pop": 2305000,
    "longitude": 18.633,
    "name": "Pomorskie",
    "country": "PL",
    "lastUpdated": "2020-05-03T15:33:02.121Z",
    "dead": 15,
    "id": "7JDx6UJiwGSJyL1fChaJ",
    "sick": 429,
    "invisible": false
  },
  {
    "latitude": 35.2923,
    "pop": 84690,
    "longitude": -2.9381,
    "name": "Melilla",
    "country": "ES",
    "lastUpdated": "2020-05-03T15:39:09.838Z",
    "dead": 2,
    "id": "7UASdZTZ1nPzzBwSTEA9",
    "infected": 129,
    "recovered": 98,
    "sick": 29,
    "invisible": false
  },
  {
    "longitude": -61.7964,
    "name": "Antigua and Barbuda",
    "country": "AG",
    "lastUpdated": "2020-05-03T15:55:03.539Z",
    "dead": 3,
    "id": "7hVFcEV7nV0MrQr3LHrl",
    "infected": 25,
    "recovered": 15,
    "latitude": 17.0608,
    "pop": 102012,
    "sick": 7,
    "invisible": false
  },
  {
    "longitude": 11.4979,
    "name": "Bayern",
    "country": "DE",
    "lastUpdated": "2020-05-03T15:30:07.009Z",
    "dead": 2050,
    "id": "7kCrrlOBE3jN6FtOVNUB",
    "infected": 43872,
    "recovered": 33610,
    "latitude": 48.7904,
    "pop": 13000000,
    "sick": 8212,
    "invisible": false
  },
  {
    "recovered": 629,
    "latitude": 47.4979,
    "pop": 9773000,
    "longitude": 19.0402,
    "name": "Hungary",
    "country": "HU",
    "lastUpdated": "2020-05-03T15:55:03.520Z",
    "dead": 340,
    "id": "7rYC2iFB50c55Ihgbs4Q",
    "infected": 2998,
    "sick": 2029,
    "invisible": false
  },
  {
    "id": "7tqLvLyXcBDK808nJv0m",
    "infected": 201,
    "recovered": 41,
    "latitude": 10.9685,
    "pop": 2400000,
    "longitude": -74.7813,
    "name": "Barranquilla D.E.",
    "country": "CO",
    "lastUpdated": "2020-05-03T15:33:09.449Z",
    "dead": 8,
    "sick": 152,
    "invisible": false
  },
  {
    "latitude": 7.3697,
    "pop": 24050000,
    "longitude": 12.3547,
    "name": "Cameroon",
    "country": "CM",
    "lastUpdated": "2020-05-03T15:55:03.522Z",
    "dead": 64,
    "id": "8C0d7WVCjyUGtnc2gUAR",
    "infected": 2077,
    "recovered": 953,
    "sick": 1060,
    "invisible": false
  },
  {
    "recovered": 1946,
    "latitude": 50.8503,
    "pop": 1209000,
    "longitude": 4.3517,
    "name": "Brussels",
    "country": "BE",
    "lastUpdated": "2020-05-03T15:56:10.565Z",
    "dead": 1219,
    "id": "8DOZWbN6bDdgaLXVlUEu",
    "infected": 5126,
    "sick": 1961,
    "invisible": false
  },
  {
    "infected": 1470,
    "recovered": 159,
    "latitude": -16.2902,
    "pop": 11050000,
    "longitude": -63.5887,
    "name": "Bolivia",
    "country": "BO",
    "lastUpdated": "2020-05-03T15:55:03.523Z",
    "dead": 71,
    "id": "8RihJrXw4NQXPxaRxr1u",
    "sick": 1240,
    "invisible": false
  },
  {
    "lastUpdated": "2020-05-03T15:55:03.540Z",
    "dead": 0,
    "id": "8ZTySQROQejkDAad0qxQ",
    "infected": 16,
    "recovered": 8,
    "latitude": 12.9843,
    "pop": 109897,
    "longitude": -61.2872,
    "name": "St. Vincent Grenadines",
    "country": "VC",
    "sick": 8,
    "invisible": false
  },
  {
    "id": "8pA3fM4xC2c2wv1b4TnE",
    "infected": 18205,
    "recovered": 1408,
    "latitude": 1.352083,
    "pop": 5621000,
    "longitude": 103.819839,
    "name": "Singapore",
    "country": "SG",
    "lastUpdated": "2020-05-03T15:55:03.518Z",
    "dead": 18,
    "sick": 16779,
    "invisible": false
  },
  {
    "latitude": 47.2184,
    "pop": 3787000,
    "longitude": -1.5536,
    "name": "Pays de la Loire",
    "country": "FR",
    "lastUpdated": "2020-05-02T22:09:56.131Z",
    "dead": 348,
    "id": "98hwAoohgWEOQVa3NlM5",
    "infected": 3201,
    "recovered": 1286,
    "sick": 1567,
    "invisible": false
  },
  {
    "infected": 150,
    "recovered": 0,
    "latitude": 19.30754,
    "pop": 952300,
    "longitude": -90.19885,
    "name": "Campeche",
    "country": "MX",
    "lastUpdated": "2020-05-03T15:31:07.811Z",
    "dead": 19,
    "id": "9DAvxOObTqIvMOU93nlY",
    "sick": 131,
    "invisible": false
  },
  {
    "lastUpdated": "2020-05-03T15:55:03.527Z",
    "dead": 41,
    "id": "9DPOkpIqrFy9mR4e9fuv",
    "infected": 592,
    "recovered": 52,
    "latitude": 12.8628,
    "pop": 40530000,
    "longitude": 30.2176,
    "name": "Sudan",
    "country": "SD",
    "sick": 499,
    "invisible": false
  },
  {
    "pop": 19530000,
    "longitude": 24.966761,
    "name": "Romania",
    "country": "RO",
    "lastUpdated": "2020-05-03T15:55:03.518Z",
    "dead": 790,
    "id": "9QcETqEcM2fTv9zRvx5T",
    "infected": 13163,
    "recovered": 4869,
    "latitude": 45.943161,
    "sick": 7504,
    "invisible": false
  },
  {
    "infected": 14,
    "recovered": 7,
    "latitude": 12.136389,
    "pop": 6218000,
    "longitude": -86.251389,
    "name": "Nicaragua",
    "country": "NI",
    "lastUpdated": "2020-05-03T15:55:03.540Z",
    "dead": 3,
    "id": "9Y5wmCqNCC6ZrenM31uA",
    "sick": 4,
    "invisible": false
  },
  {
    "pop": 18540000,
    "longitude": -3.996166,
    "name": "Mali",
    "country": "ML",
    "lastUpdated": "2020-05-03T15:55:03.527Z",
    "dead": 26,
    "id": "9dIzxqDSVqPyINkHqwGv",
    "infected": 544,
    "recovered": 206,
    "latitude": 17.5706921,
    "sick": 312,
    "invisible": false
  },
  {
    "id": "9p6OCdZbUUwBLA60Gk3W",
    "infected": 5254,
    "recovered": 3000,
    "latitude": 61.92411,
    "pop": 5513000,
    "longitude": 25.748152,
    "name": "Finland",
    "country": "FI",
    "lastUpdated": "2020-05-03T15:55:03.519Z",
    "dead": 230,
    "sick": 2024,
    "invisible": false
  },
  {
    "infected": 2429,
    "recovered": 0,
    "latitude": 43.311643,
    "pop": 1356000,
    "longitude": -71.590315,
    "name": "New Hampshire",
    "country": "US",
    "lastUpdated": "2020-05-03T15:39:01.516Z",
    "dead": 84,
    "id": "A84CwQ52kA46Hr7pn6Bm",
    "sick": 2345,
    "invisible": false
  },
  {
    "infected": 9289,
    "recovered": 0,
    "latitude": 41.823261,
    "pop": 1057000,
    "longitude": -71.412257,
    "name": "Rhode Island",
    "country": "US",
    "lastUpdated": "2020-05-03T15:39:01.513Z",
    "dead": 296,
    "id": "AEUWUHS65qvjEslew11c",
    "sick": 8993,
    "invisible": false
  },
  {
    "latitude": 44.498955,
    "pop": 4453000,
    "longitude": 11.327591,
    "name": "Emilia-Romagna",
    "country": "IT",
    "lastUpdated": "2020-05-03T15:31:02.713Z",
    "dead": 3614,
    "id": "AJ9jQ0iyKsafsmf5yHAR",
    "infected": 25850,
    "recovered": 12913,
    "sick": 9323,
    "invisible": false
  },
  {
    "longitude": 7.023,
    "name": "Saarland",
    "country": "DE",
    "lastUpdated": "2020-05-03T15:30:07.011Z",
    "dead": 140,
    "id": "AKjFRQGnzuuZQhv5Qwx7",
    "infected": 2656,
    "recovered": 2049,
    "latitude": 49.3964,
    "pop": 990509,
    "sick": 467,
    "invisible": false
  },
  {
    "pop": 1125002,
    "longitude": -71.167,
    "name": "Maule",
    "country": "CL",
    "lastUpdated": "2020-05-03T15:41:13.766Z",
    "dead": 13,
    "id": "APTPgjAsjFi0nsGyJV7M",
    "infected": 396,
    "recovered": 0,
    "latitude": -35.717,
    "sick": 383,
    "invisible": false
  },
  {
    "pop": 56171,
    "longitude": -42.6043,
    "name": "Greenland",
    "country": "GL",
    "lastUpdated": "2020-05-03T15:55:03.541Z",
    "dead": 0,
    "id": "APaZzlGCEeuoLBtzTJMe",
    "infected": 11,
    "recovered": 11,
    "latitude": 71.7069,
    "sick": 0,
    "invisible": false
  },
  {
    "pop": 971395,
    "longitude": -63.582687,
    "name": "Nova Scotia",
    "country": "CA",
    "lastUpdated": "2020-05-03T15:36:01.649Z",
    "dead": 31,
    "id": "AVCpxeh0fuH2WrHWNDYH",
    "infected": 963,
    "recovered": 0,
    "latitude": 45.65107,
    "sick": 932,
    "invisible": false
  },
  {
    "infected": 455,
    "recovered": 0,
    "latitude": 47.012918,
    "pop": 1062000,
    "longitude": -109.128641,
    "name": "Montana",
    "country": "US",
    "lastUpdated": "2020-05-03T15:39:01.521Z",
    "dead": 16,
    "id": "AcULcZBozObOhwuRKMjJ",
    "sick": 439,
    "invisible": false
  },
  {
    "infected": 937,
    "recovered": 936,
    "latitude": 27.285971,
    "pop": 45200000,
    "longitude": 116.01609,
    "name": "Jiangxi",
    "country": "CN",
    "lastUpdated": "2020-05-03T15:38:13.840Z",
    "dead": 1,
    "id": "AmBYm5J6E9Cuez1FQjiN",
    "sick": 0,
    "invisible": false
  },
  {
    "infected": 10155,
    "recovered": 0,
    "latitude": 52.1307,
    "pop": 3136000,
    "longitude": -3.7837,
    "name": "Wales",
    "country": "GB",
    "lastUpdated": "2020-05-03T15:40:24.650Z",
    "dead": 969,
    "id": "AoLhHdTydeWTfmp9koEX",
    "sick": 9186,
    "invisible": false
  },
  {
    "infected": 4474,
    "recovered": 1936,
    "latitude": 28.033886,
    "pop": 41320000,
    "longitude": 1.659626,
    "name": "Algeria",
    "country": "DZ",
    "lastUpdated": "2020-05-03T15:55:03.520Z",
    "dead": 463,
    "id": "AwN0CScPDApcLFgz6e3z",
    "sick": 2075,
    "invisible": false
  },
  {
    "infected": 2096,
    "recovered": 1489,
    "latitude": 45.099998,
    "pop": 4076000,
    "longitude": 15.2,
    "name": "Croatia",
    "country": "HR",
    "lastUpdated": "2020-05-03T15:55:03.521Z",
    "dead": 79,
    "id": "B82Ef45M8cDu4q7VsSHF",
    "sick": 528,
    "invisible": false
  },
  {
    "infected": 736,
    "recovered": 507,
    "latitude": 17.6077881,
    "pop": 23716000,
    "longitude": 8.081666,
    "name": "Niger",
    "country": "NE",
    "lastUpdated": "2020-05-03T15:55:03.525Z",
    "dead": 35,
    "id": "BENubqQInFUJzhpZTsLT",
    "sick": 194,
    "invisible": false
  },
  {
    "infected": 25462,
    "recovered": 0,
    "latitude": 39.509109,
    "pop": 6043000,
    "longitude": -76.98432,
    "name": "Maryland",
    "country": "US",
    "lastUpdated": "2020-05-03T15:39:01.512Z",
    "dead": 1281,
    "id": "BF51mWl51fgEcyBpCSzb",
    "sick": 24181,
    "invisible": false
  },
  {
    "latitude": 53.709808,
    "pop": 9508000,
    "longitude": 27.953388,
    "name": "Belarus",
    "country": "BY",
    "lastUpdated": "2020-05-03T15:55:03.518Z",
    "dead": 99,
    "id": "BGg6yVU5VP71B8NXU0oh",
    "infected": 16705,
    "recovered": 3196,
    "sick": 13410,
    "invisible": false
  },
  {
    "latitude": 48.8799,
    "pop": 3319000,
    "longitude": 0.1713,
    "name": "Normandie",
    "country": "FR",
    "lastUpdated": "2020-05-02T22:10:13.716Z",
    "dead": 350,
    "id": "BGtoyzb7y54LVlJ91rbf",
    "infected": 2860,
    "recovered": 1094,
    "sick": 1416,
    "invisible": false
  },
  {
    "id": "BQqMOlPFD36ZEDTGd3WC",
    "infected": 6405,
    "recovered": 0,
    "latitude": 50.7772,
    "pop": 5616000,
    "longitude": -3.9995,
    "name": "South West",
    "country": "GB",
    "lastUpdated": "2020-05-03T15:40:24.652Z",
    "dead": 0,
    "sick": 6405,
    "invisible": false
  },
  {
    "recovered": 0,
    "latitude": 34.048927,
    "pop": 7172000,
    "longitude": -111.093735,
    "name": "Arizona",
    "country": "US",
    "lastUpdated": "2020-05-03T15:39:01.514Z",
    "dead": 348,
    "id": "BTEESCuD2ZbS1afunR2A",
    "infected": 8364,
    "sick": 8016,
    "invisible": false
  },
  {
    "infected": 414,
    "recovered": 0,
    "latitude": 53.428543,
    "pop": 1676000,
    "longitude": 14.552812,
    "name": "Zachodniopomorskie",
    "country": "PL",
    "lastUpdated": "2020-05-03T15:33:02.122Z",
    "dead": 10,
    "id": "BZwZOAlDJ8AIiaRVLyC9",
    "sick": 404,
    "invisible": false
  },
  {
    "longitude": -70.6693,
    "name": "Unknown Chile region",
    "country": "CL",
    "lastUpdated": "2020-05-03T15:41:13.767Z",
    "dead": 0,
    "id": "BbiuZcm8oURX7cZwaa5U",
    "invisible": true,
    "infected": 0,
    "recovered": 9572,
    "latitude": -33.4489,
    "sick": 0
  },
  {
    "lastUpdated": "2020-05-03T15:55:03.539Z",
    "dead": 3,
    "id": "BfT8o5DaEixC6JIZ28kY",
    "infected": 39,
    "recovered": 9,
    "latitude": -13.2543,
    "pop": 18620000,
    "longitude": 34.3015,
    "name": "Malawi",
    "country": "MW",
    "sick": 27,
    "invisible": false
  },
  {
    "lastUpdated": "2020-05-03T15:55:03.540Z",
    "dead": 1,
    "id": "BnpMamidC5yYzeK8tPUL",
    "infected": 15,
    "recovered": 7,
    "latitude": -3.3730559,
    "pop": 10860000,
    "longitude": 29.9188862,
    "name": "Burundi",
    "country": "BI",
    "sick": 7,
    "invisible": false
  },
  {
    "latitude": 52.257,
    "pop": 5385000,
    "longitude": 21.002,
    "name": "Mazowieckie",
    "country": "PL",
    "lastUpdated": "2020-05-03T15:33:02.119Z",
    "dead": 207,
    "id": "BrToMzyq8y2xdwXn75kM",
    "infected": 2508,
    "recovered": 0,
    "sick": 2301,
    "invisible": false
  },
  {
    "lastUpdated": "2020-05-03T15:33:09.451Z",
    "dead": 8,
    "id": "C25xSDm4iYibX5RYML14",
    "infected": 136,
    "recovered": 0,
    "latitude": -1.333845,
    "pop": 74751,
    "longitude": -71.347573,
    "name": "Amazonas (Colombia)",
    "country": "CO",
    "sick": 128,
    "invisible": false
  },
  {
    "latitude": 40.719042,
    "pop": 19540000,
    "longitude": -73.982597,
    "name": "New York",
    "country": "US",
    "lastUpdated": "2020-05-03T15:39:01.511Z",
    "dead": 24368,
    "id": "C3BCUzV80z9GfiuByIcr",
    "infected": 319213,
    "recovered": 0,
    "sick": 294845,
    "invisible": false
  },
  {
    "longitude": 15.359413,
    "name": "Czechia",
    "country": "CZ",
    "lastUpdated": "2020-05-03T15:55:03.519Z",
    "dead": 245,
    "id": "C6S76AggdWVU8G22jFHQ",
    "infected": 7764,
    "recovered": 3584,
    "latitude": 49.731626,
    "pop": 10650000,
    "sick": 3935,
    "invisible": false
  },
  {
    "infected": 3356,
    "recovered": 1717,
    "latitude": 26.0667,
    "pop": 1493000,
    "longitude": 50.557701,
    "name": "Bahrain",
    "country": "BH",
    "lastUpdated": "2020-05-03T15:55:03.520Z",
    "dead": 8,
    "id": "C7cj4nwRITs13KnaJrQ2",
    "sick": 1631,
    "invisible": false
  },
  {
    "lastUpdated": "2020-05-03T15:33:09.450Z",
    "dead": 5,
    "id": "CA9LaAl3bNaeAqBuozn4",
    "infected": 54,
    "recovered": 3,
    "latitude": 10.4113,
    "pop": 1285400,
    "longitude": -74.4057,
    "name": "Magdalena",
    "country": "CO",
    "sick": 46,
    "invisible": false
  },
  {
    "recovered": 0,
    "latitude": 26.909979,
    "pop": 3073500,
    "longitude": -101.430756,
    "name": "Coahuila",
    "country": "MX",
    "lastUpdated": "2020-05-03T15:31:07.810Z",
    "dead": 43,
    "id": "CCUFp4urvgXPo5unfMGy",
    "infected": 464,
    "sick": 421,
    "invisible": false
  },
  {
    "longitude": 74.2179,
    "name": "Rajasthan",
    "country": "IN",
    "lastUpdated": "2020-05-03T15:41:01.249Z",
    "dead": 71,
    "id": "CKZCZTPlrcq5fbfUPA9k",
    "infected": 2832,
    "recovered": 1293,
    "latitude": 27.0238,
    "pop": 68890000,
    "sick": 1468,
    "invisible": false
  },
  {
    "latitude": 13.803,
    "pop": 6378000,
    "longitude": -88.9053,
    "name": "El Salvador",
    "country": "SV",
    "lastUpdated": "2020-05-03T15:55:03.528Z",
    "dead": 11,
    "id": "Cgvmtle61ehMvCzRzYx7",
    "infected": 490,
    "recovered": 154,
    "sick": 325,
    "invisible": false
  },
  {
    "lastUpdated": "2020-05-03T15:55:03.520Z",
    "dead": 35,
    "id": "DCJCtZoBTWQ4mzdDNljD",
    "infected": 2386,
    "recovered": 1035,
    "latitude": 40.259003,
    "pop": 2973000,
    "longitude": 44.818474,
    "name": "Armenia",
    "country": "AM",
    "sick": 1316,
    "invisible": false
  },
  {
    "longitude": -73.368,
    "name": "Boyacá",
    "country": "CO",
    "lastUpdated": "2020-05-03T15:33:09.450Z",
    "dead": 3,
    "id": "DJJraANgQbEqz1wBBtZz",
    "infected": 47,
    "recovered": 14,
    "latitude": 5.535,
    "pop": 1278000,
    "sick": 30,
    "invisible": false
  },
  {
    "latitude": 53.6221,
    "pop": 7300000,
    "longitude": -2.5945,
    "name": "North West",
    "country": "GB",
    "lastUpdated": "2020-05-03T15:40:24.652Z",
    "dead": 0,
    "id": "DPwBt2aJuwF0O71vwfM9",
    "infected": 19435,
    "recovered": 0,
    "sick": 19435,
    "invisible": false
  },
  {
    "infected": 114,
    "recovered": 51,
    "latitude": 32.3213844,
    "pop": 65440,
    "longitude": -64.75737,
    "name": "Bermuda",
    "country": "BM",
    "lastUpdated": "2020-05-03T15:55:03.537Z",
    "dead": 7,
    "id": "DZyTD0Mu5WIcK6yTcJ91",
    "sick": 56,
    "invisible": false
  },
  {
    "lastUpdated": "2020-05-03T15:55:03.541Z",
    "dead": 1,
    "id": "DaMrRSIGJXIG36nW0Pnc",
    "infected": 12,
    "recovered": 5,
    "latitude": 21.694,
    "pop": 35446,
    "longitude": -71.7979,
    "name": "Turks and Caicos",
    "country": "TC",
    "sick": 6,
    "invisible": false
  },
  {
    "latitude": 39.2796,
    "pop": 2035000,
    "longitude": -3.0977,
    "name": "Castilla La Mancha",
    "country": "ES",
    "lastUpdated": "2020-05-03T15:39:09.838Z",
    "dead": 2565,
    "id": "Dbng0NBTH41EEwBxhMzE",
    "infected": 21290,
    "recovered": 5772,
    "sick": 12953,
    "invisible": false
  },
  {
    "pop": 3361000,
    "longitude": 20.006,
    "name": "Malopolskie",
    "country": "PL",
    "lastUpdated": "2020-05-03T15:33:02.121Z",
    "dead": 31,
    "id": "DcQ3D0WkacXEbv6iznRB",
    "infected": 944,
    "recovered": 0,
    "latitude": 50.023,
    "sick": 913,
    "invisible": false
  },
  {
    "id": "DdBt8qsG6A3g92oOR3ow",
    "infected": 45,
    "recovered": 39,
    "latitude": 22.192039,
    "pop": 622567,
    "longitude": 113.551262,
    "name": "Macao",
    "country": "MO",
    "lastUpdated": "2020-05-03T15:55:03.539Z",
    "dead": 0,
    "sick": 6,
    "invisible": false
  },
  {
    "infected": 12,
    "recovered": 10,
    "latitude": 25.467,
    "pop": 2651000,
    "longitude": 91.3662,
    "name": "Meghalaya",
    "country": "IN",
    "lastUpdated": "2020-05-03T15:41:01.252Z",
    "dead": 1,
    "id": "Dh0O1vmhrVfmsCsfZCUg",
    "sick": 1,
    "invisible": false
  },
  {
    "infected": 579,
    "recovered": 0,
    "latitude": 42.962334,
    "pop": 577737,
    "longitude": -107.534868,
    "name": "Wyoming",
    "country": "US",
    "lastUpdated": "2020-05-03T15:39:01.521Z",
    "dead": 7,
    "id": "DrGzziUglmBognCGY7R2",
    "sick": 572,
    "invisible": false
  },
  {
    "infected": 2626,
    "recovered": 1374,
    "latitude": 37.9838,
    "pop": 10740000,
    "longitude": 23.7275,
    "name": "Greece",
    "country": "GR",
    "lastUpdated": "2020-05-03T15:55:03.520Z",
    "dead": 144,
    "id": "Dtr1lap1RpJpXJdXGJiW",
    "sick": 1108,
    "invisible": false
  },
  {
    "longitude": 121.563698,
    "name": "Taiwan",
    "country": "TW",
    "lastUpdated": "2020-05-03T15:55:03.529Z",
    "dead": 6,
    "id": "EKTfs8e7M6DXzI1HqyyX",
    "infected": 432,
    "recovered": 332,
    "latitude": 25.03841,
    "pop": 23780000,
    "sick": 94,
    "invisible": false
  },
  {
    "infected": 733,
    "recovered": 372,
    "latitude": 10.327273,
    "pop": 4906000,
    "longitude": -84.387618,
    "name": "Costa Rica",
    "country": "CR",
    "lastUpdated": "2020-05-03T15:55:03.525Z",
    "dead": 6,
    "id": "EQzJvzVHKjs8kLmK7BMu",
    "sick": 355,
    "invisible": false
  },
  {
    "lastUpdated": "2020-05-03T15:41:01.249Z",
    "dead": 290,
    "id": "ERwk9R9en4m9WbdoMbIg",
    "infected": 5428,
    "recovered": 1042,
    "latitude": 22.2587,
    "pop": 62700000,
    "longitude": 71.1924,
    "name": "Gujarat",
    "country": "IN",
    "sick": 4096,
    "invisible": false
  },
  {
    "latitude": 30.7333,
    "pop": 1055000,
    "longitude": 76.7794,
    "name": "Chandigarh",
    "country": "IN",
    "lastUpdated": "2020-05-03T15:41:01.252Z",
    "dead": 1,
    "id": "Esl5UlCVB9s8pmGB5Ofr",
    "infected": 97,
    "recovered": 19,
    "sick": 77,
    "invisible": false
  },
  {
    "longitude": 22.653,
    "name": "Lubelskie",
    "country": "PL",
    "lastUpdated": "2020-05-03T15:33:02.123Z",
    "dead": 14,
    "id": "Esy1La2CxwH5uB8bGVWZ",
    "infected": 374,
    "recovered": 0,
    "latitude": 51.24,
    "pop": 2148000,
    "sick": 360,
    "invisible": false
  },
  {
    "infected": 1757,
    "recovered": 0,
    "latitude": 18.200178,
    "pop": 3195000,
    "longitude": -66.664513,
    "name": "Puerto Rico",
    "country": "PR",
    "lastUpdated": "2020-05-03T15:39:01.522Z",
    "dead": 95,
    "id": "F4rPrEVGAIMM5rfPEMv4",
    "sick": 1662,
    "invisible": false
  },
  {
    "lastUpdated": "2020-05-03T15:33:09.449Z",
    "dead": 13,
    "id": "F7MED5VwEhi3JvJu6KjB",
    "infected": 235,
    "recovered": 94,
    "latitude": 4.862437,
    "pop": 2919000,
    "longitude": -74.058655,
    "name": "Cundinamarca",
    "country": "CO",
    "sick": 128,
    "invisible": false
  },
  {
    "lastUpdated": "2020-05-03T15:55:03.542Z",
    "dead": 0,
    "id": "F8LnLqvuWoWh8awBqiw1",
    "infected": 3,
    "recovered": 0,
    "latitude": -11.6455,
    "pop": 832322,
    "longitude": 43.3333,
    "name": "Comoros",
    "country": "KM",
    "sick": 3,
    "invisible": false
  },
  {
    "latitude": 33.93911,
    "pop": 35530000,
    "longitude": 67.709953,
    "name": "Afghanistan",
    "country": "AF",
    "lastUpdated": "2020-05-03T15:55:03.520Z",
    "dead": 85,
    "id": "FCDmlmnIIswd8bQiUjfN",
    "infected": 2704,
    "recovered": 345,
    "sick": 2274,
    "invisible": false
  },
  {
    "latitude": 29.431585,
    "pop": 30480000,
    "longitude": 106.912254,
    "name": "Chongqing",
    "country": "CN",
    "lastUpdated": "2020-05-03T15:38:13.840Z",
    "dead": 6,
    "id": "FErOU1m4Tj7jIkRam3vF",
    "infected": 579,
    "recovered": 573,
    "sick": 0,
    "invisible": false
  },
  {
    "infected": 4983,
    "recovered": 1776,
    "latitude": 29.311661,
    "pop": 4137000,
    "longitude": 47.481766,
    "name": "Kuwait",
    "country": "KW",
    "lastUpdated": "2020-05-03T15:55:03.519Z",
    "dead": 38,
    "id": "FZsUkhxBEgqsPb4eO0PN",
    "sick": 3169,
    "invisible": false
  },
  {
    "lastUpdated": "2020-05-03T15:41:08.674Z",
    "dead": 14,
    "id": "FboWeolpM62SZCLwdilT",
    "infected": 601,
    "recovered": 0,
    "latitude": -10.9111,
    "pop": 2278308,
    "longitude": -37.0717,
    "name": "Sergipe",
    "country": "BR",
    "sick": 587,
    "invisible": false
  },
  {
    "longitude": 78.6569,
    "name": "Tamil Nadu",
    "country": "IN",
    "lastUpdated": "2020-05-03T15:41:01.250Z",
    "dead": 30,
    "id": "FeS45oMNC27pI17F0xEV",
    "infected": 3023,
    "recovered": 1379,
    "latitude": 11.1271,
    "pop": 67860000,
    "sick": 1614,
    "invisible": false
  },
  {
    "infected": 7578,
    "recovered": 1481,
    "latitude": 18.947829,
    "pop": 10770000,
    "longitude": -70.430399,
    "name": "Dominican Republic",
    "country": "DO",
    "lastUpdated": "2020-05-03T15:55:03.519Z",
    "dead": 326,
    "id": "FuiVEJvWb0QMCpxJ3563",
    "sick": 5771,
    "invisible": false
  },
  {
    "infected": 1061,
    "recovered": 499,
    "latitude": 18.1124,
    "pop": 35190000,
    "longitude": 79.0193,
    "name": "Telengana",
    "country": "IN",
    "lastUpdated": "2020-05-03T15:41:01.250Z",
    "dead": 29,
    "id": "FyC551oNwmENxbr9Yght",
    "sick": 533,
    "invisible": false
  },
  {
    "pop": 5450000,
    "longitude": 19.699,
    "name": "Slovakia",
    "country": "SK",
    "lastUpdated": "2020-05-03T15:55:03.523Z",
    "dead": 24,
    "id": "FzIDXoqWnTI3nUfhPyT2",
    "infected": 1408,
    "recovered": 619,
    "latitude": 48.669,
    "sick": 765,
    "invisible": false
  },
  {
    "infected": 20084,
    "recovered": 5114,
    "latitude": 30.37532,
    "pop": 197000000,
    "longitude": 69.345116,
    "name": "Pakistan",
    "country": "PK",
    "lastUpdated": "2020-05-03T15:55:03.517Z",
    "dead": 457,
    "id": "GAp7Wb6IMhdgbvEtMza9",
    "sick": 14513,
    "invisible": false
  },
  {
    "latitude": 31.1471,
    "pop": 27980000,
    "longitude": 75.3412,
    "name": "Punjab",
    "country": "IN",
    "lastUpdated": "2020-05-03T15:41:01.251Z",
    "dead": 21,
    "id": "GGru8cG08mANO8XDDUtZ",
    "infected": 1102,
    "recovered": 117,
    "sick": 964,
    "invisible": false
  },
  {
    "infected": 14163,
    "recovered": 2763,
    "latitude": 23.424076,
    "pop": 9400000,
    "longitude": 53.847816,
    "name": "United Arab Emirates",
    "country": "AE",
    "lastUpdated": "2020-05-03T15:55:03.518Z",
    "dead": 126,
    "id": "GHzBIsHy2GiBc5JV2HMs",
    "sick": 11274,
    "invisible": false
  },
  {
    "longitude": -95.7129,
    "name": "Grand Princess",
    "country": "US",
    "lastUpdated": "2020-05-03T15:39:01.523Z",
    "dead": 3,
    "id": "GLViSIjDjwvptOphedAu",
    "invisible": true,
    "infected": 103,
    "recovered": 0,
    "latitude": 37.0902,
    "sick": 100
  },
  {
    "infected": 24700,
    "recovered": 0,
    "latitude": 51.5074,
    "pop": 10100000,
    "longitude": -0.1278,
    "name": "London",
    "country": "GB",
    "lastUpdated": "2020-05-03T15:40:24.651Z",
    "dead": 0,
    "id": "GPtoS0Yy2EnNafpmmTqY",
    "sick": 24700,
    "invisible": false
  },
  {
    "latitude": 36.621981,
    "pop": 39560000,
    "longitude": -119.339046,
    "name": "California",
    "country": "US",
    "lastUpdated": "2020-05-03T15:39:01.512Z",
    "dead": 2192,
    "id": "Gh46r6vuaY7fbGt3IboN",
    "infected": 53670,
    "recovered": 0,
    "sick": 51478,
    "invisible": false
  },
  {
    "latitude": 35.87189,
    "pop": 3943000,
    "longitude": -97.145514,
    "name": "Oklahoma",
    "country": "US",
    "lastUpdated": "2020-05-03T15:39:01.516Z",
    "dead": 238,
    "id": "GpF8ULuKOQiFDCUHN44h",
    "infected": 3851,
    "recovered": 0,
    "sick": 3613,
    "invisible": false
  },
  {
    "infected": 2535,
    "recovered": 1553,
    "latitude": 46.5,
    "pop": 520891,
    "longitude": 11.35,
    "name": "P.A. Bolzano",
    "country": "IT",
    "lastUpdated": "2020-05-03T15:31:02.712Z",
    "dead": 279,
    "id": "Gzx6GX1qhBm714BkEC6l",
    "sick": 703,
    "invisible": false
  },
  {
    "lastUpdated": "2020-05-03T15:38:13.837Z",
    "dead": 1,
    "id": "H3JeVigVbo5CSYfZG4WI",
    "infected": 201,
    "recovered": 154,
    "latitude": 42.83263,
    "pop": 24710000,
    "longitude": 113.750972,
    "name": "Inner Mongolia",
    "country": "CN",
    "sick": 46,
    "invisible": false
  },
  {
    "recovered": 0,
    "latitude": 39.74536,
    "pop": 3034000,
    "longitude": -116.724977,
    "name": "Nevada",
    "country": "US",
    "lastUpdated": "2020-05-03T15:39:01.515Z",
    "dead": 257,
    "id": "H3bDg4eV30up4WWrIDAS",
    "infected": 5423,
    "sick": 5166,
    "invisible": false
  },
  {
    "lastUpdated": "2020-05-03T15:41:08.670Z",
    "dead": 638,
    "id": "HEMWNnFxeFEoeOCBOLJD",
    "infected": 8309,
    "recovered": 0,
    "latitude": -3.731862,
    "pop": 9075649,
    "longitude": -38.526669,
    "name": "Ceará",
    "country": "BR",
    "sick": 7671,
    "invisible": false
  },
  {
    "infected": 614,
    "recovered": 293,
    "latitude": 15.3173,
    "pop": 64060000,
    "longitude": 75.7139,
    "name": "Karnataka",
    "country": "IN",
    "lastUpdated": "2020-05-03T15:41:01.251Z",
    "dead": 25,
    "id": "HN5mGmxlqlSeFSNeu1K5",
    "sick": 296,
    "invisible": false
  },
  {
    "id": "HRDpwyxpqW9RN0xLFyNu",
    "infected": 7,
    "recovered": 5,
    "latitude": 27.5142,
    "pop": 807610,
    "longitude": 90.4336,
    "name": "Bhutan",
    "country": "BT",
    "lastUpdated": "2020-05-03T15:55:03.541Z",
    "dead": 0,
    "sick": 2,
    "invisible": false
  },
  {
    "lastUpdated": "2020-05-03T15:55:03.521Z",
    "dead": 10,
    "id": "HRTA10dtrruDEwjJEGMp",
    "infected": 2136,
    "recovered": 1319,
    "latitude": 41.3775,
    "pop": 32390000,
    "longitude": 64.5853,
    "name": "Uzbekistan",
    "country": "UZ",
    "sick": 807,
    "invisible": false
  },
  {
    "lastUpdated": "2020-05-03T15:39:01.516Z",
    "dead": 139,
    "id": "HSSFomRju0doHhWgW8On",
    "infected": 3732,
    "recovered": 0,
    "latitude": 34.138916,
    "pop": 2095000,
    "longitude": -105.576255,
    "name": "New Mexico",
    "country": "US",
    "sick": 3593,
    "invisible": false
  },
  {
    "infected": 196,
    "recovered": 0,
    "latitude": -40.231,
    "pop": 412812,
    "longitude": -72.3311,
    "name": "Los Ríos",
    "country": "CL",
    "lastUpdated": "2020-05-03T15:41:13.767Z",
    "dead": 4,
    "id": "HZkACHjW7NlYjg8vEMj2",
    "sick": 192,
    "invisible": false
  },
  {
    "id": "He1gSS1v50t06i3YrqvB",
    "infected": 701,
    "recovered": 577,
    "latitude": 53.6127,
    "pop": 1635000,
    "longitude": 12.4296,
    "name": "Mecklenburg-Vorpommern",
    "country": "DE",
    "lastUpdated": "2020-05-03T15:30:07.011Z",
    "dead": 19,
    "sick": 105,
    "invisible": false
  },
  {
    "pop": 1315000,
    "longitude": 13.75,
    "name": "Abruzzo",
    "country": "IT",
    "lastUpdated": "2020-05-03T15:31:02.711Z",
    "dead": 327,
    "id": "I9EqrZfbPnkioNU4wZGz",
    "infected": 2964,
    "recovered": 758,
    "latitude": 42.25,
    "sick": 1879,
    "invisible": false
  },
  {
    "infected": 1588,
    "recovered": 1567,
    "latitude": 23.363855,
    "pop": 113460000,
    "longitude": 113.373448,
    "name": "Guangdong",
    "country": "CN",
    "lastUpdated": "2020-05-03T15:38:13.838Z",
    "dead": 8,
    "id": "IAX0OQLVnUwU7FX0ENF1",
    "sick": 13,
    "invisible": false
  },
  {
    "id": "IFuMrMvSjoiX5agYvllh",
    "infected": 1276,
    "recovered": 1254,
    "latitude": 33.875408,
    "pop": 94000000,
    "longitude": 113.484016,
    "name": "Henan",
    "country": "CN",
    "lastUpdated": "2020-05-03T15:38:13.840Z",
    "dead": 22,
    "sick": 0,
    "invisible": false
  },
  {
    "id": "IHqRHC8K3OZPN8gniM7V",
    "infected": 331,
    "recovered": 0,
    "latitude": 37.2,
    "pop": 451000,
    "longitude": -8.16667,
    "name": "Algarve",
    "country": "PT",
    "lastUpdated": "2020-05-03T15:34:10.753Z",
    "dead": 13,
    "sick": 318,
    "invisible": false
  },
  {
    "recovered": 2,
    "latitude": 3.883,
    "pop": 333194,
    "longitude": -77.0197,
    "name": "Buenaventura D.E.",
    "country": "CO",
    "lastUpdated": "2020-05-03T15:33:09.450Z",
    "dead": 2,
    "id": "IKWjRUo0SYgHQKdWjTvq",
    "infected": 36,
    "sick": 32,
    "invisible": false
  },
  {
    "latitude": 52.87,
    "pop": 4811000,
    "longitude": -0.995,
    "name": "East Midlands",
    "country": "GB",
    "lastUpdated": "2020-05-03T15:40:24.650Z",
    "dead": 0,
    "id": "INyu1R48Ppv8cfW4Nuz4",
    "infected": 7004,
    "recovered": 0,
    "sick": 7004,
    "invisible": false
  },
  {
    "pop": 1342600,
    "longitude": -102.317,
    "name": "Aguascalientes",
    "country": "MX",
    "lastUpdated": "2020-05-03T15:31:07.811Z",
    "dead": 8,
    "id": "ISRKMzEDojyrZ9iyWwex",
    "infected": 283,
    "recovered": 0,
    "latitude": 22.017,
    "sick": 275,
    "invisible": false
  },
  {
    "infected": 773,
    "recovered": 0,
    "latitude": 25.686613,
    "pop": 5321300,
    "longitude": -100.316116,
    "name": "Nuevo León",
    "country": "MX",
    "lastUpdated": "2020-05-03T15:31:07.811Z",
    "dead": 22,
    "id": "IdKbgzgKLpjBFh4UPOwu",
    "sick": 751,
    "invisible": false
  },
  {
    "lastUpdated": "2020-05-03T15:31:07.810Z",
    "dead": 95,
    "id": "IhhiYI6T0TX4CYVPcnmH",
    "infected": 569,
    "recovered": 0,
    "latitude": 28.632996,
    "pop": 3826900,
    "longitude": -106.069099,
    "name": "Chihuahua",
    "country": "MX",
    "sick": 474,
    "invisible": false
  },
  {
    "latitude": -36.7,
    "pop": 480600,
    "longitude": -72.57,
    "name": "Ñuble",
    "country": "CL",
    "lastUpdated": "2020-05-03T15:41:13.766Z",
    "dead": 16,
    "id": "ImnOiVx9Cb8Nw7cbRcQ7",
    "infected": 776,
    "recovered": 0,
    "sick": 760,
    "invisible": false
  },
  {
    "latitude": 19.0558,
    "pop": 10980000,
    "longitude": -73.0513,
    "name": "Haiti",
    "country": "HT",
    "lastUpdated": "2020-05-03T15:55:03.538Z",
    "dead": 8,
    "id": "InZ38sIqyK7FN7XAOZoX",
    "infected": 85,
    "recovered": 10,
    "sick": 67,
    "invisible": false
  },
  {
    "infected": 28602,
    "recovered": 0,
    "latitude": 32.528564,
    "pop": 10520000,
    "longitude": -83.280125,
    "name": "Georgia (US)",
    "country": "US",
    "lastUpdated": "2020-05-03T15:39:01.512Z",
    "dead": 1177,
    "id": "IvQkDJkTAsoIqPRAU25n",
    "sick": 27425,
    "invisible": false
  },
  {
    "infected": 1487,
    "recovered": 1266,
    "latitude": -42.8285,
    "pop": 4794000,
    "longitude": 172.488081,
    "name": "New Zealand",
    "country": "NZ",
    "lastUpdated": "2020-05-03T15:55:03.523Z",
    "dead": 20,
    "id": "IvVhpOoGpH6JVkGyUhXN",
    "sick": 201,
    "invisible": false
  },
  {
    "infected": 1,
    "recovered": 1,
    "latitude": 28.218,
    "pop": 1255000,
    "longitude": 94.7278,
    "name": "Arunachal Pradesh",
    "country": "IN",
    "lastUpdated": "2020-05-03T15:41:01.253Z",
    "dead": 0,
    "id": "IwYKiIVY18NGwdGQFGWW",
    "sick": 0,
    "invisible": false
  },
  {
    "infected": 345,
    "recovered": 148,
    "latitude": 6.4238,
    "pop": 31980000,
    "longitude": -66.5897,
    "name": "Venezuela",
    "country": "VE",
    "lastUpdated": "2020-05-03T15:55:03.529Z",
    "dead": 10,
    "id": "J3mZXlfEnnJx4CDZLvRG",
    "sick": 187,
    "invisible": false
  },
  {
    "latitude": 35.1264,
    "pop": 1170000,
    "longitude": 33.4299,
    "name": "Cyprus",
    "country": "CY",
    "lastUpdated": "2020-05-03T15:55:03.524Z",
    "dead": 15,
    "id": "JQByE4l2OA6sGOqIcWrM",
    "infected": 872,
    "recovered": 296,
    "sick": 561,
    "invisible": false
  },
  {
    "lastUpdated": "2020-05-03T15:41:01.251Z",
    "dead": 4,
    "id": "JR7hOGked7CZtIs2nCV5",
    "infected": 503,
    "recovered": 117,
    "latitude": 25.0961,
    "pop": 99020000,
    "longitude": 85.3131,
    "name": "Bihar",
    "country": "IN",
    "sick": 382,
    "invisible": false
  },
  {
    "recovered": 72,
    "latitude": 14.628434,
    "pop": 17250000,
    "longitude": -90.522713,
    "name": "Guatemala",
    "country": "GT",
    "lastUpdated": "2020-05-03T15:55:03.526Z",
    "dead": 17,
    "id": "JUWE6bG3b5oL7fKQMSvv",
    "infected": 688,
    "sick": 599,
    "invisible": false
  },
  {
    "latitude": 49.8153,
    "pop": 602005,
    "longitude": 6.1296,
    "name": "Luxembourg",
    "country": "LU",
    "lastUpdated": "2020-05-03T15:55:03.520Z",
    "dead": 96,
    "id": "JcFsHSn2WvZ5LJW42ovG",
    "infected": 3824,
    "recovered": 3379,
    "sick": 349,
    "invisible": false
  },
  {
    "infected": 25,
    "recovered": 4,
    "latitude": 8.8,
    "pop": 2049000,
    "longitude": -74.167,
    "name": "Bolívar",
    "country": "CO",
    "lastUpdated": "2020-05-03T15:33:09.450Z",
    "dead": 3,
    "id": "JmOyaFe25yZCIV64JbZj",
    "sick": 18,
    "invisible": false
  },
  {
    "pop": 3648100,
    "longitude": -115.783,
    "name": "Baja California",
    "country": "MX",
    "lastUpdated": "2020-05-03T15:31:07.809Z",
    "dead": 253,
    "id": "Jp9ePErcc8i1aOozEAMf",
    "infected": 1656,
    "recovered": 0,
    "latitude": 31.4,
    "sick": 1403,
    "invisible": false
  },
  {
    "latitude": 8.7479801,
    "pop": 1786500,
    "longitude": -75.8814316,
    "name": "Córdoba",
    "country": "CO",
    "lastUpdated": "2020-05-03T15:33:09.450Z",
    "dead": 3,
    "id": "Jr8syCB0lydmPDXw8Q6N",
    "infected": 29,
    "recovered": 8,
    "sick": 18,
    "invisible": false
  },
  {
    "id": "JrBbirlBKGdWSdcDt7PF",
    "infected": 124,
    "recovered": 67,
    "latitude": 8.6195,
    "pop": 7798000,
    "longitude": 0.8248,
    "name": "Togo",
    "country": "TG",
    "lastUpdated": "2020-05-03T15:55:03.537Z",
    "dead": 9,
    "sick": 48,
    "invisible": false
  },
  {
    "pop": 7050000,
    "longitude": 25.4858,
    "name": "Bulgaria",
    "country": "BG",
    "lastUpdated": "2020-05-03T15:55:03.522Z",
    "dead": 73,
    "id": "JzZ8sbqzjutThVjkPKPL",
    "infected": 1618,
    "recovered": 308,
    "latitude": 42.7339,
    "sick": 1237,
    "invisible": false
  },
  {
    "latitude": 50.823,
    "pop": 1263000,
    "longitude": 20.709,
    "name": "Świętokrzyskie",
    "country": "PL",
    "lastUpdated": "2020-05-03T15:33:02.123Z",
    "dead": 8,
    "id": "KGrK7gafkeWjmU6sHQd2",
    "infected": 278,
    "recovered": 0,
    "sick": 270,
    "invisible": false
  },
  {
    "infected": 8312,
    "recovered": 3519,
    "latitude": 44.5,
    "pop": 1557000,
    "longitude": 8.833,
    "name": "Liguria",
    "country": "IT",
    "lastUpdated": "2020-05-03T15:31:02.713Z",
    "dead": 1195,
    "id": "KLXicxFogWnu0dLp4bNK",
    "sick": 3598,
    "invisible": false
  },
  {
    "infected": 58,
    "recovered": 29,
    "latitude": 10.4631,
    "pop": 1201000,
    "longitude": -73.2532,
    "name": "Cesar",
    "country": "CO",
    "lastUpdated": "2020-05-03T15:33:09.449Z",
    "dead": 6,
    "id": "KpOz3WmiZkrXUMlUJNlV",
    "sick": 23,
    "invisible": false
  },
  {
    "latitude": 43.4167,
    "pop": 3737000,
    "longitude": 11,
    "name": "Toscana",
    "country": "IT",
    "lastUpdated": "2020-05-03T15:31:02.715Z",
    "dead": 863,
    "id": "KrLrJbpDqqiXgUPGCCW9",
    "infected": 9525,
    "recovered": 3297,
    "sick": 5365,
    "invisible": false
  },
  {
    "latitude": 7.873054,
    "pop": 21440000,
    "longitude": 80.771797,
    "name": "Sri Lanka",
    "country": "LK",
    "lastUpdated": "2020-05-03T15:55:03.526Z",
    "dead": 7,
    "id": "KsWzJO06cf0d6LJ4ZNh9",
    "infected": 707,
    "recovered": 184,
    "sick": 516,
    "invisible": false
  },
  {
    "recovered": 488,
    "latitude": 15.9129,
    "pop": 49670000,
    "longitude": 79.74,
    "name": "Andhra Pradesh",
    "country": "IN",
    "lastUpdated": "2020-05-03T15:41:01.250Z",
    "dead": 33,
    "id": "KtQIo2DoqjELtPAlyDVO",
    "infected": 1583,
    "sick": 1062,
    "invisible": false
  },
  {
    "infected": 134687,
    "recovered": 16639,
    "latitude": 61.52401,
    "pop": 144500000,
    "longitude": 105.318756,
    "name": "Russia",
    "country": "RU",
    "lastUpdated": "2020-05-03T15:55:03.516Z",
    "dead": 1280,
    "id": "KwOuGBKSMRlmwftxAvLX",
    "sick": 116768,
    "invisible": false
  },
  {
    "infected": 38,
    "recovered": 29,
    "latitude": 18.0708,
    "pop": 32125,
    "longitude": -63.0501,
    "name": "Saint-Martin",
    "country": "FR",
    "lastUpdated": "2020-05-02T22:10:35.386Z",
    "dead": 3,
    "id": "LBUtrLDKJiupXjlUNTUe",
    "sick": 6,
    "invisible": false
  },
  {
    "infected": 82,
    "recovered": 55,
    "latitude": 47.166,
    "pop": 38557,
    "longitude": 9.5554,
    "name": "Liechtenstein",
    "country": "LI",
    "lastUpdated": "2020-05-03T15:55:03.538Z",
    "dead": 1,
    "id": "LTGEU2E9MFkrCcFhZYVk",
    "sick": 26,
    "invisible": false
  },
  {
    "lastUpdated": "2020-05-03T15:55:03.523Z",
    "dead": 7,
    "id": "LU2QWt5ao8IJa8evNYVV",
    "infected": 1586,
    "recovered": 405,
    "latitude": 9.9456,
    "pop": 12720000,
    "longitude": -9.6966,
    "name": "Guinea",
    "country": "GN",
    "sick": 1174,
    "invisible": false
  },
  {
    "infected": 335,
    "recovered": 0,
    "latitude": 29.6667,
    "pop": 3062000,
    "longitude": -110.5,
    "name": "Sonora",
    "country": "MX",
    "lastUpdated": "2020-05-03T15:31:07.810Z",
    "dead": 35,
    "id": "LYCBHrA9ms6GcxpLGPCT",
    "sick": 300,
    "invisible": false
  },
  {
    "lastUpdated": "2020-05-03T15:55:03.541Z",
    "dead": 1,
    "id": "LglKINHyQpYpFxjckbQ6",
    "infected": 10,
    "recovered": 8,
    "latitude": 3.9193051,
    "pop": 563402,
    "longitude": -56.0277824,
    "name": "Suriname",
    "country": "SR",
    "sick": 1,
    "invisible": false
  },
  {
    "latitude": 52.9399,
    "pop": 1174000,
    "longitude": -106.4509,
    "name": "Saskatchewan",
    "country": "CA",
    "lastUpdated": "2020-05-03T15:36:01.650Z",
    "dead": 7,
    "id": "LkIDKY0CMAqzbwBHyYCP",
    "infected": 421,
    "recovered": 0,
    "sick": 414,
    "invisible": false
  },
  {
    "recovered": 5,
    "latitude": 24.2155,
    "pop": 636442,
    "longitude": -12.8858,
    "name": "Western Sahara",
    "country": "EH",
    "lastUpdated": "2020-05-03T15:55:03.541Z",
    "dead": 0,
    "id": "LooNn6RuMiDhQnwa9svw",
    "infected": 6,
    "sick": 1,
    "invisible": false
  },
  {
    "latitude": 43.363129,
    "pop": 1022000,
    "longitude": -5.951843,
    "name": "Principado de Asturias",
    "country": "ES",
    "lastUpdated": "2020-05-03T15:39:09.837Z",
    "dead": 280,
    "id": "Lsga7AvYNnY0qQ5gEfV8",
    "infected": 2884,
    "recovered": 908,
    "sick": 1696,
    "invisible": false
  },
  {
    "recovered": 2072,
    "latitude": 39.4937,
    "pop": 1065000,
    "longitude": -6.0679,
    "name": "Extremadura",
    "country": "ES",
    "lastUpdated": "2020-05-03T15:39:09.838Z",
    "dead": 460,
    "id": "LuEErlF7dVKI0eJsRjFm",
    "infected": 3712,
    "sick": 1180,
    "invisible": false
  },
  {
    "latitude": 21.0186,
    "pop": 5965000,
    "longitude": -101.2591,
    "name": "Guanajuato",
    "country": "MX",
    "lastUpdated": "2020-05-03T15:31:07.810Z",
    "dead": 32,
    "id": "M3wdiueFtwrUHiQ2rOXA",
    "infected": 366,
    "recovered": 0,
    "sick": 334,
    "invisible": false
  },
  {
    "lastUpdated": "2020-05-03T15:39:01.515Z",
    "dead": 248,
    "id": "MC8MXFw9iXYybnF8v7e6",
    "infected": 4879,
    "recovered": 0,
    "latitude": 37.8393,
    "pop": 4468000,
    "longitude": -84.27,
    "name": "Kentucky",
    "country": "US",
    "sick": 4631,
    "invisible": false
  },
  {
    "latitude": 55.3781,
    "longitude": -3.436,
    "name": "Unknown UK region or state",
    "country": "GB",
    "lastUpdated": "2020-05-03T15:40:24.653Z",
    "dead": 25282,
    "id": "MEjlm8VYdGA28TTTnQmf",
    "invisible": true,
    "infected": 38895,
    "recovered": 0,
    "sick": 13613
  },
  {
    "lastUpdated": "2020-05-03T15:34:10.742Z",
    "dead": 597,
    "id": "MG4e9tulLJ010SZJvbYN",
    "infected": 15021,
    "recovered": 0,
    "latitude": 41.3006,
    "pop": 3689000,
    "longitude": -7.7441,
    "name": "Norte",
    "country": "PT",
    "sick": 14424,
    "invisible": false
  },
  {
    "lastUpdated": "2020-05-03T15:40:24.649Z",
    "dead": 1515,
    "id": "MObRYyIriHG337L8FyFC",
    "infected": 11927,
    "recovered": 0,
    "latitude": 56.4907,
    "pop": 5450000,
    "longitude": -4.2026,
    "name": "Scotland",
    "country": "GB",
    "sick": 10412,
    "invisible": false
  },
  {
    "lastUpdated": "2020-05-03T15:39:01.512Z",
    "dead": 1229,
    "id": "MOxDkmQ4wBi1CuAdVxDE",
    "infected": 19295,
    "recovered": 0,
    "latitude": 40.2672,
    "pop": 6692000,
    "longitude": -86.1349,
    "name": "Indiana",
    "country": "US",
    "sick": 18066,
    "invisible": false
  },
  {
    "recovered": 622,
    "latitude": 7.54,
    "pop": 24290000,
    "longitude": -5.5471,
    "name": "Ivory Coast",
    "country": "CI",
    "lastUpdated": "2020-05-03T15:55:03.523Z",
    "dead": 15,
    "id": "MdQOfc1gNh2DOqwSP6UV",
    "infected": 1362,
    "sick": 725,
    "invisible": false
  },
  {
    "infected": 33729,
    "recovered": 25354,
    "latitude": 51.4332,
    "pop": 17910000,
    "longitude": 7.6616,
    "name": "Nordrhein-Westfalen",
    "country": "DE",
    "lastUpdated": "2020-05-03T15:30:07.011Z",
    "dead": 1296,
    "id": "MjpYq3zQyAvSQlVVYjD2",
    "sick": 7079,
    "invisible": false
  },
  {
    "recovered": 75,
    "latitude": 37.330509,
    "pop": 6301000,
    "longitude": 105.977203,
    "name": "Ningxia",
    "country": "CN",
    "lastUpdated": "2020-05-03T15:38:13.841Z",
    "dead": 0,
    "id": "MntmjjuHljarCdt6aIeE",
    "infected": 75,
    "sick": 0,
    "invisible": false
  },
  {
    "longitude": -52.203499186,
    "name": "Pará",
    "country": "BR",
    "lastUpdated": "2020-05-03T15:41:08.673Z",
    "dead": 273,
    "id": "MuEB2UgkId5crsxi9zQT",
    "infected": 3460,
    "recovered": 0,
    "latitude": -3.20166586,
    "pop": 8513497,
    "sick": 3187,
    "invisible": false
  },
  {
    "latitude": 48.6616,
    "pop": 11020000,
    "longitude": 9.3501,
    "name": "Baden-Württemberg",
    "country": "DE",
    "lastUpdated": "2020-05-03T15:30:07.003Z",
    "dead": 1462,
    "id": "N3XsRBwJSsNclkEf7Zz5",
    "infected": 33372,
    "recovered": 24280,
    "sick": 7630,
    "invisible": false
  },
  {
    "latitude": 44.696652,
    "pop": 3507000,
    "longitude": 17.824332,
    "name": "Bosnia and Herzegovina",
    "country": "BA",
    "lastUpdated": "2020-05-03T15:55:03.522Z",
    "dead": 77,
    "id": "N7c13sCQF0G789XAVazJ",
    "infected": 1857,
    "recovered": 825,
    "sick": 955,
    "invisible": false
  },
  {
    "lastUpdated": "2020-05-03T15:38:13.838Z",
    "dead": 0,
    "id": "NBRIGIRrJB1Ry8prDNAC",
    "infected": 198,
    "recovered": 176,
    "latitude": 37.242565,
    "pop": 36500000,
    "longitude": 111.856857,
    "name": "Shanxi",
    "country": "CN",
    "sick": 22,
    "invisible": false
  },
  {
    "lastUpdated": "2020-05-03T15:39:01.513Z",
    "dead": 430,
    "id": "NC64Qp5kTqAfiTuR27k8",
    "infected": 11664,
    "recovered": 0,
    "latitude": 35.7596,
    "pop": 10380000,
    "longitude": -79.0193,
    "name": "North Carolina",
    "country": "US",
    "sick": 11234,
    "invisible": false
  },
  {
    "infected": 2994,
    "recovered": 2220,
    "latitude": 52.4125,
    "pop": 2504000,
    "longitude": 12.5316,
    "name": "Brandenburg",
    "country": "DE",
    "lastUpdated": "2020-05-03T15:30:07.010Z",
    "dead": 152,
    "id": "NJjo2gfBvnbK4xatrsUz",
    "sick": 622,
    "invisible": false
  },
  {
    "longitude": -145.6739,
    "name": "Northern Mariana Islands",
    "country": "MP",
    "lastUpdated": "2020-05-03T15:39:01.521Z",
    "dead": 2,
    "id": "NLLL6pJhJSw0lrDMD4uP",
    "infected": 14,
    "recovered": 0,
    "latitude": 15.0979,
    "pop": 55144,
    "sick": 12,
    "invisible": false
  },
  {
    "latitude": 30.0668,
    "pop": 10080000,
    "longitude": 79.0193,
    "name": "Uttarakhand",
    "country": "IN",
    "lastUpdated": "2020-05-03T15:41:01.252Z",
    "dead": 1,
    "id": "NMeZEcGToxXfpi16PfFV",
    "infected": 60,
    "recovered": 39,
    "sick": 20,
    "invisible": false
  },
  {
    "lastUpdated": "2020-05-03T15:30:07.011Z",
    "dead": 373,
    "id": "Nk5vPgUIXsWVfbWZf15O",
    "infected": 8539,
    "recovered": 4850,
    "latitude": 50.6521,
    "pop": 6243000,
    "longitude": 9.1624,
    "name": "Hessen",
    "country": "DE",
    "sick": 3316,
    "invisible": false
  },
  {
    "infected": 879,
    "recovered": 348,
    "latitude": 56.96776,
    "pop": 1920000,
    "longitude": 25.837107,
    "name": "Latvia",
    "country": "LV",
    "lastUpdated": "2020-05-03T15:55:03.523Z",
    "dead": 16,
    "id": "NmmMKy0YqA8StHdGzB5N",
    "sick": 515,
    "invisible": false
  },
  {
    "infected": 8145,
    "recovered": 0,
    "latitude": -8.472372,
    "pop": 9496294,
    "longitude": -37.946777,
    "name": "Pernambuco",
    "country": "BR",
    "lastUpdated": "2020-05-03T15:41:08.673Z",
    "dead": 628,
    "id": "NyGlFL1gATK1Omv9qtcC",
    "sick": 7517,
    "invisible": false
  },
  {
    "infected": 154,
    "recovered": 48,
    "latitude": 6.4281,
    "pop": 4732000,
    "longitude": -9.4295,
    "name": "Liberia",
    "country": "LR",
    "lastUpdated": "2020-05-03T15:55:03.530Z",
    "dead": 18,
    "id": "O4g88K49HKEZLFXm5gxb",
    "sick": 88,
    "invisible": false
  },
  {
    "lastUpdated": "2020-05-03T15:39:01.515Z",
    "dead": 267,
    "id": "ONU4CK8QjViFHKg2w5if",
    "infected": 6489,
    "recovered": 0,
    "latitude": 34.003307,
    "pop": 5084000,
    "longitude": -80.525613,
    "name": "South Carolina",
    "country": "US",
    "sick": 6222,
    "invisible": false
  },
  {
    "lastUpdated": "2020-05-03T15:39:01.514Z",
    "dead": 291,
    "id": "OYa0jFzdbAgo8zUsRv6q",
    "infected": 7441,
    "recovered": 0,
    "latitude": 33.51822,
    "pop": 2987000,
    "longitude": -89.582775,
    "name": "Mississippi",
    "country": "US",
    "sick": 7150,
    "invisible": false
  },
  {
    "latitude": 45.2538,
    "pop": 1338000,
    "longitude": -69.4455,
    "name": "Maine",
    "country": "US",
    "lastUpdated": "2020-05-03T15:39:01.519Z",
    "dead": 56,
    "id": "OcXNp9kNVSwrRlG3bNVN",
    "infected": 1152,
    "recovered": 0,
    "sick": 1096,
    "invisible": false
  },
  {
    "latitude": -41.915264,
    "pop": 515000,
    "longitude": 146.725256,
    "name": "Tasmania",
    "country": "AU",
    "lastUpdated": "2020-05-03T15:36:01.650Z",
    "dead": 13,
    "id": "OnOseaqWdnuP18oruABW",
    "infected": 221,
    "recovered": 158,
    "sick": 50,
    "invisible": false
  },
  {
    "infected": 331,
    "recovered": 0,
    "latitude": -16.35,
    "pop": 3441998,
    "longitude": -56.666668,
    "name": "Mato Grosso",
    "country": "BR",
    "lastUpdated": "2020-05-03T15:41:08.672Z",
    "dead": 12,
    "id": "P0GHFGUt1pkKTk5PM8uz",
    "sick": 319,
    "invisible": false
  },
  {
    "lastUpdated": "2020-05-03T15:55:03.538Z",
    "dead": 1,
    "id": "P4mwRFLbrvT0t75uD8Wo",
    "infected": 74,
    "recovered": 10,
    "latitude": 19.3133,
    "pop": 61559,
    "longitude": -81.2546,
    "name": "Cayman Islands",
    "country": "KY",
    "sick": 63,
    "invisible": false
  },
  {
    "recovered": 7,
    "latitude": 16.7424984,
    "pop": 5900,
    "longitude": -62.1873665,
    "name": "Montserrat",
    "country": "MS",
    "lastUpdated": "2020-05-03T15:55:03.541Z",
    "dead": 1,
    "id": "PEDkeFMTOZpvHiSVxBk7",
    "infected": 11,
    "sick": 3,
    "invisible": false
  },
  {
    "lastUpdated": "2020-05-03T15:55:03.530Z",
    "dead": 0,
    "id": "PEcgZGEkyhABztt1Ufgc",
    "infected": 255,
    "recovered": 120,
    "latitude": -1.9403,
    "pop": 12210000,
    "longitude": 29.8739,
    "name": "Rwanda",
    "country": "RW",
    "sick": 135,
    "invisible": false
  },
  {
    "latitude": 46.7296,
    "pop": 5611000,
    "longitude": -94.6859,
    "name": "Minnesota",
    "country": "US",
    "lastUpdated": "2020-05-03T15:39:01.515Z",
    "dead": 395,
    "id": "PJvVYosLIhbcRZYnKX1R",
    "infected": 6228,
    "recovered": 0,
    "sick": 5833,
    "invisible": false
  },
  {
    "recovered": 0,
    "latitude": 40.6331,
    "pop": 12740000,
    "longitude": -89.3985,
    "name": "Illinois",
    "country": "US",
    "lastUpdated": "2020-05-03T15:39:01.511Z",
    "dead": 2559,
    "id": "PTwQr9ijo0TBBsPH2sdJ",
    "infected": 58505,
    "sick": 55946,
    "invisible": false
  },
  {
    "lastUpdated": "2020-05-03T15:55:03.540Z",
    "dead": 0,
    "id": "PjLqCeFdyzdZNcZxMkK1",
    "infected": 17,
    "recovered": 15,
    "latitude": 13.909444,
    "pop": 178844,
    "longitude": -60.978893,
    "name": "Saint Lucia",
    "country": "LC",
    "sick": 2,
    "invisible": false
  },
  {
    "infected": 6427,
    "recovered": 2411,
    "latitude": 42.6954,
    "pop": 649900,
    "longitude": -1.6761,
    "name": "Comunidad Foral de Navarra",
    "country": "ES",
    "lastUpdated": "2020-05-03T15:39:09.839Z",
    "dead": 462,
    "id": "PmUlsNx2uFLU797wwU39",
    "sick": 3554,
    "invisible": false
  },
  {
    "infected": 1009,
    "recovered": 323,
    "latitude": 34.201507,
    "pop": 11530000,
    "longitude": 9.460554,
    "name": "Tunisia",
    "country": "TN",
    "lastUpdated": "2020-05-03T15:55:03.523Z",
    "dead": 42,
    "id": "Pr76V4raf108uSRoEXac",
    "sick": 644,
    "invisible": false
  },
  {
    "recovered": 12,
    "latitude": -26.5225,
    "pop": 1367000,
    "longitude": 31.4659,
    "name": "Eswatini",
    "country": "SZ",
    "lastUpdated": "2020-05-03T15:55:03.537Z",
    "dead": 1,
    "id": "PuQgOd9KWiMzGZXm11sR",
    "infected": 112,
    "sick": 99,
    "invisible": false
  },
  {
    "id": "Q18mrGvFWTLX2BU9SqhQ",
    "infected": 1361,
    "recovered": 1300,
    "latitude": -37.009609,
    "pop": 6359000,
    "longitude": 143.94853,
    "name": "Victoria",
    "country": "AU",
    "lastUpdated": "2020-05-03T15:36:01.649Z",
    "dead": 18,
    "sick": 43,
    "invisible": false
  },
  {
    "latitude": 54.2194,
    "pop": 2890000,
    "longitude": 9.6961,
    "name": "Schleswig-Holstein",
    "country": "DE",
    "lastUpdated": "2020-05-03T15:30:07.011Z",
    "dead": 126,
    "id": "Q39XkabIYxt15mHINzTa",
    "infected": 2744,
    "recovered": 2200,
    "sick": 418,
    "invisible": false
  },
  {
    "lastUpdated": "2020-05-03T15:41:08.674Z",
    "dead": 62,
    "id": "QGpQNhuoVTUPHXvS7qcu",
    "infected": 1619,
    "recovered": 0,
    "latitude": -27.953491,
    "pop": 11329605,
    "longitude": -52.031696,
    "name": "Rio Grande do Sul",
    "country": "BR",
    "sick": 1557,
    "invisible": false
  },
  {
    "infected": 1700,
    "recovered": 259,
    "latitude": 58.595272,
    "pop": 1328000,
    "longitude": 25.013607,
    "name": "Estonia",
    "country": "EE",
    "lastUpdated": "2020-05-03T15:55:03.522Z",
    "dead": 55,
    "id": "QR9go2hQKXjty7JHUYe4",
    "sick": 1386,
    "invisible": false
  },
  {
    "longitude": -40.336,
    "name": "Espírito Santo",
    "country": "BR",
    "lastUpdated": "2020-05-03T15:41:08.671Z",
    "dead": 103,
    "id": "QaWDLKH8SuwD0Qxq6c38",
    "infected": 2985,
    "recovered": 0,
    "latitude": -20.318,
    "pop": 3972388,
    "sick": 2882,
    "invisible": false
  },
  {
    "lastUpdated": "2020-05-03T15:31:07.811Z",
    "dead": 32,
    "id": "Qkho455pBwx88Gohs3hL",
    "infected": 510,
    "recovered": 0,
    "latitude": 20.3333,
    "pop": 8222700,
    "longitude": -103.6667,
    "name": "Jalisco",
    "country": "MX",
    "sick": 478,
    "invisible": false
  },
  {
    "latitude": -6.315,
    "pop": 8251000,
    "longitude": 143.9555,
    "name": "Papua New Guinea",
    "country": "PG",
    "lastUpdated": "2020-05-03T15:55:03.541Z",
    "dead": 0,
    "id": "QlZrE4nosm5WfdA2aCDg",
    "infected": 8,
    "recovered": 0,
    "sick": 8,
    "invisible": false
  },
  {
    "infected": 66,
    "recovered": 0,
    "latitude": 18.3358,
    "pop": 107268,
    "longitude": -64.8963,
    "name": "U.S. Virgin Islands",
    "country": "US",
    "lastUpdated": "2020-05-03T15:39:01.522Z",
    "dead": 4,
    "id": "QqhD3YDMKXojvQY3Yu41",
    "sick": 62,
    "invisible": false
  },
  {
    "id": "Qy2qW2ep5wltnYjPJBxh",
    "infected": 16,
    "recovered": 13,
    "latitude": 15.414999,
    "pop": 71937,
    "longitude": -61.3709755,
    "name": "Dominica",
    "country": "DM",
    "lastUpdated": "2020-05-03T15:55:03.540Z",
    "dead": 0,
    "sick": 3,
    "invisible": false
  },
  {
    "infected": 18,
    "recovered": 6,
    "latitude": 5.167,
    "pop": 344027,
    "longitude": -72.167,
    "name": "Casanare",
    "country": "CO",
    "lastUpdated": "2020-05-03T15:33:09.449Z",
    "dead": 0,
    "id": "R3IHMWqIUhOJJTlrmbUZ",
    "sick": 12,
    "invisible": false
  },
  {
    "latitude": 8.538,
    "pop": 4099000,
    "longitude": -80.7821,
    "name": "Panama",
    "country": "PA",
    "lastUpdated": "2020-05-03T15:55:03.519Z",
    "dead": 197,
    "id": "R8YCgephnxTufvcPWMgx",
    "infected": 7090,
    "recovered": 641,
    "sick": 6252,
    "invisible": false
  },
  {
    "infected": 1010,
    "recovered": 116,
    "latitude": 15.2,
    "pop": 9265000,
    "longitude": -86.2419,
    "name": "Honduras",
    "country": "HN",
    "lastUpdated": "2020-05-03T15:55:03.523Z",
    "dead": 76,
    "id": "RA2SE0p2bVhqo0P2hzGY",
    "sick": 818,
    "invisible": false
  },
  {
    "recovered": 0,
    "latitude": -18.4745998,
    "pop": 224500,
    "longitude": -70.2979202,
    "name": "Arica y Parinacota",
    "country": "CL",
    "lastUpdated": "2020-05-03T15:41:13.759Z",
    "dead": 4,
    "id": "RBt9RiwP7WUbMnJfD0lo",
    "infected": 307,
    "sick": 303,
    "invisible": false
  },
  {
    "infected": 3059,
    "recovered": 1655,
    "latitude": 45.633331,
    "pop": 1216000,
    "longitude": 13.8,
    "name": "Friuli Venezia Giulia",
    "country": "IT",
    "lastUpdated": "2020-05-03T15:31:02.713Z",
    "dead": 295,
    "id": "RCrDBCdBNYzgLNr0aB2H",
    "sick": 1109,
    "invisible": false
  },
  {
    "pop": 3156000,
    "longitude": -93.0977,
    "name": "Iowa",
    "country": "US",
    "lastUpdated": "2020-05-03T15:39:01.514Z",
    "dead": 175,
    "id": "RX0KDu1AFrlCsrRso0nb",
    "infected": 8641,
    "recovered": 0,
    "latitude": 41.878,
    "sick": 8466,
    "invisible": false
  },
  {
    "latitude": 4.624335,
    "pop": 7413000,
    "longitude": -74.063644,
    "name": "Bogotá D.C.",
    "country": "CO",
    "lastUpdated": "2020-05-03T15:33:09.443Z",
    "dead": 110,
    "id": "RZ6PCe5TZsO15JjDObwO",
    "infected": 2846,
    "recovered": 595,
    "sick": 2141,
    "invisible": false
  },
  {
    "recovered": 22,
    "latitude": 26.3351002,
    "pop": 6846000,
    "longitude": 17.2283306,
    "name": "Libya",
    "country": "LY",
    "lastUpdated": "2020-05-03T15:55:03.538Z",
    "dead": 3,
    "id": "RaJxbzlnRFTuj4B8IbpC",
    "infected": 63,
    "sick": 38,
    "invisible": false
  },
  {
    "latitude": 39.0119,
    "pop": 2912000,
    "longitude": -98.4842,
    "name": "Kansas",
    "country": "US",
    "lastUpdated": "2020-05-03T15:39:01.515Z",
    "dead": 140,
    "id": "Rf4uvBfP3GRDSHdZElRd",
    "infected": 4746,
    "recovered": 0,
    "sick": 4606,
    "invisible": false
  },
  {
    "infected": 21271,
    "recovered": 8253,
    "latitude": 48.6998,
    "pop": 5518000,
    "longitude": 6.1878,
    "name": "Grand Est",
    "country": "FR",
    "lastUpdated": "2020-05-02T22:06:37.152Z",
    "dead": 2937,
    "id": "RmEgf1xeclWt7XCF9oiR",
    "sick": 10081,
    "invisible": false
  },
  {
    "infected": 16239,
    "recovered": 3478,
    "latitude": 50.4176,
    "pop": 3644000,
    "longitude": 4.451,
    "name": "Wallonia",
    "country": "BE",
    "lastUpdated": "2020-05-03T15:56:10.569Z",
    "dead": 2721,
    "id": "RryHraSohKQLAsdr1dHO",
    "sick": 10040,
    "invisible": false
  },
  {
    "infected": 18322,
    "recovered": 0,
    "latitude": 51.2538,
    "pop": 14570000,
    "longitude": -85.3232,
    "name": "Ontario",
    "country": "CA",
    "lastUpdated": "2020-05-03T15:36:01.646Z",
    "dead": 1292,
    "id": "Rx4TuyMpfGb3S8wYJX0x",
    "sick": 17030,
    "invisible": false
  },
  {
    "lastUpdated": "2020-05-03T15:39:09.838Z",
    "dead": 1800,
    "id": "S8ewN4zaYp8mjtuqqOTw",
    "infected": 21229,
    "recovered": 6856,
    "latitude": 41.652779,
    "pop": 2408000,
    "longitude": -4.723611,
    "name": "Castilla y León",
    "country": "ES",
    "sick": 12573,
    "invisible": false
  },
  {
    "infected": 180,
    "recovered": 83,
    "latitude": 14.652027,
    "pop": 376480,
    "longitude": -61.011715,
    "name": "Martinique",
    "country": "FR",
    "lastUpdated": "2020-05-02T22:04:35.687Z",
    "dead": 14,
    "id": "SDdefnq1bc3ZNr7SpEsW",
    "sick": 83,
    "invisible": false
  },
  {
    "latitude": 7.9465,
    "pop": 28830000,
    "longitude": -1.0232,
    "name": "Ghana",
    "country": "GH",
    "lastUpdated": "2020-05-03T15:55:03.521Z",
    "dead": 18,
    "id": "SG9VWLOV3x2JsTkXmVSz",
    "infected": 2169,
    "recovered": 229,
    "sick": 1922,
    "invisible": false
  },
  {
    "latitude": 46.818188,
    "pop": 8570000,
    "longitude": 8.227512,
    "name": "Switzerland",
    "country": "CH",
    "lastUpdated": "2020-05-03T15:55:03.517Z",
    "dead": 1762,
    "id": "SGe9sCPayMqh6RsGFaBA",
    "infected": 29905,
    "recovered": 24200,
    "sick": 3943,
    "invisible": false
  },
  {
    "recovered": 0,
    "latitude": 46.8139,
    "pop": 8485000,
    "longitude": -71.208,
    "name": "Quebec",
    "country": "CA",
    "lastUpdated": "2020-05-03T15:36:01.645Z",
    "dead": 2136,
    "id": "SHoOE3NiJgWAlDVBzwYH",
    "infected": 29664,
    "sick": 27528,
    "invisible": false
  },
  {
    "infected": 823,
    "recovered": 336,
    "latitude": 42.6026,
    "pop": 1831000,
    "longitude": 20.903,
    "name": "Kosovo",
    "country": "XK",
    "lastUpdated": "2020-05-03T15:55:08.470Z",
    "dead": 22,
    "id": "SMWvuMMuKp2QK7O2tNia",
    "sick": 465,
    "invisible": false
  },
  {
    "recovered": 7,
    "latitude": 15.2993,
    "pop": 1817000,
    "longitude": 74.124,
    "name": "Goa",
    "country": "IN",
    "lastUpdated": "2020-05-03T15:41:01.253Z",
    "dead": 0,
    "id": "SPcujsH2YlUaoAr8AiWF",
    "infected": 7,
    "sick": 0,
    "invisible": false
  },
  {
    "longitude": -48.953403,
    "name": "Goiás",
    "country": "BR",
    "lastUpdated": "2020-05-03T15:41:08.671Z",
    "dead": 30,
    "id": "SV5AMF59J61Vt4cXWLgy",
    "infected": 825,
    "recovered": 0,
    "latitude": -16.328547,
    "pop": 6921161,
    "sick": 795,
    "invisible": false
  },
  {
    "infected": 1112,
    "recovered": 311,
    "latitude": 39,
    "pop": 1957000,
    "longitude": 16.5,
    "name": "Calabria",
    "country": "IT",
    "lastUpdated": "2020-05-03T15:31:02.712Z",
    "dead": 88,
    "id": "SZdF624x0v1LlyzZjKFu",
    "sick": 713,
    "invisible": false
  },
  {
    "latitude": 41.4925,
    "pop": 1929000,
    "longitude": -99.9018,
    "name": "Nebraska",
    "country": "US",
    "lastUpdated": "2020-05-03T15:39:01.515Z",
    "dead": 76,
    "id": "SakhKQzKu1LRI8laqdQq",
    "infected": 5326,
    "recovered": 0,
    "sick": 5250,
    "invisible": false
  },
  {
    "longitude": 55.5364,
    "name": "La Réunion",
    "country": "FR",
    "lastUpdated": "2020-05-03T15:55:03.529Z",
    "dead": 0,
    "id": "SgHzWAAYK1j2sipovxM6",
    "infected": 423,
    "recovered": 300,
    "latitude": -21.1151,
    "pop": 859959,
    "sick": 123,
    "invisible": false
  },
  {
    "latitude": 12.565679,
    "pop": 16010000,
    "longitude": 104.990967,
    "name": "Cambodia",
    "country": "KH",
    "lastUpdated": "2020-05-03T15:55:03.537Z",
    "dead": 0,
    "id": "SioMALgUbo7peXmbco2f",
    "infected": 122,
    "recovered": 120,
    "sick": 2,
    "invisible": false
  },
  {
    "infected": 148,
    "recovered": 0,
    "latitude": 13.4443,
    "pop": 164229,
    "longitude": 144.7937,
    "name": "Guam",
    "country": "GU",
    "lastUpdated": "2020-05-03T15:39:01.521Z",
    "dead": 5,
    "id": "SsWhuEElU7dCTTuH5fdQ",
    "sick": 143,
    "invisible": false
  },
  {
    "infected": 0,
    "recovered": 3945,
    "latitude": 51.9189,
    "longitude": 19.1344,
    "name": "Unknown Poland region",
    "country": "PL",
    "lastUpdated": "2020-05-03T15:55:03.518Z",
    "dead": 0,
    "id": "SuCr5emUaJ9RHTll1P1p",
    "invisible": true,
    "sick": 0
  },
  {
    "pop": 81340000,
    "longitude": 21.7587,
    "name": "DR Congo",
    "country": "CD",
    "lastUpdated": "2020-05-03T15:55:03.526Z",
    "dead": 33,
    "id": "T3iRf8mTUTAzbKrORTap",
    "infected": 674,
    "recovered": 75,
    "latitude": -4.0383,
    "sick": 566,
    "invisible": false
  },
  {
    "lastUpdated": "2020-05-03T15:55:03.517Z",
    "dead": 184,
    "id": "T7NffoeCgTUpAbOHvYwP",
    "infected": 27011,
    "recovered": 4134,
    "latitude": 23.635796,
    "pop": 32940000,
    "longitude": 44.344334,
    "name": "Saudi Arabia",
    "country": "SA",
    "sick": 22693,
    "invisible": false
  },
  {
    "infected": 5247,
    "recovered": 2297,
    "latitude": 42.2871,
    "pop": 315700,
    "longitude": -2.5396,
    "name": "La Rioja",
    "country": "ES",
    "lastUpdated": "2020-05-03T15:39:09.839Z",
    "dead": 335,
    "id": "TNDTapyb0k3l7Mds9q9R",
    "sick": 2615,
    "invisible": false
  },
  {
    "latitude": 20.400417,
    "pop": 2207200,
    "longitude": -89.134857,
    "name": "Yucatán",
    "country": "MX",
    "lastUpdated": "2020-05-03T15:31:07.810Z",
    "dead": 41,
    "id": "TQCWbhIpJQBQxBjhCGVJ",
    "infected": 540,
    "recovered": 0,
    "sick": 499,
    "invisible": false
  },
  {
    "lastUpdated": "2020-05-03T15:55:03.537Z",
    "dead": 1,
    "id": "TQZmzsLhJqjtCSExAkCP",
    "infected": 138,
    "recovered": 128,
    "latitude": 4.506106,
    "pop": 428697,
    "longitude": 114.650692,
    "name": "Brunei",
    "country": "BN",
    "sick": 9,
    "invisible": false
  },
  {
    "lastUpdated": "2020-05-02T22:07:25.749Z",
    "dead": 1355,
    "id": "TT0MKODSjrxHvG19xZCa",
    "infected": 12733,
    "recovered": 5154,
    "latitude": 45.4471,
    "pop": 8027000,
    "longitude": 4.3853,
    "name": "Auvergne-Rhône-Alpes",
    "country": "FR",
    "sick": 6224,
    "invisible": false
  },
  {
    "infected": 218,
    "recovered": 0,
    "latitude": 38.5667,
    "pop": 758700,
    "longitude": -7.9,
    "name": "Alentejo",
    "country": "PT",
    "lastUpdated": "2020-05-03T15:34:10.753Z",
    "dead": 1,
    "id": "TeoNTu4aw5riC04sTd73",
    "sick": 217,
    "invisible": false
  },
  {
    "pop": 5696000,
    "longitude": -105.461392,
    "name": "Colorado",
    "country": "US",
    "lastUpdated": "2020-05-03T15:39:01.513Z",
    "dead": 832,
    "id": "Th4dlpXXmSDgi1OHs36P",
    "infected": 16225,
    "recovered": 0,
    "latitude": 39.318928,
    "sick": 15393,
    "invisible": false
  },
  {
    "lastUpdated": "2020-05-03T15:55:03.526Z",
    "dead": 44,
    "id": "Tup6oDCHj6DgqZR3nQ3x",
    "infected": 652,
    "recovered": 535,
    "latitude": 12.2383,
    "pop": 19190000,
    "longitude": -1.5616,
    "name": "Burkina Faso",
    "country": "BF",
    "sick": 73,
    "invisible": false
  },
  {
    "id": "TvqURPN5xzVBXsmGP46N",
    "infected": 21,
    "recovered": 13,
    "latitude": 12.104818,
    "pop": 112381,
    "longitude": -61.670761,
    "name": "Grenada",
    "country": "GD",
    "lastUpdated": "2020-05-03T15:55:03.539Z",
    "dead": 0,
    "sick": 8,
    "invisible": false
  },
  {
    "recovered": 6987,
    "latitude": 55.675758,
    "pop": 5603000,
    "longitude": 12.56902,
    "name": "Denmark",
    "country": "DK",
    "lastUpdated": "2020-05-03T15:55:03.518Z",
    "dead": 484,
    "id": "Ty1AY3VLPJcRZgdBIERx",
    "infected": 9523,
    "sick": 2052,
    "invisible": false
  },
  {
    "latitude": 53.9062,
    "pop": 5486000,
    "longitude": -1.0334,
    "name": "Yorkshire and The Humber",
    "country": "GB",
    "lastUpdated": "2020-05-03T15:40:24.652Z",
    "dead": 0,
    "id": "U0N7cIPJXAc4T6uKV60c",
    "infected": 10598,
    "recovered": 0,
    "sick": 10598,
    "invisible": false
  },
  {
    "recovered": 772,
    "latitude": 36.395859,
    "pop": 100472400,
    "longitude": 118.769882,
    "name": "Shandong",
    "country": "CN",
    "lastUpdated": "2020-05-03T15:38:13.838Z",
    "dead": 7,
    "id": "U0tkTJ9CGsBuFJ2Gdoum",
    "infected": 787,
    "sick": 8,
    "invisible": false
  },
  {
    "lastUpdated": "2020-05-03T15:55:03.527Z",
    "dead": 41,
    "id": "U12rMD5GDW58Q0lIwrB1",
    "infected": 582,
    "recovered": 86,
    "latitude": 43.94236,
    "pop": 33400,
    "longitude": 12.457777,
    "name": "San Marino",
    "country": "SM",
    "sick": 455,
    "invisible": false
  },
  {
    "id": "U13Gy4BpRLAZ95bPmBXd",
    "infected": 14571,
    "recovered": 3205,
    "latitude": 36.204823,
    "pop": 126800000,
    "longitude": 138.25293,
    "name": "Japan",
    "country": "JP",
    "lastUpdated": "2020-05-03T15:55:03.518Z",
    "dead": 474,
    "sick": 10892,
    "invisible": false
  },
  {
    "infected": 88,
    "recovered": 52,
    "latitude": 1.3733,
    "pop": 42860000,
    "longitude": 32.2903,
    "name": "Uganda",
    "country": "UG",
    "lastUpdated": "2020-05-03T15:55:03.538Z",
    "dead": 0,
    "id": "UCZXEgnHtxUoChWLR6fQ",
    "sick": 36,
    "invisible": false
  },
  {
    "latitude": -11.2027,
    "pop": 29780000,
    "longitude": 17.8739,
    "name": "Angola",
    "country": "AO",
    "lastUpdated": "2020-05-03T15:55:03.539Z",
    "dead": 2,
    "id": "UIbrFy6kiTTF0D37Kqmp",
    "infected": 35,
    "recovered": 11,
    "sick": 22,
    "invisible": false
  },
  {
    "latitude": 48.202,
    "pop": 3329000,
    "longitude": -2.9326,
    "name": "Bretagne",
    "country": "FR",
    "lastUpdated": "2020-05-02T22:07:57.032Z",
    "dead": 216,
    "id": "URKMlJ7OTNldjpaxFbjE",
    "infected": 2047,
    "recovered": 855,
    "sick": 976,
    "invisible": false
  },
  {
    "latitude": 53.5511,
    "pop": 1822000,
    "longitude": 9.9937,
    "name": "Hamburg",
    "country": "DE",
    "lastUpdated": "2020-05-03T15:30:07.010Z",
    "dead": 164,
    "id": "UfFaUECHINUutv1M9tzq",
    "infected": 4834,
    "recovered": 3700,
    "sick": 970,
    "invisible": false
  },
  {
    "lastUpdated": "2020-05-03T15:31:07.810Z",
    "dead": 13,
    "id": "UflxTAb4FnAwve7c5MbY",
    "infected": 102,
    "recovered": 0,
    "latitude": 22.774916,
    "pop": 1615000,
    "longitude": -102.586899,
    "name": "Zacatecas",
    "country": "MX",
    "sick": 89,
    "invisible": false
  },
  {
    "lastUpdated": "2020-05-03T15:41:08.672Z",
    "dead": 9,
    "id": "UlA1ubOUhPtf9jjKxxhF",
    "infected": 266,
    "recovered": 0,
    "latitude": -20.4427795,
    "pop": 2748023,
    "longitude": -54.646389,
    "name": "Mato Grosso do Sul",
    "country": "BR",
    "sick": 257,
    "invisible": false
  },
  {
    "latitude": -19.4914,
    "pop": 211945,
    "longitude": 132.551,
    "name": "Northern Territory",
    "country": "AU",
    "lastUpdated": "2020-05-03T15:36:01.651Z",
    "dead": 0,
    "id": "UrF45V1VqMo6YBib2KlL",
    "infected": 27,
    "recovered": 25,
    "sick": 2,
    "invisible": false
  },
  {
    "latitude": 18.0424805,
    "pop": 41109,
    "longitude": -63.0548286,
    "name": "Sint Maarten",
    "country": "SX",
    "lastUpdated": "2020-05-03T15:55:03.538Z",
    "dead": 13,
    "id": "UsxgpiuFCtlR2CW1UUFm",
    "infected": 76,
    "recovered": 44,
    "sick": 19,
    "invisible": false
  },
  {
    "lastUpdated": "2020-05-03T15:40:24.652Z",
    "dead": 0,
    "id": "UzOGOMitJmaFTdh2FbvI",
    "infected": 13402,
    "recovered": 0,
    "latitude": 52.4751,
    "pop": 5908000,
    "longitude": -1.8298,
    "name": "West Midlands",
    "country": "GB",
    "sick": 13402,
    "invisible": false
  },
  {
    "lastUpdated": "2020-05-03T15:41:01.253Z",
    "dead": 0,
    "id": "V1qE740s3EUGyKGr6SVv",
    "infected": 12,
    "recovered": 5,
    "latitude": 11.943179,
    "pop": 241773,
    "longitude": 79.808206,
    "name": "Puducherry",
    "country": "IN",
    "sick": 7,
    "invisible": false
  },
  {
    "latitude": -45.5687,
    "pop": 25569,
    "longitude": -72.0597,
    "name": "Aysén",
    "country": "CL",
    "lastUpdated": "2020-05-03T15:41:13.767Z",
    "dead": 0,
    "id": "V9QxUhV4DyYK7iElEhXV",
    "infected": 7,
    "recovered": 0,
    "sick": 7,
    "invisible": false
  },
  {
    "latitude": 21.5218,
    "pop": 11480000,
    "longitude": -77.7812,
    "name": "Cuba",
    "country": "CU",
    "lastUpdated": "2020-05-03T15:55:03.523Z",
    "dead": 66,
    "id": "VAG9AcMABTf8oIAfELPh",
    "infected": 1611,
    "recovered": 765,
    "sick": 780,
    "invisible": false
  },
  {
    "infected": 185,
    "recovered": 181,
    "latitude": 25.181129,
    "pop": 45970000,
    "longitude": 101.864143,
    "name": "Yunnan",
    "country": "CN",
    "lastUpdated": "2020-05-03T15:38:13.839Z",
    "dead": 2,
    "id": "VIf8T8PD3ZzlzAm5eBCX",
    "sick": 2,
    "invisible": false
  },
  {
    "infected": 6062,
    "recovered": 0,
    "latitude": -3.4653,
    "pop": 4080611,
    "longitude": -62.2159,
    "name": "Amazonas",
    "country": "BR",
    "lastUpdated": "2020-05-03T15:41:08.670Z",
    "dead": 501,
    "id": "VZQiSdZ7cUHgUZWgpNTP",
    "sick": 5561,
    "invisible": false
  },
  {
    "lastUpdated": "2020-05-03T15:41:01.250Z",
    "dead": 43,
    "id": "VcKcLdCkC6YpPfIDnRVD",
    "infected": 2626,
    "recovered": 754,
    "latitude": 26.8467,
    "pop": 204200000,
    "longitude": 80.9462,
    "name": "Uttar Pradesh",
    "country": "IN",
    "sick": 1829,
    "invisible": false
  },
  {
    "latitude": 64.8255,
    "pop": 44826,
    "longitude": -124.8457,
    "name": "Northwest Territories",
    "country": "CA",
    "lastUpdated": "2020-05-03T15:36:01.651Z",
    "dead": 0,
    "id": "Vd3lLgrNsr81plzTgZkz",
    "infected": 5,
    "recovered": 0,
    "sick": 5,
    "invisible": false
  },
  {
    "latitude": 39.999079,
    "pop": 1188000,
    "longitude": 3.838942,
    "name": "Islas Baleares",
    "country": "ES",
    "lastUpdated": "2020-05-03T15:39:09.837Z",
    "dead": 197,
    "id": "VyW0IR9vLMdgnKz1cC7j",
    "infected": 1990,
    "recovered": 1284,
    "sick": 509,
    "invisible": false
  },
  {
    "latitude": 43.8927,
    "pop": 5893000,
    "longitude": 3.2828,
    "name": "Occitanie",
    "country": "FR",
    "lastUpdated": "2020-05-02T22:09:06.088Z",
    "dead": 409,
    "id": "WAnbFrEjtZDTCIYBt8rz",
    "infected": 4532,
    "recovered": 2142,
    "sick": 1981,
    "invisible": false
  },
  {
    "infected": 380,
    "recovered": 164,
    "latitude": 40.5,
    "pop": 567118,
    "longitude": 16.5,
    "name": "Basilicata",
    "country": "IT",
    "lastUpdated": "2020-05-03T15:31:02.712Z",
    "dead": 25,
    "id": "WD502XimGXnWzqYg7zxL",
    "sick": 191,
    "invisible": false
  },
  {
    "lastUpdated": "2020-05-03T15:41:01.253Z",
    "dead": 0,
    "id": "WKsJQmcpWKxnp0nCwN77",
    "infected": 2,
    "recovered": 2,
    "latitude": 24.6637,
    "pop": 2722000,
    "longitude": 93.9063,
    "name": "Manipur",
    "country": "IN",
    "sick": 0,
    "invisible": false
  },
  {
    "infected": 653,
    "recovered": 0,
    "latitude": -9.933,
    "pop": 1757589,
    "longitude": -63.067,
    "name": "Rondônia",
    "country": "BR",
    "lastUpdated": "2020-05-03T15:41:08.674Z",
    "dead": 23,
    "id": "WRqKCfMIJFjrjXLMud70",
    "sick": 630,
    "invisible": false
  },
  {
    "latitude": -30.5595,
    "pop": 56720000,
    "longitude": 22.9375,
    "name": "South Africa",
    "country": "ZA",
    "lastUpdated": "2020-05-03T15:55:03.519Z",
    "dead": 123,
    "id": "Whrue10NtwIObLvFFyBr",
    "infected": 6336,
    "recovered": 2549,
    "sick": 3664,
    "invisible": false
  },
  {
    "latitude": 13.443182,
    "pop": 2101000,
    "longitude": -15.3101387,
    "name": "Gambia",
    "country": "GM",
    "lastUpdated": "2020-05-03T15:55:03.540Z",
    "dead": 1,
    "id": "Wk811YwpQxsOCfz8As86",
    "infected": 17,
    "recovered": 9,
    "sick": 7,
    "invisible": false
  },
  {
    "id": "WpCXuQjYFLbozSpEhbrZ",
    "infected": 3615,
    "recovered": 0,
    "latitude": 19.352498,
    "pop": 17666800,
    "longitude": -99.625164,
    "name": "Estado de México",
    "country": "MX",
    "lastUpdated": "2020-05-03T15:31:07.811Z",
    "dead": 273,
    "sick": 3342,
    "invisible": false
  },
  {
    "latitude": 23.685,
    "pop": 164700000,
    "longitude": 90.3563,
    "name": "Bangladesh",
    "country": "BD",
    "lastUpdated": "2020-05-03T15:55:03.519Z",
    "dead": 177,
    "id": "WpLayPPLIJ7VcHZdQaoM",
    "infected": 9455,
    "recovered": 177,
    "sick": 9101,
    "invisible": false
  },
  {
    "latitude": 20.836,
    "pop": 2100000,
    "longitude": -99.8508,
    "name": "Querétaro",
    "country": "MX",
    "lastUpdated": "2020-05-03T15:31:07.809Z",
    "dead": 16,
    "id": "Wt97UDm6jfYef6WBrS2w",
    "infected": 166,
    "recovered": 0,
    "sick": 150,
    "invisible": false
  },
  {
    "recovered": 9291,
    "latitude": 45.5,
    "pop": 4905000,
    "longitude": 11.75,
    "name": "Veneto",
    "country": "IT",
    "lastUpdated": "2020-05-03T15:31:02.715Z",
    "dead": 1502,
    "id": "X2iRhHF6f9pUnJcxPc3J",
    "infected": 18224,
    "sick": 7431,
    "invisible": false
  },
  {
    "lastUpdated": "2020-05-03T15:55:03.539Z",
    "dead": 0,
    "id": "X3GMAVINj2GDzIRVfo7n",
    "infected": 24,
    "recovered": 16,
    "latitude": -8.556856,
    "pop": 1311000,
    "longitude": 125.56031,
    "name": "Timor-Leste",
    "country": "TL",
    "sick": 8,
    "invisible": false
  },
  {
    "infected": 42,
    "recovered": 17,
    "latitude": 34.152588,
    "pop": 274289,
    "longitude": 77.577049,
    "name": "Ladakh",
    "country": "IN",
    "lastUpdated": "2020-05-03T15:41:01.252Z",
    "dead": 0,
    "id": "X3PZqaJxtnlxcgP4tzya",
    "sick": 25,
    "invisible": false
  },
  {
    "lastUpdated": "2020-05-03T15:38:13.839Z",
    "dead": 1,
    "id": "XBBw0iMPrmiEu3qogkbi",
    "infected": 356,
    "recovered": 353,
    "latitude": 25.92448,
    "pop": 38560000,
    "longitude": 118.278992,
    "name": "Fujian",
    "country": "CN",
    "sick": 2,
    "invisible": false
  },
  {
    "id": "XIYUg6ShQvWyEAJfyJzC",
    "infected": 752,
    "recovered": 0,
    "latitude": -52.368,
    "pop": 166533,
    "longitude": -70.9863,
    "name": "Magallanes",
    "country": "CL",
    "lastUpdated": "2020-05-03T15:41:13.767Z",
    "dead": 11,
    "sick": 741,
    "invisible": false
  },
  {
    "latitude": 37.794597,
    "pop": 246746,
    "longitude": -25.506134,
    "name": "Açores",
    "country": "PT",
    "lastUpdated": "2020-05-03T15:34:10.753Z",
    "dead": 13,
    "id": "XhM7BCQK50gGQ2wIUtDq",
    "infected": 132,
    "recovered": 0,
    "sick": 119,
    "invisible": false
  },
  {
    "pop": 3457000,
    "longitude": -55.7658,
    "name": "Uruguay",
    "country": "UY",
    "lastUpdated": "2020-05-03T15:55:03.527Z",
    "dead": 17,
    "id": "XrsuLstdybIqIvv0E0aJ",
    "infected": 652,
    "recovered": 440,
    "latitude": -32.5228,
    "sick": 195,
    "invisible": false
  },
  {
    "infected": 422,
    "recovered": 191,
    "latitude": 42.0396,
    "pop": 339178,
    "longitude": 9.0129,
    "name": "Corse",
    "country": "FR",
    "lastUpdated": "2020-05-02T22:09:28.921Z",
    "dead": 57,
    "id": "YGXgIObKVabP2CYEdcb9",
    "sick": 174,
    "invisible": false
  },
  {
    "latitude": 2.916112,
    "pop": 1126000,
    "longitude": -75.28344,
    "name": "Huila",
    "country": "CO",
    "lastUpdated": "2020-05-03T15:33:09.448Z",
    "dead": 7,
    "id": "YI9zIOUXJqAcgc0T80yb",
    "infected": 133,
    "recovered": 41,
    "sick": 85,
    "invisible": false
  },
  {
    "latitude": 31.9522,
    "pop": 5052000,
    "longitude": 35.2332,
    "name": "Palestine",
    "country": "PS",
    "lastUpdated": "2020-05-03T15:55:03.529Z",
    "dead": 2,
    "id": "YMzKw0SnXG71VT7H1jff",
    "infected": 353,
    "recovered": 77,
    "sick": 274,
    "invisible": false
  },
  {
    "id": "YP3nlz6AKyrnCWYb5mHA",
    "infected": 1077,
    "recovered": 0,
    "latitude": 17.97,
    "pop": 2460900,
    "longitude": -92.5867,
    "name": "Tabasco",
    "country": "MX",
    "lastUpdated": "2020-05-03T15:31:07.808Z",
    "dead": 138,
    "sick": 939,
    "invisible": false
  },
  {
    "id": "YZoy8ReFucvC3IFnWZHn",
    "infected": 257,
    "recovered": 19,
    "latitude": 11.8037491,
    "pop": 1955000,
    "longitude": -15.1804132,
    "name": "Guinea-Bissau",
    "country": "GW",
    "lastUpdated": "2020-05-03T15:55:03.530Z",
    "dead": 1,
    "sick": 237,
    "invisible": false
  },
  {
    "longitude": -149.4937,
    "name": "Alaska",
    "country": "US",
    "lastUpdated": "2020-05-03T15:39:01.521Z",
    "dead": 9,
    "id": "YaCODTMD1KKRnrAlkg2u",
    "infected": 365,
    "recovered": 0,
    "latitude": 64.2008,
    "pop": 737438,
    "sick": 356,
    "invisible": false
  },
  {
    "infected": 16197,
    "recovered": 12024,
    "latitude": 42.9896,
    "pop": 2178000,
    "longitude": -2.6189,
    "name": "País Vasco",
    "country": "ES",
    "lastUpdated": "2020-05-03T15:39:09.839Z",
    "dead": 1329,
    "id": "YfA7o2lZP1DhV4JB6Umh",
    "sick": 2844,
    "invisible": false
  },
  {
    "infected": 163,
    "recovered": 0,
    "latitude": 16.8922,
    "pop": 4091400,
    "longitude": -96.4085,
    "name": "Oaxaca",
    "country": "MX",
    "lastUpdated": "2020-05-03T15:31:07.801Z",
    "dead": 22,
    "id": "YidRsOGDERjtbaIBGCdu",
    "sick": 141,
    "invisible": false
  },