[
  {
    "infected": 1,
    "recovered": 0,
    "latitude": 20.9517,
    "longitude": 85.0985,
    "name": "Odisha",
    "country": "IN",
    "dead": 0,
    "lastUpdated": "2020-03-18T22:49:04.549Z",
    "id": "0VG7S6aaK4eSo59fL9JO",
    "sick": 1
  },
  {
    "infected": 452,
    "recovered": 4,
    "latitude": 25.315058,
    "longitude": 51.145517,
    "name": "Qatar",
    "country": "QA",
    "dead": 0,
    "lastUpdated": "2020-03-18T22:57:02.949Z",
    "id": "0m4aECS0Z2DGFEr8ldgI",
    "sick": 448
  },
  {
    "longitude": 87.855,
    "name": "West Bengal",
    "country": "IN",
    "dead": 0,
    "lastUpdated": "2020-03-18T22:49:04.398Z",
    "id": "0n54EMSDJcRoT1QEvw80",
    "infected": 1,
    "recovered": 0,
    "latitude": 22.9868,
    "sick": 1
  },
  {
    "recovered": 237,
    "latitude": 35.64249,
    "longitude": 108.472214,
    "name": "Shaanxi",
    "country": "CN",
    "dead": 3,
    "lastUpdated": "2020-03-18T05:53:45.201Z",
    "id": "0x2HLhr5z5xAtEdO4iZm",
    "infected": 246,
    "sick": 6
  },
  {
    "infected": 43,
    "recovered": 1,
    "latitude": 41.643351,
    "longitude": 21.668393,
    "name": "North Macedonia",
    "country": "MK",
    "dead": 0,
    "lastUpdated": "2020-03-18T22:57:03.024Z",
    "id": "19MvIhipqTyYv1H37Upw",
    "sick": 42
  },
  {
    "infected": 3,
    "recovered": 0,
    "latitude": 53.1355,
    "longitude": -57.6604,
    "name": "Newfoundland and Labrador",
    "country": "CA",
    "dead": 0,
    "lastUpdated": "2020-03-18T22:48:01.637Z",
    "id": "1DOMOmCWDtva46OVSZLv",
    "sick": 3
  },
  {
    "recovered": 18,
    "latitude": 35.801933,
    "longitude": 96.779286,
    "name": "Qinghai",
    "country": "CN",
    "dead": 0,
    "lastUpdated": "2020-03-18T05:54:04.388Z",
    "id": "1Fap7rZu9SIRqf5TG9Dg",
    "infected": 18,
    "sick": 0
  },
  {
    "dead": 3,
    "lastUpdated": "2020-03-18T22:57:02.872Z",
    "id": "1f0YoV0vAcexEhpESyZc",
    "infected": 509,
    "recovered": 2,
    "latitude": -14.235004,
    "longitude": -51.925282,
    "name": "Brazil",
    "country": "BR",
    "sick": 504
  },
  {
    "infected": 36,
    "recovered": 1,
    "latitude": 47.4116,
    "longitude": 28.3699,
    "name": "Moldova",
    "country": "MD",
    "dead": 1,
    "lastUpdated": "2020-03-18T22:57:02.881Z",
    "id": "1qTPB8X3tyLyIdsb5TN3",
    "sick": 34
  },
  {
    "latitude": 30.15336,
    "longitude": 88.787865,
    "name": "Tibet",
    "country": "CN",
    "dead": 0,
    "lastUpdated": "2020-03-18T05:52:36.787Z",
    "id": "25qIBtsW2nfQj3pwBKg9",
    "infected": 1,
    "recovered": 1,
    "sick": 0
  },
  {
    "infected": 227,
    "recovered": 11,
    "latitude": -1.572184,
    "longitude": 115.66779,
    "name": "Indonesia",
    "country": "ID",
    "dead": 19,
    "lastUpdated": "2020-03-18T22:57:02.919Z",
    "id": "2KHYUb5t3lwzVVmDjwNX",
    "sick": 197
  },
  {
    "recovered": 0,
    "latitude": 43.807191,
    "longitude": -120.585594,
    "name": "Oregon",
    "country": "US",
    "dead": 2,
    "lastUpdated": "2020-03-18T22:48:01.566Z",
    "id": "2OrsssmGUs4XCzaZzvTv",
    "infected": 68,
    "sick": 66
  },
  {
    "id": "2jxHvSsxdnom0nPNvOT8",
    "infected": 93,
    "recovered": 92,
    "latitude": 43.851921,
    "longitude": 126.548103,
    "name": "Jilin",
    "country": "CN",
    "dead": 1,
    "lastUpdated": "2020-03-18T05:54:12.384Z",
    "sick": 0
  },
  {
    "infected": 8,
    "recovered": 2,
    "latitude": 36.1408,
    "longitude": -5.3536,
    "name": "Gibraltar",
    "country": "GI",
    "dead": 0,
    "lastUpdated": "2020-03-18T22:57:03.090Z",
    "id": "2p11BjSAs3wVyymgqBOe",
    "sick": 6
  },
  {
    "longitude": 1.6751,
    "name": "Centre-Val de Loire",
    "country": "FR",
    "dead": 0,
    "lastUpdated": "2020-03-18T22:42:10.535Z",
    "id": "2sLNkkHpyaHx7dD3aMDO",
    "infected": 128,
    "recovered": 0,
    "latitude": 47.7516,
    "sick": 128
  },
  {
    "latitude": 42.7044,
    "longitude": 19.3958,
    "name": "Montenegro",
    "country": "ME",
    "dead": 0,
    "lastUpdated": "2020-03-18T22:57:02.793Z",
    "id": "3LstMSN5XMYBkxbe5HN7",
    "infected": 8,
    "recovered": 0,
    "sick": 8
  },
  {
    "longitude": 149.0124,
    "name": "Australian Capital Territory",
    "country": "AU",
    "dead": 0,
    "lastUpdated": "2020-03-18T13:36:54.358Z",
    "id": "3OZoQsKrzxZ18EKyfGE6",
    "infected": 3,
    "recovered": 0,
    "latitude": -35.4735,
    "sick": 3
  },
  {
    "recovered": 0,
    "latitude": 40.4173,
    "longitude": -82.9071,
    "name": "Ohio",
    "country": "US",
    "dead": 0,
    "lastUpdated": "2020-03-18T22:48:01.599Z",
    "id": "3fC3bAyIRUquOQOEnQNe",
    "infected": 86,
    "sick": 86
  },
  {
    "latitude": 21.0079,
    "longitude": -10.9408,
    "name": "Mauritania",
    "country": "MR",
    "dead": 0,
    "lastUpdated": "2020-03-18T22:57:02.802Z",
    "id": "4NnFMekRK2m14IlnZZoj",
    "infected": 2,
    "recovered": 0,
    "sick": 2
  },
  {
    "longitude": -127.6476,
    "name": "British Columbia",
    "country": "CA",
    "dead": 7,
    "lastUpdated": "2020-03-18T22:48:01.528Z",
    "id": "4hfZRUoUgI4a3vrG0GBk",
    "infected": 186,
    "recovered": 4,
    "latitude": 53.7267,
    "sick": 175
  },
  {
    "latitude": 41.065877,
    "longitude": -7.920053,
    "name": "Portugal",
    "country": "PT",
    "dead": 2,
    "lastUpdated": "2020-03-18T22:57:02.993Z",
    "id": "4rQLxUCMmQLpbi6E9tbH",
    "infected": 642,
    "recovered": 4,
    "sick": 636
  },
  {
    "dead": 1,
    "lastUpdated": "2020-03-18T22:57:02.960Z",
    "id": "4zqzRm2xHn0CDVOUQJ8p",
    "infected": 34,
    "recovered": 6,
    "latitude": 40.3426,
    "longitude": 47.93802,
    "name": "Azerbaijan",
    "country": "AZ",
    "sick": 27
  },
  {
    "longitude": 146.921097,
    "name": "New South Wales",
    "country": "AU",
    "dead": 5,
    "lastUpdated": "2020-03-18T13:37:03.741Z",
    "id": "5N16a2OXXRpsEFanw0TC",
    "infected": 267,
    "recovered": 4,
    "latitude": -31.253218,
    "sick": 258
  },
  {
    "dead": 0,
    "lastUpdated": "2020-03-18T22:57:03.060Z",
    "id": "5gXZIjRgAvd6xWN1LOv8",
    "infected": 1,
    "recovered": 1,
    "latitude": 28.394857,
    "longitude": 84.124008,
    "name": "Nepal",
    "country": "NP",
    "sick": 0
  },
  {
    "latitude": 12.879721,
    "longitude": 121.774017,
    "name": "Philippines",
    "country": "PH",
    "dead": 17,
    "lastUpdated": "2020-03-18T22:57:02.861Z",
    "id": "5pwmh7aSdGRKqRbnuyc0",
    "infected": 202,
    "recovered": 4,
    "sick": 181
  },
  {
    "recovered": 1,
    "latitude": 55.621011,
    "longitude": 23.804991,
    "name": "Lithuania",
    "country": "LT",
    "dead": 0,
    "lastUpdated": "2020-03-18T22:57:02.860Z",
    "id": "694ON7d0mRJDeM1gHBTR",
    "infected": 34,
    "sick": 33
  },
  {
    "latitude": 22.396427,
    "longitude": 114.109497,
    "name": "Hong Kong",
    "country": "HK",
    "dead": 4,
    "lastUpdated": "2020-03-18T22:57:02.885Z",
    "id": "6IcHIIH0zXpY0POmBZTv",
    "infected": 181,
    "recovered": 92,
    "sick": 85
  },
  {
    "recovered": 0,
    "latitude": 9.3077,
    "longitude": 2.3158,
    "name": "Benin",
    "country": "BJ",
    "dead": 0,
    "lastUpdated": "2020-03-18T22:57:03.073Z",
    "id": "6SlpghTyB6lpMFvx3g9U",
    "infected": 2,
    "sick": 2
  },
  {
    "infected": 286,
    "recovered": 0,
    "latitude": 46.0569,
    "longitude": 14.5058,
    "name": "Slovenia",
    "country": "SI",
    "dead": 1,
    "lastUpdated": "2020-03-18T22:57:02.848Z",
    "id": "6ahNiyKDSDAftCctgLH3",
    "sick": 285
  },
  {
    "infected": 3,
    "recovered": 0,
    "latitude": -0.8037,
    "longitude": 11.6094,
    "name": "Gabon",
    "country": "GA",
    "dead": 0,
    "lastUpdated": "2020-03-18T22:57:03.054Z",
    "id": "6pBi38TUgYfFm0bry2uh",
    "sick": 3
  },
  {
    "id": "78Ox26bNHDA2Pk2b3Uwn",
    "infected": 3,
    "recovered": 0,
    "latitude": 17.901672,
    "longitude": -62.818544,
    "name": "Saint-Barthélemy",
    "country": "FR",
    "dead": 0,
    "lastUpdated": "2020-03-18T22:57:02.799Z",
    "sick": 3
  },
  {
    "dead": 0,
    "lastUpdated": "2020-03-18T22:57:03.042Z",
    "id": "7hVFcEV7nV0MrQr3LHrl",
    "infected": 1,
    "recovered": 0,
    "latitude": 17.0608,
    "longitude": -61.7964,
    "name": "Antigua and Barbuda",
    "country": "AG",
    "sick": 1
  },
  {
    "recovered": 14,
    "latitude": 48.7904,
    "longitude": 11.4979,
    "name": "Bayern",
    "country": "DE",
    "dead": 5,
    "lastUpdated": "2020-03-18T22:57:02.719Z",
    "id": "7kCrrlOBE3jN6FtOVNUB",
    "infected": 1798,
    "sick": 1779
  },
  {
    "infected": 58,
    "recovered": 2,
    "latitude": 47.4979,
    "longitude": 19.0402,
    "name": "Hungary",
    "country": "HU",
    "dead": 1,
    "lastUpdated": "2020-03-18T22:57:02.995Z",
    "id": "7rYC2iFB50c55Ihgbs4Q",
    "sick": 55
  },
  {
    "dead": 0,
    "lastUpdated": "2020-03-18T22:57:03.040Z",
    "id": "8C0d7WVCjyUGtnc2gUAR",
    "infected": 13,
    "recovered": 0,
    "latitude": 7.3697,
    "longitude": 12.3547,
    "name": "Cameroon",
    "country": "CM",
    "sick": 13
  },
  {
    "latitude": -16.2902,
    "longitude": -63.5887,
    "name": "Bolivia",
    "country": "BO",
    "dead": 0,
    "lastUpdated": "2020-03-18T22:57:03.056Z",
    "id": "8RihJrXw4NQXPxaRxr1u",
    "infected": 12,
    "recovered": 0,
    "sick": 12
  },
  {
    "infected": 1,
    "recovered": 0,
    "latitude": 12.9843,
    "longitude": -61.2872,
    "name": "St. Vincent Grenadines",
    "country": "VC",
    "dead": 0,
    "lastUpdated": "2020-03-18T22:57:02.791Z",
    "id": "8ZTySQROQejkDAad0qxQ",
    "sick": 1
  },
  {
    "infected": 313,
    "recovered": 114,
    "latitude": 1.352083,
    "longitude": 103.819839,
    "name": "Singapore",
    "country": "SG",
    "dead": 0,
    "lastUpdated": "2020-03-18T22:57:02.854Z",
    "id": "8pA3fM4xC2c2wv1b4TnE",
    "sick": 199
  },
  {
    "dead": 0,
    "lastUpdated": "2020-03-18T22:42:10.521Z",
    "id": "98hwAoohgWEOQVa3NlM5",
    "infected": 128,
    "recovered": 4,
    "latitude": 47.2184,
    "longitude": -1.5536,
    "name": "Pays de la Loire",
    "country": "FR",
    "sick": 124
  },
  {
    "latitude": 12.8628,
    "longitude": 30.2176,
    "name": "Sudan",
    "country": "SD",
    "dead": 1,
    "lastUpdated": "2020-03-18T22:57:03.078Z",
    "id": "9DPOkpIqrFy9mR4e9fuv",
    "infected": 2,
    "recovered": 0,
    "sick": 1
  },
  {
    "infected": 260,
    "recovered": 19,
    "latitude": 45.943161,
    "longitude": 24.966761,
    "name": "Romania",
    "country": "RO",
    "dead": 0,
    "lastUpdated": "2020-03-18T22:57:02.846Z",
    "id": "9QcETqEcM2fTv9zRvx5T",
    "sick": 241
  },
  {
    "id": "9p6OCdZbUUwBLA60Gk3W",
    "infected": 359,
    "recovered": 10,
    "latitude": 61.92411,
    "longitude": 25.748152,
    "name": "Finland",
    "country": "FI",
    "dead": 0,
    "lastUpdated": "2020-03-18T22:57:02.959Z",
    "sick": 349
  },
  {
    "infected": 26,
    "recovered": 0,
    "latitude": 43.311643,
    "longitude": -71.590315,
    "name": "New Hampshire",
    "country": "US",
    "dead": 0,
    "lastUpdated": "2020-03-18T22:48:01.539Z",
    "id": "A84CwQ52kA46Hr7pn6Bm",
    "sick": 26
  },
  {
    "id": "AEUWUHS65qvjEslew11c",
    "infected": 33,
    "recovered": 0,
    "latitude": 41.823261,
    "longitude": -71.412257,
    "name": "Rhode Island",
    "country": "US",
    "dead": 0,
    "lastUpdated": "2020-03-18T22:48:01.562Z",
    "sick": 33
  },
  {
    "longitude": 7.023,
    "name": "Saarland",
    "country": "DE",
    "dead": 0,
    "lastUpdated": "2020-03-18T22:57:02.639Z",
    "id": "AKjFRQGnzuuZQhv5Qwx7",
    "infected": 169,
    "recovered": 0,
    "latitude": 49.3964,
    "sick": 169
  },
  {
    "latitude": 71.7069,
    "longitude": -42.6043,
    "name": "Greenland",
    "country": "GL",
    "dead": 0,
    "lastUpdated": "2020-03-18T22:57:03.068Z",
    "id": "APaZzlGCEeuoLBtzTJMe",
    "infected": 2,
    "recovered": 0,
    "sick": 2
  },
  {
    "recovered": 0,
    "latitude": 45.65107,
    "longitude": -63.582687,
    "name": "Nova Scotia",
    "country": "CA",
    "dead": 0,
    "lastUpdated": "2020-03-18T22:48:01.556Z",
    "id": "AVCpxeh0fuH2WrHWNDYH",
    "infected": 12,
    "sick": 12
  },
  {
    "longitude": -109.128641,
    "name": "Montana",
    "country": "US",
    "dead": 0,
    "lastUpdated": "2020-03-18T22:48:01.612Z",
    "id": "AcULcZBozObOhwuRKMjJ",
    "infected": 11,
    "recovered": 0,
    "latitude": 47.012918,
    "sick": 11
  },
  {
    "recovered": 934,
    "latitude": 27.285971,
    "longitude": 116.01609,
    "name": "Jiangxi",
    "country": "CN",
    "dead": 1,
    "lastUpdated": "2020-03-18T05:58:20.173Z",
    "id": "AmBYm5J6E9Cuez1FQjiN",
    "infected": 935,
    "sick": 0
  },
  {
    "longitude": 1.659626,
    "name": "Algeria",
    "country": "DZ",
    "dead": 7,
    "lastUpdated": "2020-03-18T22:57:02.933Z",
    "id": "AwN0CScPDApcLFgz6e3z",
    "infected": 75,
    "recovered": 32,
    "latitude": 28.033886,
    "sick": 36
  },
  {
    "id": "B82Ef45M8cDu4q7VsSHF",
    "infected": 89,
    "recovered": 5,
    "latitude": 45.099998,
    "longitude": 15.2,
    "name": "Croatia",
    "country": "HR",
    "dead": 0,
    "lastUpdated": "2020-03-18T22:57:02.875Z",
    "sick": 84
  },
  {
    "infected": 85,
    "recovered": 0,
    "latitude": 39.509109,
    "longitude": -76.98432,
    "name": "Maryland",
    "country": "US",
    "dead": 0,
    "lastUpdated": "2020-03-18T22:48:01.554Z",
    "id": "BF51mWl51fgEcyBpCSzb",
    "sick": 85
  },
  {
    "latitude": 53.709808,
    "longitude": 27.953388,
    "name": "Belarus",
    "country": "BY",
    "dead": 0,
    "lastUpdated": "2020-03-18T22:57:02.873Z",
    "id": "BGg6yVU5VP71B8NXU0oh",
    "infected": 51,
    "recovered": 5,
    "sick": 46
  },
  {
    "id": "BGtoyzb7y54LVlJ91rbf",
    "infected": 208,
    "recovered": 0,
    "latitude": 48.8799,
    "longitude": 0.1713,
    "name": "Normandie",
    "country": "FR",
    "dead": 1,
    "lastUpdated": "2020-03-18T22:42:10.549Z",
    "sick": 207
  },
  {
    "latitude": 34.048927,
    "longitude": -111.093735,
    "name": "Arizona",
    "country": "US",
    "dead": 0,
    "lastUpdated": "2020-03-18T22:48:01.571Z",
    "id": "BTEESCuD2ZbS1afunR2A",
    "infected": 27,
    "recovered": 0,
    "sick": 27
  },
  {
    "id": "C3BCUzV80z9GfiuByIcr",
    "infected": 2495,
    "recovered": 0,
    "latitude": 40.719042,
    "longitude": -73.982597,
    "name": "New York",
    "country": "US",
    "dead": 16,
    "lastUpdated": "2020-03-18T22:48:01.379Z",
    "sick": 2479
  },
  {
    "infected": 522,
    "recovered": 3,
    "latitude": 49.731626,
    "longitude": 15.359413,
    "name": "Czechia",
    "country": "CZ",
    "dead": 0,
    "lastUpdated": "2020-03-18T22:57:02.957Z",
    "id": "C6S76AggdWVU8G22jFHQ",
    "sick": 519
  },
  {
    "recovered": 95,
    "latitude": 26.0667,
    "longitude": 50.557701,
    "name": "Bahrain",
    "country": "BH",
    "dead": 1,
    "lastUpdated": "2020-03-18T22:57:02.862Z",
    "id": "C7cj4nwRITs13KnaJrQ2",
    "infected": 255,
    "sick": 159
  },
  {
    "longitude": 74.2179,
    "name": "Rajasthan",
    "country": "IN",
    "dead": 0,
    "lastUpdated": "2020-03-18T22:49:04.436Z",
    "id": "CKZCZTPlrcq5fbfUPA9k",
    "infected": 4,
    "recovered": 3,
    "latitude": 27.0238,
    "sick": 1
  },
  {
    "longitude": -1.17432,
    "name": "United Kingdom",
    "country": "GB",
    "dead": 104,
    "lastUpdated": "2020-03-18T22:57:02.936Z",
    "id": "CrXu6i5Sqx11iwdfHfBs",
    "infected": 2626,
    "recovered": 65,
    "latitude": 52.355518,
    "sick": 2457
  },
  {
    "infected": 110,
    "recovered": 1,
    "latitude": 40.259003,
    "longitude": 44.818474,
    "name": "Armenia",
    "country": "AM",
    "dead": 0,
    "lastUpdated": "2020-03-18T22:57:02.833Z",
    "id": "DCJCtZoBTWQ4mzdDNljD",
    "sick": 109
  },
  {
    "infected": 17,
    "recovered": 10,
    "latitude": 22.192039,
    "longitude": 113.551262,
    "name": "Macao",
    "country": "MO",
    "dead": 0,
    "lastUpdated": "2020-03-18T22:57:03.091Z",
    "id": "DdBt8qsG6A3g92oOR3ow",
    "sick": 7
  },
  {
    "infected": 15,
    "recovered": 0,
    "latitude": 42.962334,
    "longitude": -107.534868,
    "name": "Wyoming",
    "country": "US",
    "dead": 0,
    "lastUpdated": "2020-03-18T22:48:01.587Z",
    "id": "DrGzziUglmBognCGY7R2",
    "sick": 15
  },
  {
    "id": "Dtr1lap1RpJpXJdXGJiW",
    "infected": 418,
    "recovered": 14,
    "latitude": 40.6401,
    "longitude": 22.9444,
    "name": "Greece",
    "country": "GR",
    "dead": 5,
    "lastUpdated": "2020-03-18T22:57:02.923Z",
    "sick": 399
  },
  {
    "infected": 100,
    "recovered": 20,
    "latitude": 25.03841,
    "longitude": 121.563698,
    "name": "Taiwan",
    "country": "TW",
    "dead": 1,
    "lastUpdated": "2020-03-18T22:57:03.031Z",
    "id": "EKTfs8e7M6DXzI1HqyyX",
    "sick": 79
  },
  {
    "longitude": -84.387618,
    "name": "Costa Rica",
    "country": "CR",
    "dead": 0,
    "lastUpdated": "2020-03-18T22:57:02.986Z",
    "id": "EQzJvzVHKjs8kLmK7BMu",
    "infected": 69,
    "recovered": 0,
    "latitude": 10.327273,
    "sick": 69
  },
  {
    "longitude": -66.664513,
    "name": "Puerto Rico",
    "country": "PR",
    "dead": 0,
    "lastUpdated": "2020-03-18T22:57:03.052Z",
    "id": "F4rPrEVGAIMM5rfPEMv4",
    "infected": 6,
    "recovered": 0,
    "latitude": 18.200178,
    "sick": 6
  },
  {
    "longitude": 67.709953,
    "name": "Afghanistan",
    "country": "AF",
    "dead": 0,
    "lastUpdated": "2020-03-18T22:57:02.892Z",
    "id": "FCDmlmnIIswd8bQiUjfN",
    "infected": 22,
    "recovered": 1,
    "latitude": 33.93911,
    "sick": 21
  },
  {
    "infected": 576,
    "recovered": 570,
    "latitude": 29.431585,
    "longitude": 106.912254,
    "name": "Chongqing",
    "country": "CN",
    "dead": 6,
    "lastUpdated": "2020-03-18T05:52:16.195Z",
    "id": "FErOU1m4Tj7jIkRam3vF",
    "sick": 0
  },
  {
    "infected": 142,
    "recovered": 15,
    "latitude": 29.311661,
    "longitude": 47.481766,
    "name": "Kuwait",
    "country": "KW",
    "dead": 0,
    "lastUpdated": "2020-03-18T22:57:02.909Z",
    "id": "FZsUkhxBEgqsPb4eO0PN",
    "sick": 127
  },
  {
    "recovered": 0,
    "latitude": 11.1271,
    "longitude": 78.6569,
    "name": "Tamil Nadu",
    "country": "IN",
    "dead": 0,
    "lastUpdated": "2020-03-18T22:49:04.564Z",
    "id": "FeS45oMNC27pI17F0xEV",
    "infected": 1,
    "sick": 1
  },
  {
    "dead": 1,
    "lastUpdated": "2020-03-18T22:57:02.906Z",
    "id": "FuiVEJvWb0QMCpxJ3563",
    "infected": 21,
    "recovered": 0,
    "latitude": 18.947829,
    "longitude": -70.430399,
    "name": "Dominican Republic",
    "country": "DO",
    "sick": 20
  },
  {
    "id": "FyC551oNwmENxbr9Yght",
    "infected": 13,
    "recovered": 1,
    "latitude": 18.1124,
    "longitude": 79.0193,
    "name": "Telangana",
    "country": "IN",
    "dead": 0,
    "lastUpdated": "2020-03-18T22:49:04.388Z",
    "sick": 12
  },
  {
    "latitude": 48.669,
    "longitude": 19.699,
    "name": "Slovakia",
    "country": "SK",
    "dead": 0,
    "lastUpdated": "2020-03-18T22:57:02.905Z",
    "id": "FzIDXoqWnTI3nUfhPyT2",
    "infected": 105,
    "recovered": 0,
    "sick": 105
  },
  {
    "latitude": 30.37532,
    "longitude": 69.345116,
    "name": "Pakistan",
    "country": "PK",
    "dead": 2,
    "lastUpdated": "2020-03-18T22:57:02.857Z",
    "id": "GAp7Wb6IMhdgbvEtMza9",
    "infected": 307,
    "recovered": 13,
    "sick": 292
  },
  {
    "latitude": 31.1471,
    "longitude": 75.3412,
    "name": "Punjab",
    "country": "IN",
    "dead": 0,
    "lastUpdated": "2020-03-18T22:49:04.417Z",
    "id": "GGru8cG08mANO8XDDUtZ",
    "infected": 1,
    "recovered": 0,
    "sick": 1
  },
  {
    "infected": 113,
    "recovered": 26,
    "latitude": 23.424076,
    "longitude": 53.847816,
    "name": "United Arab Emirates",
    "country": "AE",
    "dead": 0,
    "lastUpdated": "2020-03-18T22:57:02.912Z",
    "id": "GHzBIsHy2GiBc5JV2HMs",
    "sick": 87
  },
  {
    "id": "Gh46r6vuaY7fbGt3IboN",
    "infected": 718,
    "recovered": 6,
    "latitude": 36.621981,
    "longitude": -119.339046,
    "name": "California",
    "country": "US",
    "dead": 13,
    "lastUpdated": "2020-03-18T19:10:24.881Z",
    "sick": 699
  },
  {
    "latitude": 35.87189,
    "longitude": -97.145514,
    "name": "Oklahoma",
    "country": "US",
    "dead": 0,
    "lastUpdated": "2020-03-18T22:48:01.623Z",
    "id": "GpF8ULuKOQiFDCUHN44h",
    "infected": 19,
    "recovered": 0,
    "sick": 19
  },
  {
    "recovered": 73,
    "latitude": 42.83263,
    "longitude": 113.750972,
    "name": "Inner Mongolia",
    "country": "CN",
    "dead": 1,
    "lastUpdated": "2020-03-18T05:53:28.491Z",
    "id": "H3JeVigVbo5CSYfZG4WI",
    "infected": 75,
    "sick": 1
  },
  {
    "infected": 56,
    "recovered": 0,
    "latitude": 39.74536,
    "longitude": -116.724977,
    "name": "Nevada",
    "country": "US",
    "dead": 1,
    "lastUpdated": "2020-03-18T19:33:02.698Z",
    "id": "H3bDg4eV30up4WWrIDAS",
    "sick": 55
  },
  {
    "infected": 11,
    "recovered": 0,
    "latitude": 15.3173,
    "longitude": 75.7139,
    "name": "Karnataka",
    "country": "IN",
    "dead": 1,
    "lastUpdated": "2020-03-18T22:49:04.407Z",
    "id": "HN5mGmxlqlSeFSNeu1K5",
    "sick": 10
  },
  {
    "dead": 0,
    "lastUpdated": "2020-03-18T22:57:03.083Z",
    "id": "HRDpwyxpqW9RN0xLFyNu",
    "infected": 1,
    "recovered": 0,
    "latitude": 27.5142,
    "longitude": 90.4336,
    "name": "Bhutan",
    "country": "BT",
    "sick": 1
  },
  {
    "longitude": 64.5853,
    "name": "Uzbekistan",
    "country": "UZ",
    "dead": 0,
    "lastUpdated": "2020-03-18T22:57:03.050Z",
    "id": "HRTA10dtrruDEwjJEGMp",
    "infected": 18,
    "recovered": 0,
    "latitude": 41.3775,
    "sick": 18
  },
  {
    "infected": 23,
    "recovered": 0,
    "latitude": 34.138916,
    "longitude": -105.576255,
    "name": "New Mexico",
    "country": "US",
    "dead": 0,
    "lastUpdated": "2020-03-18T22:48:01.594Z",
    "id": "HSSFomRju0doHhWgW8On",
    "sick": 23
  },
  {
    "recovered": 0,
    "latitude": 53.6127,
    "longitude": 12.4296,
    "name": "Mecklenburg-Vorpommern",
    "country": "DE",
    "dead": 0,
    "lastUpdated": "2020-03-18T22:57:02.724Z",
    "id": "He1gSS1v50t06i3YrqvB",
    "infected": 100,
    "sick": 100
  },
  {
    "dead": 0,
    "lastUpdated": "2020-03-18T22:57:02.897Z",
    "id": "I4OJ6z9Vjs1byOcbsJrd",
    "infected": 93,
    "recovered": 4,
    "latitude": 23.634501,
    "longitude": -102.552788,
    "name": "Mexico",
    "country": "MX",
    "sick": 89
  },
  {
    "longitude": 113.373448,
    "name": "Guangdong",
    "country": "CN",
    "dead": 8,
    "lastUpdated": "2020-03-18T05:58:09.077Z",
    "id": "IAX0OQLVnUwU7FX0ENF1",
    "infected": 1369,
    "recovered": 1312,
    "latitude": 23.363855,
    "sick": 49
  },
  {
    "id": "IFuMrMvSjoiX5agYvllh",
    "infected": 1273,
    "recovered": 1250,
    "latitude": 33.875408,
    "longitude": 113.484016,
    "name": "Henan",
    "country": "CN",
    "dead": 22,
    "lastUpdated": "2020-03-18T05:58:47.680Z",
    "sick": 1
  },
  {
    "longitude": -83.280125,
    "name": "Georgia (US)",
    "country": "US",
    "dead": 3,
    "lastUpdated": "2020-03-18T22:48:01.552Z",
    "id": "IvQkDJkTAsoIqPRAU25n",
    "infected": 199,
    "recovered": 0,
    "latitude": 32.528564,
    "sick": 196
  },
  {
    "latitude": -42.8285,
    "longitude": 172.488081,
    "name": "New Zealand",
    "country": "NZ",
    "dead": 0,
    "lastUpdated": "2020-03-18T22:57:03.071Z",
    "id": "IvVhpOoGpH6JVkGyUhXN",
    "infected": 20,
    "recovered": 0,
    "sick": 20
  },
  {
    "infected": 36,
    "recovered": 0,
    "latitude": 6.4238,
    "longitude": -66.5897,
    "name": "Venezuela",
    "country": "VE",
    "dead": 0,
    "lastUpdated": "2020-03-18T22:57:03.000Z",
    "id": "J3mZXlfEnnJx4CDZLvRG",
    "sick": 36
  },
  {
    "latitude": 35.1264,
    "longitude": 33.4299,
    "name": "Cyprus",
    "country": "CY",
    "dead": 0,
    "lastUpdated": "2020-03-18T22:57:02.882Z",
    "id": "JQByE4l2OA6sGOqIcWrM",
    "infected": 58,
    "recovered": 0,
    "sick": 58
  },
  {
    "dead": 1,
    "lastUpdated": "2020-03-18T22:57:02.877Z",
    "id": "JUWE6bG3b5oL7fKQMSvv",
    "infected": 8,
    "recovered": 0,
    "latitude": 14.628434,
    "longitude": -90.522713,
    "name": "Guatemala",
    "country": "GT",
    "sick": 7
  },
  {
    "infected": 203,
    "recovered": 0,
    "latitude": 49.8153,
    "longitude": 6.1296,
    "name": "Luxembourg",
    "country": "LU",
    "dead": 2,
    "lastUpdated": "2020-03-18T22:57:02.838Z",
    "id": "JcFsHSn2WvZ5LJW42ovG",
    "sick": 201
  },
  {
    "recovered": 0,
    "latitude": 8.6195,
    "longitude": 0.8248,
    "name": "Togo",
    "country": "TG",
    "dead": 0,
    "lastUpdated": "2020-03-18T22:57:03.093Z",
    "id": "JrBbirlBKGdWSdcDt7PF",
    "infected": 1,
    "sick": 1
  },
  {
    "infected": 92,
    "recovered": 0,
    "latitude": 42.7339,
    "longitude": 25.4858,
    "name": "Bulgaria",
    "country": "BG",
    "dead": 2,
    "lastUpdated": "2020-03-18T22:57:02.868Z",
    "id": "JzZ8sbqzjutThVjkPKPL",
    "sick": 90
  },
  {
    "dead": 0,
    "lastUpdated": "2020-03-18T22:57:03.016Z",
    "id": "KsWzJO06cf0d6LJ4ZNh9",
    "infected": 51,
    "recovered": 3,
    "latitude": 7.873054,
    "longitude": 80.771797,
    "name": "Sri Lanka",
    "country": "LK",
    "sick": 48
  },
  {
    "latitude": 15.9129,
    "longitude": 79.74,
    "name": "Andhra Pradesh",
    "country": "IN",
    "dead": 0,
    "lastUpdated": "2020-03-18T22:49:04.577Z",
    "id": "KtQIo2DoqjELtPAlyDVO",
    "infected": 1,
    "recovered": 0,
    "sick": 1
  },
  {
    "longitude": 105.318756,
    "name": "Russia",
    "country": "RU",
    "dead": 0,
    "lastUpdated": "2020-03-18T22:57:02.938Z",
    "id": "KwOuGBKSMRlmwftxAvLX",
    "infected": 147,
    "recovered": 8,
    "latitude": 61.52401,
    "sick": 139
  },
  {
    "infected": 4,
    "recovered": 0,
    "latitude": 18.0708,
    "longitude": -63.0501,
    "name": "Saint-Martin",
    "country": "FR",
    "dead": 0,
    "lastUpdated": "2020-03-18T22:42:10.546Z",
    "id": "LBUtrLDKJiupXjlUNTUe",
    "sick": 4
  },
  {
    "latitude": 47.166,
    "longitude": 9.5554,
    "name": "Liechtenstein",
    "country": "LI",
    "dead": 0,
    "lastUpdated": "2020-03-18T22:57:02.898Z",
    "id": "LTGEU2E9MFkrCcFhZYVk",
    "infected": 28,
    "recovered": 0,
    "sick": 28
  },
  {
    "infected": 1,
    "recovered": 0,
    "latitude": 9.9456,
    "longitude": -9.6966,
    "name": "Guinea",
    "country": "GN",
    "dead": 0,
    "lastUpdated": "2020-03-18T22:57:03.017Z",
    "id": "LU2QWt5ao8IJa8evNYVV",
    "sick": 1
  },
  {
    "recovered": 0,
    "latitude": 3.9193051,
    "longitude": -56.0277824,
    "name": "Suriname",
    "country": "SR",
    "dead": 0,
    "lastUpdated": "2020-03-18T22:57:02.946Z",
    "id": "LglKINHyQpYpFxjckbQ6",
    "infected": 1,
    "sick": 1
  },
  {
    "recovered": 0,
    "latitude": 52.9399,
    "longitude": -106.4509,
    "name": "Saskatchewan",
    "country": "CA",
    "dead": 0,
    "lastUpdated": "2020-03-18T22:48:01.597Z",
    "id": "LkIDKY0CMAqzbwBHyYCP",
    "infected": 8,
    "sick": 8
  },
  {
    "longitude": -84.27,
    "name": "Kentucky",
    "country": "US",
    "dead": 1,
    "lastUpdated": "2020-03-18T22:48:01.659Z",
    "id": "MC8MXFw9iXYybnF8v7e6",
    "infected": 27,
    "recovered": 0,
    "latitude": 37.8393,
    "sick": 26
  },
  {
    "latitude": 40.2672,
    "longitude": -86.1349,
    "name": "Indiana",
    "country": "US",
    "dead": 2,
    "lastUpdated": "2020-03-18T22:48:01.603Z",
    "id": "MOxDkmQ4wBi1CuAdVxDE",
    "infected": 39,
    "recovered": 0,
    "sick": 37
  },
  {
    "id": "MdQOfc1gNh2DOqwSP6UV",
    "infected": 9,
    "recovered": 1,
    "latitude": 7.54,
    "longitude": -5.5471,
    "name": "Ivory Coast",
    "country": "CI",
    "dead": 0,
    "lastUpdated": "2020-03-18T22:57:03.058Z",
    "sick": 8
  },
  {
    "latitude": 51.4332,
    "longitude": 7.6616,
    "name": "Nordrhein-Westfalen",
    "country": "DE",
    "dead": 13,
    "lastUpdated": "2020-03-18T22:57:02.924Z",
    "id": "MjpYq3zQyAvSQlVVYjD2",
    "infected": 4268,
    "recovered": 67,
    "sick": 4188
  },
  {
    "latitude": 37.330509,
    "longitude": 105.977203,
    "name": "Ningxia",
    "country": "CN",
    "dead": 0,
    "lastUpdated": "2020-03-18T05:52:51.213Z",
    "id": "MntmjjuHljarCdt6aIeE",
    "infected": 75,
    "recovered": 75,
    "sick": 0
  },
  {
    "infected": 2184,
    "recovered": 8,
    "latitude": 48.6616,
    "longitude": 9.3501,
    "name": "Baden-Württemberg",
    "country": "DE",
    "dead": 8,
    "lastUpdated": "2020-03-18T22:57:02.831Z",
    "id": "N3XsRBwJSsNclkEf7Zz5",
    "sick": 2168
  },
  {
    "longitude": 17.824332,
    "name": "Bosnia and Herzegovina",
    "country": "BA",
    "dead": 0,
    "lastUpdated": "2020-03-18T22:57:02.908Z",
    "id": "N7c13sCQF0G789XAVazJ",
    "infected": 39,
    "recovered": 2,
    "latitude": 44.696652,
    "sick": 37
  },
  {
    "infected": 133,
    "recovered": 133,
    "latitude": 37.242565,
    "longitude": 111.856857,
    "name": "Shanxi",
    "country": "CN",
    "dead": 0,
    "lastUpdated": "2020-03-18T13:31:07.932Z",
    "id": "NBRIGIRrJB1Ry8prDNAC",
    "sick": 0
  },
  {
    "recovered": 0,
    "latitude": 35.7596,
    "longitude": -79.0193,
    "name": "North Carolina",
    "country": "US",
    "dead": 0,
    "lastUpdated": "2020-03-18T22:48:01.641Z",
    "id": "NC64Qp5kTqAfiTuR27k8",
    "infected": 70,
    "sick": 70
  },
  {
    "infected": 171,
    "recovered": 1,
    "latitude": 52.4125,
    "longitude": 12.5316,
    "name": "Brandenburg",
    "country": "DE",
    "dead": 0,
    "lastUpdated": "2020-03-18T22:57:02.817Z",
    "id": "NJjo2gfBvnbK4xatrsUz",
    "sick": 170
  },
  {
    "id": "NMeZEcGToxXfpi16PfFV",
    "infected": 1,
    "recovered": 0,
    "latitude": 30.0668,
    "longitude": 79.0193,
    "name": "Uttarakhand",
    "country": "IN",
    "dead": 0,
    "lastUpdated": "2020-03-18T22:49:04.472Z",
    "sick": 1
  },
  {
    "recovered": 2,
    "latitude": 50.6521,
    "longitude": 9.1624,
    "name": "Hessen",
    "country": "DE",
    "dead": 1,
    "lastUpdated": "2020-03-18T22:57:02.821Z",
    "id": "Nk5vPgUIXsWVfbWZf15O",
    "infected": 547,
    "sick": 544
  },
  {
    "recovered": 1,
    "latitude": 56.96776,
    "longitude": 25.837107,
    "name": "Latvia",
    "country": "LV",
    "dead": 0,
    "lastUpdated": "2020-03-18T22:57:02.839Z",
    "id": "NmmMKy0YqA8StHdGzB5N",
    "infected": 71,
    "sick": 70
  },
  {
    "recovered": 0,
    "latitude": 6.4281,
    "longitude": -9.4295,
    "name": "Liberia",
    "country": "LR",
    "dead": 0,
    "lastUpdated": "2020-03-18T22:57:03.080Z",
    "id": "O4g88K49HKEZLFXm5gxb",
    "infected": 2,
    "sick": 2
  },
  {
    "longitude": -80.525613,
    "name": "South Carolina",
    "country": "US",
    "dead": 1,
    "lastUpdated": "2020-03-18T22:48:01.510Z",
    "id": "ONU4CK8QjViFHKg2w5if",
    "infected": 47,
    "recovered": 0,
    "latitude": 34.003307,
    "sick": 46
  },
  {
    "longitude": -89.582775,
    "name": "Mississippi",
    "country": "US",
    "dead": 0,
    "lastUpdated": "2020-03-18T22:48:01.573Z",
    "id": "OYa0jFzdbAgo8zUsRv6q",
    "infected": 34,
    "recovered": 0,
    "latitude": 33.51822,
    "sick": 34
  },
  {
    "longitude": -69.4455,
    "name": "Maine",
    "country": "US",
    "dead": 0,
    "lastUpdated": "2020-03-18T22:48:01.591Z",
    "id": "OcXNp9kNVSwrRlG3bNVN",
    "infected": 42,
    "recovered": 0,
    "latitude": 45.2538,
    "sick": 42
  },
  {
    "recovered": 0,
    "latitude": -41.915264,
    "longitude": 146.725256,
    "name": "Tasmania",
    "country": "AU",
    "dead": 0,
    "lastUpdated": "2020-03-18T13:36:45.448Z",
    "id": "OnOseaqWdnuP18oruABW",
    "infected": 10,
    "sick": 10
  },
  {
    "longitude": -81.2546,
    "name": "Cayman Islands",
    "country": "KY",
    "dead": 1,
    "lastUpdated": "2020-03-18T22:57:03.070Z",
    "id": "P4mwRFLbrvT0t75uD8Wo",
    "infected": 1,
    "recovered": 0,
    "latitude": 19.3133,
    "sick": 0
  },
  {
    "dead": 0,
    "lastUpdated": "2020-03-18T22:57:02.948Z",
    "id": "PEcgZGEkyhABztt1Ufgc",
    "infected": 11,
    "recovered": 0,
    "latitude": -1.9403,
    "longitude": 29.8739,
    "name": "Rwanda",
    "country": "RW",
    "sick": 11
  },
  {
    "longitude": -94.6859,
    "name": "Minnesota",
    "country": "US",
    "dead": 0,
    "lastUpdated": "2020-03-18T22:48:01.650Z",
    "id": "PJvVYosLIhbcRZYnKX1R",
    "infected": 77,
    "recovered": 0,
    "latitude": 46.7296,
    "sick": 77
  },
  {
    "latitude": 40.6331,
    "longitude": -89.3985,
    "name": "Illinois",
    "country": "US",
    "dead": 1,
    "lastUpdated": "2020-03-18T22:48:01.645Z",
    "id": "PTwQr9ijo0TBBsPH2sdJ",
    "infected": 162,
    "recovered": 0,
    "sick": 161
  },
  {
    "longitude": -60.978893,
    "name": "Saint Lucia",
    "country": "LC",
    "dead": 0,
    "lastUpdated": "2020-03-18T22:57:03.098Z",
    "id": "PjLqCeFdyzdZNcZxMkK1",
    "infected": 2,
    "recovered": 0,
    "latitude": 13.909444,
    "sick": 2
  },
  {
    "latitude": 34.201507,
    "longitude": 9.460554,
    "name": "Tunisia",
    "country": "TN",
    "dead": 0,
    "lastUpdated": "2020-03-18T22:57:02.864Z",
    "id": "Pr76V4raf108uSRoEXac",
    "infected": 29,
    "recovered": 1,
    "sick": 28
  },
  {
    "longitude": 31.4659,
    "name": "Eswatini",
    "country": "SZ",
    "dead": 0,
    "lastUpdated": "2020-03-18T22:57:03.062Z",
    "id": "PuQgOd9KWiMzGZXm11sR",
    "infected": 1,
    "recovered": 0,
    "latitude": -26.5225,
    "sick": 1
  },
  {
    "infected": 1,
    "recovered": 0,
    "latitude": -19.810776,
    "longitude": 133.639248,
    "name": "Northern Territory",
    "country": "AU",
    "dead": 0,
    "lastUpdated": "2020-03-18T06:08:25.947Z",
    "id": "PxDu1tj8voGfRMpDyOWK",
    "sick": 1
  },
  {
    "longitude": 143.94853,
    "name": "Victoria",
    "country": "AU",
    "dead": 0,
    "lastUpdated": "2020-03-18T13:36:37.319Z",
    "id": "Q18mrGvFWTLX2BU9SqhQ",
    "infected": 121,
    "recovered": 8,
    "latitude": -37.009609,
    "sick": 113
  },
  {
    "infected": 196,
    "recovered": 0,
    "latitude": 54.2194,
    "longitude": 9.6961,
    "name": "Schleswig-Holstein",
    "country": "DE",
    "dead": 0,
    "lastUpdated": "2020-03-18T22:57:02.717Z",
    "id": "Q39XkabIYxt15mHINzTa",
    "sick": 196
  },
  {
    "latitude": 58.595272,
    "longitude": 25.013607,
    "name": "Estonia",
    "country": "EE",
    "dead": 0,
    "lastUpdated": "2020-03-18T22:57:02.929Z",
    "id": "QR9go2hQKXjty7JHUYe4",
    "infected": 258,
    "recovered": 1,
    "sick": 257
  },
  {
    "longitude": -64.8963,
    "name": "U.S. Virgin Islands",
    "country": "VI",
    "dead": 0,
    "lastUpdated": "2020-03-18T22:57:03.053Z",
    "id": "QqhD3YDMKXojvQY3Yu41",
    "infected": 2,
    "recovered": 0,
    "latitude": 18.3358,
    "sick": 2
  },
  {
    "longitude": -80.7821,
    "name": "Panama",
    "country": "PA",
    "dead": 1,
    "lastUpdated": "2020-03-18T22:57:02.903Z",
    "id": "R8YCgephnxTufvcPWMgx",
    "infected": 86,
    "recovered": 0,
    "latitude": 8.538,
    "sick": 85
  },
  {
    "longitude": -86.2419,
    "name": "Honduras",
    "country": "HN",
    "dead": 0,
    "lastUpdated": "2020-03-18T22:57:02.787Z",
    "id": "RA2SE0p2bVhqo0P2hzGY",
    "infected": 9,
    "recovered": 0,
    "latitude": 15.2,
    "sick": 9
  },
  {
    "id": "RX0KDu1AFrlCsrRso0nb",
    "infected": 29,
    "recovered": 0,
    "latitude": 41.878,
    "longitude": -93.0977,
    "name": "Iowa",
    "country": "US",
    "dead": 0,
    "lastUpdated": "2020-03-18T22:48:01.545Z",
    "sick": 29
  },
  {
    "longitude": -98.4842,
    "name": "Kansas",
    "country": "US",
    "dead": 1,
    "lastUpdated": "2020-03-18T22:48:01.575Z",
    "id": "Rf4uvBfP3GRDSHdZElRd",
    "infected": 18,
    "recovered": 0,
    "latitude": 39.0119,
    "sick": 17
  },
  {
    "id": "RmEgf1xeclWt7XCF9oiR",
    "infected": 2163,
    "recovered": 0,
    "latitude": 48.6998,
    "longitude": 6.1878,
    "name": "Grand Est",
    "country": "FR",
    "dead": 9,
    "lastUpdated": "2020-03-18T22:42:10.543Z",
    "sick": 2154
  },
  {
    "latitude": 51.2538,
    "longitude": -85.3232,
    "name": "Ontario",
    "country": "CA",
    "dead": 1,
    "lastUpdated": "2020-03-18T22:48:01.631Z",
    "id": "Rx4TuyMpfGb3S8wYJX0x",
    "infected": 221,
    "recovered": 5,
    "sick": 215
  },
  {
    "dead": 1,
    "lastUpdated": "2020-03-18T22:57:02.917Z",
    "id": "SDdefnq1bc3ZNr7SpEsW",
    "infected": 23,
    "recovered": 0,
    "latitude": 14.652027,
    "longitude": -61.011715,
    "name": "Martinique",
    "country": "FR",
    "sick": 22
  },
  {
    "id": "SG9VWLOV3x2JsTkXmVSz",
    "infected": 7,
    "recovered": 0,
    "latitude": 7.9465,
    "longitude": -1.0232,
    "name": "Ghana",
    "country": "GH",
    "dead": 0,
    "lastUpdated": "2020-03-18T22:57:03.047Z",
    "sick": 7
  },
  {
    "infected": 3115,
    "recovered": 15,
    "latitude": 46.818188,
    "longitude": 8.227512,
    "name": "Switzerland",
    "country": "CH",
    "dead": 33,
    "lastUpdated": "2020-03-18T22:57:02.921Z",
    "id": "SGe9sCPayMqh6RsGFaBA",
    "sick": 3067
  },
  {
    "dead": 0,
    "lastUpdated": "2020-03-18T22:48:01.590Z",
    "id": "SHoOE3NiJgWAlDVBzwYH",
    "infected": 94,
    "recovered": 0,
    "latitude": 46.8139,
    "longitude": -71.208,
    "name": "Quebec",
    "country": "CA",
    "sick": 94
  },
  {
    "latitude": 42.6026,
    "longitude": 20.903,
    "name": "Kosovo",
    "country": "XK",
    "dead": 0,
    "lastUpdated": "2020-03-18T22:37:03.863Z",
    "id": "SMWvuMMuKp2QK7O2tNia",
    "infected": 20,
    "recovered": 0,
    "sick": 20
  },
  {
    "latitude": 41.4925,
    "longitude": -99.9018,
    "name": "Nebraska",
    "country": "US",
    "dead": 0,
    "lastUpdated": "2020-03-18T22:48:01.661Z",
    "id": "SakhKQzKu1LRI8laqdQq",
    "infected": 24,
    "recovered": 0,
    "sick": 24
  },
  {
    "infected": 14,
    "recovered": 0,
    "latitude": -21.1151,
    "longitude": 55.5364,
    "name": "La Réunion",
    "country": "FR",
    "dead": 0,
    "lastUpdated": "2020-03-18T22:42:10.484Z",
    "id": "SgHzWAAYK1j2sipovxM6",
    "sick": 14
  },
  {
    "infected": 37,
    "recovered": 1,
    "latitude": 12.565679,
    "longitude": 104.990967,
    "name": "Cambodia",
    "country": "KH",
    "dead": 0,
    "lastUpdated": "2020-03-18T22:57:02.844Z",
    "id": "SioMALgUbo7peXmbco2f",
    "sick": 36
  },
  {
    "id": "T3iRf8mTUTAzbKrORTap",
    "infected": 7,
    "recovered": 0,
    "latitude": -4.0383,
    "longitude": 21.7587,
    "name": "DR Congo",
    "country": "CD",
    "dead": 0,
    "lastUpdated": "2020-03-18T22:57:03.084Z",
    "sick": 7
  },
  {
    "longitude": 44.344334,
    "name": "Saudi Arabia",
    "country": "SA",
    "dead": 0,
    "lastUpdated": "2020-03-18T22:57:02.954Z",
    "id": "T7NffoeCgTUpAbOHvYwP",
    "infected": 238,
    "recovered": 6,
    "latitude": 23.635796,
    "sick": 232
  },
  {
    "id": "TQZmzsLhJqjtCSExAkCP",
    "infected": 68,
    "recovered": 0,
    "latitude": 4.506106,
    "longitude": 114.650692,
    "name": "Brunei",
    "country": "BN",
    "dead": 0,
    "lastUpdated": "2020-03-18T22:57:03.008Z",
    "sick": 68
  },
  {
    "recovered": 8,
    "latitude": 45.4471,
    "longitude": 4.3853,
    "name": "Auvergne-Rhône-Alpes",
    "country": "FR",
    "dead": 7,
    "lastUpdated": "2020-03-18T22:42:10.518Z",
    "id": "TT0MKODSjrxHvG19xZCa",
    "infected": 858,
    "sick": 843
  },
  {
    "infected": 184,
    "recovered": 0,
    "latitude": 39.318928,
    "longitude": -105.461392,
    "name": "Colorado",
    "country": "US",
    "dead": 2,
    "lastUpdated": "2020-03-18T22:48:01.621Z",
    "id": "Th4dlpXXmSDgi1OHs36P",
    "sick": 182
  },
  {
    "dead": 1,
    "lastUpdated": "2020-03-18T22:57:02.943Z",
    "id": "Tup6oDCHj6DgqZR3nQ3x",
    "infected": 20,
    "recovered": 0,
    "latitude": 12.2383,
    "longitude": -1.5616,
    "name": "Burkina Faso",
    "country": "BF",
    "sick": 19
  },
  {
    "longitude": 12.56902,
    "name": "Denmark",
    "country": "DK",
    "dead": 4,
    "lastUpdated": "2020-03-18T22:57:02.902Z",
    "id": "Ty1AY3VLPJcRZgdBIERx",
    "infected": 1057,
    "recovered": 1,
    "latitude": 55.675758,
    "sick": 1052
  },
  {
    "dead": 7,
    "lastUpdated": "2020-03-18T05:53:58.161Z",
    "id": "U0tkTJ9CGsBuFJ2Gdoum",
    "infected": 761,
    "recovered": 746,
    "latitude": 36.395859,
    "longitude": 118.769882,
    "name": "Shandong",
    "country": "CN",
    "sick": 8
  },
  {
    "latitude": 43.94236,
    "longitude": 12.457777,
    "name": "San Marino",
    "country": "SM",
    "dead": 14,
    "lastUpdated": "2020-03-18T22:57:02.894Z",
    "id": "U12rMD5GDW58Q0lIwrB1",
    "infected": 140,
    "recovered": 4,
    "sick": 122
  },
  {
    "recovered": 144,
    "latitude": 36.204823,
    "longitude": 138.25293,
    "name": "Japan",
    "country": "JP",
    "dead": 29,
    "lastUpdated": "2020-03-18T22:57:02.851Z",
    "id": "U13Gy4BpRLAZ95bPmBXd",
    "infected": 899,
    "sick": 726
  },
  {
    "latitude": 48.202,
    "longitude": -2.9326,
    "name": "Bretagne",
    "country": "FR",
    "dead": 3,
    "lastUpdated": "2020-03-18T22:42:10.558Z",
    "id": "URKMlJ7OTNldjpaxFbjE",
    "infected": 273,
    "recovered": 0,
    "sick": 270
  },
  {
    "recovered": 1,
    "latitude": 53.5511,
    "longitude": 9.9937,
    "name": "Hamburg",
    "country": "DE",
    "dead": 1,
    "lastUpdated": "2020-03-18T22:57:02.921Z",
    "id": "UfFaUECHINUutv1M9tzq",
    "infected": 414,
    "sick": 412
  },
  {
    "recovered": 0,
    "latitude": 11.943179,
    "longitude": 79.808206,
    "name": "Puducherry",
    "country": "IN",
    "dead": 0,
    "lastUpdated": "2020-03-18T22:49:04.479Z",
    "id": "V1qE740s3EUGyKGr6SVv",
    "infected": 1,
    "sick": 1
  },
  {
    "latitude": 3.527606,
    "longitude": -72.998674,
    "name": "Colombia",
    "country": "CO",
    "dead": 0,
    "lastUpdated": "2020-03-18T22:57:02.889Z",
    "id": "VAAmtxtDuCY0o55zRsOh",
    "infected": 93,
    "recovered": 1,
    "sick": 92
  },
  {
    "latitude": 21.5218,
    "longitude": -77.7812,
    "name": "Cuba",
    "country": "CU",
    "dead": 0,
    "lastUpdated": "2020-03-18T22:57:03.067Z",
    "id": "VAG9AcMABTf8oIAfELPh",
    "infected": 10,
    "recovered": 0,
    "sick": 10
  },
  {
    "longitude": 101.864143,
    "name": "Yunnan",
    "country": "CN",
    "dead": 2,
    "lastUpdated": "2020-03-18T05:55:59.164Z",
    "id": "VIf8T8PD3ZzlzAm5eBCX",
    "infected": 176,
    "recovered": 172,
    "latitude": 25.181129,
    "sick": 2
  },
  {
    "dead": 0,
    "lastUpdated": "2020-03-18T22:49:04.427Z",
    "id": "VcKcLdCkC6YpPfIDnRVD",
    "infected": 16,
    "recovered": 5,
    "latitude": 26.8467,
    "longitude": 80.9462,
    "name": "Uttar Pradesh",
    "country": "IN",
    "sick": 11
  },
  {
    "recovered": 0,
    "latitude": 43.8927,
    "longitude": 3.2828,
    "name": "Occitanie",
    "country": "FR",
    "dead": 0,
    "lastUpdated": "2020-03-18T22:42:10.540Z",
    "id": "WAnbFrEjtZDTCIYBt8rz",
    "infected": 371,
    "sick": 371
  },
  {
    "infected": 116,
    "recovered": 0,
    "latitude": -30.5595,
    "longitude": 22.9375,
    "name": "South Africa",
    "country": "ZA",
    "dead": 0,
    "lastUpdated": "2020-03-18T22:57:02.985Z",
    "id": "Whrue10NtwIObLvFFyBr",
    "sick": 116
  },
  {
    "longitude": 90.3563,
    "name": "Bangladesh",
    "country": "BD",
    "dead": 1,
    "lastUpdated": "2020-03-18T22:57:02.779Z",
    "id": "WpLayPPLIJ7VcHZdQaoM",
    "infected": 14,
    "recovered": 3,
    "latitude": 23.685,
    "sick": 10
  },
  {
    "id": "X3PZqaJxtnlxcgP4tzya",
    "infected": 8,
    "recovered": 0,
    "latitude": 34.2996,
    "longitude": 78.2932,
    "name": "Ladakh",
    "country": "IN",
    "dead": 0,
    "lastUpdated": "2020-03-18T22:49:04.506Z",
    "sick": 8
  },
  {
    "dead": 1,
    "lastUpdated": "2020-03-18T05:57:50.643Z",
    "id": "XBBw0iMPrmiEu3qogkbi",
    "infected": 296,
    "recovered": 295,
    "latitude": 25.92448,
    "longitude": 118.278992,
    "name": "Fujian",
    "country": "CN",
    "sick": 0
  },
  {
    "infected": 35713,
    "recovered": 4025,
    "latitude": 41.871941,
    "longitude": 12.56738,
    "name": "Italy",
    "country": "IT",
    "dead": 2978,
    "lastUpdated": "2020-03-18T22:57:03.026Z",
    "id": "XdekMZcw1lJK2MWpBlNK",
    "sick": 28710
  },
  {
    "recovered": 0,
    "latitude": -32.5228,
    "longitude": -55.7658,
    "name": "Uruguay",
    "country": "UY",
    "dead": 0,
    "lastUpdated": "2020-03-18T22:57:02.869Z",
    "id": "XrsuLstdybIqIvv0E0aJ",
    "infected": 58,
    "sick": 58
  },
  {
    "recovered": 0,
    "latitude": 42.0396,
    "longitude": 9.0129,
    "name": "Corse",
    "country": "FR",
    "dead": 5,
    "lastUpdated": "2020-03-18T22:42:10.552Z",
    "id": "YGXgIObKVabP2CYEdcb9",
    "infected": 152,
    "sick": 147
  },
  {
    "dead": 0,
    "lastUpdated": "2020-03-18T22:57:02.953Z",
    "id": "YMzKw0SnXG71VT7H1jff",
    "infected": 44,
    "recovered": 0,
    "latitude": 31.9522,
    "longitude": 35.2332,
    "name": "Palestine",
    "country": "PS",
    "sick": 44
  },
  {
    "id": "YaCODTMD1KKRnrAlkg2u",
    "infected": 6,
    "recovered": 0,
    "latitude": 64.2008,
    "longitude": -149.4937,
    "name": "Alaska",
    "country": "US",
    "dead": 0,
    "lastUpdated": "2020-03-18T22:48:01.649Z",
    "sick": 6
  },
  {
    "longitude": 126.99778,
    "name": "South Korea",
    "country": "KR",
    "dead": 84,
    "lastUpdated": "2020-03-18T22:57:02.977Z",
    "id": "Yw9uBekNlefXBcOCNMfP",
    "infected": 8413,
    "recovered": 1540,
    "latitude": 37.568291,
    "sick": 6789
  },
  {
    "infected": 287,
    "recovered": 1,
    "latitude": 52.2297,
    "longitude": 21.0122,
    "name": "Poland",
    "country": "PL",
    "dead": 5,
    "lastUpdated": "2020-03-18T22:57:02.859Z",
    "id": "ZAZNuCK1VweBaTLCFzCk",
    "sick": 281
  },
  {
    "infected": 68,
    "recovered": 0,
    "latitude": 41.6032,
    "longitude": -73.0877,
    "name": "Connecticut",
    "country": "US",
    "dead": 0,
    "lastUpdated": "2020-03-18T22:48:01.643Z",
    "id": "Zqy0gftQzocR49jEJNMl",
    "sick": 68
  },
  {
    "latitude": 51.011,
    "longitude": 10.8453,
    "name": "Thüringen",
    "country": "DE",
    "dead": 0,
    "lastUpdated": "2020-03-18T22:57:02.919Z",
    "id": "a9OgUWo6ZSWA3HyF0xnj",
    "infected": 114,
    "recovered": 1,
    "sick": 113
  },
  {
    "latitude": -30.000233,
    "longitude": 136.209152,
    "name": "South Australia",
    "country": "AU",
    "dead": 0,
    "lastUpdated": "2020-03-18T13:36:03.816Z",
    "id": "a9p9pAOsjg1WAjPGc2a6",
    "infected": 37,
    "recovered": 3,
    "sick": 34
  },
  {
    "longitude": -91.8318,
    "name": "Missouri",
    "country": "US",
    "dead": 0,
    "lastUpdated": "2020-03-18T22:48:01.647Z",
    "id": "aPubGfQ8ToSEuKJldKRT",
    "infected": 18,
    "recovered": 0,
    "latitude": 37.9643,
    "sick": 18
  },
  {
    "infected": 253,
    "recovered": 250,
    "latitude": 23.64407,
    "longitude": 108.26651,
    "name": "Guangxi",
    "country": "CN",
    "dead": 2,
    "lastUpdated": "2020-03-18T05:56:54.324Z",
    "id": "aTa8MiBjtH3iY0SRs2HQ",
    "sick": 1
  },
  {
    "infected": 1,
    "recovered": 0,
    "latitude": 6.6111,
    "longitude": 20.9394,
    "name": "CAR",
    "country": "CF",
    "dead": 0,
    "lastUpdated": "2020-03-18T22:57:03.039Z",
    "id": "adcBUeAYp6ey0ZXCzKNs",
    "sick": 1
  },
  {
    "latitude": 37.4316,
    "longitude": -78.6569,
    "name": "Virginia",
    "country": "US",
    "dead": 2,
    "lastUpdated": "2020-03-18T22:48:01.593Z",
    "id": "afeZTVC1J1SMMNFxkrcc",
    "infected": 67,
    "recovered": 0,
    "sick": 65
  },
  {
    "longitude": 116.407394,
    "name": "Beijing",
    "country": "CN",
    "dead": 8,
    "lastUpdated": "2020-03-18T05:52:04.918Z",
    "id": "alj4hkxg9cjrTxOzwFKt",
    "infected": 469,
    "recovered": 378,
    "latitude": 39.904202,
    "sick": 83
  },
  {
    "longitude": 43.679291,
    "name": "Iraq",
    "country": "IQ",
    "dead": 12,
    "lastUpdated": "2020-03-18T22:57:02.842Z",
    "id": "b7TwXX46FA0EmH1CjHET",
    "infected": 164,
    "recovered": 41,
    "latitude": 33.22319,
    "sick": 111
  },
  {
    "infected": 36,
    "recovered": 2,
    "latitude": 14.457474,
    "longitude": -14.358636,
    "name": "Senegal",
    "country": "SN",
    "dead": 0,
    "lastUpdated": "2020-03-18T22:57:02.853Z",
    "id": "b9p1JhVml3GGC7iiPmKv",
    "sick": 34
  },
  {
    "infected": 7,
    "recovered": 0,
    "latitude": -0.0236,
    "longitude": 37.9062,
    "name": "Kenya",
    "country": "KE",
    "dead": 0,
    "lastUpdated": "2020-03-18T22:57:03.087Z",
    "id": "bVHiTolbUJGHIeVht3eG",
    "sick": 7
  },
  {
    "infected": 267,
    "recovered": 0,
    "latitude": 39.561889,
    "longitude": -74.672169,
    "name": "New Jersey",
    "country": "US",
    "dead": 3,
    "lastUpdated": "2020-03-18T22:48:01.630Z",
    "id": "bYp4RRHv19M7lYtSzQeV",
    "sick": 264
  },
  {
    "infected": 790,
    "recovered": 60,
    "latitude": 3.139,
    "longitude": 101.6869,
    "name": "Malaysia",
    "country": "MY",
    "dead": 2,
    "lastUpdated": "2020-03-18T22:57:03.028Z",
    "id": "bdqD4kpdqGgUaX70Tm2Q",
    "sick": 728
  },
  {
    "latitude": 60.128162,
    "longitude": 18.643501,
    "name": "Sweden",
    "country": "SE",
    "dead": 10,
    "lastUpdated": "2020-03-18T22:57:02.988Z",
    "id": "bignnyt2A8BBx8VNo32p",
    "infected": 1292,
    "recovered": 15,
    "sick": 1267
  },
  {
    "infected": 59,
    "recovered": 0,
    "latitude": 40.973765,
    "longitude": 20.010162,
    "name": "Albania",
    "country": "AL",
    "dead": 2,
    "lastUpdated": "2020-03-18T22:57:02.951Z",
    "id": "cCGmFmwHOoBrEpvG3qBP",
    "sick": 57
  },
  {
    "dead": 0,
    "lastUpdated": "2020-03-18T22:57:02.784Z",
    "id": "cPxONYsVo6BgvCW9HUeQ",
    "infected": 6,
    "recovered": 0,
    "latitude": 46.8625,
    "longitude": 103.8467,
    "name": "Mongolia",
    "country": "MN",
    "sick": 6
  },
  {
    "latitude": 64.963051,
    "longitude": -19.020836,
    "name": "Iceland",
    "country": "IS",
    "dead": 0,
    "lastUpdated": "2020-03-18T22:57:02.883Z",
    "id": "cPxe7nsRnOf6aOPqHElJ",
    "infected": 250,
    "recovered": 5,
    "sick": 245
  },
  {
    "id": "cX891t0ONLNFj0MYq6La",
    "infected": 433,
    "recovered": 11,
    "latitude": 31.046051,
    "longitude": 34.851612,
    "name": "Israel",
    "country": "IL",
    "dead": 0,
    "lastUpdated": "2020-03-18T22:57:03.005Z",
    "sick": 422
  },
  {
    "dead": 0,
    "lastUpdated": "2020-03-18T22:42:10.527Z",
    "id": "cc7s6hYGQ2MovBBBgkKb",
    "infected": 11,
    "recovered": 0,
    "latitude": 4.749531,
    "longitude": -53.112909,
    "name": "Guyane",
    "country": "FR",
    "sick": 11
  },
  {
    "infected": 58,
    "recovered": 1,
    "latitude": 61.8926,
    "longitude": -6.9118,
    "name": "Faeroe Islands",
    "country": "FO",
    "dead": 0,
    "lastUpdated": "2020-03-18T22:57:02.830Z",
    "id": "cgzd5EM8PZv5ziJtTz1w",
    "sick": 57
  },
  {
    "dead": 0,
    "lastUpdated": "2020-03-18T22:48:01.595Z",
    "id": "chj2FF3zb4Xxcop9RHre",
    "infected": 152,
    "recovered": 0,
    "latitude": 41.2033,
    "longitude": -77.1945,
    "name": "Pennsylvania",
    "country": "US",
    "sick": 152
  },
  {
    "infected": 237,
    "recovered": 2,
    "latitude": 45.7087,
    "longitude": 0.6269,
    "name": "Nouvelle-Aquitaine",
    "country": "FR",
    "dead": 0,
    "lastUpdated": "2020-03-18T22:42:10.538Z",
    "id": "cpf3Y5PQTYywIm3PrpIQ",
    "sick": 235
  },
  {
    "latitude": 40.463669,
    "longitude": -3.74922,
    "name": "Spain",
    "country": "ES",
    "dead": 638,
    "lastUpdated": "2020-03-18T22:57:02.790Z",
    "id": "d0ExINgPaWUBm3l4ioJL",
    "infected": 14769,
    "recovered": 1081,
    "sick": 13050
  },
  {
    "longitude": 1.517155,
    "name": "Andorra",
    "country": "AD",
    "dead": 0,
    "lastUpdated": "2020-03-18T22:57:02.915Z",
    "id": "dedMXSYR2k92wkSXNZqn",
    "infected": 53,
    "recovered": 1,
    "latitude": 42.50837,
    "sick": 52
  },
  {
    "recovered": 0,
    "latitude": 38.831163,
    "longitude": -75.375673,
    "name": "Delaware",
    "country": "US",
    "dead": 0,
    "lastUpdated": "2020-03-18T22:48:01.560Z",
    "id": "dzCgqYduzyncjNKU9z6G",
    "infected": 19,
    "sick": 19
  },
  {
    "infected": 191,
    "recovered": 0,
    "latitude": 38.9637,
    "longitude": 35.2433,
    "name": "Turkey",
    "country": "TR",
    "dead": 2,
    "lastUpdated": "2020-03-18T22:57:02.911Z",
    "id": "dzIcCaUZlbIXuRw0SyDE",
    "sick": 189
  },
  {
    "latitude": 47.516232,
    "longitude": 14.550072,
    "name": "Austria",
    "country": "AT",
    "dead": 4,
    "lastUpdated": "2020-03-18T22:57:02.967Z",
    "id": "e3BtI12qbqhE8jypOoZu",
    "infected": 1646,
    "recovered": 9,
    "sick": 1633
  },
  {
    "infected": 740,
    "recovered": 1,
    "latitude": 52.6367,
    "longitude": 9.8451,
    "name": "Niedersachsen",
    "country": "DE",
    "dead": 0,
    "lastUpdated": "2020-03-18T22:57:02.818Z",
    "id": "e3CJgTO8wVbBQZaxqNze",
    "sick": 739
  },
  {
    "recovered": 122,
    "latitude": 41.097481,
    "longitude": 122.310669,
    "name": "Liaoning",
    "country": "CN",
    "dead": 1,
    "lastUpdated": "2020-03-18T05:55:18.871Z",
    "id": "e7P83iImanpd9r36oXK3",
    "infected": 125,
    "sick": 2
  },
  {
    "latitude": 31.230391,
    "longitude": 121.473701,
    "name": "Shanghai",
    "country": "CN",
    "dead": 3,
    "lastUpdated": "2020-03-18T05:56:43.219Z",
    "id": "e9pQqQa7CEblCYoDtfKo",
    "infected": 361,
    "recovered": 326,
    "sick": 32
  },
  {
    "latitude": 42.407211,
    "longitude": -71.382439,
    "name": "Massachusetts",
    "country": "US",
    "dead": 0,
    "lastUpdated": "2020-03-18T22:48:01.609Z",
    "id": "eCKDGssww4pF7NrxOySu",
    "infected": 218,
    "recovered": 0,
    "sick": 218
  },
  {
    "infected": 9,
    "recovered": 0,
    "latitude": 43.740451,
    "longitude": 7.432032,
    "name": "Monaco",
    "country": "MC",
    "dead": 0,
    "lastUpdated": "2020-03-18T22:57:03.065Z",
    "id": "eLgKPNUwYM5MNDAtF6ql",
    "sick": 9
  },
  {
    "infected": 593,
    "recovered": 8,
    "latitude": 47.2805,
    "longitude": 4.9994,
    "name": "Bourgogne-Franche-Comté",
    "country": "FR",
    "dead": 5,
    "lastUpdated": "2020-03-18T22:42:10.533Z",
    "id": "ejrjMKfHexGnK52FS9Aa",
    "sick": 580
  },
  {
    "infected": 36,
    "recovered": 0,
    "latitude": 48.0196,
    "longitude": 66.9237,
    "name": "Kazakhstan",
    "country": "KZ",
    "dead": 0,
    "lastUpdated": "2020-03-18T22:57:03.018Z",
    "id": "etrmrftkQg6Kbd9seAga",
    "sick": 36
  },
  {
    "latitude": 30.14208,
    "longitude": 102.960701,
    "name": "Sichuan",
    "country": "CN",
    "dead": 3,
    "lastUpdated": "2020-03-18T05:56:17.601Z",
    "id": "eyK5bxFkwdoAouIBvLFM",
    "infected": 540,
    "recovered": 525,
    "sick": 12
  },
  {
    "recovered": 13,
    "latitude": 21.473534,
    "longitude": 55.975414,
    "name": "Oman",
    "country": "OM",
    "dead": 0,
    "lastUpdated": "2020-03-18T22:57:02.980Z",
    "id": "f9kmlhYtc3WA3kjbWszW",
    "infected": 39,
    "sick": 26
  },
  {
    "longitude": 13.2017,
    "name": "Sachsen",
    "country": "DE",
    "dead": 0,
    "lastUpdated": "2020-03-18T22:57:02.825Z",
    "id": "fGqVm2khm3IBRs709S1f",
    "infected": 296,
    "recovered": 0,
    "latitude": 51.1045,
    "sick": 296
  },
  {
    "infected": 0,
    "recovered": 0,
    "latitude": 47,
    "longitude": 2,
    "name": "Région non communiquée",
    "country": "FR",
    "dead": 187,
    "lastUpdated": "2020-03-18T18:44:00.865Z",
    "id": "fIp76gl05LhZ0aOxUbhz",
    "sick": 0
  },
  {
    "latitude": 31.295929,
    "longitude": 36.691952,
    "name": "Jordan",
    "country": "JO",
    "dead": 0,
    "lastUpdated": "2020-03-18T22:57:02.822Z",
    "id": "fK06AziL8wyrcoz7rsmJ",
    "infected": 56,
    "recovered": 1,
    "sick": 55
  },
  {
    "id": "fNganaGVPifA4QahEQPS",
    "infected": 314,
    "recovered": 0,
    "latitude": 27.716933,
    "longitude": -81.555239,
    "name": "Florida",
    "country": "US",
    "dead": 7,
    "lastUpdated": "2020-03-18T22:48:01.626Z",
    "sick": 307
  },
  {
    "infected": 696,
    "recovered": 325,
    "latitude": 35.452016,
    "longitude": 139.664285,
    "name": "Diamond Princess (Cruise)",
    "country": "ZZ",
    "dead": 7,
    "lastUpdated": "2020-03-17T07:27:31.227Z",
    "id": "fNnE9CD0SttEVrCUo1Ym",
    "sick": 364
  },
  {
    "dead": 0,
    "lastUpdated": "2020-03-18T22:57:02.727Z",
    "id": "ffKhENYKy3bwsyBLiYtE",
    "infected": 519,
    "recovered": 6,
    "latitude": 52.52,
    "longitude": 13.405,
    "name": "Berlin",
    "country": "DE",
    "sick": 513
  },
  {
    "id": "fiJ14DCxw15e3SMemh8R",
    "infected": 67800,
    "recovered": 56927,
    "latitude": 31.160629,
    "longitude": 112.255402,
    "name": "Hubei",
    "country": "CN",
    "dead": 3122,
    "lastUpdated": "2020-03-18T13:32:18.046Z",
    "sick": 7751
  },
  {
    "recovered": 0,
    "latitude": 50.4501,
    "longitude": 30.5234,
    "name": "Ukraine",
    "country": "UA",
    "dead": 2,
    "lastUpdated": "2020-03-18T22:57:02.772Z",
    "id": "flbZ2kaR5kBuV8XZ2Nsu",
    "infected": 16,
    "sick": 14
  },
  {
    "infected": 3,
    "recovered": 0,
    "latitude": 41.2044,
    "longitude": 74.7661,
    "name": "Kyrgyzstan",
    "country": "KG",
    "dead": 0,
    "lastUpdated": "2020-03-18T22:57:03.075Z",
    "id": "fst48lrFxiMJbQPf4nur",
    "sick": 3
  },
  {
    "latitude": 52.132633,
    "longitude": 5.291266,
    "name": "Netherlands",
    "country": "NL",
    "dead": 58,
    "lastUpdated": "2020-03-18T22:57:02.866Z",
    "id": "g0lRMtEJbucWIGqSPn0I",
    "infected": 2051,
    "recovered": 2,
    "sick": 1991
  },
  {
    "longitude": -92.288012,
    "name": "Arkansas",
    "country": "US",
    "dead": 0,
    "lastUpdated": "2020-03-18T22:48:01.568Z",
    "id": "gIdgxJZfTl2QOSYEwMAz",
    "infected": 33,
    "recovered": 0,
    "latitude": 34.69522,
    "sick": 33
  },
  {
    "infected": 11,
    "recovered": 0,
    "latitude": 43.9695,
    "longitude": -99.9018,
    "name": "South Dakota",
    "country": "US",
    "dead": 1,
    "lastUpdated": "2020-03-18T22:48:01.658Z",
    "id": "gYDsNgvuvtbg8t77w6FS",
    "sick": 10
  },
  {
    "infected": 48,
    "recovered": 2,
    "latitude": 35.894231,
    "longitude": 14.432846,
    "name": "Malta",
    "country": "MT",
    "dead": 0,
    "lastUpdated": "2020-03-18T22:57:03.009Z",
    "id": "h9UqxYZ5xC4JZrmdDz0q",
    "sick": 46
  },
  {
    "dead": 1,
    "lastUpdated": "2020-03-18T22:49:04.346Z",
    "id": "hqwsh1rmvkWI3LFUVuMk",
    "infected": 10,
    "recovered": 2,
    "latitude": 28.7041,
    "longitude": 77.1025,
    "name": "Delhi",
    "country": "IN",
    "sick": 7
  },
  {
    "infected": 133,
    "recovered": 91,
    "latitude": 35.751835,
    "longitude": 104.28611,
    "name": "Gansu",
    "country": "CN",
    "dead": 2,
    "lastUpdated": "2020-03-18T05:55:51.472Z",
    "id": "iGkTscdD0XyHFSP23Qrp",
    "sick": 40
  },
  {
    "dead": 0,
    "lastUpdated": "2020-03-18T22:49:04.384Z",
    "id": "idymmgoqLHImnBdyC7r7",
    "infected": 27,
    "recovered": 3,
    "latitude": 10.8505,
    "longitude": 76.2711,
    "name": "Kerala",
    "country": "IN",
    "sick": 24
  },
  {
    "infected": 33,
    "recovered": 0,
    "latitude": 16.265,
    "longitude": -61.551,
    "name": "Guadeloupe",
    "country": "FR",
    "dead": 0,
    "lastUpdated": "2020-03-18T22:42:10.529Z",
    "id": "j8eMjjqNAqHAJhAKdBYN",
    "sick": 33
  },
  {
    "infected": 603,
    "recovered": 1,
    "latitude": 50.1183,
    "longitude": 7.309,
    "name": "Rheinland-Pfalz",
    "country": "DE",
    "dead": 0,
    "lastUpdated": "2020-03-18T22:57:02.523Z",
    "id": "jKn2pIFlIBScjb47GjRX",
    "sick": 602
  },
  {
    "latitude": 39.343357,
    "longitude": 117.361649,
    "name": "Tianjin",
    "country": "CN",
    "dead": 3,
    "lastUpdated": "2020-03-18T05:54:53.987Z",
    "id": "jMlHjIOb7eMPSxFBrmG1",
    "infected": 136,
    "recovered": 133,
    "sick": 0
  },
  {
    "infected": 18,
    "recovered": 0,
    "latitude": 44.5588,
    "longitude": -72.5778,
    "name": "Vermont",
    "country": "US",
    "dead": 0,
    "lastUpdated": "2020-03-18T22:48:01.558Z",
    "id": "jPC0eOG50FWknCDe3K6P",
    "sick": 18
  },
  {
    "recovered": 5,
    "latitude": 53.3498,
    "longitude": -6.2603,
    "name": "Ireland",
    "country": "IE",
    "dead": 2,
    "lastUpdated": "2020-03-18T22:57:02.926Z",
    "id": "jpVXEDCyfyq26gPoCtHL",
    "infected": 366,
    "sick": 359
  },
  {
    "latitude": 44.0682,
    "longitude": -114.742,
    "name": "Idaho",
    "country": "US",
    "dead": 0,
    "lastUpdated": "2020-03-18T22:48:01.614Z",
    "id": "l7fHSKOmcaRX3tq9FCT6",
    "infected": 9,
    "recovered": 0,
    "sick": 9
  },
  {
    "recovered": 0,
    "latitude": 10.6918,
    "longitude": -61.2225,
    "name": "Trinidad and Tobago",
    "country": "TT",
    "dead": 0,
    "lastUpdated": "2020-03-18T22:57:03.088Z",
    "id": "lfLdfRP7hyiA6MVnQqqn",
    "infected": 7,
    "sick": 7
  },
  {
    "recovered": 73,
    "latitude": 42.524635,
    "longitude": 87.539589,
    "name": "Xinjiang",
    "country": "CN",
    "dead": 3,
    "lastUpdated": "2020-03-18T05:52:44.290Z",
    "id": "lhPjpn6CzqTRDN0RW8uE",
    "infected": 76,
    "sick": 0
  },
  {
    "dead": 0,
    "lastUpdated": "2020-03-18T22:57:02.801Z",
    "id": "m45gI2UbWMuTrOnTtp9k",
    "infected": 13,
    "recovered": 0,
    "latitude": 3.2028,
    "longitude": 73.2207,
    "name": "Maldives",
    "country": "MV",
    "sick": 13
  },
  {
    "dead": 0,
    "lastUpdated": "2020-03-18T22:57:03.100Z",
    "id": "mF7rVMdVnazAuw8G22xs",
    "infected": 1,
    "recovered": 0,
    "latitude": 41.9029,
    "longitude": 12.4534,
    "name": "Vatican City",
    "country": "VA",
    "sick": 1
  },
  {
    "recovered": 0,
    "latitude": 19.7515,
    "longitude": 75.7139,
    "name": "Maharashtra",
    "country": "IN",
    "dead": 1,
    "lastUpdated": "2020-03-18T22:49:04.463Z",
    "id": "mJtdLs4ub6CkcAOeMWUm",
    "infected": 42,
    "sick": 41
  },
  {
    "infected": 238,
    "recovered": 0,
    "latitude": -33.4489,
    "longitude": -70.6693,
    "name": "Chile",
    "country": "CL",
    "dead": 0,
    "lastUpdated": "2020-03-18T22:57:02.965Z",
    "id": "mSACWVbCy5QE7ciLA93J",
    "sick": 238
  },
  {
    "longitude": 34.8888,
    "name": "Tanzania",
    "country": "TZ",
    "dead": 0,
    "lastUpdated": "2020-03-18T22:57:02.796Z",
    "id": "mnew3ojzmWV0dWSPfCQ9",
    "infected": 3,
    "recovered": 0,
    "latitude": -6.369,
    "sick": 3
  },
  {
    "latitude": 35.693323,
    "longitude": -86.605748,
    "name": "Tennessee",
    "country": "US",
    "dead": 0,
    "lastUpdated": "2020-03-18T22:48:01.617Z",
    "id": "nLhJXE2apq8yNNj363ai",
    "infected": 79,
    "recovered": 0,
    "sick": 79
  },
  {
    "latitude": -4.6796,
    "longitude": 55.492,
    "name": "Seychelles",
    "country": "SC",
    "dead": 0,
    "lastUpdated": "2020-03-18T22:57:03.020Z",
    "id": "oB5fSyjWJ0FbNAkssuci",
    "infected": 6,
    "recovered": 0,
    "sick": 6
  },
  {
    "recovered": 1,
    "latitude": 31.893778,
    "longitude": -6.196132,
    "name": "Morocco",
    "country": "MA",
    "dead": 2,
    "lastUpdated": "2020-03-18T22:57:02.913Z",
    "id": "oJ5vSDE9vgXC2PG8LElp",
    "infected": 54,
    "sick": 51
  },
  {
    "infected": 665,
    "recovered": 0,
    "latitude": 50.4801,
    "longitude": 2.7937,
    "name": "Hauts-de-France",
    "country": "FR",
    "dead": 21,
    "lastUpdated": "2020-03-18T22:42:10.555Z",
    "id": "ofWLu9EuQoK2nHjwU1mA",
    "sick": 644
  },
  {
    "dead": 0,
    "lastUpdated": "2020-03-18T13:37:10.251Z",
    "id": "oxz2l1rJipCsfMfy8Mmk",
    "infected": 94,
    "recovered": 8,
    "latitude": -20.917574,
    "longitude": 142.702789,
    "name": "Queensland",
    "country": "AU",
    "sick": 86
  },
  {
    "infected": 482,
    "recovered": 463,
    "latitude": 47.121647,
    "longitude": 128.738235,
    "name": "Heilongjiang",
    "country": "CN",
    "dead": 13,
    "lastUpdated": "2020-03-18T05:55:03.540Z",
    "id": "p1aZboN4BtRJe7hPl8cw",
    "sick": 6
  },
  {
    "infected": 990,
    "recovered": 984,
    "latitude": 32.026379,
    "longitude": 117.252747,
    "name": "Anhui",
    "country": "CN",
    "dead": 6,
    "lastUpdated": "2020-03-18T05:51:53.651Z",
    "id": "pFhBwPnGGpQ6DLppJ6YS",
    "sick": 0
  },
  {
    "recovered": 0,
    "latitude": 38.9072,
    "longitude": -77.0369,
    "name": "Washington, D.C.",
    "country": "US",
    "dead": 0,
    "lastUpdated": "2020-03-18T22:48:01.581Z",
    "id": "q5cfvHprVTraL1yXnhDx",
    "infected": 31,
    "sick": 31
  },
  {
    "recovered": 0,
    "latitude": -26.190439,
    "longitude": 123.325947,
    "name": "Western Australia",
    "country": "AU",
    "dead": 1,
    "lastUpdated": "2020-03-18T13:35:50.389Z",
    "id": "qnQ0dkxAxnDP01YpdZgk",
    "infected": 35,
    "sick": 34
  },
  {
    "dead": 14,
    "lastUpdated": "2020-03-18T22:57:02.870Z",
    "id": "qpAxVz0garcS0gNZxtOw",
    "infected": 1486,
    "recovered": 31,
    "latitude": 50.503887,
    "longitude": 4.469936,
    "name": "Belgium",
    "country": "BE",
    "sick": 1441
  },
  {
    "dead": 3,
    "lastUpdated": "2020-03-18T22:48:01.588Z",
    "id": "qsrWiq0qCmIG66hpWojP",
    "infected": 166,
    "recovered": 0,
    "latitude": 31,
    "longitude": -100,
    "name": "Texas",
    "country": "US",
    "sick": 163
  },
  {
    "infected": 574,
    "recovered": 1,
    "latitude": 43.9352,
    "longitude": 6.0679,
    "name": "Provence-Alpes-Côte d'Azur",
    "country": "FR",
    "dead": 1,
    "lastUpdated": "2020-03-18T18:58:14.422Z",
    "id": "qyX9xXEuKg3co8yKe3Fl",
    "sick": 572
  },
  {
    "latitude": 30.9843,
    "longitude": -91.9623,
    "name": "Louisiana",
    "country": "US",
    "dead": 4,
    "lastUpdated": "2020-03-18T22:48:01.652Z",
    "id": "qzuktS0qQVU4PEookjss",
    "infected": 257,
    "recovered": 0,
    "sick": 253
  },
  {
    "dead": 0,
    "lastUpdated": "2020-03-18T22:57:02.945Z",
    "id": "rKbrli0DkAmp1UpbrqHQ",
    "infected": 4,
    "recovered": 0,
    "latitude": 12.5211,
    "longitude": -69.9683,
    "name": "Aruba",
    "country": "AW",
    "sick": 4
  },
  {
    "recovered": 16,
    "latitude": 14.058324,
    "longitude": 108.277199,
    "name": "Vietnam",
    "country": "VN",
    "dead": 0,
    "lastUpdated": "2020-03-18T22:57:02.963Z",
    "id": "rKnSEyG03ak4YmGzonlg",
    "infected": 76,
    "sick": 60
  },
  {
    "latitude": -12.8275,
    "longitude": 45.1662,
    "name": "Mayotte",
    "country": "FR",
    "dead": 0,
    "lastUpdated": "2020-03-18T22:57:02.811Z",
    "id": "rUQ6Z3pmWTPVlqEUSmN7",
    "infected": 3,
    "recovered": 0,
    "sick": 3
  },
  {
    "latitude": 29.159849,
    "longitude": 120.326447,
    "name": "Zhejiang",
    "country": "CN",
    "dead": 1,
    "lastUpdated": "2020-03-18T05:56:06.411Z",
    "id": "rgBVJ4hPofqjjchnroiY",
    "infected": 1232,
    "recovered": 1216,
    "sick": 15
  },
  {
    "dead": 6,
    "lastUpdated": "2020-03-18T22:57:02.836Z",
    "id": "rxSafpWsyKhfkV0HTtb4",
    "infected": 1589,
    "recovered": 1,
    "latitude": 60.472023,
    "longitude": 8.468946,
    "name": "Norway",
    "country": "NO",
    "sick": 1582
  },
  {
    "longitude": -116.5765,
    "name": "Alberta",
    "country": "CA",
    "dead": 0,
    "lastUpdated": "2020-03-18T22:48:01.569Z",
    "id": "sBFMOzZJdrdXdyLZpweO",
    "infected": 97,
    "recovered": 0,
    "latitude": 53.9333,
    "sick": 97
  },
  {
    "dead": 6,
    "lastUpdated": "2020-03-18T05:55:26.425Z",
    "id": "sKNhMvgXeyivpNFg02RA",
    "infected": 168,
    "recovered": 161,
    "latitude": 19.566395,
    "longitude": 109.949684,
    "name": "Hainan",
    "country": "CN",
    "sick": 1
  },
  {
    "infected": 145,
    "recovered": 1,
    "latitude": -10.33755,
    "longitude": -75.630295,
    "name": "Peru",
    "country": "PE",
    "dead": 0,
    "lastUpdated": "2020-03-18T22:57:02.931Z",
    "id": "sLL1jETcJYjT6g5bfcEG",
    "sick": 144
  },
  {
    "infected": 318,
    "recovered": 310,
    "latitude": 37.89566,
    "longitude": 114.904221,
    "name": "Hebei",
    "country": "CN",
    "dead": 6,
    "lastUpdated": "2020-03-18T13:30:43.966Z",
    "id": "sgsBhTwHxF1VVnqXbXXp",
    "sick": 2
  },
  {
    "longitude": 43.3569,
    "name": "Georgia",
    "country": "GE",
    "dead": 0,
    "lastUpdated": "2020-03-18T22:57:02.879Z",
    "id": "sjW9OwjFqrOvjVHRXWoR",
    "infected": 38,
    "recovered": 1,
    "latitude": 42.3154,
    "sick": 37
  },
  {
    "longitude": -58.4438,
    "name": "Paraguay",
    "country": "PY",
    "dead": 0,
    "lastUpdated": "2020-03-18T22:57:02.797Z",
    "id": "t2fq7L9UcXfhuXfQNVRj",
    "infected": 11,
    "recovered": 0,
    "latitude": -23.4425,
    "sick": 11
  },
  {
    "id": "tSmr8vNsiDhhpXMSBsms",
    "infected": 51,
    "recovered": 0,
    "latitude": 39.147061,
    "longitude": -111.596466,
    "name": "Utah",
    "country": "US",
    "dead": 0,
    "lastUpdated": "2020-03-18T22:48:01.550Z",
    "sick": 51
  },
  {
    "recovered": 1014,
    "latitude": 27.3818,
    "longitude": 111.510681,
    "name": "Hunan",
    "country": "CN",
    "dead": 4,
    "lastUpdated": "2020-03-18T05:58:27.881Z",
    "id": "tdNRDDrgvBQqqwzdFGh4",
    "infected": 1018,
    "sick": 0
  },
  {
    "latitude": 26.842964,
    "longitude": 107.290283,
    "name": "Guizhou",
    "country": "CN",
    "dead": 2,
    "lastUpdated": "2020-03-18T06:09:44.241Z",
    "id": "tyY4QSHWG9sXqSO9jm0Y",
    "infected": 146,
    "recovered": 144,
    "sick": 0
  },
  {
    "infected": 17,
    "recovered": 0,
    "latitude": 29.0588,
    "longitude": 76.0856,
    "name": "Haryana",
    "country": "IN",
    "dead": 0,
    "lastUpdated": "2020-03-18T22:49:04.499Z",
    "id": "ubUuY89n0cXVgahI4Ytp",
    "sick": 17
  },
  {
    "infected": 631,
    "recovered": 631,
    "latitude": 32.93708,
    "longitude": 119.151932,
    "name": "Jiangsu",
    "country": "CN",
    "dead": 0,
    "lastUpdated": "2020-03-18T05:53:51.801Z",
    "id": "uvxN28EpGmRq3K9REtBP",
    "sick": 0
  },
  {
    "infected": 133,
    "recovered": 0,
    "latitude": 51.9503,
    "longitude": 11.6923,
    "name": "Sachsen-Anhalt",
    "country": "DE",
    "dead": 0,
    "lastUpdated": "2020-03-18T22:57:02.823Z",
    "id": "uxAceZxiizwmo60pyyGn",
    "sick": 133
  },
  {
    "latitude": 33.7782,
    "longitude": 76.5762,
    "name": "Jammu and Kashmir",
    "country": "IN",
    "dead": 0,
    "lastUpdated": "2020-03-18T22:49:04.425Z",
    "id": "v5wfBhxjYTpTMaKko6AW",
    "infected": 3,
    "recovered": 0,
    "sick": 3
  },
  {
    "id": "v8JcH4FHH7BDpJlNNHjv",
    "infected": 210,
    "recovered": 28,
    "latitude": 26.820553,
    "longitude": 30.802498,
    "name": "Egypt",
    "country": "EG",
    "dead": 6,
    "lastUpdated": "2020-03-18T22:57:02.940Z",
    "sick": 176
  },
  {
    "latitude": 47.288374,
    "longitude": -119.928431,
    "name": "Washington",
    "country": "US",
    "dead": 55,
    "lastUpdated": "2020-03-18T22:48:01.503Z",
    "id": "vCUVQn7RK8pkw5y2rvYN",
    "infected": 1014,
    "recovered": 0,
    "sick": 959
  },
  {
    "longitude": -77.2975,
    "name": "Jamaica",
    "country": "JM",
    "dead": 0,
    "lastUpdated": "2020-03-18T22:57:02.803Z",
    "id": "vMGALmMJbagxGIbLyFfS",
    "infected": 13,
    "recovered": 2,
    "latitude": 18.1096,
    "sick": 11
  },
  {
    "infected": 46,
    "recovered": 0,
    "latitude": 32.3182,
    "longitude": -86.9023,
    "name": "Alabama",
    "country": "US",
    "dead": 0,
    "lastUpdated": "2020-03-18T22:48:01.579Z",
    "id": "vSMJR4m49MZM15umlC9B",
    "sick": 46
  },
  {
    "id": "vSwFXxTSLgzsG25zOJUy",
    "infected": 2693,
    "recovered": 5,
    "latitude": 48.8499,
    "longitude": 2.637,
    "name": "Île-de-France",
    "country": "FR",
    "dead": 4,
    "lastUpdated": "2020-03-18T18:57:24.383Z",
    "sick": 2684
  },
  {
    "latitude": 46.5107,
    "longitude": -63.4168,
    "name": "Prince Edward Island",
    "country": "CA",
    "dead": 0,
    "lastUpdated": "2020-03-18T06:28:02.093Z",
    "id": "vjK6292ALJl5wq8XHw3P",
    "infected": 1,
    "recovered": 0,
    "sick": 1
  },
  {
    "latitude": 32.42791,
    "longitude": 53.688046,
    "name": "Iran",
    "country": "IR",
    "dead": 1135,
    "lastUpdated": "2020-03-18T22:57:02.788Z",
    "id": "vkkXVaqUswO5JsMZx0mX",
    "infected": 17361,
    "recovered": 5710,
    "sick": 10516
  },
  {
    "dead": 0,
    "lastUpdated": "2020-03-18T22:48:01.600Z",
    "id": "wCnlOr8oX3DlF0otQrFc",
    "infected": 15,
    "recovered": 0,
    "latitude": 53.7609,
    "longitude": -98.8139,
    "name": "Manitoba",
    "country": "CA",
    "sick": 15
  },
  {
    "dead": 2,
    "lastUpdated": "2020-03-18T22:57:03.003Z",
    "id": "wEl0cjiA6OcZiI9kaSsF",
    "infected": 97,
    "recovered": 3,
    "latitude": -34.6037,
    "longitude": -58.3816,
    "name": "Argentina",
    "country": "AR",
    "sick": 92
  },
  {
    "recovered": 0,
    "latitude": 44.3148,
    "longitude": -85.6024,
    "name": "Michigan",
    "country": "US",
    "dead": 0,
    "lastUpdated": "2020-03-18T22:48:01.564Z",
    "id": "wgRwpPMGBaKLAl1xo1C7",
    "infected": 83,
    "sick": 83
  },
  {
    "infected": 14,
    "recovered": 0,
    "latitude": 21.287261,
    "longitude": -157.838954,
    "name": "Hawaii",
    "country": "US",
    "dead": 0,
    "lastUpdated": "2020-03-18T22:48:01.665Z",
    "id": "wi47s9vKxiMqxfgurj3B",
    "sick": 14
  },
  {
    "longitude": 35.918113,
    "name": "Lebanon",
    "country": "LB",
    "dead": 4,
    "lastUpdated": "2020-03-18T22:57:02.850Z",
    "id": "xFgM48q8JxVPfvQLQDNb",
    "infected": 133,
    "recovered": 4,
    "latitude": 34.08267,
    "sick": 125
  },
  {
    "infected": 8,
    "recovered": 1,
    "latitude": 9.081999,
    "longitude": 8.675277,
    "name": "Nigeria",
    "country": "NG",
    "dead": 0,
    "lastUpdated": "2020-03-18T22:57:03.072Z",
    "id": "xHWPTTpNHEwWv6MqfxP5",
    "sick": 7
  },
  {
    "infected": 6,
    "recovered": 0,
    "latitude": 47.5515,
    "longitude": -101.002,
    "name": "North Dakota",
    "country": "US",
    "dead": 0,
    "lastUpdated": "2020-03-18T22:48:01.542Z",
    "id": "xQpNodSQfHNHAtG9Onnj",
    "sick": 6
  },
  {
    "dead": 0,
    "lastUpdated": "2020-03-18T22:48:01.656Z",
    "id": "xSHgaJlyPxHFWB6hhyng",
    "infected": 92,
    "recovered": 0,
    "latitude": 44.5,
    "longitude": -89.5,
    "name": "Wisconsin",
    "country": "US",
    "sick": 92
  },
  {
    "recovered": 0,
    "latitude": 9.145,
    "longitude": 40.4897,
    "name": "Ethiopia",
    "country": "ET",
    "dead": 0,
    "lastUpdated": "2020-03-18T22:57:03.045Z",
    "id": "xY69Nr3VSiZCwD2Qp0SD",
    "infected": 6,
    "sick": 6
  },
  {
    "dead": 0,
    "lastUpdated": "2020-03-18T22:57:03.035Z",
    "id": "xtX46kxBlEapOMdD1Emh",
    "infected": 2,
    "recovered": 0,
    "latitude": -22.95763,
    "longitude": 18.4904,
    "name": "Namibia",
    "country": "NA",
    "sick": 2
  },
  {
    "longitude": 8.8017,
    "name": "Bremen",
    "country": "DE",
    "dead": 0,
    "lastUpdated": "2020-03-18T22:57:02.519Z",
    "id": "y0d3PQgXJXdKsxweTIWv",
    "infected": 75,
    "recovered": 3,
    "latitude": 53.0793,
    "sick": 72
  },
  {
    "infected": 3,
    "recovered": 0,
    "latitude": -17.6797,
    "longitude": -149.4068,
    "name": "Polynésie française",
    "country": "FR",
    "dead": 0,
    "lastUpdated": "2020-03-18T22:57:03.036Z",
    "id": "yOfFKDRrscqcZ85WMRqF",
    "sick": 3
  },
  {
    "recovered": 0,
    "latitude": 12.1696,
    "longitude": -68.99,
    "name": "Curaçao",
    "country": "CW",
    "dead": 0,
    "lastUpdated": "2020-03-18T22:57:02.941Z",
    "id": "z0KDu61I2qPILneW2Lih",
    "infected": 3,
    "sick": 3
  },
  {
    "longitude": -66.4619,
    "name": "New Brunswick",
    "country": "CA",
    "dead": 0,
    "lastUpdated": "2020-03-18T22:48:01.655Z",
    "id": "z1Vx0y33oMGoeJSuS8Ui",
    "infected": 11,
    "recovered": 0,
    "latitude": 46.5653,
    "sick": 11
  },
  {
    "latitude": -1.831239,
    "longitude": -78.183403,
    "name": "Ecuador",
    "country": "EC",
    "dead": 3,
    "lastUpdated": "2020-03-18T22:57:02.983Z",
    "id": "zC03Urt1iJJb2Tf6p0jd",
    "infected": 168,
    "recovered": 0,
    "sick": 165
  },
  {
    "infected": 212,
    "recovered": 41,
    "latitude": 15.870032,
    "longitude": 100.992538,
    "name": "Thailand",
    "country": "TH",
    "dead": 1,
    "lastUpdated": "2020-03-18T22:57:02.997Z",
    "id": "zvdC0u72Bk5YKNaazZFZ",
    "sick": 170
  },
  {
    "latitude": 44.0165,
    "longitude": 21.0059,
    "name": "Serbia",
    "country": "RS",
    "dead": 0,
    "lastUpdated": "2020-03-18T22:57:02.900Z",
    "id": "zyxFwuiyCJHhRyNEg60C",
    "infected": 89,
    "recovered": 1,
    "sick": 88
  }
]