[
  {
    "latitude": 12.5847,
    "pop": 72600,
    "longitude": -81.7006,
    "name": "San Andrés",
    "country": "CO",
    "lastUpdated": "2020-04-11T20:11:08.622Z",
    "dead": 0,
    "id": "01b09TY4vmuZwzVuiRFK",
    "infected": 4,
    "recovered": 1,
    "sick": 3,
    "invisible": false
  },
  {
    "longitude": 14.333333,
    "name": "Campania",
    "country": "IT",
    "lastUpdated": "2020-04-11T20:10:02.257Z",
    "dead": 238,
    "id": "0GJcws44NSPsDHAuxJhW",
    "infected": 3517,
    "recovered": 277,
    "latitude": 41.066666,
    "pop": 5827000,
    "sick": 3002,
    "invisible": false
  },
  {
    "infected": 38,
    "recovered": 0,
    "latitude": -20.2167,
    "pop": 383870,
    "longitude": -70.14222,
    "name": "Tarapacá",
    "country": "CL",
    "lastUpdated": "2020-04-11T20:07:06.131Z",
    "dead": 0,
    "id": "0HDQbiHe462xMCUV5HiI",
    "sick": 38,
    "invisible": false
  },
  {
    "latitude": 20.9517,
    "pop": 45990000,
    "longitude": 85.0985,
    "name": "Odisha",
    "country": "IN",
    "lastUpdated": "2020-04-11T20:10:01.625Z",
    "dead": 1,
    "id": "0VG7S6aaK4eSo59fL9JO",
    "infected": 54,
    "recovered": 12,
    "sick": 41,
    "invisible": false
  },
  {
    "lastUpdated": "2020-04-11T20:10:01.625Z",
    "dead": 0,
    "id": "0jStOpTUNRaQYJqgmRoK",
    "infected": 11,
    "recovered": 10,
    "latitude": 11.7401,
    "pop": 427246,
    "longitude": 92.6586,
    "name": "Andaman and Nicobar Islands",
    "country": "IN",
    "sick": 1,
    "invisible": false
  },
  {
    "latitude": 25.315058,
    "pop": 2639000,
    "longitude": 51.145517,
    "name": "Qatar",
    "country": "QA",
    "lastUpdated": "2020-04-11T20:00:03.420Z",
    "dead": 6,
    "id": "0m4aECS0Z2DGFEr8ldgI",
    "infected": 2728,
    "recovered": 247,
    "sick": 2475,
    "invisible": false
  },
  {
    "recovered": 16,
    "latitude": 22.9868,
    "pop": 90320000,
    "longitude": 87.855,
    "name": "West Bengal",
    "country": "IN",
    "lastUpdated": "2020-04-11T20:10:01.625Z",
    "dead": 5,
    "id": "0n54EMSDJcRoT1QEvw80",
    "infected": 126,
    "sick": 105,
    "invisible": false
  },
  {
    "lastUpdated": "2020-04-11T17:55:02.411Z",
    "dead": 40,
    "id": "0s18o5DrDAHjbu5MFcrj",
    "infected": 529,
    "recovered": 39,
    "latitude": 22.9734,
    "pop": 73340000,
    "longitude": 78.6569,
    "name": "Madhya Pradesh",
    "country": "IN",
    "sick": 450,
    "invisible": false
  },
  {
    "latitude": 37.0902,
    "longitude": -95.7129,
    "name": "Unknown US state",
    "country": "US",
    "lastUpdated": "2020-04-11T20:00:03.409Z",
    "dead": 0,
    "id": "0tFoopNTs6e4tOoaltu2",
    "invisible": true,
    "infected": 0,
    "recovered": 28755,
    "sick": 0
  },
  {
    "latitude": 35.64249,
    "pop": 37330000,
    "longitude": 108.472214,
    "name": "Shaanxi",
    "country": "CN",
    "lastUpdated": "2020-04-11T19:44:09.864Z",
    "dead": 3,
    "id": "0x2HLhr5z5xAtEdO4iZm",
    "infected": 256,
    "recovered": 248,
    "sick": 5,
    "invisible": false
  },
  {
    "id": "19MvIhipqTyYv1H37Upw",
    "infected": 760,
    "recovered": 41,
    "latitude": 41.643351,
    "pop": 2077000,
    "longitude": 21.668393,
    "name": "North Macedonia",
    "country": "MK",
    "lastUpdated": "2020-04-11T20:00:03.424Z",
    "dead": 34,
    "sick": 685,
    "invisible": false
  },
  {
    "lastUpdated": "2020-04-11T20:15:01.928Z",
    "dead": 3,
    "id": "1DOMOmCWDtva46OVSZLv",
    "infected": 241,
    "recovered": 0,
    "latitude": 53.1355,
    "pop": 521542,
    "longitude": -57.6604,
    "name": "Newfoundland and Labrador",
    "country": "CA",
    "sick": 238,
    "invisible": false
  },
  {
    "infected": 18,
    "recovered": 18,
    "latitude": 35.801933,
    "pop": 5627000,
    "longitude": 96.779286,
    "name": "Qinghai",
    "country": "CN",
    "lastUpdated": "2020-04-11T19:44:09.868Z",
    "dead": 0,
    "id": "1Fap7rZu9SIRqf5TG9Dg",
    "sick": 0,
    "invisible": false
  },
  {
    "recovered": 2205,
    "latitude": 44.9,
    "pop": 4376000,
    "longitude": 8.206944,
    "name": "Piemonte",
    "country": "IT",
    "lastUpdated": "2020-04-11T20:10:02.257Z",
    "dead": 1633,
    "id": "1eTSQyfp8RoDPeFrIwun",
    "infected": 16008,
    "sick": 12170,
    "invisible": false
  },
  {
    "id": "1f0YoV0vAcexEhpESyZc",
    "infected": 20247,
    "recovered": 173,
    "latitude": -14.235004,
    "pop": 209300000,
    "longitude": -51.925282,
    "name": "Brazil",
    "country": "BR",
    "lastUpdated": "2020-04-11T20:00:03.417Z",
    "dead": 1090,
    "sick": 18984,
    "invisible": false
  },
  {
    "lastUpdated": "2020-04-11T20:00:03.421Z",
    "dead": 30,
    "id": "1qTPB8X3tyLyIdsb5TN3",
    "infected": 1560,
    "recovered": 75,
    "latitude": 47.4116,
    "pop": 3550000,
    "longitude": 28.3699,
    "name": "Moldova",
    "country": "MD",
    "sick": 1455,
    "invisible": false
  },
  {
    "lastUpdated": "2020-04-11T19:44:09.869Z",
    "dead": 0,
    "id": "25qIBtsW2nfQj3pwBKg9",
    "infected": 1,
    "recovered": 1,
    "latitude": 30.15336,
    "pop": 3180000,
    "longitude": 88.787865,
    "name": "Tibet",
    "country": "CN",
    "sick": 0,
    "invisible": false
  },
  {
    "latitude": -1.572184,
    "pop": 264000000,
    "longitude": 115.66779,
    "name": "Indonesia",
    "country": "ID",
    "lastUpdated": "2020-04-11T20:00:03.419Z",
    "dead": 327,
    "id": "2KHYUb5t3lwzVVmDjwNX",
    "infected": 3842,
    "recovered": 286,
    "sick": 3229,
    "invisible": false
  },
  {
    "lastUpdated": "2020-04-11T20:09:16.074Z",
    "dead": 48,
    "id": "2OrsssmGUs4XCzaZzvTv",
    "infected": 1371,
    "recovered": 0,
    "latitude": 43.807191,
    "pop": 4191000,
    "longitude": -120.585594,
    "name": "Oregon",
    "country": "US",
    "sick": 1323,
    "invisible": false
  },
  {
    "infected": 117,
    "recovered": 0,
    "latitude": -23.65,
    "pop": 425000,
    "longitude": -70.400002,
    "name": "Antofagasta",
    "country": "CL",
    "lastUpdated": "2020-04-11T20:07:06.132Z",
    "dead": 1,
    "id": "2c5HBZ1ffkCVXnMYUWnY",
    "sick": 116,
    "invisible": false
  },
  {
    "lastUpdated": "2020-04-11T19:44:09.865Z",
    "dead": 1,
    "id": "2jxHvSsxdnom0nPNvOT8",
    "infected": 98,
    "recovered": 96,
    "latitude": 43.851921,
    "pop": 27460000,
    "longitude": 126.548103,
    "name": "Jilin",
    "country": "CN",
    "sick": 1,
    "invisible": false
  },
  {
    "infected": 129,
    "recovered": 84,
    "latitude": 36.1408,
    "pop": 34571,
    "longitude": -5.3536,
    "name": "Gibraltar",
    "country": "GI",
    "lastUpdated": "2020-04-11T20:00:03.432Z",
    "dead": 0,
    "id": "2p11BjSAs3wVyymgqBOe",
    "sick": 45,
    "invisible": false
  },
  {
    "infected": 2361,
    "recovered": 554,
    "latitude": 47.7516,
    "pop": 2567000,
    "longitude": 1.6751,
    "name": "Centre-Val de Loire",
    "country": "FR",
    "lastUpdated": "2020-04-11T17:37:28.908Z",
    "dead": 193,
    "id": "2sLNkkHpyaHx7dD3aMDO",
    "sick": 1614,
    "invisible": false
  },
  {
    "id": "319tiZOMczx1y0DfvOib",
    "infected": 1309,
    "recovered": 534,
    "latitude": 42.565044,
    "pop": 884640,
    "longitude": 12.643751,
    "name": "Umbria",
    "country": "IT",
    "lastUpdated": "2020-04-11T20:10:02.258Z",
    "dead": 52,
    "sick": 723,
    "invisible": false
  },
  {
    "longitude": -76.6131592,
    "name": "Cauca",
    "country": "CO",
    "lastUpdated": "2020-04-11T20:11:08.622Z",
    "dead": 2,
    "id": "38T96Q3XNjt5FSJygPed",
    "infected": 19,
    "recovered": 4,
    "latitude": 2.43823,
    "pop": 1355000,
    "sick": 13,
    "invisible": false
  },
  {
    "longitude": 27.849332,
    "name": "Zambia",
    "country": "ZM",
    "lastUpdated": "2020-04-11T20:00:03.434Z",
    "dead": 2,
    "id": "3IlPjAbP5qVMn1nlgLTJ",
    "infected": 40,
    "recovered": 28,
    "latitude": -13.133896,
    "pop": 17090000,
    "sick": 10,
    "invisible": false
  },
  {
    "latitude": 42.7044,
    "pop": 631219,
    "longitude": 19.3958,
    "name": "Montenegro",
    "country": "ME",
    "lastUpdated": "2020-04-11T20:00:03.429Z",
    "dead": 2,
    "id": "3LstMSN5XMYBkxbe5HN7",
    "infected": 263,
    "recovered": 5,
    "sick": 256,
    "invisible": false
  },
  {
    "id": "3OZoQsKrzxZ18EKyfGE6",
    "infected": 103,
    "recovered": 59,
    "latitude": -35.4735,
    "pop": 418440,
    "longitude": 149.0124,
    "name": "Australian Capital Territory",
    "country": "AU",
    "lastUpdated": "2020-04-11T20:15:01.928Z",
    "dead": 2,
    "sick": 42,
    "invisible": false
  },
  {
    "infected": 29,
    "recovered": 0,
    "latitude": 26.2006,
    "pop": 30940000,
    "longitude": 92.9376,
    "name": "Assam",
    "country": "IN",
    "lastUpdated": "2020-04-11T20:10:01.625Z",
    "dead": 1,
    "id": "3cCbnJCsK7mKlTO08K1o",
    "sick": 28,
    "invisible": false
  },
  {
    "lastUpdated": "2020-04-11T20:09:16.071Z",
    "dead": 247,
    "id": "3fC3bAyIRUquOQOEnQNe",
    "infected": 6250,
    "recovered": 0,
    "latitude": 40.4173,
    "pop": 11690000,
    "longitude": -82.9071,
    "name": "Ohio",
    "country": "US",
    "sick": 6003,
    "invisible": false
  },
  {
    "longitude": -76.522224,
    "name": "Valle del Cauca",
    "country": "CO",
    "lastUpdated": "2020-04-11T19:26:07.141Z",
    "dead": 9,
    "id": "3mC2LveOpXV8P1PmQGUj",
    "infected": 418,
    "recovered": 17,
    "latitude": 3.420556,
    "pop": 4708300,
    "sick": 392,
    "invisible": false
  },
  {
    "longitude": -10.9408,
    "name": "Mauritania",
    "country": "MR",
    "lastUpdated": "2020-04-11T20:00:03.438Z",
    "dead": 1,
    "id": "4NnFMekRK2m14IlnZZoj",
    "infected": 7,
    "recovered": 2,
    "latitude": 21.0079,
    "pop": 4420000,
    "sick": 4,
    "invisible": false
  },
  {
    "infected": 1410,
    "recovered": 0,
    "latitude": 53.7267,
    "pop": 5071000,
    "longitude": -127.6476,
    "name": "British Columbia",
    "country": "CA",
    "lastUpdated": "2020-04-11T20:15:01.927Z",
    "dead": 55,
    "id": "4hfZRUoUgI4a3vrG0GBk",
    "sick": 1355,
    "invisible": false
  },
  {
    "latitude": 41.065877,
    "pop": 10290000,
    "longitude": -7.920053,
    "name": "Portugal",
    "country": "PT",
    "lastUpdated": "2020-04-11T20:00:03.417Z",
    "dead": 470,
    "id": "4rQLxUCMmQLpbi6E9tbH",
    "infected": 15987,
    "recovered": 266,
    "sick": 15251,
    "invisible": false
  },
  {
    "recovered": 200,
    "latitude": 40.3426,
    "pop": 9898000,
    "longitude": 47.93802,
    "name": "Azerbaijan",
    "country": "AZ",
    "lastUpdated": "2020-04-11T20:00:03.423Z",
    "dead": 11,
    "id": "4zqzRm2xHn0CDVOUQJ8p",
    "infected": 1058,
    "sick": 847,
    "invisible": false
  },
  {
    "latitude": 25.025885,
    "pop": 395361,
    "longitude": -78.035889,
    "name": "Bahamas",
    "country": "BS",
    "lastUpdated": "2020-04-11T20:00:03.434Z",
    "dead": 8,
    "id": "5MHegCUO9L3LiAU7DDey",
    "infected": 42,
    "recovered": 5,
    "sick": 29,
    "invisible": false
  },
  {
    "recovered": 4,
    "latitude": -31.253218,
    "pop": 7544000,
    "longitude": 146.921097,
    "name": "New South Wales",
    "country": "AU",
    "lastUpdated": "2020-04-11T20:15:01.927Z",
    "dead": 23,
    "id": "5N16a2OXXRpsEFanw0TC",
    "infected": 2857,
    "sick": 2830,
    "invisible": false
  },
  {
    "recovered": 0,
    "latitude": 6.8769908,
    "pop": 12580000,
    "longitude": 31.3069782,
    "name": "South Sudan",
    "country": "SS",
    "lastUpdated": "2020-04-11T20:00:03.438Z",
    "dead": 0,
    "id": "5N4PRxsCDzzwk7R200V1",
    "infected": 4,
    "sick": 4,
    "invisible": false
  },
  {
    "longitude": -0.7533,
    "name": "C. Valenciana",
    "country": "ES",
    "lastUpdated": "2020-04-11T20:13:02.638Z",
    "dead": 818,
    "id": "5Va9A7CXR8AXdUz4HTJj",
    "infected": 8578,
    "recovered": 2289,
    "latitude": 39.484,
    "pop": 4975000,
    "sick": 5471,
    "invisible": false
  },
  {
    "longitude": 165.618042,
    "name": "New Caledonia",
    "country": "NC",
    "lastUpdated": "2020-04-11T20:00:03.436Z",
    "dead": 0,
    "id": "5fg04eyDwFw3kEXnrxez",
    "infected": 18,
    "recovered": 1,
    "latitude": -20.9043045,
    "pop": 280460,
    "sick": 17,
    "invisible": false
  },
  {
    "latitude": 28.394857,
    "pop": 29300000,
    "longitude": 84.124008,
    "name": "Nepal",
    "country": "NP",
    "lastUpdated": "2020-04-11T20:00:03.438Z",
    "dead": 0,
    "id": "5gXZIjRgAvd6xWN1LOv8",
    "infected": 9,
    "recovered": 1,
    "sick": 8,
    "invisible": false
  },
  {
    "id": "5pwmh7aSdGRKqRbnuyc0",
    "infected": 4428,
    "recovered": 157,
    "latitude": 12.879721,
    "pop": 104900000,
    "longitude": 121.774017,
    "name": "Philippines",
    "country": "PH",
    "lastUpdated": "2020-04-11T20:00:03.418Z",
    "dead": 247,
    "sick": 4024,
    "invisible": false
  },
  {
    "recovered": 0,
    "latitude": -17.824858,
    "pop": 14802190,
    "longitude": 31.053028,
    "name": "Zimbabwe",
    "country": "ZW",
    "lastUpdated": "2020-04-11T20:00:03.436Z",
    "dead": 3,
    "id": "5qtR9nx4BLwu1ODTniaY",
    "infected": 13,
    "sick": 10,
    "invisible": false
  },
  {
    "id": "694ON7d0mRJDeM1gHBTR",
    "infected": 1026,
    "recovered": 54,
    "latitude": 55.621011,
    "pop": 2794000,
    "longitude": 23.804991,
    "name": "Lithuania",
    "country": "LT",
    "lastUpdated": "2020-04-11T20:00:03.423Z",
    "dead": 23,
    "sick": 949,
    "invisible": false
  },
  {
    "infected": 7872,
    "recovered": 0,
    "latitude": 51.1781,
    "pop": 9175000,
    "longitude": -0.5596,
    "name": "South East",
    "country": "GB",
    "lastUpdated": "2020-04-11T20:04:01.714Z",
    "dead": 0,
    "id": "6IQAsvrmBv0HPdeTnh4x",
    "sick": 7872,
    "invisible": false
  },
  {
    "infected": 1001,
    "recovered": 336,
    "latitude": 22.396427,
    "pop": 7392000,
    "longitude": 114.109497,
    "name": "Hong Kong",
    "country": "HK",
    "lastUpdated": "2020-04-11T20:00:03.423Z",
    "dead": 4,
    "id": "6IcHIIH0zXpY0POmBZTv",
    "sick": 661,
    "invisible": false
  },
  {
    "infected": 35,
    "recovered": 5,
    "latitude": 9.3077,
    "pop": 11180000,
    "longitude": 2.3158,
    "name": "Benin",
    "country": "BJ",
    "lastUpdated": "2020-04-11T20:00:03.434Z",
    "dead": 1,
    "id": "6SlpghTyB6lpMFvx3g9U",
    "sick": 29,
    "invisible": false
  },
  {
    "latitude": 45.6667,
    "pop": 10040000,
    "longitude": 9.5,
    "name": "Lombardia",
    "country": "IT",
    "lastUpdated": "2020-04-11T20:10:02.257Z",
    "dead": 10511,
    "id": "6ZHcvMIzVWIaRnc4R3Qp",
    "infected": 57592,
    "recovered": 16823,
    "sick": 30258,
    "invisible": false
  },
  {
    "latitude": 46.0569,
    "pop": 2067000,
    "longitude": 14.5058,
    "name": "Slovenia",
    "country": "SI",
    "lastUpdated": "2020-04-11T20:00:03.422Z",
    "dead": 50,
    "id": "6ahNiyKDSDAftCctgLH3",
    "infected": 1188,
    "recovered": 148,
    "sick": 990,
    "invisible": false
  },
  {
    "infected": 13,
    "recovered": 0,
    "latitude": -23.369543,
    "pop": 300000,
    "longitude": -69.859741,
    "name": "Atacama",
    "country": "CL",
    "lastUpdated": "2020-04-11T20:07:06.132Z",
    "dead": 0,
    "id": "6nyns7UGGgkU7pxrHf8i",
    "sick": 13,
    "invisible": false
  },
  {
    "latitude": -0.8037,
    "pop": 2025000,
    "longitude": 11.6094,
    "name": "Gabon",
    "country": "GA",
    "lastUpdated": "2020-04-11T20:00:03.434Z",
    "dead": 1,
    "id": "6pBi38TUgYfFm0bry2uh",
    "infected": 46,
    "recovered": 1,
    "sick": 44,
    "invisible": false
  },
  {
    "infected": 6,
    "recovered": 4,
    "latitude": 17.901672,
    "pop": 9131,
    "longitude": -62.818544,
    "name": "Saint-Barthélémy",
    "country": "FR",
    "lastUpdated": "2020-04-11T17:31:14.386Z",
    "dead": 0,
    "id": "78Ox26bNHDA2Pk2b3Uwn",
    "sick": 2,
    "invisible": false
  },
  {
    "latitude": 35.2923,
    "pop": 84690,
    "longitude": -2.9381,
    "name": "Melilla",
    "country": "ES",
    "lastUpdated": "2020-04-11T20:13:02.638Z",
    "dead": 2,
    "id": "7UASdZTZ1nPzzBwSTEA9",
    "infected": 98,
    "recovered": 18,
    "sick": 78,
    "invisible": false
  },
  {
    "latitude": 17.0608,
    "pop": 102012,
    "longitude": -61.7964,
    "name": "Antigua and Barbuda",
    "country": "AG",
    "lastUpdated": "2020-04-11T20:00:03.435Z",
    "dead": 2,
    "id": "7hVFcEV7nV0MrQr3LHrl",
    "infected": 21,
    "recovered": 0,
    "sick": 19,
    "invisible": false
  },
  {
    "id": "7kCrrlOBE3jN6FtOVNUB",
    "infected": 32768,
    "recovered": 10720,
    "latitude": 48.7904,
    "pop": 13000000,
    "longitude": 11.4979,
    "name": "Bayern",
    "country": "DE",
    "lastUpdated": "2020-04-11T20:01:03.332Z",
    "dead": 813,
    "sick": 21235,
    "invisible": false
  },
  {
    "recovered": 115,
    "latitude": 47.4979,
    "pop": 9773000,
    "longitude": 19.0402,
    "name": "Hungary",
    "country": "HU",
    "lastUpdated": "2020-04-11T20:00:03.422Z",
    "dead": 85,
    "id": "7rYC2iFB50c55Ihgbs4Q",
    "infected": 1310,
    "sick": 1110,
    "invisible": false
  },
  {
    "recovered": 11,
    "latitude": 10.9685,
    "pop": 2400000,
    "longitude": -74.7813,
    "name": "Barranquilla D.E.",
    "country": "CO",
    "lastUpdated": "2020-04-11T20:11:08.622Z",
    "dead": 2,
    "id": "7tqLvLyXcBDK808nJv0m",
    "infected": 60,
    "sick": 47,
    "invisible": false
  },
  {
    "latitude": 7.3697,
    "pop": 24050000,
    "longitude": 12.3547,
    "name": "Cameroon",
    "country": "CM",
    "lastUpdated": "2020-04-11T20:00:03.424Z",
    "dead": 12,
    "id": "8C0d7WVCjyUGtnc2gUAR",
    "infected": 820,
    "recovered": 98,
    "sick": 710,
    "invisible": false
  },
  {
    "latitude": -16.2902,
    "pop": 11050000,
    "longitude": -63.5887,
    "name": "Bolivia",
    "country": "BO",
    "lastUpdated": "2020-04-11T20:00:03.429Z",
    "dead": 20,
    "id": "8RihJrXw4NQXPxaRxr1u",
    "infected": 275,
    "recovered": 2,
    "sick": 253,
    "invisible": false
  },
  {
    "latitude": 12.9843,
    "pop": 109897,
    "longitude": -61.2872,
    "name": "St. Vincent Grenadines",
    "country": "VC",
    "lastUpdated": "2020-04-11T20:00:03.437Z",
    "dead": 0,
    "id": "8ZTySQROQejkDAad0qxQ",
    "infected": 12,
    "recovered": 1,
    "sick": 11,
    "invisible": false
  },
  {
    "id": "8pA3fM4xC2c2wv1b4TnE",
    "infected": 2299,
    "recovered": 528,
    "latitude": 1.352083,
    "pop": 5621000,
    "longitude": 103.819839,
    "name": "Singapore",
    "country": "SG",
    "lastUpdated": "2020-04-11T20:00:03.421Z",
    "dead": 8,
    "sick": 1763,
    "invisible": false
  },
  {
    "infected": 2306,
    "recovered": 688,
    "latitude": 47.2184,
    "pop": 3787000,
    "longitude": -1.5536,
    "name": "Pays de la Loire",
    "country": "FR",
    "lastUpdated": "2020-04-11T17:36:47.480Z",
    "dead": 178,
    "id": "98hwAoohgWEOQVa3NlM5",
    "sick": 1440,
    "invisible": false
  },
  {
    "longitude": 30.2176,
    "name": "Sudan",
    "country": "SD",
    "lastUpdated": "2020-04-11T20:00:03.435Z",
    "dead": 2,
    "id": "9DPOkpIqrFy9mR4e9fuv",
    "infected": 19,
    "recovered": 2,
    "latitude": 12.8628,
    "pop": 40530000,
    "sick": 15,
    "invisible": false
  },
  {
    "latitude": 45.943161,
    "pop": 19530000,
    "longitude": 24.966761,
    "name": "Romania",
    "country": "RO",
    "lastUpdated": "2020-04-11T20:00:03.418Z",
    "dead": 291,
    "id": "9QcETqEcM2fTv9zRvx5T",
    "infected": 5990,
    "recovered": 758,
    "sick": 4941,
    "invisible": false
  },
  {
    "infected": 8,
    "recovered": 0,
    "latitude": 12.136389,
    "pop": 6218000,
    "longitude": -86.251389,
    "name": "Nicaragua",
    "country": "NI",
    "lastUpdated": "2020-04-11T20:00:03.438Z",
    "dead": 1,
    "id": "9Y5wmCqNCC6ZrenM31uA",
    "sick": 7,
    "invisible": false
  },
  {
    "infected": 87,
    "recovered": 22,
    "latitude": 17.5706921,
    "pop": 18540000,
    "longitude": -3.996166,
    "name": "Mali",
    "country": "ML",
    "lastUpdated": "2020-04-11T20:00:03.432Z",
    "dead": 7,
    "id": "9dIzxqDSVqPyINkHqwGv",
    "sick": 58,
    "invisible": false
  },
  {
    "lastUpdated": "2020-04-11T20:00:03.420Z",
    "dead": 49,
    "id": "9p6OCdZbUUwBLA60Gk3W",
    "infected": 2905,
    "recovered": 300,
    "latitude": 61.92411,
    "pop": 5513000,
    "longitude": 25.748152,
    "name": "Finland",
    "country": "FI",
    "sick": 2556,
    "invisible": false
  },
  {
    "latitude": 43.311643,
    "pop": 1356000,
    "longitude": -71.590315,
    "name": "New Hampshire",
    "country": "US",
    "lastUpdated": "2020-04-11T20:09:16.074Z",
    "dead": 22,
    "id": "A84CwQ52kA46Hr7pn6Bm",
    "infected": 885,
    "recovered": 0,
    "sick": 863,
    "invisible": false
  },
  {
    "latitude": 41.823261,
    "pop": 1057000,
    "longitude": -71.412257,
    "name": "Rhode Island",
    "country": "US",
    "lastUpdated": "2020-04-11T20:09:16.073Z",
    "dead": 56,
    "id": "AEUWUHS65qvjEslew11c",
    "infected": 2349,
    "recovered": 0,
    "sick": 2293,
    "invisible": false
  },
  {
    "lastUpdated": "2020-04-11T20:10:02.257Z",
    "dead": 2481,
    "id": "AJ9jQ0iyKsafsmf5yHAR",
    "infected": 19635,
    "recovered": 3659,
    "latitude": 44.498955,
    "pop": 4453000,
    "longitude": 11.327591,
    "name": "Emilia-Romagna",
    "country": "IT",
    "sick": 13495,
    "invisible": false
  },
  {
    "infected": 2095,
    "recovered": 596,
    "latitude": 49.3964,
    "pop": 990509,
    "longitude": 7.023,
    "name": "Saarland",
    "country": "DE",
    "lastUpdated": "2020-04-11T20:01:03.333Z",
    "dead": 45,
    "id": "AKjFRQGnzuuZQhv5Qwx7",
    "sick": 1454,
    "invisible": false
  },
  {
    "recovered": 0,
    "latitude": -35.717,
    "pop": 1125002,
    "longitude": -71.167,
    "name": "Maule",
    "country": "CL",
    "lastUpdated": "2020-04-11T20:07:06.132Z",
    "dead": 3,
    "id": "APTPgjAsjFi0nsGyJV7M",
    "infected": 134,
    "sick": 131,
    "invisible": false
  },
  {
    "latitude": 71.7069,
    "pop": 56171,
    "longitude": -42.6043,
    "name": "Greenland",
    "country": "GL",
    "lastUpdated": "2020-04-11T20:00:03.437Z",
    "dead": 0,
    "id": "APaZzlGCEeuoLBtzTJMe",
    "infected": 11,
    "recovered": 11,
    "sick": 0,
    "invisible": false
  },
  {
    "infected": 428,
    "recovered": 0,
    "latitude": 45.65107,
    "pop": 971395,
    "longitude": -63.582687,
    "name": "Nova Scotia",
    "country": "CA",
    "lastUpdated": "2020-04-11T20:15:01.928Z",
    "dead": 2,
    "id": "AVCpxeh0fuH2WrHWNDYH",
    "sick": 426,
    "invisible": false
  },
  {
    "infected": 377,
    "recovered": 0,
    "latitude": 47.012918,
    "pop": 1062000,
    "longitude": -109.128641,
    "name": "Montana",
    "country": "US",
    "lastUpdated": "2020-04-11T20:09:16.075Z",
    "dead": 6,
    "id": "AcULcZBozObOhwuRKMjJ",
    "sick": 371,
    "invisible": false
  },
  {
    "latitude": 27.285971,
    "pop": 45200000,
    "longitude": 116.01609,
    "name": "Jiangxi",
    "country": "CN",
    "lastUpdated": "2020-04-11T19:44:09.867Z",
    "dead": 1,
    "id": "AmBYm5J6E9Cuez1FQjiN",
    "infected": 937,
    "recovered": 936,
    "sick": 0,
    "invisible": false
  },
  {
    "infected": 4930,
    "recovered": 0,
    "latitude": 52.1307,
    "pop": 3136000,
    "longitude": -3.7837,
    "name": "Wales",
    "country": "GB",
    "lastUpdated": "2020-04-11T20:04:01.713Z",
    "dead": 351,
    "id": "AoLhHdTydeWTfmp9koEX",
    "sick": 4579,
    "invisible": false
  },
  {
    "infected": 1825,
    "recovered": 460,
    "latitude": 28.033886,
    "pop": 41320000,
    "longitude": 1.659626,
    "name": "Algeria",
    "country": "DZ",
    "lastUpdated": "2020-04-11T20:00:03.421Z",
    "dead": 275,
    "id": "AwN0CScPDApcLFgz6e3z",
    "sick": 1090,
    "invisible": false
  },
  {
    "latitude": 45.099998,
    "pop": 4076000,
    "longitude": 15.2,
    "name": "Croatia",
    "country": "HR",
    "lastUpdated": "2020-04-11T20:00:03.421Z",
    "dead": 21,
    "id": "B82Ef45M8cDu4q7VsSHF",
    "infected": 1534,
    "recovered": 323,
    "sick": 1190,
    "invisible": false
  },
  {
    "latitude": 17.6077881,
    "pop": 23716000,
    "longitude": 8.081666,
    "name": "Niger",
    "country": "NE",
    "lastUpdated": "2020-04-11T20:00:03.427Z",
    "dead": 11,
    "id": "BENubqQInFUJzhpZTsLT",
    "infected": 438,
    "recovered": 41,
    "sick": 386,
    "invisible": false
  },
  {
    "id": "BF51mWl51fgEcyBpCSzb",
    "infected": 7694,
    "recovered": 0,
    "latitude": 39.509109,
    "pop": 6043000,
    "longitude": -76.98432,
    "name": "Maryland",
    "country": "US",
    "lastUpdated": "2020-04-11T20:09:16.070Z",
    "dead": 206,
    "sick": 7488,
    "invisible": false
  },
  {
    "id": "BGg6yVU5VP71B8NXU0oh",
    "infected": 2226,
    "recovered": 172,
    "latitude": 53.709808,
    "pop": 9508000,
    "longitude": 27.953388,
    "name": "Belarus",
    "country": "BY",
    "lastUpdated": "2020-04-11T20:00:03.421Z",
    "dead": 23,
    "sick": 2031,
    "invisible": false
  },
  {
    "infected": 2070,
    "recovered": 554,
    "latitude": 48.8799,
    "pop": 3319000,
    "longitude": 0.1713,
    "name": "Normandie",
    "country": "FR",
    "lastUpdated": "2020-04-11T17:37:09.632Z",
    "dead": 196,
    "id": "BGtoyzb7y54LVlJ91rbf",
    "sick": 1320,
    "invisible": false
  },
  {
    "infected": 2963,
    "recovered": 0,
    "latitude": 50.7772,
    "pop": 5616000,
    "longitude": -3.9995,
    "name": "South West",
    "country": "GB",
    "lastUpdated": "2020-04-11T20:04:01.714Z",
    "dead": 0,
    "id": "BQqMOlPFD36ZEDTGd3WC",
    "sick": 2963,
    "invisible": false
  },
  {
    "infected": 3393,
    "recovered": 0,
    "latitude": 34.048927,
    "pop": 7172000,
    "longitude": -111.093735,
    "name": "Arizona",
    "country": "US",
    "lastUpdated": "2020-04-11T20:09:16.073Z",
    "dead": 108,
    "id": "BTEESCuD2ZbS1afunR2A",
    "sick": 3285,
    "invisible": false
  },
  {
    "longitude": 1,
    "name": "Chile Casos recuperados",
    "country": "CL",
    "dead": 0,
    "lastUpdated": "2020-04-11T20:07:06.133Z",
    "id": "BbiuZcm8oURX7cZwaa5U",
    "infected": 0,
    "recovered": 1864,
    "latitude": 1,
    "sick": 0,
    "invisible": false
  },
  {
    "longitude": 34.3015,
    "name": "Malawi",
    "country": "MW",
    "lastUpdated": "2020-04-11T20:00:03.437Z",
    "dead": 2,
    "id": "BfT8o5DaEixC6JIZ28kY",
    "infected": 12,
    "recovered": 0,
    "latitude": -13.2543,
    "pop": 18620000,
    "sick": 10,
    "invisible": false
  },
  {
    "latitude": -3.3730559,
    "pop": 10860000,
    "longitude": 29.9188862,
    "name": "Burundi",
    "country": "BI",
    "lastUpdated": "2020-04-11T20:00:03.438Z",
    "dead": 0,
    "id": "BnpMamidC5yYzeK8tPUL",
    "infected": 5,
    "recovered": 0,
    "sick": 5,
    "invisible": false
  },
  {
    "longitude": -73.982597,
    "name": "New York",
    "country": "US",
    "lastUpdated": "2020-04-11T20:09:16.066Z",
    "dead": 8627,
    "id": "C3BCUzV80z9GfiuByIcr",
    "infected": 181023,
    "recovered": 0,
    "latitude": 40.719042,
    "pop": 19540000,
    "sick": 172396,
    "invisible": false
  },
  {
    "id": "C6S76AggdWVU8G22jFHQ",
    "infected": 5831,
    "recovered": 411,
    "latitude": 49.731626,
    "pop": 10650000,
    "longitude": 15.359413,
    "name": "Czechia",
    "country": "CZ",
    "lastUpdated": "2020-04-11T20:00:03.418Z",
    "dead": 129,
    "sick": 5291,
    "invisible": false
  },
  {
    "id": "C7cj4nwRITs13KnaJrQ2",
    "infected": 1040,
    "recovered": 555,
    "latitude": 26.0667,
    "pop": 1493000,
    "longitude": 50.557701,
    "name": "Bahrain",
    "country": "BH",
    "lastUpdated": "2020-04-11T20:00:03.423Z",
    "dead": 6,
    "sick": 479,
    "invisible": false
  },
  {
    "recovered": 0,
    "latitude": 10.4113,
    "pop": 1285400,
    "longitude": -74.4057,
    "name": "Magdalena",
    "country": "CO",
    "lastUpdated": "2020-04-11T20:11:08.623Z",
    "dead": 0,
    "id": "CA9LaAl3bNaeAqBuozn4",
    "infected": 2,
    "sick": 2,
    "invisible": false
  },
  {
    "lastUpdated": "2020-04-11T20:10:01.624Z",
    "dead": 8,
    "id": "CKZCZTPlrcq5fbfUPA9k",
    "infected": 700,
    "recovered": 116,
    "latitude": 27.0238,
    "pop": 68890000,
    "longitude": 74.2179,
    "name": "Rajasthan",
    "country": "IN",
    "sick": 576,
    "invisible": false
  },
  {
    "lastUpdated": "2020-04-11T20:00:03.432Z",
    "dead": 6,
    "id": "Cgvmtle61ehMvCzRzYx7",
    "infected": 118,
    "recovered": 19,
    "latitude": 13.803,
    "pop": 6378000,
    "longitude": -88.9053,
    "name": "El Salvador",
    "country": "SV",
    "sick": 93,
    "invisible": false
  },
  {
    "recovered": 173,
    "latitude": 40.259003,
    "pop": 2973000,
    "longitude": 44.818474,
    "name": "Armenia",
    "country": "AM",
    "lastUpdated": "2020-04-11T20:00:03.423Z",
    "dead": 13,
    "id": "DCJCtZoBTWQ4mzdDNljD",
    "infected": 977,
    "sick": 791,
    "invisible": false
  },
  {
    "recovered": 2,
    "latitude": 5.535,
    "pop": 1278000,
    "longitude": -73.368,
    "name": "Boyacá",
    "country": "CO",
    "lastUpdated": "2020-04-11T20:11:08.623Z",
    "dead": 1,
    "id": "DJJraANgQbEqz1wBBtZz",
    "infected": 27,
    "sick": 24,
    "invisible": false
  },
  {
    "infected": 8604,
    "recovered": 0,
    "latitude": 53.6221,
    "pop": 7300000,
    "longitude": -2.5945,
    "name": "North West",
    "country": "GB",
    "lastUpdated": "2020-04-11T20:04:01.714Z",
    "dead": 0,
    "id": "DPwBt2aJuwF0O71vwfM9",
    "sick": 8604,
    "invisible": false
  },
  {
    "latitude": 32.3213844,
    "pop": 65440,
    "longitude": -64.75737,
    "name": "Bermuda",
    "country": "BM",
    "lastUpdated": "2020-04-11T20:00:03.434Z",
    "dead": 4,
    "id": "DZyTD0Mu5WIcK6yTcJ91",
    "infected": 48,
    "recovered": 25,
    "sick": 19,
    "invisible": false
  },
  {
    "longitude": -71.7979,
    "name": "Turks and Caicos",
    "country": "TC",
    "lastUpdated": "2020-04-11T20:00:03.438Z",
    "dead": 1,
    "id": "DaMrRSIGJXIG36nW0Pnc",
    "infected": 8,
    "recovered": 0,
    "latitude": 21.694,
    "pop": 35446,
    "sick": 7,
    "invisible": false
  },
  {
    "infected": 13456,
    "recovered": 2205,
    "latitude": 39.2796,
    "pop": 2035000,
    "longitude": -3.0977,
    "name": "Castilla La Mancha",
    "country": "ES",
    "lastUpdated": "2020-04-11T20:13:02.638Z",
    "dead": 1483,
    "id": "Dbng0NBTH41EEwBxhMzE",
    "sick": 9768,
    "invisible": false
  },
  {
    "latitude": 22.192039,
    "pop": 622567,
    "longitude": 113.551262,
    "name": "Macao",
    "country": "MO",
    "lastUpdated": "2020-04-11T20:00:03.434Z",
    "dead": 0,
    "id": "DdBt8qsG6A3g92oOR3ow",
    "infected": 45,
    "recovered": 10,
    "sick": 35,
    "invisible": false
  },
  {
    "longitude": -107.534868,
    "name": "Wyoming",
    "country": "US",
    "lastUpdated": "2020-04-11T20:09:16.075Z",
    "dead": 0,
    "id": "DrGzziUglmBognCGY7R2",
    "infected": 253,
    "recovered": 0,
    "latitude": 42.962334,
    "pop": 577737,
    "sick": 253,
    "invisible": false
  },
  {
    "latitude": 37.9838,
    "pop": 10740000,
    "longitude": 23.7275,
    "name": "Greece",
    "country": "GR",
    "lastUpdated": "2020-04-11T20:00:03.421Z",
    "dead": 93,
    "id": "Dtr1lap1RpJpXJdXGJiW",
    "infected": 2081,
    "recovered": 269,
    "sick": 1719,
    "invisible": false
  },
  {
    "infected": 385,
    "recovered": 99,
    "latitude": 25.03841,
    "pop": 23780000,
    "longitude": 121.563698,
    "name": "Taiwan",
    "country": "TW",
    "lastUpdated": "2020-04-11T20:00:03.428Z",
    "dead": 6,
    "id": "EKTfs8e7M6DXzI1HqyyX",
    "sick": 280,
    "invisible": false
  },
  {
    "id": "EQzJvzVHKjs8kLmK7BMu",
    "infected": 577,
    "recovered": 49,
    "latitude": 10.327273,
    "pop": 4906000,
    "longitude": -84.387618,
    "name": "Costa Rica",
    "country": "CR",
    "lastUpdated": "2020-04-11T20:00:03.425Z",
    "dead": 3,
    "sick": 525,
    "invisible": false
  },
  {
    "latitude": 22.2587,
    "pop": 62700000,
    "longitude": 71.1924,
    "name": "Gujarat",
    "country": "IN",
    "lastUpdated": "2020-04-11T20:10:01.624Z",
    "dead": 22,
    "id": "ERwk9R9en4m9WbdoMbIg",
    "infected": 468,
    "recovered": 44,
    "sick": 402,
    "invisible": false
  },
  {
    "recovered": 7,
    "latitude": 30.7333,
    "pop": 1055000,
    "longitude": 76.7794,
    "name": "Chandigarh",
    "country": "IN",
    "lastUpdated": "2020-04-11T20:10:01.625Z",
    "dead": 0,
    "id": "Esl5UlCVB9s8pmGB5Ofr",
    "infected": 19,
    "sick": 12,
    "invisible": false
  },
  {
    "infected": 788,
    "recovered": 0,
    "latitude": 18.200178,
    "pop": 3195000,
    "longitude": -66.664513,
    "name": "Puerto Rico",
    "country": "PR",
    "lastUpdated": "2020-04-11T20:09:16.074Z",
    "dead": 42,
    "id": "F4rPrEVGAIMM5rfPEMv4",
    "sick": 746,
    "invisible": false
  },
  {
    "longitude": -74.058655,
    "name": "Cundinamarca",
    "country": "CO",
    "lastUpdated": "2020-04-11T20:11:08.622Z",
    "dead": 3,
    "id": "F7MED5VwEhi3JvJu6KjB",
    "infected": 83,
    "recovered": 14,
    "latitude": 4.862437,
    "pop": 2919000,
    "sick": 66,
    "invisible": false
  },
  {
    "lastUpdated": "2020-04-11T20:00:03.426Z",
    "dead": 18,
    "id": "FCDmlmnIIswd8bQiUjfN",
    "infected": 555,
    "recovered": 32,
    "latitude": 33.93911,
    "pop": 35530000,
    "longitude": 67.709953,
    "name": "Afghanistan",
    "country": "AF",
    "sick": 505,
    "invisible": false
  },
  {
    "longitude": 106.912254,
    "name": "Chongqing",
    "country": "CN",
    "lastUpdated": "2020-04-11T19:44:09.864Z",
    "dead": 6,
    "id": "FErOU1m4Tj7jIkRam3vF",
    "infected": 579,
    "recovered": 570,
    "latitude": 29.431585,
    "pop": 30480000,
    "sick": 3,
    "invisible": false
  },
  {
    "infected": 1154,
    "recovered": 133,
    "latitude": 29.311661,
    "pop": 4137000,
    "longitude": 47.481766,
    "name": "Kuwait",
    "country": "KW",
    "lastUpdated": "2020-04-11T20:00:03.423Z",
    "dead": 1,
    "id": "FZsUkhxBEgqsPb4eO0PN",
    "sick": 1020,
    "invisible": false
  },
  {
    "recovered": 44,
    "latitude": 11.1271,
    "pop": 67860000,
    "longitude": 78.6569,
    "name": "Tamil Nadu",
    "country": "IN",
    "lastUpdated": "2020-04-11T20:10:01.624Z",
    "dead": 10,
    "id": "FeS45oMNC27pI17F0xEV",
    "infected": 969,
    "sick": 915,
    "invisible": false
  },
  {
    "longitude": -70.430399,
    "name": "Dominican Republic",
    "country": "DO",
    "lastUpdated": "2020-04-11T20:00:03.420Z",
    "dead": 126,
    "id": "FuiVEJvWb0QMCpxJ3563",
    "infected": 2620,
    "recovered": 98,
    "latitude": 18.947829,
    "pop": 10770000,
    "sick": 2396,
    "invisible": false
  },
  {
    "latitude": 18.1124,
    "pop": 35190000,
    "longitude": 79.0193,
    "name": "Telengana",
    "country": "IN",
    "lastUpdated": "2020-04-11T20:10:01.624Z",
    "dead": 14,
    "id": "FyC551oNwmENxbr9Yght",
    "infected": 503,
    "recovered": 96,
    "sick": 393,
    "invisible": false
  },
  {
    "recovered": 23,
    "latitude": 48.669,
    "pop": 5450000,
    "longitude": 19.699,
    "name": "Slovakia",
    "country": "SK",
    "lastUpdated": "2020-04-11T20:00:03.424Z",
    "dead": 2,
    "id": "FzIDXoqWnTI3nUfhPyT2",
    "infected": 728,
    "sick": 703,
    "invisible": false
  },
  {
    "longitude": 69.345116,
    "name": "Pakistan",
    "country": "PK",
    "lastUpdated": "2020-04-11T20:00:03.418Z",
    "dead": 86,
    "id": "GAp7Wb6IMhdgbvEtMza9",
    "infected": 5011,
    "recovered": 762,
    "latitude": 30.37532,
    "pop": 197000000,
    "sick": 4163,
    "invisible": false
  },
  {
    "longitude": 75.3412,
    "name": "Punjab",
    "country": "IN",
    "lastUpdated": "2020-04-11T20:10:01.624Z",
    "dead": 12,
    "id": "GGru8cG08mANO8XDDUtZ",
    "infected": 158,
    "recovered": 20,
    "latitude": 31.1471,
    "pop": 27980000,
    "sick": 126,
    "invisible": false
  },
  {
    "infected": 3736,
    "recovered": 588,
    "latitude": 23.424076,
    "pop": 9400000,
    "longitude": 53.847816,
    "name": "United Arab Emirates",
    "country": "AE",
    "lastUpdated": "2020-04-11T20:00:03.419Z",
    "dead": 20,
    "id": "GHzBIsHy2GiBc5JV2HMs",
    "sick": 3128,
    "invisible": false
  },
  {
    "infected": 16721,
    "recovered": 0,
    "latitude": 51.5074,
    "pop": 10100000,
    "longitude": -0.1278,
    "name": "London",
    "country": "GB",
    "lastUpdated": "2020-04-11T20:04:01.714Z",
    "dead": 0,
    "id": "GPtoS0Yy2EnNafpmmTqY",
    "sick": 16721,
    "invisible": false
  },
  {
    "id": "Gh46r6vuaY7fbGt3IboN",
    "infected": 21482,
    "recovered": 0,
    "latitude": 36.621981,
    "pop": 39560000,
    "longitude": -119.339046,
    "name": "California",
    "country": "US",
    "lastUpdated": "2020-04-11T20:09:16.068Z",
    "dead": 599,
    "sick": 20883,
    "invisible": false
  },
  {
    "latitude": 20.4283,
    "pop": 343709,
    "longitude": 72.8397,
    "name": "Dadra and Nagar Haveli",
    "country": "IN",
    "lastUpdated": "2020-04-11T20:10:01.626Z",
    "dead": 0,
    "id": "GljWeVnun6o9DeW6rlEm",
    "infected": 1,
    "recovered": 0,
    "sick": 1,
    "invisible": false
  },
  {
    "recovered": 0,
    "latitude": 35.87189,
    "pop": 3943000,
    "longitude": -97.145514,
    "name": "Oklahoma",
    "country": "US",
    "lastUpdated": "2020-04-11T20:09:16.073Z",
    "dead": 94,
    "id": "GpF8ULuKOQiFDCUHN44h",
    "infected": 1868,
    "sick": 1774,
    "invisible": false
  },
  {
    "latitude": 46.5,
    "pop": 520891,
    "longitude": 11.35,
    "name": "P.A. Bolzano",
    "country": "IT",
    "lastUpdated": "2020-04-11T20:10:02.257Z",
    "dead": 200,
    "id": "Gzx6GX1qhBm714BkEC6l",
    "infected": 1957,
    "recovered": 488,
    "sick": 1269,
    "invisible": false
  },
  {
    "recovered": 79,
    "latitude": 42.83263,
    "pop": 24710000,
    "longitude": 113.750972,
    "name": "Inner Mongolia",
    "country": "CN",
    "lastUpdated": "2020-04-11T19:44:09.859Z",
    "dead": 1,
    "id": "H3JeVigVbo5CSYfZG4WI",
    "infected": 155,
    "sick": 75,
    "invisible": false
  },
  {
    "longitude": -116.724977,
    "name": "Nevada",
    "country": "US",
    "lastUpdated": "2020-04-11T20:09:16.073Z",
    "dead": 102,
    "id": "H3bDg4eV30up4WWrIDAS",
    "infected": 2702,
    "recovered": 0,
    "latitude": 39.74536,
    "pop": 3034000,
    "sick": 2600,
    "invisible": false
  },
  {
    "infected": 215,
    "recovered": 39,
    "latitude": 15.3173,
    "pop": 64060000,
    "longitude": 75.7139,
    "name": "Karnataka",
    "country": "IN",
    "lastUpdated": "2020-04-11T20:10:01.624Z",
    "dead": 6,
    "id": "HN5mGmxlqlSeFSNeu1K5",
    "sick": 170,
    "invisible": false
  },
  {
    "longitude": 90.4336,
    "name": "Bhutan",
    "country": "BT",
    "lastUpdated": "2020-04-11T20:00:03.438Z",
    "dead": 0,
    "id": "HRDpwyxpqW9RN0xLFyNu",
    "infected": 5,
    "recovered": 2,
    "latitude": 27.5142,
    "pop": 807610,
    "sick": 3,
    "invisible": false
  },
  {
    "recovered": 42,
    "latitude": 41.3775,
    "pop": 32390000,
    "longitude": 64.5853,
    "name": "Uzbekistan",
    "country": "UZ",
    "lastUpdated": "2020-04-11T20:00:03.424Z",
    "dead": 4,
    "id": "HRTA10dtrruDEwjJEGMp",
    "infected": 767,
    "sick": 721,
    "invisible": false
  },
  {
    "infected": 1091,
    "recovered": 0,
    "latitude": 34.138916,
    "pop": 2095000,
    "longitude": -105.576255,
    "name": "New Mexico",
    "country": "US",
    "lastUpdated": "2020-04-11T20:09:16.074Z",
    "dead": 19,
    "id": "HSSFomRju0doHhWgW8On",
    "sick": 1072,
    "invisible": false
  },
  {
    "id": "HZkACHjW7NlYjg8vEMj2",
    "infected": 130,
    "recovered": 0,
    "latitude": -40.231,
    "pop": 412812,
    "longitude": -72.3311,
    "name": "Los Ríos",
    "country": "CL",
    "lastUpdated": "2020-04-11T20:07:06.133Z",
    "dead": 2,
    "sick": 128,
    "invisible": false
  },
  {
    "infected": 603,
    "recovered": 297,
    "latitude": 53.6127,
    "pop": 1635000,
    "longitude": 12.4296,
    "name": "Mecklenburg-Vorpommern",
    "country": "DE",
    "lastUpdated": "2020-04-11T20:01:03.333Z",
    "dead": 12,
    "id": "He1gSS1v50t06i3YrqvB",
    "sick": 294,
    "invisible": false
  },
  {
    "latitude": 23.634501,
    "pop": 129200000,
    "longitude": -102.552788,
    "name": "Mexico",
    "country": "MX",
    "lastUpdated": "2020-04-11T20:00:03.418Z",
    "dead": 233,
    "id": "I4OJ6z9Vjs1byOcbsJrd",
    "infected": 3844,
    "recovered": 633,
    "sick": 2978,
    "invisible": false
  },
  {
    "longitude": 13.75,
    "name": "Abruzzo",
    "country": "IT",
    "lastUpdated": "2020-04-11T20:10:02.256Z",
    "dead": 206,
    "id": "I9EqrZfbPnkioNU4wZGz",
    "infected": 2120,
    "recovered": 190,
    "latitude": 42.25,
    "pop": 1315000,
    "sick": 1724,
    "invisible": false
  },
  {
    "recovered": 1437,
    "latitude": 23.363855,
    "pop": 113460000,
    "longitude": 113.373448,
    "name": "Guangdong",
    "country": "CN",
    "lastUpdated": "2020-04-11T19:44:09.859Z",
    "dead": 8,
    "id": "IAX0OQLVnUwU7FX0ENF1",
    "infected": 1548,
    "sick": 103,
    "invisible": false
  },
  {
    "longitude": 113.484016,
    "name": "Henan",
    "country": "CN",
    "lastUpdated": "2020-04-11T19:44:09.864Z",
    "dead": 22,
    "id": "IFuMrMvSjoiX5agYvllh",
    "infected": 1276,
    "recovered": 1252,
    "latitude": 33.875408,
    "pop": 94000000,
    "sick": 2,
    "invisible": false
  },
  {
    "latitude": -36.61667,
    "pop": 480600,
    "longitude": -71.95,
    "name": "Ñuble",
    "country": "CL",
    "lastUpdated": "2020-04-11T20:07:06.132Z",
    "dead": 6,
    "id": "ImnOiVx9Cb8Nw7cbRcQ7",
    "infected": 606,
    "recovered": 0,
    "sick": 600,
    "invisible": false
  },
  {
    "latitude": 19.0558,
    "pop": 10980000,
    "longitude": -73.0513,
    "name": "Haiti",
    "country": "HT",
    "lastUpdated": "2020-04-11T20:00:03.435Z",
    "dead": 2,
    "id": "InZ38sIqyK7FN7XAOZoX",
    "infected": 31,
    "recovered": 0,
    "sick": 29,
    "invisible": false
  },
  {
    "infected": 12159,
    "recovered": 0,
    "latitude": 32.528564,
    "pop": 10520000,
    "longitude": -83.280125,
    "name": "Georgia (US)",
    "country": "US",
    "lastUpdated": "2020-04-11T20:09:16.069Z",
    "dead": 429,
    "id": "IvQkDJkTAsoIqPRAU25n",
    "sick": 11730,
    "invisible": false
  },
  {
    "latitude": -42.8285,
    "pop": 4794000,
    "longitude": 172.488081,
    "name": "New Zealand",
    "country": "NZ",
    "lastUpdated": "2020-04-11T20:00:03.422Z",
    "dead": 4,
    "id": "IvVhpOoGpH6JVkGyUhXN",
    "infected": 1312,
    "recovered": 422,
    "sick": 886,
    "invisible": false
  },
  {
    "infected": 1,
    "recovered": 0,
    "latitude": 28.218,
    "pop": 1255000,
    "longitude": 94.7278,
    "name": "Arunachal Pradesh",
    "country": "IN",
    "lastUpdated": "2020-04-11T20:10:01.626Z",
    "dead": 0,
    "id": "IwYKiIVY18NGwdGQFGWW",
    "sick": 1,
    "invisible": false
  },
  {
    "latitude": 6.4238,
    "pop": 31980000,
    "longitude": -66.5897,
    "name": "Venezuela",
    "country": "VE",
    "lastUpdated": "2020-04-11T20:00:03.431Z",
    "dead": 9,
    "id": "J3mZXlfEnnJx4CDZLvRG",
    "infected": 175,
    "recovered": 84,
    "sick": 82,
    "invisible": false
  },
  {
    "lastUpdated": "2020-04-11T20:00:03.425Z",
    "dead": 10,
    "id": "JQByE4l2OA6sGOqIcWrM",
    "infected": 616,
    "recovered": 61,
    "latitude": 35.1264,
    "pop": 1170000,
    "longitude": 33.4299,
    "name": "Cyprus",
    "country": "CY",
    "sick": 545,
    "invisible": false
  },
  {
    "infected": 64,
    "recovered": 15,
    "latitude": 25.0961,
    "pop": 99020000,
    "longitude": 85.3131,
    "name": "Bihar",
    "country": "IN",
    "lastUpdated": "2020-04-11T20:10:01.625Z",
    "dead": 1,
    "id": "JR7hOGked7CZtIs2nCV5",
    "sick": 48,
    "invisible": false
  },
  {
    "latitude": 14.628434,
    "pop": 19658000,
    "longitude": -90.522713,
    "name": "Guatemala",
    "country": "GT",
    "lastUpdated": "2020-04-11T20:00:03.431Z",
    "dead": 3,
    "id": "JUWE6bG3b5oL7fKQMSvv",
    "infected": 137,
    "recovered": 19,
    "sick": 115,
    "invisible": false
  },
  {
    "id": "JcFsHSn2WvZ5LJW42ovG",
    "infected": 3270,
    "recovered": 500,
    "latitude": 49.8153,
    "pop": 602005,
    "longitude": 6.1296,
    "name": "Luxembourg",
    "country": "LU",
    "lastUpdated": "2020-04-11T20:00:03.419Z",
    "dead": 62,
    "sick": 2708,
    "invisible": false
  },
  {
    "longitude": -74.167,
    "name": "Bolívar",
    "country": "CO",
    "lastUpdated": "2020-04-11T20:11:08.623Z",
    "dead": 1,
    "id": "JmOyaFe25yZCIV64JbZj",
    "infected": 9,
    "recovered": 0,
    "latitude": 8.8,
    "pop": 2049000,
    "sick": 8,
    "invisible": false
  },
  {
    "lastUpdated": "2020-04-11T20:11:08.623Z",
    "dead": 2,
    "id": "Jr8syCB0lydmPDXw8Q6N",
    "infected": 7,
    "recovered": 1,
    "latitude": 8.7479801,
    "pop": 1786500,
    "longitude": -75.8814316,
    "name": "Córdoba",
    "country": "CO",
    "sick": 4,
    "invisible": false
  },
  {
    "lastUpdated": "2020-04-11T20:00:03.433Z",
    "dead": 3,
    "id": "JrBbirlBKGdWSdcDt7PF",
    "infected": 76,
    "recovered": 25,
    "latitude": 8.6195,
    "pop": 7798000,
    "longitude": 0.8248,
    "name": "Togo",
    "country": "TG",
    "sick": 48,
    "invisible": false
  },
  {
    "infected": 661,
    "recovered": 62,
    "latitude": 42.7339,
    "pop": 7050000,
    "longitude": 25.4858,
    "name": "Bulgaria",
    "country": "BG",
    "lastUpdated": "2020-04-11T20:00:03.424Z",
    "dead": 28,
    "id": "JzZ8sbqzjutThVjkPKPL",
    "sick": 571,
    "invisible": false
  },
  {
    "longitude": 8.833,
    "name": "Liguria",
    "country": "IT",
    "lastUpdated": "2020-04-11T20:10:02.257Z",
    "dead": 734,
    "id": "KLXicxFogWnu0dLp4bNK",
    "infected": 5376,
    "recovered": 1309,
    "latitude": 44.5,
    "pop": 1557000,
    "sick": 3333,
    "invisible": false
  },
  {
    "infected": 20,
    "recovered": 8,
    "latitude": 10.4631,
    "pop": 1201000,
    "longitude": -73.2532,
    "name": "Cesar",
    "country": "CO",
    "lastUpdated": "2020-04-11T20:11:08.622Z",
    "dead": 0,
    "id": "KpOz3WmiZkrXUMlUJNlV",
    "sick": 12,
    "invisible": false
  },
  {
    "latitude": 43.4167,
    "pop": 3737000,
    "longitude": 11,
    "name": "Toscana",
    "country": "IT",
    "lastUpdated": "2020-04-11T20:10:02.257Z",
    "dead": 467,
    "id": "KrLrJbpDqqiXgUPGCCW9",
    "infected": 6958,
    "recovered": 499,
    "sick": 5992,
    "invisible": false
  },
  {
    "infected": 198,
    "recovered": 54,
    "latitude": 7.873054,
    "pop": 21440000,
    "longitude": 80.771797,
    "name": "Sri Lanka",
    "country": "LK",
    "lastUpdated": "2020-04-11T20:00:03.430Z",
    "dead": 7,
    "id": "KsWzJO06cf0d6LJ4ZNh9",
    "sick": 137,
    "invisible": false
  },
  {
    "latitude": 15.9129,
    "pop": 49670000,
    "longitude": 79.74,
    "name": "Andhra Pradesh",
    "country": "IN",
    "lastUpdated": "2020-04-11T20:10:01.624Z",
    "dead": 6,
    "id": "KtQIo2DoqjELtPAlyDVO",
    "infected": 405,
    "recovered": 10,
    "sick": 389,
    "invisible": false
  },
  {
    "latitude": 61.52401,
    "pop": 144500000,
    "longitude": 105.318756,
    "name": "Russia",
    "country": "RU",
    "lastUpdated": "2020-04-11T20:00:03.417Z",
    "dead": 106,
    "id": "KwOuGBKSMRlmwftxAvLX",
    "infected": 13584,
    "recovered": 1045,
    "sick": 12433,
    "invisible": false
  },
  {
    "id": "LBUtrLDKJiupXjlUNTUe",
    "infected": 32,
    "recovered": 11,
    "latitude": 18.0708,
    "pop": 32125,
    "longitude": -63.0501,
    "name": "Saint-Martin",
    "country": "FR",
    "lastUpdated": "2020-04-11T20:00:03.435Z",
    "dead": 2,
    "sick": 19,
    "invisible": false
  },
  {
    "infected": 79,
    "recovered": 55,
    "latitude": 47.166,
    "pop": 38557,
    "longitude": 9.5554,
    "name": "Liechtenstein",
    "country": "LI",
    "lastUpdated": "2020-04-11T20:00:03.433Z",
    "dead": 1,
    "id": "LTGEU2E9MFkrCcFhZYVk",
    "sick": 23,
    "invisible": false
  },
  {
    "latitude": 9.9456,
    "pop": 12720000,
    "longitude": -9.6966,
    "name": "Guinea",
    "country": "GN",
    "lastUpdated": "2020-04-11T20:00:03.429Z",
    "dead": 0,
    "id": "LU2QWt5ao8IJa8evNYVV",
    "infected": 250,
    "recovered": 17,
    "sick": 233,
    "invisible": false
  },
  {
    "lastUpdated": "2020-04-11T20:00:03.437Z",
    "dead": 1,
    "id": "LglKINHyQpYpFxjckbQ6",
    "infected": 10,
    "recovered": 4,
    "latitude": 3.9193051,
    "pop": 563402,
    "longitude": -56.0277824,
    "name": "Suriname",
    "country": "SR",
    "sick": 5,
    "invisible": false
  },
  {
    "infected": 285,
    "recovered": 0,
    "latitude": 52.9399,
    "pop": 1174000,
    "longitude": -106.4509,
    "name": "Saskatchewan",
    "country": "CA",
    "lastUpdated": "2020-04-11T20:15:01.928Z",
    "dead": 3,
    "id": "LkIDKY0CMAqzbwBHyYCP",
    "sick": 282,
    "invisible": false
  },
  {
    "longitude": -12.8858,
    "name": "Western Sahara",
    "country": "EH",
    "lastUpdated": "2020-04-11T20:00:03.438Z",
    "dead": 0,
    "id": "LooNn6RuMiDhQnwa9svw",
    "infected": 4,
    "recovered": 0,
    "latitude": 24.2155,
    "pop": 636442,
    "sick": 4,
    "invisible": false
  },
  {
    "id": "Lsga7AvYNnY0qQ5gEfV8",
    "infected": 1827,
    "recovered": 414,
    "latitude": 43.363129,
    "pop": 1022000,
    "longitude": -5.951843,
    "name": "Principado de Asturias",
    "country": "ES",
    "lastUpdated": "2020-04-11T20:13:02.637Z",
    "dead": 128,
    "sick": 1285,
    "invisible": false
  },
  {
    "longitude": -6.0679,
    "name": "Extremadura",
    "country": "ES",
    "lastUpdated": "2020-04-11T20:13:02.638Z",
    "dead": 303,
    "id": "LuEErlF7dVKI0eJsRjFm",
    "infected": 2486,
    "recovered": 462,
    "latitude": 39.4937,
    "pop": 1065000,
    "sick": 1721,
    "invisible": false
  },
  {
    "infected": 1693,
    "recovered": 0,
    "latitude": 37.8393,
    "pop": 4468000,
    "longitude": -84.27,
    "name": "Kentucky",
    "country": "US",
    "lastUpdated": "2020-04-11T20:09:16.074Z",
    "dead": 90,
    "id": "MC8MXFw9iXYybnF8v7e6",
    "sick": 1603,
    "invisible": false
  },
  {
    "longitude": -4.2026,
    "name": "Scotland",
    "country": "GB",
    "lastUpdated": "2020-04-11T20:04:01.713Z",
    "dead": 495,
    "id": "MObRYyIriHG337L8FyFC",
    "infected": 5590,
    "recovered": 0,
    "latitude": 56.4907,
    "pop": 5450000,
    "sick": 5095,
    "invisible": false
  },
  {
    "recovered": 0,
    "latitude": 40.2672,
    "pop": 6692000,
    "longitude": -86.1349,
    "name": "Indiana",
    "country": "US",
    "lastUpdated": "2020-04-11T20:09:16.070Z",
    "dead": 330,
    "id": "MOxDkmQ4wBi1CuAdVxDE",
    "infected": 7435,
    "sick": 7105,
    "invisible": false
  },
  {
    "latitude": 7.54,
    "pop": 24290000,
    "longitude": -5.5471,
    "name": "Ivory Coast",
    "country": "CI",
    "lastUpdated": "2020-04-11T20:00:03.427Z",
    "dead": 3,
    "id": "MdQOfc1gNh2DOqwSP6UV",
    "infected": 480,
    "recovered": 54,
    "sick": 423,
    "invisible": false
  },
  {
    "recovered": 12514,
    "latitude": 51.4332,
    "pop": 17910000,
    "longitude": 7.6616,
    "name": "Nordrhein-Westfalen",
    "country": "DE",
    "lastUpdated": "2020-04-11T20:01:03.333Z",
    "dead": 543,
    "id": "MjpYq3zQyAvSQlVVYjD2",
    "infected": 26143,
    "sick": 13086,
    "invisible": false
  },
  {
    "latitude": 37.330509,
    "pop": 6301000,
    "longitude": 105.977203,
    "name": "Ningxia",
    "country": "CN",
    "lastUpdated": "2020-04-11T19:44:09.868Z",
    "dead": 0,
    "id": "MntmjjuHljarCdt6aIeE",
    "infected": 75,
    "recovered": 75,
    "sick": 0,
    "invisible": false
  },
  {
    "latitude": 48.6616,
    "pop": 11020000,
    "longitude": 9.3501,
    "name": "Baden-Württemberg",
    "country": "DE",
    "lastUpdated": "2020-04-11T20:01:03.331Z",
    "dead": 661,
    "id": "N3XsRBwJSsNclkEf7Zz5",
    "infected": 25386,
    "recovered": 9178,
    "sick": 15547,
    "invisible": false
  },
  {
    "lastUpdated": "2020-04-11T20:00:03.423Z",
    "dead": 37,
    "id": "N7c13sCQF0G789XAVazJ",
    "infected": 935,
    "recovered": 139,
    "latitude": 44.696652,
    "pop": 3507000,
    "longitude": 17.824332,
    "name": "Bosnia and Herzegovina",
    "country": "BA",
    "sick": 759,
    "invisible": false
  },
  {
    "latitude": 37.242565,
    "pop": 36500000,
    "longitude": 111.856857,
    "name": "Shanxi",
    "country": "CN",
    "lastUpdated": "2020-04-11T19:44:09.859Z",
    "dead": 0,
    "id": "NBRIGIRrJB1Ry8prDNAC",
    "infected": 172,
    "recovered": 135,
    "sick": 37,
    "invisible": false
  },
  {
    "infected": 4354,
    "recovered": 0,
    "latitude": 35.7596,
    "pop": 10380000,
    "longitude": -79.0193,
    "name": "North Carolina",
    "country": "US",
    "lastUpdated": "2020-04-11T20:09:16.072Z",
    "dead": 89,
    "id": "NC64Qp5kTqAfiTuR27k8",
    "sick": 4265,
    "invisible": false
  },
  {
    "infected": 1953,
    "recovered": 466,
    "latitude": 52.4125,
    "pop": 2504000,
    "longitude": 12.5316,
    "name": "Brandenburg",
    "country": "DE",
    "lastUpdated": "2020-04-11T20:01:03.332Z",
    "dead": 55,
    "id": "NJjo2gfBvnbK4xatrsUz",
    "sick": 1432,
    "invisible": false
  },
  {
    "id": "NLLL6pJhJSw0lrDMD4uP",
    "infected": 11,
    "recovered": 0,
    "latitude": 15.0979,
    "pop": 55144,
    "longitude": -145.6739,
    "name": "Northern Mariana Islands",
    "country": "MP",
    "lastUpdated": "2020-04-11T20:09:16.075Z",
    "dead": 2,
    "sick": 9,
    "invisible": false
  },
  {
    "lastUpdated": "2020-04-11T20:10:01.625Z",
    "dead": 0,
    "id": "NMeZEcGToxXfpi16PfFV",
    "infected": 35,
    "recovered": 5,
    "latitude": 30.0668,
    "pop": 10080000,
    "longitude": 79.0193,
    "name": "Uttarakhand",
    "country": "IN",
    "sick": 30,
    "invisible": false
  },
  {
    "infected": 5870,
    "recovered": 1881,
    "latitude": 50.6521,
    "pop": 6243000,
    "longitude": 9.1624,
    "name": "Hessen",
    "country": "DE",
    "lastUpdated": "2020-04-11T20:01:03.332Z",
    "dead": 135,
    "id": "Nk5vPgUIXsWVfbWZf15O",
    "sick": 3854,
    "invisible": false
  },
  {
    "longitude": 25.837107,
    "name": "Latvia",
    "country": "LV",
    "lastUpdated": "2020-04-11T20:00:03.424Z",
    "dead": 3,
    "id": "NmmMKy0YqA8StHdGzB5N",
    "infected": 630,
    "recovered": 16,
    "latitude": 56.96776,
    "pop": 1920000,
    "sick": 611,
    "invisible": false
  },
  {
    "recovered": 3,
    "latitude": 6.4281,
    "pop": 4732000,
    "longitude": -9.4295,
    "name": "Liberia",
    "country": "LR",
    "lastUpdated": "2020-04-11T20:00:03.434Z",
    "dead": 5,
    "id": "O4g88K49HKEZLFXm5gxb",
    "infected": 48,
    "sick": 40,
    "invisible": false
  },
  {
    "longitude": -80.525613,
    "name": "South Carolina",
    "country": "US",
    "lastUpdated": "2020-04-11T20:09:16.073Z",
    "dead": 72,
    "id": "ONU4CK8QjViFHKg2w5if",
    "infected": 3067,
    "recovered": 0,
    "latitude": 34.003307,
    "pop": 5084000,
    "sick": 2995,
    "invisible": false
  },
  {
    "id": "OYa0jFzdbAgo8zUsRv6q",
    "infected": 2642,
    "recovered": 0,
    "latitude": 33.51822,
    "pop": 2987000,
    "longitude": -89.582775,
    "name": "Mississippi",
    "country": "US",
    "lastUpdated": "2020-04-11T20:09:16.073Z",
    "dead": 93,
    "sick": 2549,
    "invisible": false
  },
  {
    "latitude": 45.2538,
    "pop": 1338000,
    "longitude": -69.4455,
    "name": "Maine",
    "country": "US",
    "lastUpdated": "2020-04-11T20:09:16.075Z",
    "dead": 19,
    "id": "OcXNp9kNVSwrRlG3bNVN",
    "infected": 616,
    "recovered": 0,
    "sick": 597,
    "invisible": false
  },
  {
    "latitude": -41.915264,
    "pop": 515000,
    "longitude": 146.725256,
    "name": "Tasmania",
    "country": "AU",
    "lastUpdated": "2020-04-11T20:15:01.928Z",
    "dead": 4,
    "id": "OnOseaqWdnuP18oruABW",
    "infected": 123,
    "recovered": 48,
    "sick": 71,
    "invisible": false
  },
  {
    "infected": 45,
    "recovered": 6,
    "latitude": 19.3133,
    "pop": 61559,
    "longitude": -81.2546,
    "name": "Cayman Islands",
    "country": "KY",
    "lastUpdated": "2020-04-11T20:00:03.434Z",
    "dead": 1,
    "id": "P4mwRFLbrvT0t75uD8Wo",
    "sick": 38,
    "invisible": false
  },
  {
    "latitude": 16.7424984,
    "pop": 5900,
    "longitude": -62.1873665,
    "name": "Montserrat",
    "country": "MS",
    "lastUpdated": "2020-04-11T20:00:03.438Z",
    "dead": 0,
    "id": "PEDkeFMTOZpvHiSVxBk7",
    "infected": 9,
    "recovered": 0,
    "sick": 9,
    "invisible": false
  },
  {
    "infected": 118,
    "recovered": 18,
    "latitude": -1.9403,
    "pop": 12210000,
    "longitude": 29.8739,
    "name": "Rwanda",
    "country": "RW",
    "lastUpdated": "2020-04-11T20:00:03.432Z",
    "dead": 0,
    "id": "PEcgZGEkyhABztt1Ufgc",
    "sick": 100,
    "invisible": false
  },
  {
    "lastUpdated": "2020-04-11T20:09:16.074Z",
    "dead": 64,
    "id": "PJvVYosLIhbcRZYnKX1R",
    "infected": 1427,
    "recovered": 0,
    "latitude": 46.7296,
    "pop": 5611000,
    "longitude": -94.6859,
    "name": "Minnesota",
    "country": "US",
    "sick": 1363,
    "invisible": false
  },
  {
    "latitude": 40.6331,
    "pop": 12740000,
    "longitude": -89.3985,
    "name": "Illinois",
    "country": "US",
    "lastUpdated": "2020-04-11T20:09:16.068Z",
    "dead": 597,
    "id": "PTwQr9ijo0TBBsPH2sdJ",
    "infected": 19084,
    "recovered": 0,
    "sick": 18487,
    "invisible": false
  },
  {
    "latitude": 13.909444,
    "pop": 178844,
    "longitude": -60.978893,
    "name": "Saint Lucia",
    "country": "LC",
    "lastUpdated": "2020-04-11T20:00:03.436Z",
    "dead": 0,
    "id": "PjLqCeFdyzdZNcZxMkK1",
    "infected": 15,
    "recovered": 1,
    "sick": 14,
    "invisible": false
  },
  {
    "recovered": 603,
    "latitude": 42.6954,
    "pop": 649900,
    "longitude": -1.6761,
    "name": "Comunidad Foral de Navarra",
    "country": "ES",
    "lastUpdated": "2020-04-11T20:13:02.638Z",
    "dead": 227,
    "id": "PmUlsNx2uFLU797wwU39",
    "infected": 3817,
    "sick": 2987,
    "invisible": false
  },
  {
    "recovered": 43,
    "latitude": 34.201507,
    "pop": 11530000,
    "longitude": 9.460554,
    "name": "Tunisia",
    "country": "TN",
    "lastUpdated": "2020-04-11T20:00:03.424Z",
    "dead": 28,
    "id": "Pr76V4raf108uSRoEXac",
    "infected": 685,
    "sick": 614,
    "invisible": false
  },
  {
    "longitude": 31.4659,
    "name": "Eswatini",
    "country": "SZ",
    "lastUpdated": "2020-04-11T20:00:03.437Z",
    "dead": 0,
    "id": "PuQgOd9KWiMzGZXm11sR",
    "infected": 12,
    "recovered": 7,
    "latitude": -26.5225,
    "pop": 1367000,
    "sick": 5,
    "invisible": false
  },
  {
    "latitude": -37.009609,
    "pop": 6359000,
    "longitude": 143.94853,
    "name": "Victoria",
    "country": "AU",
    "lastUpdated": "2020-04-11T20:15:01.927Z",
    "dead": 14,
    "id": "Q18mrGvFWTLX2BU9SqhQ",
    "infected": 1265,
    "recovered": 926,
    "sick": 325,
    "invisible": false
  },
  {
    "longitude": 9.6961,
    "name": "Schleswig-Holstein",
    "country": "DE",
    "lastUpdated": "2020-04-11T20:01:03.333Z",
    "dead": 43,
    "id": "Q39XkabIYxt15mHINzTa",
    "infected": 2091,
    "recovered": 1134,
    "latitude": 54.2194,
    "pop": 2890000,
    "sick": 914,
    "invisible": false
  },
  {
    "latitude": 58.595272,
    "pop": 1328000,
    "longitude": 25.013607,
    "name": "Estonia",
    "country": "EE",
    "lastUpdated": "2020-04-11T20:00:03.422Z",
    "dead": 24,
    "id": "QR9go2hQKXjty7JHUYe4",
    "infected": 1304,
    "recovered": 93,
    "sick": 1187,
    "invisible": false
  },
  {
    "latitude": -6.315,
    "pop": 8251000,
    "longitude": 143.9555,
    "name": "Papua New Guinea",
    "country": "PG",
    "lastUpdated": "2020-04-11T20:00:03.440Z",
    "dead": 0,
    "id": "QlZrE4nosm5WfdA2aCDg",
    "infected": 2,
    "recovered": 0,
    "sick": 2,
    "invisible": false
  },
  {
    "lastUpdated": "2020-04-11T20:09:16.075Z",
    "dead": 1,
    "id": "QqhD3YDMKXojvQY3Yu41",
    "infected": 51,
    "recovered": 0,
    "latitude": 18.3358,
    "pop": 107268,
    "longitude": -64.8963,
    "name": "U.S. Virgin Islands",
    "country": "US",
    "sick": 50,
    "invisible": false
  },
  {
    "longitude": -61.3709755,
    "name": "Dominica",
    "country": "DM",
    "lastUpdated": "2020-04-11T20:00:03.436Z",
    "dead": 0,
    "id": "Qy2qW2ep5wltnYjPJBxh",
    "infected": 16,
    "recovered": 5,
    "latitude": 15.414999,
    "pop": 71937,
    "sick": 11,
    "invisible": false
  },
  {
    "infected": 5,
    "recovered": 1,
    "latitude": 5.167,
    "pop": 344027,
    "longitude": -72.167,
    "name": "Casanare",
    "country": "CO",
    "lastUpdated": "2020-04-11T20:11:08.623Z",
    "dead": 0,
    "id": "R3IHMWqIUhOJJTlrmbUZ",
    "sick": 4,
    "invisible": false
  },
  {
    "id": "R8YCgephnxTufvcPWMgx",
    "infected": 2974,
    "recovered": 17,
    "latitude": 8.538,
    "pop": 4099000,
    "longitude": -80.7821,
    "name": "Panama",
    "country": "PA",
    "lastUpdated": "2020-04-11T20:10:01.836Z",
    "dead": 74,
    "sick": 2883,
    "invisible": false
  },
  {
    "infected": 392,
    "recovered": 7,
    "latitude": 15.2,
    "pop": 9265000,
    "longitude": -86.2419,
    "name": "Honduras",
    "country": "HN",
    "lastUpdated": "2020-04-11T20:00:03.428Z",
    "dead": 24,
    "id": "RA2SE0p2bVhqo0P2hzGY",
    "sick": 361,
    "invisible": false
  },
  {
    "id": "RBt9RiwP7WUbMnJfD0lo",
    "infected": 107,
    "recovered": 0,
    "latitude": -18.4745998,
    "pop": 224500,
    "longitude": -70.2979202,
    "name": "Arica y Parinacota",
    "country": "CL",
    "lastUpdated": "2020-04-11T20:07:06.131Z",
    "dead": 0,
    "sick": 107,
    "invisible": false
  },
  {
    "latitude": 45.633331,
    "pop": 1216000,
    "longitude": 13.8,
    "name": "Friuli Venezia Giulia",
    "country": "IT",
    "lastUpdated": "2020-04-11T20:10:02.257Z",
    "dead": 185,
    "id": "RCrDBCdBNYzgLNr0aB2H",
    "infected": 2393,
    "recovered": 826,
    "sick": 1382,
    "invisible": false
  },
  {
    "latitude": 41.878,
    "pop": 3156000,
    "longitude": -93.0977,
    "name": "Iowa",
    "country": "US",
    "lastUpdated": "2020-04-11T20:09:16.074Z",
    "dead": 34,
    "id": "RX0KDu1AFrlCsrRso0nb",
    "infected": 1510,
    "recovered": 0,
    "sick": 1476,
    "invisible": false
  },
  {
    "recovered": 67,
    "latitude": 4.624335,
    "pop": 7413000,
    "longitude": -74.063644,
    "name": "Bogotá D.C.",
    "country": "CO",
    "lastUpdated": "2020-04-11T20:11:08.604Z",
    "dead": 34,
    "id": "RZ6PCe5TZsO15JjDObwO",
    "infected": 1121,
    "sick": 1020,
    "invisible": false
  },
  {
    "infected": 24,
    "recovered": 8,
    "latitude": 26.3351002,
    "pop": 6846000,
    "longitude": 17.2283306,
    "name": "Libya",
    "country": "LY",
    "lastUpdated": "2020-04-11T20:00:03.435Z",
    "dead": 1,
    "id": "RaJxbzlnRFTuj4B8IbpC",
    "sick": 15,
    "invisible": false
  },
  {
    "latitude": 39.0119,
    "pop": 2912000,
    "longitude": -98.4842,
    "name": "Kansas",
    "country": "US",
    "lastUpdated": "2020-04-11T19:54:18.388Z",
    "dead": 55,
    "id": "Rf4uvBfP3GRDSHdZElRd",
    "infected": 1268,
    "recovered": 0,
    "sick": 1213,
    "invisible": false
  },
  {
    "id": "RmEgf1xeclWt7XCF9oiR",
    "infected": 16033,
    "recovered": 4581,
    "latitude": 48.6998,
    "pop": 5518000,
    "longitude": 6.1878,
    "name": "Grand Est",
    "country": "FR",
    "lastUpdated": "2020-04-11T17:32:31.571Z",
    "dead": 2008,
    "sick": 9444,
    "invisible": false
  },
  {
    "infected": 6648,
    "recovered": 0,
    "latitude": 51.2538,
    "pop": 14570000,
    "longitude": -85.3232,
    "name": "Ontario",
    "country": "CA",
    "lastUpdated": "2020-04-11T20:15:01.927Z",
    "dead": 253,
    "id": "Rx4TuyMpfGb3S8wYJX0x",
    "sick": 6395,
    "invisible": false
  },
  {
    "recovered": 3757,
    "latitude": 41.652779,
    "pop": 2408000,
    "longitude": -4.723611,
    "name": "Castilla y León",
    "country": "ES",
    "lastUpdated": "2020-04-11T20:13:02.638Z",
    "dead": 1180,
    "id": "S8ewN4zaYp8mjtuqqOTw",
    "infected": 11543,
    "sick": 6606,
    "invisible": false
  },
  {
    "infected": 155,
    "recovered": 50,
    "latitude": 14.652027,
    "pop": 376480,
    "longitude": -61.011715,
    "name": "Martinique",
    "country": "FR",
    "lastUpdated": "2020-04-11T20:00:03.431Z",
    "dead": 6,
    "id": "SDdefnq1bc3ZNr7SpEsW",
    "sick": 99,
    "invisible": false
  },
  {
    "infected": 408,
    "recovered": 4,
    "latitude": 7.9465,
    "pop": 28830000,
    "longitude": -1.0232,
    "name": "Ghana",
    "country": "GH",
    "lastUpdated": "2020-04-11T20:00:03.427Z",
    "dead": 8,
    "id": "SG9VWLOV3x2JsTkXmVSz",
    "sick": 396,
    "invisible": false
  },
  {
    "id": "SGe9sCPayMqh6RsGFaBA",
    "infected": 25107,
    "recovered": 12100,
    "latitude": 46.818188,
    "pop": 8570000,
    "longitude": 8.227512,
    "name": "Switzerland",
    "country": "CH",
    "lastUpdated": "2020-04-11T20:00:03.411Z",
    "dead": 1036,
    "sick": 11971,
    "invisible": false
  },
  {
    "latitude": 46.8139,
    "pop": 8485000,
    "longitude": -71.208,
    "name": "Quebec",
    "country": "CA",
    "lastUpdated": "2020-04-11T20:15:01.927Z",
    "dead": 289,
    "id": "SHoOE3NiJgWAlDVBzwYH",
    "infected": 12292,
    "recovered": 0,
    "sick": 12003,
    "invisible": false
  },
  {
    "infected": 277,
    "recovered": 52,
    "latitude": 42.6026,
    "pop": 1831000,
    "longitude": 20.903,
    "name": "Kosovo",
    "country": "XK",
    "lastUpdated": "2020-04-11T20:14:02.036Z",
    "dead": 7,
    "id": "SMWvuMMuKp2QK7O2tNia",
    "sick": 218,
    "invisible": false
  },
  {
    "lastUpdated": "2020-04-11T20:10:01.625Z",
    "dead": 0,
    "id": "SPcujsH2YlUaoAr8AiWF",
    "infected": 7,
    "recovered": 5,
    "latitude": 15.2993,
    "pop": 1817000,
    "longitude": 74.124,
    "name": "Goa",
    "country": "IN",
    "sick": 2,
    "invisible": false
  },
  {
    "infected": 915,
    "recovered": 57,
    "latitude": 39,
    "pop": 1957000,
    "longitude": 16.5,
    "name": "Calabria",
    "country": "IT",
    "lastUpdated": "2020-04-11T20:10:02.257Z",
    "dead": 66,
    "id": "SZdF624x0v1LlyzZjKFu",
    "sick": 792,
    "invisible": false
  },
  {
    "infected": 701,
    "recovered": 0,
    "latitude": 41.4925,
    "pop": 1929000,
    "longitude": -99.9018,
    "name": "Nebraska",
    "country": "US",
    "lastUpdated": "2020-04-11T19:09:17.621Z",
    "dead": 17,
    "id": "SakhKQzKu1LRI8laqdQq",
    "sick": 684,
    "invisible": false
  },
  {
    "longitude": 55.5364,
    "name": "La Réunion",
    "country": "FR",
    "lastUpdated": "2020-04-11T20:00:03.428Z",
    "dead": 0,
    "id": "SgHzWAAYK1j2sipovxM6",
    "infected": 388,
    "recovered": 40,
    "latitude": -21.1151,
    "pop": 859959,
    "sick": 348,
    "invisible": false
  },
  {
    "infected": 120,
    "recovered": 75,
    "latitude": 12.565679,
    "pop": 16010000,
    "longitude": 104.990967,
    "name": "Cambodia",
    "country": "KH",
    "lastUpdated": "2020-04-11T20:00:03.432Z",
    "dead": 0,
    "id": "SioMALgUbo7peXmbco2f",
    "sick": 45,
    "invisible": false
  },
  {
    "infected": 133,
    "recovered": 0,
    "latitude": 13.4443,
    "pop": 164229,
    "longitude": 144.7937,
    "name": "Guam",
    "country": "GU",
    "lastUpdated": "2020-04-11T20:09:16.075Z",
    "dead": 5,
    "id": "SsWhuEElU7dCTTuH5fdQ",
    "sick": 128,
    "invisible": false
  },
  {
    "latitude": -4.0383,
    "pop": 81340000,
    "longitude": 21.7587,
    "name": "DR Congo",
    "country": "CD",
    "lastUpdated": "2020-04-11T20:00:03.430Z",
    "dead": 20,
    "id": "T3iRf8mTUTAzbKrORTap",
    "infected": 223,
    "recovered": 16,
    "sick": 187,
    "invisible": false
  },
  {
    "latitude": 23.635796,
    "pop": 32940000,
    "longitude": 44.344334,
    "name": "Saudi Arabia",
    "country": "SA",
    "lastUpdated": "2020-04-11T20:00:03.418Z",
    "dead": 52,
    "id": "T7NffoeCgTUpAbOHvYwP",
    "infected": 4033,
    "recovered": 720,
    "sick": 3261,
    "invisible": false
  },
  {
    "infected": 3223,
    "recovered": 1337,
    "latitude": 42.2871,
    "pop": 315700,
    "longitude": -2.5396,
    "name": "La Rioja",
    "country": "ES",
    "lastUpdated": "2020-04-11T20:13:02.638Z",
    "dead": 207,
    "id": "TNDTapyb0k3l7Mds9q9R",
    "sick": 1679,
    "invisible": false
  },
  {
    "lastUpdated": "2020-04-11T20:00:03.431Z",
    "dead": 1,
    "id": "TQZmzsLhJqjtCSExAkCP",
    "infected": 136,
    "recovered": 104,
    "latitude": 4.506106,
    "pop": 428697,
    "longitude": 114.650692,
    "name": "Brunei",
    "country": "BN",
    "sick": 31,
    "invisible": false
  },
  {
    "recovered": 2857,
    "latitude": 45.4471,
    "pop": 8027000,
    "longitude": 4.3853,
    "name": "Auvergne-Rhône-Alpes",
    "country": "FR",
    "lastUpdated": "2020-04-11T17:33:49.054Z",
    "dead": 755,
    "id": "TT0MKODSjrxHvG19xZCa",
    "infected": 9254,
    "sick": 5642,
    "invisible": false
  },
  {
    "latitude": 39.318928,
    "pop": 5696000,
    "longitude": -105.461392,
    "name": "Colorado",
    "country": "US",
    "lastUpdated": "2020-04-11T20:09:16.071Z",
    "dead": 250,
    "id": "Th4dlpXXmSDgi1OHs36P",
    "infected": 6513,
    "recovered": 0,
    "sick": 6263,
    "invisible": false
  },
  {
    "recovered": 149,
    "latitude": 12.2383,
    "pop": 19190000,
    "longitude": -1.5616,
    "name": "Burkina Faso",
    "country": "BF",
    "lastUpdated": "2020-04-11T20:00:03.427Z",
    "dead": 26,
    "id": "Tup6oDCHj6DgqZR3nQ3x",
    "infected": 448,
    "sick": 273,
    "invisible": false
  },
  {
    "infected": 14,
    "recovered": 0,
    "latitude": 12.104818,
    "pop": 112381,
    "longitude": -61.670761,
    "name": "Grenada",
    "country": "GD",
    "lastUpdated": "2020-04-11T20:00:03.436Z",
    "dead": 0,
    "id": "TvqURPN5xzVBXsmGP46N",
    "sick": 14,
    "invisible": false
  },
  {
    "recovered": 1955,
    "latitude": 55.675758,
    "pop": 5603000,
    "longitude": 12.56902,
    "name": "Denmark",
    "country": "DK",
    "lastUpdated": "2020-04-11T20:00:03.418Z",
    "dead": 260,
    "id": "Ty1AY3VLPJcRZgdBIERx",
    "infected": 5996,
    "sick": 3781,
    "invisible": false
  },
  {
    "infected": 784,
    "recovered": 757,
    "latitude": 36.395859,
    "pop": 100472400,
    "longitude": 118.769882,
    "name": "Shandong",
    "country": "CN",
    "lastUpdated": "2020-04-11T19:44:09.860Z",
    "dead": 7,
    "id": "U0tkTJ9CGsBuFJ2Gdoum",
    "sick": 20,
    "invisible": false
  },
  {
    "lastUpdated": "2020-04-11T20:00:03.428Z",
    "dead": 35,
    "id": "U12rMD5GDW58Q0lIwrB1",
    "infected": 356,
    "recovered": 53,
    "latitude": 43.94236,
    "pop": 33400,
    "longitude": 12.457777,
    "name": "San Marino",
    "country": "SM",
    "sick": 268,
    "invisible": false
  },
  {
    "recovered": 762,
    "latitude": 36.204823,
    "pop": 126800000,
    "longitude": 138.25293,
    "name": "Japan",
    "country": "JP",
    "lastUpdated": "2020-04-11T20:00:03.418Z",
    "dead": 99,
    "id": "U13Gy4BpRLAZ95bPmBXd",
    "infected": 6005,
    "sick": 5144,
    "invisible": false
  },
  {
    "infected": 53,
    "recovered": 3,
    "latitude": 1.3733,
    "pop": 42860000,
    "longitude": 32.2903,
    "name": "Uganda",
    "country": "UG",
    "lastUpdated": "2020-04-11T20:00:03.433Z",
    "dead": 0,
    "id": "UCZXEgnHtxUoChWLR6fQ",
    "sick": 50,
    "invisible": false
  },
  {
    "infected": 19,
    "recovered": 2,
    "latitude": -11.2027,
    "pop": 29780000,
    "longitude": 17.8739,
    "name": "Angola",
    "country": "AO",
    "lastUpdated": "2020-04-11T20:00:03.435Z",
    "dead": 2,
    "id": "UIbrFy6kiTTF0D37Kqmp",
    "sick": 15,
    "invisible": false
  },
  {
    "infected": 1523,
    "recovered": 470,
    "latitude": 48.202,
    "pop": 3329000,
    "longitude": -2.9326,
    "name": "Bretagne",
    "country": "FR",
    "lastUpdated": "2020-04-11T17:34:31.188Z",
    "dead": 129,
    "id": "URKMlJ7OTNldjpaxFbjE",
    "sick": 924,
    "invisible": false
  },
  {
    "infected": 3739,
    "recovered": 2000,
    "latitude": 53.5511,
    "pop": 1822000,
    "longitude": 9.9937,
    "name": "Hamburg",
    "country": "DE",
    "lastUpdated": "2020-04-11T20:01:03.332Z",
    "dead": 56,
    "id": "UfFaUECHINUutv1M9tzq",
    "sick": 1683,
    "invisible": false
  },
  {
    "latitude": -19.4914,
    "pop": 211945,
    "longitude": 132.551,
    "name": "Northern Territory",
    "country": "AU",
    "lastUpdated": "2020-04-11T20:15:01.928Z",
    "dead": 0,
    "id": "UrF45V1VqMo6YBib2KlL",
    "infected": 27,
    "recovered": 2,
    "sick": 25,
    "invisible": false
  },
  {
    "latitude": 18.0424805,
    "pop": 41109,
    "longitude": -63.0548286,
    "name": "Sint Maarten",
    "country": "SX",
    "lastUpdated": "2020-04-11T20:00:03.434Z",
    "dead": 9,
    "id": "UsxgpiuFCtlR2CW1UUFm",
    "infected": 50,
    "recovered": 5,
    "sick": 36,
    "invisible": false
  },
  {
    "id": "UzOGOMitJmaFTdh2FbvI",
    "infected": 10368,
    "recovered": 0,
    "latitude": 52.3449,
    "pop": 10135000,
    "longitude": -1.9718,
    "name": "Midlands",
    "country": "GB",
    "lastUpdated": "2020-04-11T20:04:01.714Z",
    "dead": 0,
    "sick": 10368,
    "invisible": false
  },
  {
    "latitude": 11.943179,
    "pop": 241773,
    "longitude": 79.808206,
    "name": "Puducherry",
    "country": "IN",
    "lastUpdated": "2020-04-11T20:10:01.625Z",
    "dead": 0,
    "id": "V1qE740s3EUGyKGr6SVv",
    "infected": 7,
    "recovered": 1,
    "sick": 6,
    "invisible": false
  },
  {
    "infected": 7,
    "recovered": 0,
    "latitude": -45.5687,
    "pop": 25569,
    "longitude": -72.0597,
    "name": "Aysén",
    "country": "CL",
    "lastUpdated": "2020-04-11T20:07:06.133Z",
    "dead": 0,
    "id": "V9QxUhV4DyYK7iElEhXV",
    "sick": 7,
    "invisible": false
  },
  {
    "recovered": 77,
    "latitude": 21.5218,
    "pop": 11480000,
    "longitude": -77.7812,
    "name": "Cuba",
    "country": "CU",
    "lastUpdated": "2020-04-11T20:00:03.425Z",
    "dead": 16,
    "id": "VAG9AcMABTf8oIAfELPh",
    "infected": 620,
    "sick": 527,
    "invisible": false
  },
  {
    "latitude": 25.181129,
    "pop": 45970000,
    "longitude": 101.864143,
    "name": "Yunnan",
    "country": "CN",
    "lastUpdated": "2020-04-11T19:44:09.864Z",
    "dead": 2,
    "id": "VIf8T8PD3ZzlzAm5eBCX",
    "infected": 184,
    "recovered": 174,
    "sick": 8,
    "invisible": false
  },
  {
    "lastUpdated": "2020-04-11T20:10:01.624Z",
    "dead": 5,
    "id": "VcKcLdCkC6YpPfIDnRVD",
    "infected": 452,
    "recovered": 45,
    "latitude": 26.8467,
    "pop": 204200000,
    "longitude": 80.9462,
    "name": "Uttar Pradesh",
    "country": "IN",
    "sick": 402,
    "invisible": false
  },
  {
    "recovered": 0,
    "latitude": 64.8255,
    "pop": 44826,
    "longitude": -124.8457,
    "name": "Northwest Territories",
    "country": "CA",
    "lastUpdated": "2020-04-11T20:15:01.929Z",
    "dead": 0,
    "id": "Vd3lLgrNsr81plzTgZkz",
    "infected": 5,
    "sick": 5,
    "invisible": false
  },
  {
    "recovered": 757,
    "latitude": 39.999079,
    "pop": 1188000,
    "longitude": 3.838942,
    "name": "Islas Baleares",
    "country": "ES",
    "lastUpdated": "2020-04-11T20:13:02.638Z",
    "dead": 102,
    "id": "VyW0IR9vLMdgnKz1cC7j",
    "infected": 1507,
    "sick": 648,
    "invisible": false
  },
  {
    "latitude": 43.8927,
    "pop": 5893000,
    "longitude": 3.2828,
    "name": "Occitanie",
    "country": "FR",
    "lastUpdated": "2020-04-11T17:35:54.977Z",
    "dead": 233,
    "id": "WAnbFrEjtZDTCIYBt8rz",
    "infected": 3397,
    "recovered": 1271,
    "sick": 1893,
    "invisible": false
  },
  {
    "latitude": 40.5,
    "pop": 567118,
    "longitude": 16.5,
    "name": "Basilicata",
    "country": "IT",
    "lastUpdated": "2020-04-11T20:10:02.256Z",
    "dead": 17,
    "id": "WD502XimGXnWzqYg7zxL",
    "infected": 312,
    "recovered": 14,
    "sick": 281,
    "invisible": false
  },
  {
    "longitude": 93.9063,
    "name": "Manipur",
    "country": "IN",
    "lastUpdated": "2020-04-11T20:10:01.625Z",
    "dead": 0,
    "id": "WKsJQmcpWKxnp0nCwN77",
    "infected": 2,
    "recovered": 1,
    "latitude": 24.6637,
    "pop": 2722000,
    "sick": 1,
    "invisible": false
  },
  {
    "infected": 2028,
    "recovered": 410,
    "latitude": -30.5595,
    "pop": 56720000,
    "longitude": 22.9375,
    "name": "South Africa",
    "country": "ZA",
    "lastUpdated": "2020-04-11T20:00:03.421Z",
    "dead": 25,
    "id": "Whrue10NtwIObLvFFyBr",
    "sick": 1593,
    "invisible": false
  },
  {
    "latitude": 13.443182,
    "pop": 2101000,
    "longitude": -15.3101387,
    "name": "Gambia",
    "country": "GM",
    "lastUpdated": "2020-04-11T20:00:03.437Z",
    "dead": 1,
    "id": "Wk811YwpQxsOCfz8As86",
    "infected": 9,
    "recovered": 2,
    "sick": 6,
    "invisible": false
  },
  {
    "lastUpdated": "2020-04-11T20:00:03.427Z",
    "dead": 30,
    "id": "WpLayPPLIJ7VcHZdQaoM",
    "infected": 482,
    "recovered": 36,
    "latitude": 23.685,
    "pop": 164700000,
    "longitude": 90.3563,
    "name": "Bangladesh",
    "country": "BD",
    "sick": 416,
    "invisible": false
  },
  {
    "lastUpdated": "2020-04-11T20:10:02.258Z",
    "dead": 831,
    "id": "X2iRhHF6f9pUnJcxPc3J",
    "infected": 13768,
    "recovered": 2188,
    "latitude": 45.5,
    "pop": 4905000,
    "longitude": 11.75,
    "name": "Veneto",
    "country": "IT",
    "sick": 10749,
    "invisible": false
  },
  {
    "infected": 2,
    "recovered": 1,
    "latitude": -8.556856,
    "pop": 1311000,
    "longitude": 125.56031,
    "name": "Timor-Leste",
    "country": "TL",
    "lastUpdated": "2020-04-11T20:00:03.441Z",
    "dead": 0,
    "id": "X3GMAVINj2GDzIRVfo7n",
    "sick": 1,
    "invisible": false
  },
  {
    "latitude": 34.152588,
    "pop": 274289,
    "longitude": 77.577049,
    "name": "Ladakh",
    "country": "IN",
    "lastUpdated": "2020-04-11T20:10:01.625Z",
    "dead": 0,
    "id": "X3PZqaJxtnlxcgP4tzya",
    "infected": 15,
    "recovered": 11,
    "sick": 4,
    "invisible": false
  },
  {
    "infected": 351,
    "recovered": 317,
    "latitude": 25.92448,
    "pop": 38560000,
    "longitude": 118.278992,
    "name": "Fujian",
    "country": "CN",
    "lastUpdated": "2020-04-11T19:44:09.859Z",
    "dead": 1,
    "id": "XBBw0iMPrmiEu3qogkbi",
    "sick": 33,
    "invisible": false
  },
  {
    "latitude": -52.368,
    "pop": 166533,
    "longitude": -70.9863,
    "name": "Magallanes",
    "country": "CL",
    "lastUpdated": "2020-04-11T20:07:06.133Z",
    "dead": 3,
    "id": "XIYUg6ShQvWyEAJfyJzC",
    "infected": 377,
    "recovered": 0,
    "sick": 374,
    "invisible": false
  },
  {
    "lastUpdated": "2020-04-11T20:00:03.426Z",
    "dead": 7,
    "id": "XrsuLstdybIqIvv0E0aJ",
    "infected": 494,
    "recovered": 214,
    "latitude": -32.5228,
    "pop": 3457000,
    "longitude": -55.7658,
    "name": "Uruguay",
    "country": "UY",
    "sick": 273,
    "invisible": false
  },
  {
    "longitude": 9.0129,
    "name": "Corse",
    "country": "FR",
    "lastUpdated": "2020-04-11T17:36:10.588Z",
    "dead": 36,
    "id": "YGXgIObKVabP2CYEdcb9",
    "infected": 352,
    "recovered": 122,
    "latitude": 42.0396,
    "pop": 339178,
    "sick": 194,
    "invisible": false
  },
  {
    "infected": 41,
    "recovered": 6,
    "latitude": 2.916112,
    "pop": 1126000,
    "longitude": -75.28344,
    "name": "Huila",
    "country": "CO",
    "lastUpdated": "2020-04-11T20:11:08.620Z",
    "dead": 2,
    "id": "YI9zIOUXJqAcgc0T80yb",
    "sick": 33,
    "invisible": false
  },
  {
    "id": "YMzKw0SnXG71VT7H1jff",
    "infected": 268,
    "recovered": 57,
    "latitude": 31.9522,
    "pop": 5052000,
    "longitude": 35.2332,
    "name": "Palestine",
    "country": "PS",
    "lastUpdated": "2020-04-11T20:00:03.429Z",
    "dead": 2,
    "sick": 209,
    "invisible": false
  },
  {
    "id": "YZoy8ReFucvC3IFnWZHn",
    "infected": 38,
    "recovered": 0,
    "latitude": 11.8037491,
    "pop": 1955000,
    "longitude": -15.1804132,
    "name": "Guinea-Bissau",
    "country": "GW",
    "lastUpdated": "2020-04-11T20:00:03.434Z",
    "dead": 0,
    "sick": 38,
    "invisible": false
  },
  {
    "infected": 257,
    "recovered": 0,
    "latitude": 64.2008,
    "pop": 737438,
    "longitude": -149.4937,
    "name": "Alaska",
    "country": "US",
    "lastUpdated": "2020-04-11T20:09:16.075Z",
    "dead": 8,
    "id": "YaCODTMD1KKRnrAlkg2u",
    "sick": 249,
    "invisible": false
  },
  {
    "lastUpdated": "2020-04-11T20:13:02.638Z",
    "dead": 765,
    "id": "YfA7o2lZP1DhV4JB6Umh",
    "infected": 10515,
    "recovered": 4741,
    "latitude": 42.9896,
    "pop": 2178000,
    "longitude": -2.6189,
    "name": "País Vasco",
    "country": "ES",
    "sick": 5009,
    "invisible": false
  },
  {
    "lastUpdated": "2020-04-11T20:00:03.417Z",
    "dead": 211,
    "id": "Yw9uBekNlefXBcOCNMfP",
    "infected": 10480,
    "recovered": 7243,
    "latitude": 37.568291,
    "pop": 51470000,
    "longitude": 126.99778,
    "name": "South Korea",
    "country": "KR",
    "sick": 3026,
    "invisible": false
  },
  {
    "longitude": -59.543198,
    "name": "Barbados",
    "country": "BB",
    "lastUpdated": "2020-04-11T20:00:03.433Z",
    "dead": 4,
    "id": "YzZqZMJGvG6joQCdiuXC",
    "infected": 67,
    "recovered": 11,
    "latitude": 13.193887,
    "pop": 285719,
    "sick": 52,
    "invisible": false
  },
  {
    "longitude": 21.0122,
    "name": "Poland",
    "country": "PL",
    "lastUpdated": "2020-04-11T20:00:03.418Z",
    "dead": 208,
    "id": "ZAZNuCK1VweBaTLCFzCk",
    "infected": 6356,
    "recovered": 375,
    "latitude": 52.2297,
    "pop": 37980000,
    "sick": 5773,
    "invisible": false
  },
  {
    "longitude": 178.065033,
    "name": "Fiji",
    "country": "FJ",
    "lastUpdated": "2020-04-11T20:00:03.436Z",
    "dead": 0,
    "id": "ZmzOT0sJgfWXEpRImItC",
    "infected": 16,
    "recovered": 0,
    "latitude": -17.713371,
    "pop": 905502,
    "sick": 16,
    "invisible": false
  },
  {
    "longitude": -73.0877,
    "name": "Connecticut",
    "country": "US",
    "lastUpdated": "2020-04-11T20:09:16.069Z",
    "dead": 448,
    "id": "Zqy0gftQzocR49jEJNMl",
    "infected": 10538,
    "recovered": 0,
    "latitude": 41.6032,
    "pop": 3573000,
    "sick": 10090,
    "invisible": false
  },
  {
    "id": "Zwbjs4XN7P9s849Q3zFj",
    "infected": 5211,
    "recovered": 1291,
    "latitude": 43.616943,
    "pop": 1532000,
    "longitude": 13.516667,
    "name": "Marche",
    "country": "IT",
    "lastUpdated": "2020-04-11T20:10:02.257Z",
    "dead": 689,
    "sick": 3231,
    "invisible": false
  },
  {
    "latitude": 51.011,
    "pop": 2137000,
    "longitude": 10.8453,
    "name": "Thüringen",
    "country": "DE",
    "lastUpdated": "2020-04-11T20:01:03.333Z",
    "dead": 25,
    "id": "a9OgUWo6ZSWA3HyF0xnj",
    "infected": 1459,
    "recovered": 770,
    "sick": 664,
    "invisible": false
  },
  {
    "latitude": -30.000233,
    "pop": 1677000,
    "longitude": 136.209152,
    "name": "South Australia",
    "country": "AU",
    "lastUpdated": "2020-04-11T20:15:01.927Z",
    "dead": 3,
    "id": "a9p9pAOsjg1WAjPGc2a6",
    "infected": 429,
    "recovered": 179,
    "sick": 247,
    "invisible": false
  },
  {
    "longitude": -71.612686,
    "name": "Valparaíso",
    "country": "CL",
    "lastUpdated": "2020-04-11T20:07:06.132Z",
    "dead": 2,
    "id": "aNN8fCwDCMMdlpMC2Fml",
    "infected": 248,
    "recovered": 0,
    "latitude": -33.047237,
    "pop": 295100,
    "sick": 246,
    "invisible": false
  },
  {
    "lastUpdated": "2020-04-11T20:09:16.073Z",
    "dead": 105,
    "id": "aPubGfQ8ToSEuKJldKRT",
    "infected": 3957,
    "recovered": 0,
    "latitude": 37.9643,
    "pop": 6126000,
    "longitude": -91.8318,
    "name": "Missouri",
    "country": "US",
    "sick": 3852,
    "invisible": false
  },
  {
    "id": "aTa8MiBjtH3iY0SRs2HQ",
    "infected": 254,
    "recovered": 252,
    "latitude": 23.64407,
    "pop": 48380000,
    "longitude": 108.26651,
    "name": "Guangxi",
    "country": "CN",
    "lastUpdated": "2020-04-11T19:44:09.868Z",
    "dead": 2,
    "sick": 0,
    "invisible": false
  },
  {
    "recovered": 0,
    "latitude": 6.6111,
    "pop": 4659000,
    "longitude": 20.9394,
    "name": "CAR",
    "country": "CF",
    "lastUpdated": "2020-04-11T20:00:03.438Z",
    "dead": 0,
    "id": "adcBUeAYp6ey0ZXCzKNs",
    "infected": 8,
    "sick": 8,
    "invisible": false
  },
  {
    "infected": 5077,
    "recovered": 0,
    "latitude": 37.4316,
    "pop": 8518000,
    "longitude": -78.6569,
    "name": "Virginia",
    "country": "US",
    "lastUpdated": "2020-04-11T20:09:16.072Z",
    "dead": 130,
    "id": "afeZTVC1J1SMMNFxkrcc",
    "sick": 4947,
    "invisible": false
  },
  {
    "infected": 589,
    "recovered": 474,
    "latitude": 39.904202,
    "pop": 21540000,
    "longitude": 116.407394,
    "name": "Beijing",
    "country": "CN",
    "lastUpdated": "2020-04-11T19:44:09.858Z",
    "dead": 8,
    "id": "alj4hkxg9cjrTxOzwFKt",
    "sick": 107,
    "invisible": false
  },
  {
    "longitude": -56.2711105,
    "name": "Saint Pierre Miquelon",
    "country": "PM",
    "lastUpdated": "2020-04-11T20:00:03.441Z",
    "dead": 0,
    "id": "axK1QECL0ba4j2KePcaH",
    "infected": 1,
    "recovered": 0,
    "latitude": 46.9419365,
    "pop": 5800,
    "sick": 1,
    "invisible": false
  },
  {
    "infected": 1318,
    "recovered": 601,
    "latitude": 33.22319,
    "pop": 38270000,
    "longitude": 43.679291,
    "name": "Iraq",
    "country": "IQ",
    "lastUpdated": "2020-04-11T20:00:03.421Z",
    "dead": 72,
    "id": "b7TwXX46FA0EmH1CjHET",
    "sick": 645,
    "invisible": false
  },
  {
    "recovered": 23663,
    "latitude": 40.4168,
    "pop": 6662000,
    "longitude": -3.7038,
    "name": "Comunidad de Madrid",
    "country": "ES",
    "lastUpdated": "2020-04-11T20:13:02.638Z",
    "dead": 6084,
    "id": "b8xaIMD5TMoenwfrtaYa",
    "infected": 45849,
    "sick": 16102,
    "invisible": false
  },
  {
    "latitude": 14.457474,
    "pop": 15850000,
    "longitude": -14.358636,
    "name": "Senegal",
    "country": "SN",
    "lastUpdated": "2020-04-11T20:00:03.429Z",
    "dead": 2,
    "id": "b9p1JhVml3GGC7iiPmKv",
    "infected": 278,
    "recovered": 152,
    "sick": 124,
    "invisible": false
  },
  {
    "longitude": 37.9062,
    "name": "Kenya",
    "country": "KE",
    "lastUpdated": "2020-04-11T20:00:03.431Z",
    "dead": 7,
    "id": "bVHiTolbUJGHIeVht3eG",
    "infected": 191,
    "recovered": 24,
    "latitude": -0.0236,
    "pop": 49700000,
    "sick": 160,
    "invisible": false
  },
  {
    "latitude": 39.561889,
    "pop": 8909000,
    "longitude": -74.672169,
    "name": "New Jersey",
    "country": "US",
    "lastUpdated": "2020-04-11T20:09:16.067Z",
    "dead": 2183,
    "id": "bYp4RRHv19M7lYtSzQeV",
    "infected": 58151,
    "recovered": 0,
    "sick": 55968,
    "invisible": false
  },
  {
    "longitude": 101.6869,
    "name": "Malaysia",
    "country": "MY",
    "lastUpdated": "2020-04-11T20:00:03.418Z",
    "dead": 73,
    "id": "bdqD4kpdqGgUaX70Tm2Q",
    "infected": 4530,
    "recovered": 1995,
    "latitude": 3.139,
    "pop": 31620000,
    "sick": 2462,
    "invisible": false
  },
  {
    "latitude": 12.20189,
    "pop": 25160,
    "longitude": -68.262383,
    "name": "Caribbean Netherlands",
    "country": "BQ",
    "lastUpdated": "2020-04-11T20:00:03.440Z",
    "dead": 0,
    "id": "be9TyF8p1bLoSF6l32se",
    "infected": 2,
    "recovered": 0,
    "sick": 2,
    "invisible": false
  },
  {
    "infected": 10151,
    "recovered": 381,
    "latitude": 60.128162,
    "pop": 10120000,
    "longitude": 18.643501,
    "name": "Sweden",
    "country": "SE",
    "lastUpdated": "2020-04-11T20:00:03.417Z",
    "dead": 887,
    "id": "bignnyt2A8BBx8VNo32p",
    "sick": 8883,
    "invisible": false
  },
  {
    "infected": 17,
    "recovered": 0,
    "latitude": 23.6102,
    "pop": 31900000,
    "longitude": 85.2799,
    "name": "Jharkhand",
    "country": "IN",
    "lastUpdated": "2020-04-11T20:10:01.625Z",
    "dead": 1,
    "id": "bo2XnTYrVRoaktD5uF93",
    "sick": 16,
    "invisible": false
  },
  {
    "latitude": 17.363747,
    "pop": 53100,
    "longitude": -62.754593,
    "name": "Saint Kitts and Nevis",
    "country": "KN",
    "lastUpdated": "2020-04-11T20:00:03.437Z",
    "dead": 0,
    "id": "bor36ktvkrB3iSxlsegc",
    "infected": 12,
    "recovered": 0,
    "sick": 12,
    "invisible": false
  },
  {
    "latitude": 40.973765,
    "pop": 2877000,
    "longitude": 20.010162,
    "name": "Albania",
    "country": "AL",
    "lastUpdated": "2020-04-11T20:00:03.427Z",
    "dead": 23,
    "id": "cCGmFmwHOoBrEpvG3qBP",
    "infected": 433,
    "recovered": 197,
    "sick": 213,
    "invisible": false
  },
  {
    "lastUpdated": "2020-04-11T20:00:03.435Z",
    "dead": 3,
    "id": "cIbchhSBTuxXmXYgpkdB",
    "infected": 31,
    "recovered": 2,
    "latitude": 16.871311,
    "pop": 55901000,
    "longitude": 96.199379,
    "name": "Myanmar",
    "country": "MM",
    "sick": 26,
    "invisible": false
  },
  {
    "recovered": 2,
    "latitude": -25.953724,
    "pop": 29670000,
    "longitude": 32.588711,
    "name": "Mozambique",
    "country": "MZ",
    "lastUpdated": "2020-04-11T20:00:03.435Z",
    "dead": 0,
    "id": "cO8TChMvQvAtoZMNurTQ",
    "infected": 20,
    "sick": 18,
    "invisible": false
  },
  {
    "recovered": 4,
    "latitude": 46.8625,
    "pop": 3076000,
    "longitude": 103.8467,
    "name": "Mongolia",
    "country": "MN",
    "lastUpdated": "2020-04-11T20:00:03.436Z",
    "dead": 0,
    "id": "cPxONYsVo6BgvCW9HUeQ",
    "infected": 16,
    "sick": 12,
    "invisible": false
  },
  {
    "latitude": 64.963051,
    "pop": 364260,
    "longitude": -19.020836,
    "name": "Iceland",
    "country": "IS",
    "lastUpdated": "2020-04-11T20:00:03.421Z",
    "dead": 8,
    "id": "cPxe7nsRnOf6aOPqHElJ",
    "infected": 1689,
    "recovered": 841,
    "sick": 840,
    "invisible": false
  },
  {
    "longitude": 34.851612,
    "name": "Israel",
    "country": "IL",
    "lastUpdated": "2020-04-11T20:00:03.417Z",
    "dead": 101,
    "id": "cX891t0ONLNFj0MYq6La",
    "infected": 10743,
    "recovered": 1341,
    "latitude": 31.046051,
    "pop": 8712000,
    "sick": 9301,
    "invisible": false
  },
  {
    "infected": 86,
    "recovered": 49,
    "latitude": 4.749531,
    "pop": 290691,
    "longitude": -53.112909,
    "name": "Guyane",
    "country": "FR",
    "lastUpdated": "2020-04-11T17:31:47.015Z",
    "dead": 0,
    "id": "cc7s6hYGQ2MovBBBgkKb",
    "sick": 37,
    "invisible": false
  },
  {
    "infected": 184,
    "recovered": 145,
    "latitude": 61.8926,
    "pop": 49290,
    "longitude": -6.9118,
    "name": "Faeroe Islands",
    "country": "FO",
    "lastUpdated": "2020-04-11T20:00:03.431Z",
    "dead": 0,
    "id": "cgzd5EM8PZv5ziJtTz1w",
    "sick": 39,
    "invisible": false
  },
  {
    "latitude": 41.2033,
    "pop": 12810000,
    "longitude": -77.1945,
    "name": "Pennsylvania",
    "country": "US",
    "lastUpdated": "2020-04-11T20:09:16.068Z",
    "dead": 503,
    "id": "chj2FF3zb4Xxcop9RHre",
    "infected": 21719,
    "recovered": 0,
    "sick": 21216,
    "invisible": false
  },
  {
    "recovered": 794,
    "latitude": 45.7087,
    "pop": 5987000,
    "longitude": 0.6269,
    "name": "Nouvelle-Aquitaine",
    "country": "FR",
    "lastUpdated": "2020-04-11T17:36:30.047Z",
    "dead": 180,
    "id": "cpf3Y5PQTYywIm3PrpIQ",
    "infected": 2509,
    "sick": 1535,
    "invisible": false
  },
  {
    "latitude": 18.2206,
    "pop": 15094,
    "longitude": -63.0686,
    "name": "Anguilla",
    "country": "AI",
    "lastUpdated": "2020-04-11T20:00:03.439Z",
    "dead": 0,
    "id": "dVHsmH70A3rxJupqsHzC",
    "infected": 3,
    "recovered": 0,
    "sick": 3,
    "invisible": false
  },
  {
    "recovered": 71,
    "latitude": 42.50837,
    "pop": 76965,
    "longitude": 1.517155,
    "name": "Andorra",
    "country": "AD",
    "lastUpdated": "2020-04-11T20:00:03.425Z",
    "dead": 26,
    "id": "dedMXSYR2k92wkSXNZqn",
    "infected": 601,
    "sick": 504,
    "invisible": false
  },
  {
    "infected": 1326,
    "recovered": 0,
    "latitude": 38.831163,
    "pop": 967171,
    "longitude": -75.375673,
    "name": "Delaware",
    "country": "US",
    "lastUpdated": "2020-04-11T20:09:16.074Z",
    "dead": 32,
    "id": "dzCgqYduzyncjNKU9z6G",
    "sick": 1294,
    "invisible": false
  },
  {
    "infected": 52167,
    "recovered": 2965,
    "latitude": 38.9637,
    "pop": 80810000,
    "longitude": 35.2433,
    "name": "Turkey",
    "country": "TR",
    "lastUpdated": "2020-04-11T20:00:03.411Z",
    "dead": 1101,
    "id": "dzIcCaUZlbIXuRw0SyDE",
    "sick": 48101,
    "invisible": false
  },
  {
    "infected": 13799,
    "recovered": 6604,
    "latitude": 47.516232,
    "pop": 8822000,
    "longitude": 14.550072,
    "name": "Austria",
    "country": "AT",
    "lastUpdated": "2020-04-11T20:00:03.417Z",
    "dead": 337,
    "id": "e3BtI12qbqhE8jypOoZu",
    "sick": 6858,
    "invisible": false
  },
  {
    "latitude": 52.6367,
    "pop": 7963000,
    "longitude": 9.8451,
    "name": "Niedersachsen",
    "country": "DE",
    "lastUpdated": "2020-04-11T20:01:03.333Z",
    "dead": 201,
    "id": "e3CJgTO8wVbBQZaxqNze",
    "infected": 8018,
    "recovered": 3284,
    "sick": 4533,
    "invisible": false
  },
  {
    "longitude": 122.310669,
    "name": "Liaoning",
    "country": "CN",
    "lastUpdated": "2020-04-11T19:44:09.864Z",
    "dead": 2,
    "id": "e7P83iImanpd9r36oXK3",
    "infected": 145,
    "recovered": 133,
    "latitude": 41.097481,
    "pop": 43900000,
    "sick": 10,
    "invisible": false
  },
  {
    "recovered": 438,
    "latitude": 31.230391,
    "pop": 24240000,
    "longitude": 121.473701,
    "name": "Shanghai",
    "country": "CN",
    "lastUpdated": "2020-04-11T19:44:09.858Z",
    "dead": 7,
    "id": "e9pQqQa7CEblCYoDtfKo",
    "infected": 555,
    "sick": 110,
    "invisible": false
  },
  {
    "recovered": 0,
    "latitude": 42.407211,
    "pop": 6902000,
    "longitude": -71.382439,
    "name": "Massachusetts",
    "country": "US",
    "lastUpdated": "2020-04-11T20:09:16.068Z",
    "dead": 599,
    "id": "eCKDGssww4pF7NrxOySu",
    "infected": 20974,
    "sick": 20375,
    "invisible": false
  },
  {
    "latitude": 41.5912,
    "pop": 7566000,
    "longitude": 1.5209,
    "name": "Cataluña",
    "country": "ES",
    "lastUpdated": "2020-04-11T20:13:02.638Z",
    "dead": 3331,
    "id": "eLBIRTx4egPh0gGwoQRT",
    "infected": 32984,
    "recovered": 14258,
    "sick": 15395,
    "invisible": false
  },
  {
    "recovered": 5,
    "latitude": 43.740451,
    "pop": 38695,
    "longitude": 7.432032,
    "name": "Monaco",
    "country": "MC",
    "lastUpdated": "2020-04-11T20:00:03.432Z",
    "dead": 1,
    "id": "eLgKPNUwYM5MNDAtF6ql",
    "infected": 92,
    "sick": 86,
    "invisible": false
  },
  {
    "latitude": 18.4207,
    "pop": 31196,
    "longitude": -64.64,
    "name": "British Virgin Islands",
    "country": "VG",
    "lastUpdated": "2020-04-11T20:00:03.439Z",
    "dead": 0,
    "id": "eZi9SQC0jHq5jma6YHKW",
    "infected": 3,
    "recovered": 2,
    "sick": 1,
    "invisible": false
  },
  {
    "longitude": 24.684866,
    "name": "Botswana",
    "country": "BW",
    "lastUpdated": "2020-04-11T20:00:03.437Z",
    "dead": 1,
    "id": "edr7fI7Q4Kjj92eyyYLL",
    "infected": 13,
    "recovered": 0,
    "latitude": -22.328474,
    "pop": 2292000,
    "sick": 12,
    "invisible": false
  },
  {
    "infected": 4388,
    "recovered": 1411,
    "latitude": 47.2805,
    "pop": 2686000,
    "longitude": 4.9994,
    "name": "Bourgogne-Franche-Comté",
    "country": "FR",
    "lastUpdated": "2020-04-11T17:34:07.796Z",
    "dead": 478,
    "id": "ejrjMKfHexGnK52FS9Aa",
    "sick": 2499,
    "invisible": false
  },
  {
    "longitude": -73.083,
    "name": "Santander",
    "country": "CO",
    "lastUpdated": "2020-04-11T20:11:08.622Z",
    "dead": 1,
    "id": "er6jMhFclftpPfsmBU9s",
    "infected": 21,
    "recovered": 2,
    "latitude": 7.217,
    "pop": 2061000,
    "sick": 18,
    "invisible": false
  },
  {
    "longitude": 66.9237,
    "name": "Kazakhstan",
    "country": "KZ",
    "lastUpdated": "2020-04-11T20:00:03.424Z",
    "dead": 10,
    "id": "etrmrftkQg6Kbd9seAga",
    "infected": 865,
    "recovered": 81,
    "latitude": 48.0196,
    "pop": 18040000,
    "sick": 774,
    "invisible": false
  },
  {
    "infected": 560,
    "recovered": 547,
    "latitude": 30.14208,
    "pop": 81100000,
    "longitude": 102.960701,
    "name": "Sichuan",
    "country": "CN",
    "lastUpdated": "2020-04-11T19:44:09.864Z",
    "dead": 3,
    "id": "eyK5bxFkwdoAouIBvLFM",
    "sick": 10,
    "invisible": false
  },
  {
    "longitude": 55.975414,
    "name": "Oman",
    "country": "OM",
    "lastUpdated": "2020-04-11T20:00:03.426Z",
    "dead": 3,
    "id": "f9kmlhYtc3WA3kjbWszW",
    "infected": 546,
    "recovered": 109,
    "latitude": 21.473534,
    "pop": 4636000,
    "sick": 434,
    "invisible": false
  },
  {
    "recovered": 5,
    "latitude": -0.228021,
    "pop": 81340000,
    "longitude": 15.8276587,
    "name": "Congo",
    "country": "CG",
    "lastUpdated": "2020-04-11T20:00:03.433Z",
    "dead": 5,
    "id": "fEyJ83bQtvcaes8KLhVx",
    "infected": 60,
    "sick": 50,
    "invisible": false
  },
  {
    "latitude": 51.1045,
    "pop": 4081000,
    "longitude": 13.2017,
    "name": "Sachsen",
    "country": "DE",
    "lastUpdated": "2020-04-11T20:01:03.333Z",
    "dead": 69,
    "id": "fGqVm2khm3IBRs709S1f",
    "infected": 3781,
    "recovered": 1560,
    "sick": 2152,
    "invisible": false
  },
  {
    "lastUpdated": "2020-04-11T17:38:00.000Z",
    "dead": 4888,
    "id": "fIp76gl05LhZ0aOxUbhz",
    "invisible": true,
    "infected": 0,
    "recovered": 0,
    "latitude": 47,
    "longitude": 2,
    "name": "Unknown France region",
    "country": "FR",
    "sick": 0
  },
  {
    "latitude": 15.4542,
    "pop": 14900000,
    "longitude": 18.7322,
    "name": "Chad",
    "country": "TD",
    "lastUpdated": "2020-04-11T20:00:03.437Z",
    "dead": 0,
    "id": "fJc9CaZGR1OCHaW8Tn4V",
    "infected": 11,
    "recovered": 2,
    "sick": 9,
    "invisible": false
  },
  {
    "longitude": 36.691952,
    "name": "Jordan",
    "country": "JO",
    "lastUpdated": "2020-04-11T20:00:03.428Z",
    "dead": 7,
    "id": "fK06AziL8wyrcoz7rsmJ",
    "infected": 381,
    "recovered": 177,
    "latitude": 31.295929,
    "pop": 9702000,
    "sick": 197,
    "invisible": false
  },
  {
    "lastUpdated": "2020-04-11T18:09:18.491Z",
    "dead": 533,
    "id": "fNganaGVPifA4QahEQPS",
    "infected": 18494,
    "recovered": 0,
    "latitude": 27.716933,
    "pop": 21300000,
    "longitude": -81.555239,
    "name": "Florida",
    "country": "US",
    "sick": 17961,
    "invisible": false
  },