[
  {
    "recovered": 0,
    "latitude": 25.315058,
    "longitude": 51.145517,
    "name": "Qatar",
    "country": "QA",
    "dead": 0,
    "lastUpdated": "2020-03-08T18:45:03.592Z",
    "id": "0m4aECS0Z2DGFEr8ldgI",
    "hide": false,
    "infected": 15,
    "sick": 15
  },
  {
    "dead": 1,
    "lastUpdated": "2020-03-08T08:43:10.283Z",
    "id": "0x2HLhr5z5xAtEdO4iZm",
    "hide": false,
    "infected": 245,
    "recovered": 226,
    "latitude": 35.64249,
    "longitude": 108.472214,
    "name": "Shaanxi",
    "country": "CN",
    "sick": 18
  },
  {
    "id": "19MvIhipqTyYv1H37Upw",
    "hide": false,
    "infected": 3,
    "recovered": 0,
    "latitude": 41.643351,
    "longitude": 21.668393,
    "name": "North Macedonia",
    "country": "MK",
    "dead": 0,
    "lastUpdated": "2020-03-08T18:45:03.552Z",
    "sick": 3
  },
  {
    "dead": 0,
    "lastUpdated": "2020-03-08T08:42:40.164Z",
    "id": "1Fap7rZu9SIRqf5TG9Dg",
    "hide": false,
    "infected": 18,
    "recovered": 18,
    "latitude": 35.801933,
    "longitude": 96.779286,
    "name": "Qinghai",
    "country": "CN",
    "sick": 0
  },
  {
    "recovered": 0,
    "latitude": -14.235004,
    "longitude": -51.925282,
    "name": "Brazil",
    "country": "BR",
    "dead": 0,
    "lastUpdated": "2020-03-08T18:45:03.451Z",
    "id": "1f0YoV0vAcexEhpESyZc",
    "hide": false,
    "infected": 20,
    "sick": 20
  },
  {
    "hide": false,
    "infected": 1,
    "recovered": 1,
    "latitude": 30.15336,
    "longitude": 88.787865,
    "name": "Tibet",
    "country": "CN",
    "dead": 0,
    "lastUpdated": "2020-03-08T08:44:07.844Z",
    "id": "25qIBtsW2nfQj3pwBKg9",
    "sick": 0
  },
  {
    "latitude": -1.572184,
    "longitude": 115.66779,
    "name": "Indonesia",
    "country": "ID",
    "dead": 0,
    "lastUpdated": "2020-03-08T18:45:03.510Z",
    "id": "2KHYUb5t3lwzVVmDjwNX",
    "hide": false,
    "infected": 6,
    "recovered": 0,
    "sick": 6
  },
  {
    "infected": 7,
    "recovered": 0,
    "latitude": 43.807191,
    "longitude": -120.585594,
    "name": "Oregon",
    "country": "US",
    "dead": 0,
    "lastUpdated": "2020-03-08T08:11:56.497Z",
    "id": "2OrsssmGUs4XCzaZzvTv",
    "hide": false,
    "sick": 7
  },
  {
    "recovered": 90,
    "latitude": 43.851921,
    "longitude": 126.548103,
    "name": "Jilin",
    "country": "CN",
    "dead": 1,
    "lastUpdated": "2020-03-08T08:42:32.521Z",
    "id": "2jxHvSsxdnom0nPNvOT8",
    "hide": false,
    "infected": 93,
    "sick": 2
  },
  {
    "dead": 0,
    "lastUpdated": "2020-03-08T18:45:03.485Z",
    "id": "2p11BjSAs3wVyymgqBOe",
    "hide": false,
    "infected": 1,
    "recovered": 0,
    "latitude": 36.1408,
    "longitude": -5.3536,
    "name": "Gibraltar",
    "country": "GI",
    "sick": 1
  },
  {
    "hide": false,
    "infected": 27,
    "recovered": 4,
    "latitude": 53.7267,
    "longitude": -127.6476,
    "name": "British Columbia",
    "country": "CA",
    "dead": 0,
    "lastUpdated": "2020-03-08T08:45:06.703Z",
    "id": "4hfZRUoUgI4a3vrG0GBk",
    "sick": 23
  },
  {
    "latitude": 41.065877,
    "longitude": -7.920053,
    "name": "Portugal",
    "country": "PT",
    "dead": 0,
    "lastUpdated": "2020-03-08T18:45:03.573Z",
    "id": "4rQLxUCMmQLpbi6E9tbH",
    "hide": false,
    "infected": 30,
    "recovered": 0,
    "sick": 30
  },
  {
    "dead": 0,
    "lastUpdated": "2020-03-08T18:45:03.439Z",
    "id": "4zqzRm2xHn0CDVOUQJ8p",
    "hide": false,
    "infected": 9,
    "recovered": 0,
    "latitude": 40.3426,
    "longitude": 47.93802,
    "name": "Azerbaijan",
    "country": "AZ",
    "sick": 9
  },
  {
    "dead": 3,
    "lastUpdated": "2020-03-08T08:46:46.501Z",
    "id": "5N16a2OXXRpsEFanw0TC",
    "hide": false,
    "infected": 38,
    "recovered": 4,
    "latitude": -31.253218,
    "longitude": 146.921097,
    "name": "New South Wales",
    "country": "AU",
    "sick": 31
  },
  {
    "latitude": 28.394857,
    "longitude": 84.124008,
    "name": "Nepal",
    "country": "NP",
    "dead": 0,
    "lastUpdated": "2020-03-08T18:45:03.594Z",
    "id": "5gXZIjRgAvd6xWN1LOv8",
    "hide": false,
    "infected": 1,
    "recovered": 1,
    "sick": 0
  },
  {
    "hide": false,
    "infected": 10,
    "recovered": 2,
    "latitude": 12.879721,
    "longitude": 121.774017,
    "name": "Philippines",
    "country": "PH",
    "dead": 1,
    "lastUpdated": "2020-03-08T18:45:03.595Z",
    "id": "5pwmh7aSdGRKqRbnuyc0",
    "sick": 7
  },
  {
    "latitude": 55.621011,
    "longitude": 23.804991,
    "name": "Lithuania",
    "country": "LT",
    "dead": 0,
    "lastUpdated": "2020-03-08T18:45:03.471Z",
    "id": "694ON7d0mRJDeM1gHBTR",
    "hide": false,
    "infected": 1,
    "recovered": 0,
    "sick": 1
  },
  {
    "latitude": 22.396427,
    "longitude": 114.109497,
    "name": "Hong Kong",
    "country": "HK",
    "dead": 3,
    "lastUpdated": "2020-03-08T18:45:03.564Z",
    "id": "6IcHIIH0zXpY0POmBZTv",
    "hide": false,
    "infected": 114,
    "recovered": 55,
    "sick": 56
  },
  {
    "longitude": 14.5058,
    "name": "Slovenia",
    "country": "SI",
    "dead": 0,
    "lastUpdated": "2020-03-08T18:45:03.575Z",
    "id": "6ahNiyKDSDAftCctgLH3",
    "hide": false,
    "infected": 16,
    "recovered": 0,
    "latitude": 46.0569,
    "sick": 16
  },
  {
    "longitude": -62.818544,
    "name": "Saint Barthelemy",
    "country": "FR",
    "dead": 0,
    "lastUpdated": "2020-03-08T08:37:02.328Z",
    "id": "78Ox26bNHDA2Pk2b3Uwn",
    "hide": false,
    "infected": 3,
    "recovered": 0,
    "latitude": 17.901672,
    "sick": 3
  },
  {
    "latitude": 47.4979,
    "longitude": 19.0402,
    "name": "Hungary",
    "country": "HU",
    "dead": 0,
    "lastUpdated": "2020-03-08T18:45:03.472Z",
    "id": "7rYC2iFB50c55Ihgbs4Q",
    "hide": false,
    "infected": 7,
    "recovered": 0,
    "sick": 7
  },
  {
    "infected": 1,
    "recovered": 0,
    "latitude": 53.560281,
    "longitude": -113.487916,
    "name": "Edmonton",
    "country": "CA",
    "dead": 0,
    "lastUpdated": "2020-03-08T08:45:38.514Z",
    "id": "88Jeyxv0ccymGSIJLKsT",
    "hide": false,
    "sick": 1
  },
  {
    "latitude": 7.3697,
    "longitude": 12.3547,
    "name": "Cameroon",
    "country": "CM",
    "dead": 0,
    "lastUpdated": "2020-03-08T18:45:03.516Z",
    "id": "8C0d7WVCjyUGtnc2gUAR",
    "hide": false,
    "infected": 2,
    "recovered": 0,
    "sick": 2
  },
  {
    "hide": false,
    "infected": 150,
    "recovered": 90,
    "latitude": 1.352083,
    "longitude": 103.819839,
    "name": "Singapore",
    "country": "SG",
    "dead": 0,
    "lastUpdated": "2020-03-08T18:45:03.538Z",
    "id": "8pA3fM4xC2c2wv1b4TnE",
    "sick": 60
  },
  {
    "recovered": 4,
    "latitude": 45.943161,
    "longitude": 24.966761,
    "name": "Romania",
    "country": "RO",
    "dead": 0,
    "lastUpdated": "2020-03-08T18:45:03.545Z",
    "id": "9QcETqEcM2fTv9zRvx5T",
    "hide": false,
    "infected": 15,
    "sick": 11
  },
  {
    "recovered": 1,
    "latitude": 61.92411,
    "longitude": 25.748152,
    "name": "Finland",
    "country": "FI",
    "dead": 0,
    "lastUpdated": "2020-03-08T18:45:03.551Z",
    "id": "9p6OCdZbUUwBLA60Gk3W",
    "hide": false,
    "infected": 24,
    "sick": 23
  },
  {
    "latitude": 43.311643,
    "longitude": -71.590315,
    "name": "New Hampshire",
    "country": "US",
    "dead": 0,
    "lastUpdated": "2020-03-08T08:16:22.300Z",
    "id": "A84CwQ52kA46Hr7pn6Bm",
    "hide": false,
    "infected": 2,
    "recovered": 0,
    "sick": 2
  },
  {
    "latitude": 41.823261,
    "longitude": -71.412257,
    "name": "Rhode Island",
    "country": "US",
    "dead": 0,
    "lastUpdated": "2020-03-08T08:14:02.327Z",
    "id": "AEUWUHS65qvjEslew11c",
    "hide": false,
    "infected": 3,
    "recovered": 0,
    "sick": 3
  },
  {
    "recovered": 919,
    "latitude": 27.285971,
    "longitude": 116.01609,
    "name": "Jiangxi",
    "country": "CN",
    "dead": 1,
    "lastUpdated": "2020-03-08T08:40:22.968Z",
    "id": "AmBYm5J6E9Cuez1FQjiN",
    "hide": false,
    "infected": 935,
    "sick": 15
  },
  {
    "hide": false,
    "infected": 20,
    "recovered": 0,
    "latitude": 28.033886,
    "longitude": 1.659626,
    "name": "Algeria",
    "country": "DZ",
    "dead": 0,
    "lastUpdated": "2020-03-08T18:45:03.602Z",
    "id": "AwN0CScPDApcLFgz6e3z",
    "sick": 20
  },
  {
    "recovered": 3,
    "latitude": 20.5937,
    "longitude": 78.9629,
    "name": "India",
    "country": "IN",
    "dead": 0,
    "lastUpdated": "2020-03-08T18:45:03.524Z",
    "id": "B05tcRxZlMUSyed5WcAA",
    "hide": false,
    "infected": 40,
    "sick": 37
  },
  {
    "latitude": 45.099998,
    "longitude": 15.2,
    "name": "Croatia",
    "country": "HR",
    "dead": 0,
    "lastUpdated": "2020-03-08T18:45:03.601Z",
    "id": "B82Ef45M8cDu4q7VsSHF",
    "hide": false,
    "infected": 12,
    "recovered": 0,
    "sick": 12
  },
  {
    "longitude": -100.996784,
    "name": "United States (Unknown State)",
    "country": "US",
    "dead": 0,
    "lastUpdated": "2020-03-08T08:10:54.402Z",
    "id": "BCFAwm0wjOZlbPfnttGd",
    "hide": false,
    "infected": 45,
    "recovered": 0,
    "latitude": 40.23985,
    "sick": 45
  },
  {
    "latitude": 39.509109,
    "longitude": -76.98432,
    "name": "Maryland",
    "country": "US",
    "dead": 0,
    "lastUpdated": "2020-03-08T08:20:57.710Z",
    "id": "BF51mWl51fgEcyBpCSzb",
    "hide": false,
    "infected": 3,
    "recovered": 0,
    "sick": 3
  },
  {
    "recovered": 0,
    "latitude": 53.709808,
    "longitude": 27.953388,
    "name": "Belarus",
    "country": "BY",
    "dead": 0,
    "lastUpdated": "2020-03-08T18:45:03.507Z",
    "id": "BGg6yVU5VP71B8NXU0oh",
    "hide": false,
    "infected": 6,
    "sick": 6
  },
  {
    "infected": 5,
    "recovered": 2,
    "latitude": 33.42744,
    "longitude": -111.94012,
    "name": "Arizona",
    "country": "US",
    "dead": 0,
    "lastUpdated": "2020-03-08T07:58:19.597Z",
    "id": "BTEESCuD2ZbS1afunR2A",
    "hide": false,
    "sick": 3
  },
  {
    "latitude": 40.719042,
    "longitude": -73.982597,
    "name": "New York",
    "country": "US",
    "dead": 0,
    "lastUpdated": "2020-03-08T08:13:34.229Z",
    "id": "C3BCUzV80z9GfiuByIcr",
    "hide": false,
    "infected": 77,
    "recovered": 0,
    "sick": 77
  },
  {
    "hide": false,
    "infected": 26,
    "recovered": 0,
    "latitude": 49.731626,
    "longitude": 15.359413,
    "name": "Czech Republic",
    "country": "CZ",
    "dead": 0,
    "lastUpdated": "2020-03-08T08:38:41.859Z",
    "id": "C6S76AggdWVU8G22jFHQ",
    "sick": 26
  },
  {
    "infected": 85,
    "recovered": 6,
    "latitude": 26.0667,
    "longitude": 50.557701,
    "name": "Bahrain",
    "country": "BH",
    "dead": 0,
    "lastUpdated": "2020-03-08T18:45:03.497Z",
    "id": "C7cj4nwRITs13KnaJrQ2",
    "hide": false,
    "sick": 79
  },
  {
    "dead": 2,
    "lastUpdated": "2020-03-08T15:17:40.057Z",
    "id": "CrXu6i5Sqx11iwdfHfBs",
    "hide": false,
    "infected": 254,
    "recovered": 18,
    "latitude": 52.355518,
    "longitude": -1.17432,
    "name": "Great Britain",
    "country": "GB",
    "sick": 234
  },
  {
    "hide": false,
    "infected": 1,
    "recovered": 0,
    "latitude": 40.259003,
    "longitude": 44.818474,
    "name": "Armenia",
    "country": "AM",
    "dead": 0,
    "lastUpdated": "2020-03-08T18:45:03.466Z",
    "id": "DCJCtZoBTWQ4mzdDNljD",
    "sick": 1
  },
  {
    "dead": 0,
    "lastUpdated": "2020-03-08T18:45:03.489Z",
    "id": "DdBt8qsG6A3g92oOR3ow",
    "hide": false,
    "infected": 10,
    "recovered": 10,
    "latitude": 22.192039,
    "longitude": 113.551262,
    "name": "Macao",
    "country": "MO",
    "sick": 0
  },
  {
    "longitude": 22.9444,
    "name": "Greece",
    "country": "GR",
    "dead": 0,
    "lastUpdated": "2020-03-08T18:45:03.459Z",
    "id": "Dtr1lap1RpJpXJdXGJiW",
    "hide": false,
    "infected": 73,
    "recovered": 0,
    "latitude": 40.6401,
    "sick": 73
  },
  {
    "recovered": 15,
    "latitude": 25.03841,
    "longitude": 121.563698,
    "name": "Taiwan",
    "country": "TW",
    "dead": 1,
    "lastUpdated": "2020-03-08T18:45:03.533Z",
    "id": "EKTfs8e7M6DXzI1HqyyX",
    "hide": false,
    "infected": 45,
    "sick": 29
  },
  {
    "latitude": 10.327273,
    "longitude": -84.387618,
    "name": "Costa Rica",
    "country": "CR",
    "dead": 0,
    "lastUpdated": "2020-03-08T18:45:03.579Z",
    "id": "EQzJvzVHKjs8kLmK7BMu",
    "hide": false,
    "infected": 5,
    "recovered": 0,
    "sick": 5
  },
  {
    "dead": 0,
    "lastUpdated": "2020-03-08T18:45:03.458Z",
    "id": "FCDmlmnIIswd8bQiUjfN",
    "hide": false,
    "infected": 4,
    "recovered": 0,
    "latitude": 33.93911,
    "longitude": 67.709953,
    "name": "Afghanistan",
    "country": "AF",
    "sick": 4
  },
  {
    "latitude": 29.431585,
    "longitude": 106.912254,
    "name": "Chongqing",
    "country": "CN",
    "dead": 6,
    "lastUpdated": "2020-03-08T08:39:15.584Z",
    "id": "FErOU1m4Tj7jIkRam3vF",
    "hide": false,
    "infected": 576,
    "recovered": 526,
    "sick": 44
  },
  {
    "recovered": 1,
    "latitude": 29.311661,
    "longitude": 47.481766,
    "name": "Kuwait",
    "country": "KW",
    "dead": 0,
    "lastUpdated": "2020-03-08T18:45:03.453Z",
    "id": "FZsUkhxBEgqsPb4eO0PN",
    "hide": false,
    "infected": 64,
    "sick": 63
  },
  {
    "hide": false,
    "infected": 5,
    "recovered": 0,
    "latitude": 18.947829,
    "longitude": -70.430399,
    "name": "Dominican Republic",
    "country": "DO",
    "dead": 0,
    "lastUpdated": "2020-03-08T18:45:03.570Z",
    "id": "FuiVEJvWb0QMCpxJ3563",
    "sick": 5
  },
  {
    "latitude": 48.669,
    "longitude": 19.699,
    "name": "Slovakia",
    "country": "SK",
    "dead": 0,
    "lastUpdated": "2020-03-08T18:45:03.535Z",
    "id": "FzIDXoqWnTI3nUfhPyT2",
    "hide": false,
    "infected": 5,
    "recovered": 0,
    "sick": 5
  },
  {
    "dead": 0,
    "lastUpdated": "2020-03-08T18:45:03.464Z",
    "id": "GAp7Wb6IMhdgbvEtMza9",
    "hide": false,
    "infected": 7,
    "recovered": 1,
    "latitude": 30.37532,
    "longitude": 69.345116,
    "name": "Pakistan",
    "country": "PK",
    "sick": 6
  },
  {
    "hide": false,
    "infected": 45,
    "recovered": 7,
    "latitude": 23.424076,
    "longitude": 53.847816,
    "name": "United Arab Emirates",
    "country": "AE",
    "dead": 0,
    "lastUpdated": "2020-03-08T08:48:19.113Z",
    "id": "GHzBIsHy2GiBc5JV2HMs",
    "sick": 38
  },
  {
    "hide": false,
    "infected": 86,
    "recovered": 3,
    "latitude": 36.621981,
    "longitude": -119.339046,
    "name": "California",
    "country": "US",
    "dead": 1,
    "lastUpdated": "2020-03-08T08:09:15.427Z",
    "id": "Gh46r6vuaY7fbGt3IboN",
    "sick": 82
  },
  {
    "latitude": 35.87189,
    "longitude": -97.145514,
    "name": "Oklahoma",
    "country": "US",
    "dead": 0,
    "lastUpdated": "2020-03-08T08:24:22.948Z",
    "id": "GpF8ULuKOQiFDCUHN44h",
    "hide": false,
    "infected": 1,
    "recovered": 0,
    "sick": 1
  },
  {
    "infected": 75,
    "recovered": 70,
    "latitude": 42.83263,
    "longitude": 113.750972,
    "name": "Inner Mongolia",
    "country": "CN",
    "dead": 1,
    "lastUpdated": "2020-03-08T08:43:26.784Z",
    "id": "H3JeVigVbo5CSYfZG4WI",
    "hide": false,
    "sick": 4
  },
  {
    "recovered": 0,
    "latitude": 39.74536,
    "longitude": -116.724977,
    "name": "Nevada",
    "country": "US",
    "dead": 0,
    "lastUpdated": "2020-03-08T08:21:11.265Z",
    "id": "H3bDg4eV30up4WWrIDAS",
    "hide": false,
    "infected": 2,
    "sick": 2
  },
  {
    "latitude": 27.5142,
    "longitude": 90.4336,
    "name": "Bhutan",
    "country": "BT",
    "dead": 0,
    "lastUpdated": "2020-03-08T18:45:03.502Z",
    "id": "HRDpwyxpqW9RN0xLFyNu",
    "hide": false,
    "infected": 1,
    "recovered": 0,
    "sick": 1
  },
  {
    "latitude": 23.634501,
    "longitude": -102.552788,
    "name": "Mexico",
    "country": "MX",
    "dead": 0,
    "lastUpdated": "2020-03-08T18:45:03.492Z",
    "id": "I4OJ6z9Vjs1byOcbsJrd",
    "hide": false,
    "infected": 7,
    "recovered": 1,
    "sick": 6
  },
  {
    "latitude": 23.363855,
    "longitude": 113.373448,
    "name": "Guangdong",
    "country": "CN",
    "dead": 7,
    "lastUpdated": "2020-03-08T15:28:48.445Z",
    "id": "IAX0OQLVnUwU7FX0ENF1",
    "hide": false,
    "infected": 1352,
    "recovered": 1256,
    "sick": 89
  },
  {
    "hide": false,
    "infected": 1272,
    "recovered": 1247,
    "latitude": 33.875408,
    "longitude": 113.484016,
    "name": "Henan",
    "country": "CN",
    "dead": 22,
    "lastUpdated": "2020-03-08T08:39:26.086Z",
    "id": "IFuMrMvSjoiX5agYvllh",
    "sick": 3
  },
  {
    "dead": 0,
    "lastUpdated": "2020-03-07T07:06:33.230Z",
    "id": "IvQkDJkTAsoIqPRAU25n",
    "hide": false,
    "infected": 3,
    "recovered": 0,
    "latitude": 32.528564,
    "longitude": -83.280125,
    "name": "Georgia (US)",
    "country": "US",
    "sick": 3
  },
  {
    "latitude": -42.8285,
    "longitude": 172.488081,
    "name": "New Zealand",
    "country": "NZ",
    "dead": 0,
    "lastUpdated": "2020-03-08T18:45:03.448Z",
    "id": "IvVhpOoGpH6JVkGyUhXN",
    "hide": false,
    "infected": 5,
    "recovered": 0,
    "sick": 5
  },
  {
    "latitude": 49.8153,
    "longitude": 6.1296,
    "name": "Luxembourg",
    "country": "LU",
    "dead": 0,
    "lastUpdated": "2020-03-08T18:45:03.500Z",
    "id": "JcFsHSn2WvZ5LJW42ovG",
    "hide": false,
    "infected": 5,
    "recovered": 0,
    "sick": 5
  },
  {
    "dead": 0,
    "lastUpdated": "2020-03-08T18:45:03.526Z",
    "id": "JrBbirlBKGdWSdcDt7PF",
    "hide": false,
    "infected": 1,
    "recovered": 0,
    "latitude": 8.6195,
    "longitude": 0.8248,
    "name": "Togo",
    "country": "TG",
    "sick": 1
  },
  {
    "dead": 0,
    "lastUpdated": "2020-03-08T18:45:03.599Z",
    "id": "JzZ8sbqzjutThVjkPKPL",
    "hide": false,
    "infected": 4,
    "recovered": 0,
    "latitude": 42.7339,
    "longitude": 25.4858,
    "name": "Bulgaria",
    "country": "BG",
    "sick": 4
  },
  {
    "longitude": 80.771797,
    "name": "Sri Lanka",
    "country": "LK",
    "dead": 0,
    "lastUpdated": "2020-03-08T18:45:03.548Z",
    "id": "KsWzJO06cf0d6LJ4ZNh9",
    "hide": false,
    "infected": 1,
    "recovered": 1,
    "latitude": 7.873054,
    "sick": 0
  },
  {
    "latitude": 61.52401,
    "longitude": 105.318756,
    "name": "Russia",
    "country": "RU",
    "dead": 0,
    "lastUpdated": "2020-03-08T18:45:03.455Z",
    "id": "KwOuGBKSMRlmwftxAvLX",
    "hide": false,
    "infected": 17,
    "recovered": 3,
    "sick": 14
  },
  {
    "hide": false,
    "infected": 1,
    "recovered": 0,
    "latitude": 47.166,
    "longitude": 9.5554,
    "name": "Liechtenstein",
    "country": "LI",
    "dead": 0,
    "lastUpdated": "2020-03-08T18:45:03.593Z",
    "id": "LTGEU2E9MFkrCcFhZYVk",
    "sick": 1
  },
  {
    "dead": 0,
    "lastUpdated": "2020-03-08T08:21:57.341Z",
    "id": "MC8MXFw9iXYybnF8v7e6",
    "hide": false,
    "infected": 1,
    "recovered": 0,
    "latitude": 37.8393,
    "longitude": -84.27,
    "name": "Kentucky",
    "country": "US",
    "sick": 1
  },
  {
    "hide": false,
    "infected": 1,
    "recovered": 0,
    "latitude": 40.2672,
    "longitude": -86.1349,
    "name": "Indiana",
    "country": "US",
    "dead": 0,
    "lastUpdated": "2020-03-08T08:21:43.950Z",
    "id": "MOxDkmQ4wBi1CuAdVxDE",
    "sick": 1
  },
  {
    "longitude": 105.977203,
    "name": "Ningxia",
    "country": "CN",
    "dead": 0,
    "lastUpdated": "2020-03-08T08:43:51.841Z",
    "id": "MntmjjuHljarCdt6aIeE",
    "hide": false,
    "infected": 75,
    "recovered": 71,
    "latitude": 37.330509,
    "sick": 4
  },
  {
    "infected": 3,
    "recovered": 0,
    "latitude": 44.696652,
    "longitude": 17.824332,
    "name": "Bosnia and Herzegovina",
    "country": "BA",
    "dead": 0,
    "lastUpdated": "2020-03-08T18:45:03.518Z",
    "id": "N7c13sCQF0G789XAVazJ",
    "hide": false,
    "sick": 3
  },
  {
    "hide": false,
    "infected": 133,
    "recovered": 130,
    "latitude": 37.242565,
    "longitude": 111.856857,
    "name": "Shanxi",
    "country": "CN",
    "dead": 0,
    "lastUpdated": "2020-03-08T08:43:17.520Z",
    "id": "NBRIGIRrJB1Ry8prDNAC",
    "sick": 3
  },
  {
    "latitude": 35.7596,
    "longitude": -79.0193,
    "name": "North Carolina",
    "country": "US",
    "dead": 0,
    "lastUpdated": "2020-03-08T08:23:01.242Z",
    "id": "NC64Qp5kTqAfiTuR27k8",
    "hide": false,
    "infected": 2,
    "recovered": 0,
    "sick": 2
  },
  {
    "hide": false,
    "infected": 3,
    "recovered": 1,
    "latitude": 56.96776,
    "longitude": 25.837107,
    "name": "Latvia",
    "country": "LV",
    "dead": 0,
    "lastUpdated": "2020-03-08T18:45:03.572Z",
    "id": "NmmMKy0YqA8StHdGzB5N",
    "sick": 2
  },
  {
    "dead": 0,
    "lastUpdated": "2020-03-08T08:24:38.124Z",
    "id": "ONU4CK8QjViFHKg2w5if",
    "hide": false,
    "infected": 2,
    "recovered": 0,
    "latitude": 34.003307,
    "longitude": -80.525613,
    "name": "South Carolina",
    "country": "US",
    "sick": 2
  },
  {
    "recovered": 0,
    "latitude": -41.915264,
    "longitude": 146.725256,
    "name": "Tasmania",
    "country": "AU",
    "dead": 0,
    "lastUpdated": "2020-03-08T08:47:26.077Z",
    "id": "OnOseaqWdnuP18oruABW",
    "hide": false,
    "infected": 2,
    "sick": 2
  },
  {
    "hide": false,
    "infected": 1,
    "recovered": 0,
    "latitude": 46.7296,
    "longitude": -94.6859,
    "name": "Minnesota",
    "country": "US",
    "dead": 0,
    "lastUpdated": "2020-03-08T08:22:46.978Z",
    "id": "PJvVYosLIhbcRZYnKX1R",
    "sick": 1
  },
  {
    "latitude": 41.908724,
    "longitude": -87.631753,
    "name": "Illinois",
    "country": "US",
    "dead": 0,
    "lastUpdated": "2020-03-08T07:57:56.874Z",
    "id": "PTwQr9ijo0TBBsPH2sdJ",
    "hide": false,
    "infected": 6,
    "recovered": 2,
    "sick": 4
  },
  {
    "longitude": 9.460554,
    "name": "Tunisia",
    "country": "TN",
    "dead": 0,
    "lastUpdated": "2020-03-08T18:45:03.445Z",
    "id": "Pr76V4raf108uSRoEXac",
    "hide": false,
    "infected": 1,
    "recovered": 0,
    "latitude": 34.201507,
    "sick": 1
  },
  {
    "longitude": 143.94853,
    "name": "Victoria",
    "country": "AU",
    "dead": 0,
    "lastUpdated": "2020-03-08T08:46:56.346Z",
    "id": "Q18mrGvFWTLX2BU9SqhQ",
    "hide": false,
    "infected": 11,
    "recovered": 7,
    "latitude": -37.009609,
    "sick": 4
  },
  {
    "hide": false,
    "infected": 10,
    "recovered": 0,
    "latitude": 58.595272,
    "longitude": 25.013607,
    "name": "Estonia",
    "country": "EE",
    "dead": 0,
    "lastUpdated": "2020-03-08T18:45:03.491Z",
    "id": "QR9go2hQKXjty7JHUYe4",
    "sick": 10
  },
  {
    "dead": 0,
    "lastUpdated": "2020-03-08T08:45:20.101Z",
    "id": "Rx4TuyMpfGb3S8wYJX0x",
    "hide": false,
    "infected": 27,
    "recovered": 3,
    "latitude": 43.653225,
    "longitude": -79.383186,
    "name": "Toronto, ON",
    "country": "CA",
    "sick": 24
  },
  {
    "latitude": 14.652027,
    "longitude": -61.011715,
    "name": "Martinique",
    "country": "FR",
    "dead": 0,
    "lastUpdated": "2020-03-08T08:37:09.069Z",
    "id": "SDdefnq1bc3ZNr7SpEsW",
    "hide": false,
    "infected": 2,
    "recovered": 0,
    "sick": 2
  },
  {
    "recovered": 3,
    "latitude": 46.818188,
    "longitude": 8.227512,
    "name": "Switzerland",
    "country": "CH",
    "dead": 2,
    "lastUpdated": "2020-03-08T18:45:03.424Z",
    "id": "SGe9sCPayMqh6RsGFaBA",
    "hide": false,
    "infected": 337,
    "sick": 332
  },
  {
    "latitude": 45.505029,
    "longitude": -73.581878,
    "name": "Montreal",
    "country": "CA",
    "dead": 0,
    "lastUpdated": "2020-03-08T08:45:26.196Z",
    "id": "SHoOE3NiJgWAlDVBzwYH",
    "hide": false,
    "infected": 3,
    "recovered": 0,
    "sick": 3
  },
  {
    "hide": false,
    "infected": 1,
    "recovered": 0,
    "latitude": 41.4925,
    "longitude": -99.9018,
    "name": "Nebraska",
    "country": "US",
    "dead": 0,
    "lastUpdated": "2020-03-08T08:22:15.867Z",
    "id": "SakhKQzKu1LRI8laqdQq",
    "sick": 1
  },
  {
    "latitude": 12.565679,
    "longitude": 104.990967,
    "name": "Cambodia",
    "country": "KH",
    "dead": 0,
    "lastUpdated": "2020-03-08T18:45:03.469Z",
    "id": "SioMALgUbo7peXmbco2f",
    "hide": false,
    "infected": 2,
    "recovered": 1,
    "sick": 1
  },
  {
    "latitude": 23.635796,
    "longitude": 44.344334,
    "name": "Saudi Arabia",
    "country": "SA",
    "dead": 0,
    "lastUpdated": "2020-03-08T18:45:03.503Z",
    "id": "T7NffoeCgTUpAbOHvYwP",
    "hide": false,
    "infected": 11,
    "recovered": 1,
    "sick": 10
  },
  {
    "latitude": 39.318928,
    "longitude": -105.461392,
    "name": "Colorado",
    "country": "US",
    "dead": 0,
    "lastUpdated": "2020-03-08T08:20:39.720Z",
    "id": "Th4dlpXXmSDgi1OHs36P",
    "hide": false,
    "infected": 8,
    "recovered": 0,
    "sick": 8
  },
  {
    "dead": 0,
    "lastUpdated": "2020-03-08T18:45:03.468Z",
    "id": "Ty1AY3VLPJcRZgdBIERx",
    "hide": false,
    "infected": 35,
    "recovered": 1,
    "latitude": 55.675758,
    "longitude": 12.56902,
    "name": "Denmark",
    "country": "DK",
    "sick": 34
  },
  {
    "infected": 758,
    "recovered": 638,
    "latitude": 36.395859,
    "longitude": 118.769882,
    "name": "Shandong",
    "country": "CN",
    "dead": 6,
    "lastUpdated": "2020-03-08T08:42:49.487Z",
    "id": "U0tkTJ9CGsBuFJ2Gdoum",
    "hide": false,
    "sick": 114
  },
  {
    "latitude": 43.94236,
    "longitude": 12.457777,
    "name": "San Marino",
    "country": "SM",
    "dead": 1,
    "lastUpdated": "2020-03-08T18:45:03.550Z",
    "id": "U12rMD5GDW58Q0lIwrB1",
    "hide": false,
    "infected": 36,
    "recovered": 0,
    "sick": 35
  },
  {
    "infected": 502,
    "recovered": 76,
    "latitude": 36.204823,
    "longitude": 138.25293,
    "name": "Japan",
    "country": "JP",
    "dead": 7,
    "lastUpdated": "2020-03-08T18:45:03.561Z",
    "id": "U13Gy4BpRLAZ95bPmBXd",
    "hide": false,
    "sick": 419
  },
  {
    "latitude": 3.527606,
    "longitude": -72.998674,
    "name": "Colombia",
    "country": "CO",
    "dead": 0,
    "lastUpdated": "2020-03-08T18:45:03.558Z",
    "id": "VAAmtxtDuCY0o55zRsOh",
    "hide": false,
    "infected": 1,
    "recovered": 0,
    "sick": 1
  },
  {
    "hide": false,
    "infected": 174,
    "recovered": 170,
    "latitude": 25.181129,
    "longitude": 101.864143,
    "name": "Yunnan",
    "country": "CN",
    "dead": 2,
    "lastUpdated": "2020-03-08T08:41:21.481Z",
    "id": "VIf8T8PD3ZzlzAm5eBCX",
    "sick": 2
  },
  {
    "recovered": 0,
    "latitude": -30.5595,
    "longitude": 22.9375,
    "name": "South Africa",
    "country": "ZA",
    "dead": 0,
    "lastUpdated": "2020-03-08T18:45:03.585Z",
    "id": "Whrue10NtwIObLvFFyBr",
    "hide": false,
    "infected": 3,
    "sick": 3
  },
  {
    "dead": 0,
    "lastUpdated": "2020-03-08T18:45:03.555Z",
    "id": "WpLayPPLIJ7VcHZdQaoM",
    "hide": false,
    "infected": 3,
    "recovered": 0,
    "latitude": 23.685,
    "longitude": 90.3563,
    "name": "Bangladesh",
    "country": "BD",
    "sick": 3
  },
  {
    "dead": 1,
    "lastUpdated": "2020-03-08T08:40:39.190Z",
    "id": "XBBw0iMPrmiEu3qogkbi",
    "hide": false,
    "infected": 296,
    "recovered": 295,
    "latitude": 25.92448,
    "longitude": 118.278992,
    "name": "Fujian",
    "country": "CN",
    "sick": 0
  },
  {
    "latitude": 51.165691,
    "longitude": 10.451526,
    "name": "Germany",
    "country": "DE",
    "dead": 0,
    "lastUpdated": "2020-03-08T18:45:03.456Z",
    "id": "XWtMdKtp2HAFy68kPZLa",
    "hide": false,
    "infected": 1040,
    "recovered": 18,
    "sick": 1022
  },
  {
    "id": "XdekMZcw1lJK2MWpBlNK",
    "hide": false,
    "infected": 7375,
    "recovered": 622,
    "latitude": 41.871941,
    "longitude": 12.56738,
    "name": "Italy",
    "country": "IT",
    "dead": 366,
    "lastUpdated": "2020-03-08T18:45:03.429Z",
    "sick": 6387
  },
  {
    "dead": 0,
    "lastUpdated": "2020-03-08T18:45:03.587Z",
    "id": "YMzKw0SnXG71VT7H1jff",
    "hide": false,
    "infected": 19,
    "recovered": 0,
    "latitude": 31.9522,
    "longitude": 35.2332,
    "name": "Palestine",
    "country": "PS",
    "sick": 19
  },
  {
    "latitude": 37.568291,
    "longitude": 126.99778,
    "name": "South Korea",
    "country": "KR",
    "dead": 50,
    "lastUpdated": "2020-03-08T12:21:09.910Z",
    "id": "Yw9uBekNlefXBcOCNMfP",
    "hide": false,
    "infected": 7313,
    "recovered": 135,
    "sick": 7128
  },
  {
    "hide": false,
    "infected": 8,
    "recovered": 0,
    "latitude": 52.2297,
    "longitude": 21.0122,
    "name": "Poland",
    "country": "PL",
    "dead": 0,
    "lastUpdated": "2020-03-08T18:45:03.544Z",
    "id": "ZAZNuCK1VweBaTLCFzCk",
    "sick": 8
  },
  {
    "latitude": -30.000233,
    "longitude": 136.209152,
    "name": "South Australia",
    "country": "AU",
    "dead": 0,
    "lastUpdated": "2020-03-08T08:47:09.851Z",
    "id": "a9p9pAOsjg1WAjPGc2a6",
    "hide": false,
    "infected": 7,
    "recovered": 2,
    "sick": 5
  },
  {
    "hide": false,
    "infected": 256,
    "recovered": 223,
    "latitude": 23.64407,
    "longitude": 108.26651,
    "name": "Guangxi",
    "country": "CN",
    "dead": 2,
    "lastUpdated": "2020-03-08T08:40:47.687Z",
    "id": "aTa8MiBjtH3iY0SRs2HQ",
    "sick": 31
  },
  {
    "latitude": 39.904202,
    "longitude": 116.407394,
    "name": "Beijing",
    "country": "CN",
    "dead": 8,
    "lastUpdated": "2020-03-08T08:41:38.916Z",
    "id": "alj4hkxg9cjrTxOzwFKt",
    "hide": false,
    "infected": 428,
    "recovered": 308,
    "sick": 112
  },
  {
    "hide": false,
    "infected": 60,
    "recovered": 1,
    "latitude": 33.22319,
    "longitude": 43.679291,
    "name": "Iraq",
    "country": "IQ",
    "dead": 6,
    "lastUpdated": "2020-03-08T18:45:03.498Z",
    "id": "b7TwXX46FA0EmH1CjHET",
    "sick": 53
  },
  {
    "hide": false,
    "infected": 4,
    "recovered": 1,
    "latitude": 14.457474,
    "longitude": -14.358636,
    "name": "Senegal",
    "country": "SN",
    "dead": 0,
    "lastUpdated": "2020-03-08T18:45:03.567Z",
    "id": "b9p1JhVml3GGC7iiPmKv",
    "sick": 3
  },
  {
    "latitude": 39.561889,
    "longitude": -74.672169,
    "name": "New Jersey",
    "country": "US",
    "dead": 0,
    "lastUpdated": "2020-03-08T08:19:51.921Z",
    "id": "bYp4RRHv19M7lYtSzQeV",
    "hide": false,
    "infected": 4,
    "recovered": 0,
    "sick": 4
  },
  {
    "dead": 0,
    "lastUpdated": "2020-03-08T18:45:03.467Z",
    "id": "bdqD4kpdqGgUaX70Tm2Q",
    "hide": false,
    "infected": 99,
    "recovered": 24,
    "latitude": 3.139,
    "longitude": 101.6869,
    "name": "Malaysia",
    "country": "MY",
    "sick": 75
  },
  {
    "hide": false,
    "infected": 203,
    "recovered": 1,
    "latitude": 60.128162,
    "longitude": 18.643501,
    "name": "Sweden",
    "country": "SE",
    "dead": 0,
    "lastUpdated": "2020-03-08T18:45:03.591Z",
    "id": "bignnyt2A8BBx8VNo32p",
    "sick": 202
  },
  {
    "hide": false,
    "infected": 55,
    "recovered": 1,
    "latitude": 64.963051,
    "longitude": -19.020836,
    "name": "Iceland",
    "country": "IS",
    "dead": 0,
    "lastUpdated": "2020-03-08T18:45:03.542Z",
    "id": "cPxe7nsRnOf6aOPqHElJ",
    "sick": 54
  },
  {
    "hide": false,
    "infected": 25,
    "recovered": 3,
    "latitude": 31.046051,
    "longitude": 34.851612,
    "name": "Israel",
    "country": "IL",
    "dead": 0,
    "lastUpdated": "2020-03-08T18:45:03.473Z",
    "id": "cX891t0ONLNFj0MYq6La",
    "sick": 22
  },
  {
    "hide": false,
    "infected": 5,
    "recovered": 0,
    "latitude": 4.749531,
    "longitude": -53.112909,
    "name": "French Guiana",
    "country": "FR",
    "dead": 0,
    "lastUpdated": "2020-03-08T18:45:03.487Z",
    "id": "cc7s6hYGQ2MovBBBgkKb",
    "sick": 5
  },
  {
    "dead": 0,
    "lastUpdated": "2020-03-08T08:37:22.557Z",
    "id": "cgzd5EM8PZv5ziJtTz1w",
    "hide": false,
    "infected": 1,
    "recovered": 0,
    "latitude": 61.8926,
    "longitude": -6.9118,
    "name": "Faroe Islands",
    "country": "FO",
    "sick": 1
  },
  {
    "longitude": -77.1945,
    "name": "Pennsylvania",
    "country": "US",
    "dead": 0,
    "lastUpdated": "2020-03-08T08:23:39.956Z",
    "id": "chj2FF3zb4Xxcop9RHre",
    "hide": false,
    "infected": 4,
    "recovered": 0,
    "latitude": 41.2033,
    "sick": 4
  },
  {
    "recovered": 30,
    "latitude": 40.463669,
    "longitude": -3.74922,
    "name": "Spain",
    "country": "ES",
    "dead": 17,
    "lastUpdated": "2020-03-08T18:45:03.434Z",
    "id": "d0ExINgPaWUBm3l4ioJL",
    "hide": false,
    "infected": 613,
    "sick": 566
  },
  {
    "hide": false,
    "infected": 1,
    "recovered": 0,
    "latitude": 42.50837,
    "longitude": 1.517155,
    "name": "Andorra",
    "country": "AD",
    "dead": 0,
    "lastUpdated": "2020-03-08T18:45:03.566Z",
    "id": "dedMXSYR2k92wkSXNZqn",
    "sick": 1
  },
  {
    "hide": false,
    "infected": 104,
    "recovered": 2,
    "latitude": 47.516232,
    "longitude": 14.550072,
    "name": "Austria",
    "country": "AT",
    "dead": 0,
    "lastUpdated": "2020-03-08T18:45:03.431Z",
    "id": "e3BtI12qbqhE8jypOoZu",
    "sick": 102
  },
  {
    "longitude": 122.310669,
    "name": "Liaoning",
    "country": "CN",
    "dead": 1,
    "lastUpdated": "2020-03-08T08:41:57.540Z",
    "id": "e7P83iImanpd9r36oXK3",
    "hide": false,
    "infected": 125,
    "recovered": 109,
    "latitude": 41.097481,
    "sick": 15
  },
  {
    "latitude": 31.230391,
    "longitude": 121.473701,
    "name": "Shanghai",
    "country": "CN",
    "dead": 3,
    "lastUpdated": "2020-03-08T08:40:55.339Z",
    "id": "e9pQqQa7CEblCYoDtfKo",
    "hide": false,
    "infected": 342,
    "recovered": 314,
    "sick": 25
  },
  {
    "infected": 9,
    "recovered": 1,
    "latitude": 42.360081,
    "longitude": -71.058884,
    "name": "Massachusetts",
    "country": "US",
    "dead": 0,
    "lastUpdated": "2020-03-08T08:07:35.389Z",
    "id": "eCKDGssww4pF7NrxOySu",
    "hide": false,
    "sick": 8
  },
  {
    "latitude": 43.740451,
    "longitude": 7.432032,
    "name": "Monaco",
    "country": "MC",
    "dead": 0,
    "lastUpdated": "2020-03-08T18:45:03.530Z",
    "id": "eLgKPNUwYM5MNDAtF6ql",
    "hide": false,
    "infected": 1,
    "recovered": 0,
    "sick": 1
  },
  {
    "hide": false,
    "infected": 539,
    "recovered": 459,
    "latitude": 30.14208,
    "longitude": 102.960701,
    "name": "Sichuan",
    "country": "CN",
    "dead": 3,
    "lastUpdated": "2020-03-08T08:41:03.717Z",
    "id": "eyK5bxFkwdoAouIBvLFM",
    "sick": 77
  },
  {
    "latitude": 21.473534,
    "longitude": 55.975414,
    "name": "Oman",
    "country": "OM",
    "dead": 0,
    "lastUpdated": "2020-03-08T18:45:03.486Z",
    "id": "f9kmlhYtc3WA3kjbWszW",
    "hide": false,
    "infected": 16,
    "recovered": 2,
    "sick": 14
  },
  {
    "dead": 0,
    "lastUpdated": "2020-03-08T18:45:03.596Z",
    "id": "fK06AziL8wyrcoz7rsmJ",
    "hide": false,
    "infected": 1,
    "recovered": 0,
    "latitude": 31.295929,
    "longitude": 36.691952,
    "name": "Jordan",
    "country": "JO",
    "sick": 1
  },
  {
    "hide": false,
    "infected": 11,
    "recovered": 0,
    "latitude": 27.716933,
    "longitude": -81.555239,
    "name": "Florida",
    "country": "US",
    "dead": 0,
    "lastUpdated": "2020-03-08T08:14:49.617Z",
    "id": "fNganaGVPifA4QahEQPS",
    "sick": 11
  },
  {
    "hide": false,
    "infected": 706,
    "recovered": 245,
    "latitude": 35.452016,
    "longitude": 139.664285,
    "name": "Yokahama Port (Cruise)",
    "country": "JP",
    "dead": 7,
    "lastUpdated": "2020-03-08T08:33:07.162Z",
    "id": "fNnE9CD0SttEVrCUo1Ym",
    "sick": 454
  },
  {
    "longitude": 112.255402,
    "name": "Hubei",
    "country": "CN",
    "dead": 2986,
    "lastUpdated": "2020-03-08T15:28:30.452Z",
    "id": "fiJ14DCxw15e3SMemh8R",
    "hide": false,
    "infected": 67707,
    "recovered": 45235,
    "latitude": 31.160629,
    "sick": 19486
  },
  {
    "latitude": 50.4501,
    "longitude": 30.5234,
    "name": "Ukraine",
    "country": "UA",
    "dead": 0,
    "lastUpdated": "2020-03-08T18:45:03.481Z",
    "id": "flbZ2kaR5kBuV8XZ2Nsu",
    "hide": false,
    "infected": 1,
    "recovered": 0,
    "sick": 1
  },
  {
    "hide": false,
    "infected": 265,
    "recovered": 0,
    "latitude": 52.132633,
    "longitude": 5.291266,
    "name": "Netherlands",
    "country": "NL",
    "dead": 3,
    "lastUpdated": "2020-03-08T18:45:03.514Z",
    "id": "g0lRMtEJbucWIGqSPn0I",
    "sick": 262
  },
  {
    "latitude": 42.984268,
    "longitude": -81.247528,
    "name": "London, ON",
    "country": "CA",
    "dead": 0,
    "lastUpdated": "2020-03-08T08:45:13.692Z",
    "id": "g93vYzplUjSlZyA1PNCo",
    "hide": false,
    "infected": 1,
    "recovered": 1,
    "sick": 0
  },
  {
    "id": "h9UqxYZ5xC4JZrmdDz0q",
    "hide": false,
    "infected": 3,
    "recovered": 0,
    "latitude": 35.894231,
    "longitude": 14.432846,
    "name": "Malta",
    "country": "MT",
    "dead": 0,
    "lastUpdated": "2020-03-08T18:45:03.496Z",
    "sick": 3
  },
  {
    "hide": false,
    "infected": 120,
    "recovered": 87,
    "latitude": 35.751835,
    "longitude": 104.28611,
    "name": "Gansu",
    "country": "CN",
    "dead": 2,
    "lastUpdated": "2020-03-08T08:41:29.295Z",
    "id": "iGkTscdD0XyHFSP23Qrp",
    "sick": 31
  },
  {
    "hide": false,
    "infected": 136,
    "recovered": 128,
    "latitude": 39.343357,
    "longitude": 117.361649,
    "name": "Tianjin",
    "country": "CN",
    "dead": 3,
    "lastUpdated": "2020-03-08T08:42:14.873Z",
    "id": "jMlHjIOb7eMPSxFBrmG1",
    "sick": 5
  },
  {
    "dead": 0,
    "lastUpdated": "2020-03-08T18:45:03.606Z",
    "id": "jpVXEDCyfyq26gPoCtHL",
    "hide": false,
    "infected": 21,
    "recovered": 0,
    "latitude": 53.3498,
    "longitude": -6.2603,
    "name": "Ireland",
    "country": "IE",
    "sick": 21
  },
  {
    "hide": false,
    "infected": 76,
    "recovered": 73,
    "latitude": 42.524635,
    "longitude": 87.539589,
    "name": "Xinjiang",
    "country": "CN",
    "dead": 3,
    "lastUpdated": "2020-03-08T08:44:00.465Z",
    "id": "lhPjpn6CzqTRDN0RW8uE",
    "sick": 0
  },
  {
    "dead": 0,
    "lastUpdated": "2020-03-08T18:45:03.589Z",
    "id": "mF7rVMdVnazAuw8G22xs",
    "hide": false,
    "infected": 1,
    "recovered": 0,
    "latitude": 41.9029,
    "longitude": 12.4534,
    "name": "Vatican City",
    "country": "VA",
    "sick": 1
  },
  {
    "hide": false,
    "infected": 8,
    "recovered": 0,
    "latitude": -33.4489,
    "longitude": -70.6693,
    "name": "Chile",
    "country": "CL",
    "dead": 0,
    "lastUpdated": "2020-03-08T18:45:03.463Z",
    "id": "mSACWVbCy5QE7ciLA93J",
    "sick": 8
  },
  {
    "longitude": -86.605748,
    "name": "Tennessee",
    "country": "US",
    "dead": 0,
    "lastUpdated": "2020-03-08T08:21:23.077Z",
    "id": "nLhJXE2apq8yNNj363ai",
    "hide": false,
    "infected": 1,
    "recovered": 0,
    "latitude": 35.693323,
    "sick": 1
  },
  {
    "dead": 0,
    "lastUpdated": "2020-03-08T08:35:42.104Z",
    "id": "nwgDwi3nk8960oJumN4n",
    "hide": false,
    "infected": 19,
    "recovered": 0,
    "latitude": 54.5973,
    "longitude": -5.9301,
    "name": "Northern Ireland",
    "country": "GB",
    "sick": 19
  },
  {
    "hide": false,
    "infected": 2,
    "recovered": 0,
    "latitude": 31.893778,
    "longitude": -6.196132,
    "name": "Morocco",
    "country": "MA",
    "dead": 0,
    "lastUpdated": "2020-03-08T18:45:03.598Z",
    "id": "oJ5vSDE9vgXC2PG8LElp",
    "sick": 2
  },
  {
    "latitude": -20.917574,
    "longitude": 142.702789,
    "name": "Queensland",
    "country": "AU",
    "dead": 0,
    "lastUpdated": "2020-03-08T08:47:03.142Z",
    "id": "oxz2l1rJipCsfMfy8Mmk",
    "hide": false,
    "infected": 15,
    "recovered": 8,
    "sick": 7
  },
  {
    "id": "p1aZboN4BtRJe7hPl8cw",
    "hide": false,
    "infected": 481,
    "recovered": 409,
    "latitude": 47.121647,
    "longitude": 128.738235,
    "name": "Heilongjiang",
    "country": "CN",
    "dead": 13,
    "lastUpdated": "2020-03-08T08:42:07.245Z",
    "sick": 59
  },
  {
    "dead": 6,
    "lastUpdated": "2020-03-08T08:40:04.147Z",
    "id": "pFhBwPnGGpQ6DLppJ6YS",
    "hide": false,
    "infected": 990,
    "recovered": 984,
    "latitude": 32.026379,
    "longitude": 117.252747,
    "name": "Anhui",
    "country": "CN",
    "sick": 0
  },
  {
    "hide": false,
    "infected": 3,
    "recovered": 0,
    "latitude": -26.190439,
    "longitude": 123.325947,
    "name": "Western Australia",
    "country": "AU",
    "dead": 1,
    "lastUpdated": "2020-03-08T08:47:18.561Z",
    "id": "qnQ0dkxAxnDP01YpdZgk",
    "sick": 2
  },
  {
    "hide": false,
    "infected": 200,
    "recovered": 1,
    "latitude": 50.503887,
    "longitude": 4.469936,
    "name": "Belgium",
    "country": "BE",
    "dead": 0,
    "lastUpdated": "2020-03-08T18:45:03.554Z",
    "id": "qpAxVz0garcS0gNZxtOw",
    "sick": 199
  },
  {
    "hide": false,
    "infected": 10,
    "recovered": 0,
    "latitude": 29.424122,
    "longitude": -98.493629,
    "name": "Texas",
    "country": "US",
    "dead": 0,
    "lastUpdated": "2020-03-08T08:10:39.798Z",
    "id": "qsrWiq0qCmIG66hpWojP",
    "sick": 10
  },
  {
    "hide": false,
    "infected": 30,
    "recovered": 16,
    "latitude": 14.058324,
    "longitude": 108.277199,
    "name": "Vietnam",
    "country": "VN",
    "dead": 0,
    "lastUpdated": "2020-03-08T18:45:03.438Z",
    "id": "rKnSEyG03ak4YmGzonlg",
    "sick": 14
  },
  {
    "infected": 1215,
    "recovered": 1160,
    "latitude": 29.159849,
    "longitude": 120.326447,
    "name": "Zhejiang",
    "country": "CN",
    "dead": 1,
    "lastUpdated": "2020-03-08T08:41:13.428Z",
    "id": "rgBVJ4hPofqjjchnroiY",
    "hide": false,
    "sick": 54
  },
  {
    "dead": 0,
    "lastUpdated": "2020-03-08T18:45:03.581Z",
    "id": "rxSafpWsyKhfkV0HTtb4",
    "hide": false,
    "infected": 173,
    "recovered": 1,
    "latitude": 60.472023,
    "longitude": 8.468946,
    "name": "Norway",
    "country": "NO",
    "sick": 172
  },
  {
    "latitude": 51.048087,
    "longitude": -114.078022,
    "name": "Calgary",
    "country": "CA",
    "dead": 0,
    "lastUpdated": "2020-03-08T08:45:32.024Z",
    "id": "sBFMOzZJdrdXdyLZpweO",
    "hide": false,
    "infected": 1,
    "recovered": 0,
    "sick": 1
  },
  {
    "latitude": 19.566395,
    "longitude": 109.949684,
    "name": "Hainan",
    "country": "CN",
    "dead": 6,
    "lastUpdated": "2020-03-08T08:41:49.605Z",
    "id": "sKNhMvgXeyivpNFg02RA",
    "hide": false,
    "infected": 168,
    "recovered": 159,
    "sick": 3
  },
  {
    "hide": false,
    "infected": 6,
    "recovered": 0,
    "latitude": -10.33755,
    "longitude": -75.630295,
    "name": "Peru",
    "country": "PE",
    "dead": 0,
    "lastUpdated": "2020-03-08T18:45:03.557Z",
    "id": "sLL1jETcJYjT6g5bfcEG",
    "sick": 6
  },
  {
    "hide": false,
    "infected": 318,
    "recovered": 307,
    "latitude": 37.89566,
    "longitude": 114.904221,
    "name": "Hebei",
    "country": "CN",
    "dead": 6,
    "lastUpdated": "2020-03-08T08:42:25.290Z",
    "id": "sgsBhTwHxF1VVnqXbXXp",
    "sick": 5
  },
  {
    "recovered": 0,
    "latitude": 42.3154,
    "longitude": 43.3569,
    "name": "Georgia",
    "country": "GE",
    "dead": 0,
    "lastUpdated": "2020-03-08T18:45:03.505Z",
    "id": "sjW9OwjFqrOvjVHRXWoR",
    "hide": false,
    "infected": 13,
    "sick": 13
  },
  {
    "hide": false,
    "infected": 1,
    "recovered": 0,
    "latitude": 39.147061,
    "longitude": -111.596466,
    "name": "Utah",
    "country": "US",
    "dead": 0,
    "lastUpdated": "2020-03-08T08:23:55.467Z",
    "id": "tSmr8vNsiDhhpXMSBsms",
    "sick": 1
  },
  {
    "dead": 4,
    "lastUpdated": "2020-03-08T08:40:15.090Z",
    "id": "tdNRDDrgvBQqqwzdFGh4",
    "hide": false,
    "infected": 1018,
    "recovered": 966,
    "latitude": 27.3818,
    "longitude": 111.510681,
    "name": "Hunan",
    "country": "CN",
    "sick": 48
  },
  {
    "recovered": 117,
    "latitude": 26.842964,
    "longitude": 107.290283,
    "name": "Guizhou",
    "country": "CN",
    "dead": 2,
    "lastUpdated": "2020-03-08T08:43:38.399Z",
    "id": "tyY4QSHWG9sXqSO9jm0Y",
    "hide": false,
    "infected": 146,
    "sick": 27
  },
  {
    "longitude": 119.151932,
    "name": "Jiangsu",
    "country": "CN",
    "dead": 0,
    "lastUpdated": "2020-03-08T08:43:00.300Z",
    "id": "uvxN28EpGmRq3K9REtBP",
    "hide": false,
    "infected": 631,
    "recovered": 611,
    "latitude": 32.93708,
    "sick": 20
  },
  {
    "dead": 1,
    "lastUpdated": "2020-03-08T18:45:03.541Z",
    "id": "v8JcH4FHH7BDpJlNNHjv",
    "hide": false,
    "infected": 49,
    "recovered": 1,
    "latitude": 26.820553,
    "longitude": 30.802498,
    "name": "Egypt",
    "country": "EG",
    "sick": 47
  },
  {
    "latitude": 47.288374,
    "longitude": -119.928431,
    "name": "Washington",
    "country": "US",
    "dead": 16,
    "lastUpdated": "2020-03-08T08:16:05.307Z",
    "id": "vCUVQn7RK8pkw5y2rvYN",
    "hide": false,
    "infected": 110,
    "recovered": 1,
    "sick": 93
  },
  {
    "hide": false,
    "infected": 6566,
    "recovered": 2134,
    "latitude": 32.42791,
    "longitude": 53.688046,
    "name": "Iran",
    "country": "IR",
    "dead": 194,
    "lastUpdated": "2020-03-08T18:45:03.523Z",
    "id": "vkkXVaqUswO5JsMZx0mX",
    "sick": 4238
  },
  {
    "hide": false,
    "infected": 9,
    "recovered": 0,
    "latitude": -34.6037,
    "longitude": -58.3816,
    "name": "Argentina",
    "country": "AR",
    "dead": 1,
    "lastUpdated": "2020-03-08T18:45:03.462Z",
    "id": "wEl0cjiA6OcZiI9kaSsF",
    "sick": 8
  },
  {
    "longitude": -157.838954,
    "name": "Hawaii",
    "country": "US",
    "dead": 0,
    "lastUpdated": "2020-03-08T08:24:47.622Z",
    "id": "wi47s9vKxiMqxfgurj3B",
    "hide": false,
    "infected": 1,
    "recovered": 0,
    "latitude": 21.287261,
    "sick": 1
  },
  {
    "infected": 32,
    "recovered": 1,
    "latitude": 34.08267,
    "longitude": 35.918113,
    "name": "Lebanon",
    "country": "LB",
    "dead": 0,
    "lastUpdated": "2020-03-08T18:45:03.580Z",
    "id": "xFgM48q8JxVPfvQLQDNb",
    "hide": false,
    "sick": 31
  },
  {
    "dead": 0,
    "lastUpdated": "2020-03-08T18:45:03.605Z",
    "id": "xHWPTTpNHEwWv6MqfxP5",
    "hide": false,
    "infected": 1,
    "recovered": 0,
    "latitude": 9.081999,
    "longitude": 8.675277,
    "name": "Nigeria",
    "country": "NG",
    "sick": 1
  },
  {
    "recovered": 1,
    "latitude": 43.073051,
    "longitude": -89.40123,
    "name": "Wisconsin",
    "country": "US",
    "dead": 0,
    "lastUpdated": "2020-03-08T08:09:48.850Z",
    "id": "xSHgaJlyPxHFWB6hhyng",
    "hide": false,
    "infected": 1,
    "sick": 0
  },
  {
    "hide": false,
    "infected": 949,
    "recovered": 12,
    "latitude": 46.565366,
    "longitude": 2.693317,
    "name": "France (Mainland)",
    "country": "FR",
    "dead": 16,
    "lastUpdated": "2020-03-08T08:35:56.234Z",
    "id": "yXFfRqV9eQnNiCzS2k6w",
    "sick": 921
  },
  {
    "dead": 0,
    "lastUpdated": "2020-03-08T18:45:03.582Z",
    "id": "zC03Urt1iJJb2Tf6p0jd",
    "hide": false,
    "infected": 14,
    "recovered": 0,
    "latitude": -1.831239,
    "longitude": -78.183403,
    "name": "Ecuador",
    "country": "EC",
    "sick": 14
  },
  {
    "hide": false,
    "infected": 50,
    "recovered": 31,
    "latitude": 15.870032,
    "longitude": 100.992538,
    "name": "Thailand",
    "country": "TH",
    "dead": 1,
    "lastUpdated": "2020-03-08T18:45:03.588Z",
    "id": "zvdC0u72Bk5YKNaazZFZ",
    "sick": 18
  },
  {
    "latitude": 44.0165,
    "longitude": 21.0059,
    "name": "Serbia",
    "country": "RS",
    "dead": 0,
    "lastUpdated": "2020-03-08T18:45:03.568Z",
    "id": "zyxFwuiyCJHhRyNEg60C",
    "hide": false,
    "infected": 1,
    "recovered": 0,
    "sick": 1
  }
]