[
  {
    "longitude": 85.0985,
    "name": "Odisha",
    "country": "IN",
    "dead": 0,
    "lastUpdated": "2020-03-20T05:19:04.572Z",
    "id": "0VG7S6aaK4eSo59fL9JO",
    "infected": 1,
    "recovered": 0,
    "latitude": 20.9517,
    "sick": 1
  },
  {
    "recovered": 10,
    "latitude": 25.315058,
    "longitude": 51.145517,
    "name": "Qatar",
    "country": "QA",
    "dead": 0,
    "lastUpdated": "2020-03-20T05:13:05.557Z",
    "id": "0m4aECS0Z2DGFEr8ldgI",
    "infected": 460,
    "sick": 450
  },
  {
    "infected": 1,
    "recovered": 0,
    "latitude": 22.9868,
    "longitude": 87.855,
    "name": "West Bengal",
    "country": "IN",
    "dead": 0,
    "lastUpdated": "2020-03-20T05:19:04.590Z",
    "id": "0n54EMSDJcRoT1QEvw80",
    "sick": 1
  },
  {
    "id": "0tFoopNTs6e4tOoaltu2",
    "infected": 0,
    "recovered": 125,
    "latitude": 37.0902,
    "longitude": -95.7129,
    "name": "Unknown US state",
    "country": "US",
    "dead": 0,
    "lastUpdated": "2020-03-20T05:13:05.644Z",
    "sick": 0
  },
  {
    "latitude": 35.64249,
    "longitude": 108.472214,
    "name": "Shaanxi",
    "country": "CN",
    "dead": 3,
    "lastUpdated": "2020-03-20T01:16:19.927Z",
    "id": "0x2HLhr5z5xAtEdO4iZm",
    "infected": 247,
    "recovered": 237,
    "sick": 7
  },
  {
    "id": "19MvIhipqTyYv1H37Upw",
    "infected": 50,
    "recovered": 1,
    "latitude": 41.643351,
    "longitude": 21.668393,
    "name": "North Macedonia",
    "country": "MK",
    "dead": 0,
    "lastUpdated": "2020-03-20T05:13:05.508Z",
    "sick": 49
  },
  {
    "infected": 3,
    "recovered": 0,
    "latitude": 53.1355,
    "longitude": -57.6604,
    "name": "Newfoundland and Labrador",
    "country": "CA",
    "dead": 0,
    "lastUpdated": "2020-03-20T05:14:02.126Z",
    "id": "1DOMOmCWDtva46OVSZLv",
    "sick": 3
  },
  {
    "longitude": 96.779286,
    "name": "Qinghai",
    "country": "CN",
    "dead": 0,
    "lastUpdated": "2020-03-20T01:16:41.962Z",
    "id": "1Fap7rZu9SIRqf5TG9Dg",
    "infected": 18,
    "recovered": 18,
    "latitude": 35.801933,
    "sick": 0
  },
  {
    "infected": 647,
    "recovered": 2,
    "latitude": -14.235004,
    "longitude": -51.925282,
    "name": "Brazil",
    "country": "BR",
    "dead": 7,
    "lastUpdated": "2020-03-20T05:13:05.513Z",
    "id": "1f0YoV0vAcexEhpESyZc",
    "sick": 638
  },
  {
    "infected": 49,
    "recovered": 1,
    "latitude": 47.4116,
    "longitude": 28.3699,
    "name": "Moldova",
    "country": "MD",
    "dead": 1,
    "lastUpdated": "2020-03-20T05:13:05.555Z",
    "id": "1qTPB8X3tyLyIdsb5TN3",
    "sick": 47
  },
  {
    "latitude": 30.15336,
    "longitude": 88.787865,
    "name": "Tibet",
    "country": "CN",
    "dead": 0,
    "lastUpdated": "2020-03-20T01:15:23.608Z",
    "id": "25qIBtsW2nfQj3pwBKg9",
    "infected": 1,
    "recovered": 1,
    "sick": 0
  },
  {
    "recovered": 15,
    "latitude": -1.572184,
    "longitude": 115.66779,
    "name": "Indonesia",
    "country": "ID",
    "dead": 25,
    "lastUpdated": "2020-03-20T05:13:05.676Z",
    "id": "2KHYUb5t3lwzVVmDjwNX",
    "infected": 309,
    "sick": 269
  },
  {
    "dead": 3,
    "lastUpdated": "2020-03-20T05:14:01.768Z",
    "id": "2OrsssmGUs4XCzaZzvTv",
    "infected": 88,
    "recovered": 0,
    "latitude": 43.807191,
    "longitude": -120.585594,
    "name": "Oregon",
    "country": "US",
    "sick": 85
  },
  {
    "latitude": 43.851921,
    "longitude": 126.548103,
    "name": "Jilin",
    "country": "CN",
    "dead": 1,
    "lastUpdated": "2020-03-20T01:16:47.970Z",
    "id": "2jxHvSsxdnom0nPNvOT8",
    "infected": 93,
    "recovered": 92,
    "sick": 0
  },
  {
    "longitude": -5.3536,
    "name": "Gibraltar",
    "country": "GI",
    "dead": 0,
    "lastUpdated": "2020-03-20T05:13:05.804Z",
    "id": "2p11BjSAs3wVyymgqBOe",
    "infected": 10,
    "recovered": 2,
    "latitude": 36.1408,
    "sick": 8
  },
  {
    "dead": 0,
    "lastUpdated": "2020-03-20T05:25:09.464Z",
    "id": "2sLNkkHpyaHx7dD3aMDO",
    "infected": 157,
    "recovered": 0,
    "latitude": 47.7516,
    "longitude": 1.6751,
    "name": "Centre-Val de Loire",
    "country": "FR",
    "sick": 157
  },
  {
    "id": "3IlPjAbP5qVMn1nlgLTJ",
    "infected": 2,
    "recovered": 0,
    "latitude": -13.133896,
    "longitude": 27.849332,
    "name": "Zambia",
    "country": "ZM",
    "dead": 0,
    "lastUpdated": "2020-03-20T05:13:05.786Z",
    "sick": 2
  },
  {
    "infected": 13,
    "recovered": 0,
    "latitude": 42.7044,
    "longitude": 19.3958,
    "name": "Montenegro",
    "country": "ME",
    "dead": 0,
    "lastUpdated": "2020-03-20T05:13:05.734Z",
    "id": "3LstMSN5XMYBkxbe5HN7",
    "sick": 13
  },
  {
    "dead": 0,
    "lastUpdated": "2020-03-20T05:25:05.423Z",
    "id": "3OZoQsKrzxZ18EKyfGE6",
    "infected": 4,
    "recovered": 0,
    "latitude": -35.4735,
    "longitude": 149.0124,
    "name": "Australian Capital Territory",
    "country": "AU",
    "sick": 4
  },
  {
    "dead": 0,
    "lastUpdated": "2020-03-20T05:14:02.196Z",
    "id": "3fC3bAyIRUquOQOEnQNe",
    "infected": 119,
    "recovered": 0,
    "latitude": 40.4173,
    "longitude": -82.9071,
    "name": "Ohio",
    "country": "US",
    "sick": 119
  },
  {
    "infected": 2,
    "recovered": 0,
    "latitude": 21.0079,
    "longitude": -10.9408,
    "name": "Mauritania",
    "country": "MR",
    "dead": 0,
    "lastUpdated": "2020-03-20T05:13:05.787Z",
    "id": "4NnFMekRK2m14IlnZZoj",
    "sick": 2
  },
  {
    "id": "4hfZRUoUgI4a3vrG0GBk",
    "infected": 271,
    "recovered": 4,
    "latitude": 53.7267,
    "longitude": -127.6476,
    "name": "British Columbia",
    "country": "CA",
    "dead": 8,
    "lastUpdated": "2020-03-20T05:14:02.161Z",
    "sick": 259
  },
  {
    "recovered": 4,
    "latitude": 41.065877,
    "longitude": -7.920053,
    "name": "Portugal",
    "country": "PT",
    "dead": 4,
    "lastUpdated": "2020-03-20T05:13:04.945Z",
    "id": "4rQLxUCMmQLpbi6E9tbH",
    "infected": 786,
    "sick": 778
  },
  {
    "infected": 44,
    "recovered": 7,
    "latitude": 40.3426,
    "longitude": 47.93802,
    "name": "Azerbaijan",
    "country": "AZ",
    "dead": 1,
    "lastUpdated": "2020-03-20T05:13:05.533Z",
    "id": "4zqzRm2xHn0CDVOUQJ8p",
    "sick": 36
  },
  {
    "latitude": 25.025885,
    "longitude": -78.035889,
    "name": "Bahamas",
    "country": "BS",
    "dead": 0,
    "lastUpdated": "2020-03-20T05:13:05.803Z",
    "id": "5MHegCUO9L3LiAU7DDey",
    "infected": 3,
    "recovered": 0,
    "sick": 3
  },
  {
    "longitude": 146.921097,
    "name": "New South Wales",
    "country": "AU",
    "dead": 5,
    "lastUpdated": "2020-03-20T05:25:05.420Z",
    "id": "5N16a2OXXRpsEFanw0TC",
    "infected": 307,
    "recovered": 4,
    "latitude": -31.253218,
    "sick": 298
  },
  {
    "latitude": -20.9043045,
    "longitude": 165.618042,
    "name": "New Caledonia",
    "country": "NC",
    "dead": 0,
    "lastUpdated": "2020-03-20T05:13:05.720Z",
    "id": "5fg04eyDwFw3kEXnrxez",
    "infected": 2,
    "recovered": 0,
    "sick": 2
  },
  {
    "longitude": 84.124008,
    "name": "Nepal",
    "country": "NP",
    "dead": 0,
    "lastUpdated": "2020-03-20T05:13:05.743Z",
    "id": "5gXZIjRgAvd6xWN1LOv8",
    "infected": 1,
    "recovered": 1,
    "latitude": 28.394857,
    "sick": 0
  },
  {
    "id": "5pwmh7aSdGRKqRbnuyc0",
    "infected": 217,
    "recovered": 8,
    "latitude": 12.879721,
    "longitude": 121.774017,
    "name": "Philippines",
    "country": "PH",
    "dead": 17,
    "lastUpdated": "2020-03-20T05:13:05.548Z",
    "sick": 192
  },
  {
    "latitude": 55.621011,
    "longitude": 23.804991,
    "name": "Lithuania",
    "country": "LT",
    "dead": 0,
    "lastUpdated": "2020-03-20T05:13:05.002Z",
    "id": "694ON7d0mRJDeM1gHBTR",
    "infected": 48,
    "recovered": 1,
    "sick": 47
  },
  {
    "infected": 208,
    "recovered": 98,
    "latitude": 22.396427,
    "longitude": 114.109497,
    "name": "Hong Kong",
    "country": "HK",
    "dead": 4,
    "lastUpdated": "2020-03-20T05:13:04.990Z",
    "id": "6IcHIIH0zXpY0POmBZTv",
    "sick": 106
  },
  {
    "infected": 2,
    "recovered": 0,
    "latitude": 9.3077,
    "longitude": 2.3158,
    "name": "Benin",
    "country": "BJ",
    "dead": 0,
    "lastUpdated": "2020-03-20T05:13:05.745Z",
    "id": "6SlpghTyB6lpMFvx3g9U",
    "sick": 2
  },
  {
    "longitude": 14.5058,
    "name": "Slovenia",
    "country": "SI",
    "dead": 1,
    "lastUpdated": "2020-03-20T05:13:05.532Z",
    "id": "6ahNiyKDSDAftCctgLH3",
    "infected": 319,
    "recovered": 0,
    "latitude": 46.0569,
    "sick": 318
  },
  {
    "infected": 3,
    "recovered": 0,
    "latitude": -0.8037,
    "longitude": 11.6094,
    "name": "Gabon",
    "country": "GA",
    "dead": 0,
    "lastUpdated": "2020-03-20T05:13:05.782Z",
    "id": "6pBi38TUgYfFm0bry2uh",
    "sick": 3
  },
  {
    "recovered": 0,
    "latitude": 17.901672,
    "longitude": -62.818544,
    "name": "Saint-Barthélemy",
    "country": "FR",
    "dead": 0,
    "lastUpdated": "2020-03-20T05:13:05.928Z",
    "id": "78Ox26bNHDA2Pk2b3Uwn",
    "infected": 3,
    "sick": 3
  },
  {
    "latitude": 17.0608,
    "longitude": -61.7964,
    "name": "Antigua and Barbuda",
    "country": "AG",
    "dead": 0,
    "lastUpdated": "2020-03-20T05:13:05.914Z",
    "id": "7hVFcEV7nV0MrQr3LHrl",
    "infected": 1,
    "recovered": 0,
    "sick": 1
  },
  {
    "dead": 13,
    "lastUpdated": "2020-03-20T05:27:03.076Z",
    "id": "7kCrrlOBE3jN6FtOVNUB",
    "infected": 2282,
    "recovered": 14,
    "latitude": 48.7904,
    "longitude": 11.4979,
    "name": "Bayern",
    "country": "DE",
    "sick": 2255
  },
  {
    "latitude": 47.4979,
    "longitude": 19.0402,
    "name": "Hungary",
    "country": "HU",
    "dead": 1,
    "lastUpdated": "2020-03-20T05:13:05.716Z",
    "id": "7rYC2iFB50c55Ihgbs4Q",
    "infected": 73,
    "recovered": 2,
    "sick": 70
  },
  {
    "longitude": 12.3547,
    "name": "Cameroon",
    "country": "CM",
    "dead": 0,
    "lastUpdated": "2020-03-20T05:13:05.728Z",
    "id": "8C0d7WVCjyUGtnc2gUAR",
    "infected": 13,
    "recovered": 0,
    "latitude": 7.3697,
    "sick": 13
  },
  {
    "longitude": -63.5887,
    "name": "Bolivia",
    "country": "BO",
    "dead": 0,
    "lastUpdated": "2020-03-20T05:13:05.697Z",
    "id": "8RihJrXw4NQXPxaRxr1u",
    "infected": 17,
    "recovered": 0,
    "latitude": -16.2902,
    "sick": 17
  },
  {
    "infected": 1,
    "recovered": 0,
    "latitude": 12.9843,
    "longitude": -61.2872,
    "name": "St. Vincent Grenadines",
    "country": "VC",
    "dead": 0,
    "lastUpdated": "2020-03-20T05:13:05.899Z",
    "id": "8ZTySQROQejkDAad0qxQ",
    "sick": 1
  },
  {
    "recovered": 124,
    "latitude": 1.352083,
    "longitude": 103.819839,
    "name": "Singapore",
    "country": "SG",
    "dead": 0,
    "lastUpdated": "2020-03-20T05:13:05.651Z",
    "id": "8pA3fM4xC2c2wv1b4TnE",
    "infected": 345,
    "sick": 221
  },
  {
    "longitude": -1.5536,
    "name": "Pays de la Loire",
    "country": "FR",
    "dead": 1,
    "lastUpdated": "2020-03-20T05:25:10.735Z",
    "id": "98hwAoohgWEOQVa3NlM5",
    "infected": 160,
    "recovered": 4,
    "latitude": 47.2184,
    "sick": 155
  },
  {
    "latitude": 12.8628,
    "longitude": 30.2176,
    "name": "Sudan",
    "country": "SD",
    "dead": 1,
    "lastUpdated": "2020-03-20T05:13:05.802Z",
    "id": "9DPOkpIqrFy9mR4e9fuv",
    "infected": 2,
    "recovered": 0,
    "sick": 1
  },
  {
    "infected": 277,
    "recovered": 25,
    "latitude": 45.943161,
    "longitude": 24.966761,
    "name": "Romania",
    "country": "RO",
    "dead": 0,
    "lastUpdated": "2020-03-20T05:13:05.541Z",
    "id": "9QcETqEcM2fTv9zRvx5T",
    "sick": 252
  },
  {
    "longitude": -86.251389,
    "name": "Nicaragua",
    "country": "NI",
    "dead": 0,
    "lastUpdated": "2020-03-20T05:13:05.755Z",
    "id": "9Y5wmCqNCC6ZrenM31uA",
    "infected": 1,
    "recovered": 0,
    "latitude": 12.136389,
    "sick": 1
  },
  {
    "infected": 400,
    "recovered": 10,
    "latitude": 61.92411,
    "longitude": 25.748152,
    "name": "Finland",
    "country": "FI",
    "dead": 0,
    "lastUpdated": "2020-03-20T05:13:05.628Z",
    "id": "9p6OCdZbUUwBLA60Gk3W",
    "sick": 390
  },
  {
    "recovered": 0,
    "latitude": 43.311643,
    "longitude": -71.590315,
    "name": "New Hampshire",
    "country": "US",
    "dead": 0,
    "lastUpdated": "2020-03-20T05:14:01.811Z",
    "id": "A84CwQ52kA46Hr7pn6Bm",
    "infected": 44,
    "sick": 44
  },
  {
    "dead": 0,
    "lastUpdated": "2020-03-20T05:14:01.836Z",
    "id": "AEUWUHS65qvjEslew11c",
    "infected": 44,
    "recovered": 0,
    "latitude": 41.823261,
    "longitude": -71.412257,
    "name": "Rhode Island",
    "country": "US",
    "sick": 44
  },
  {
    "infected": 217,
    "recovered": 0,
    "latitude": 49.3964,
    "longitude": 7.023,
    "name": "Saarland",
    "country": "DE",
    "dead": 0,
    "lastUpdated": "2020-03-20T05:27:02.965Z",
    "id": "AKjFRQGnzuuZQhv5Qwx7",
    "sick": 217
  },
  {
    "id": "APaZzlGCEeuoLBtzTJMe",
    "infected": 2,
    "recovered": 0,
    "latitude": 71.7069,
    "longitude": -42.6043,
    "name": "Greenland",
    "country": "GL",
    "dead": 0,
    "lastUpdated": "2020-03-20T05:13:05.722Z",
    "sick": 2
  },
  {
    "infected": 14,
    "recovered": 0,
    "latitude": 45.65107,
    "longitude": -63.582687,
    "name": "Nova Scotia",
    "country": "CA",
    "dead": 0,
    "lastUpdated": "2020-03-20T05:14:01.857Z",
    "id": "AVCpxeh0fuH2WrHWNDYH",
    "sick": 14
  },
  {
    "longitude": -109.128641,
    "name": "Montana",
    "country": "US",
    "dead": 0,
    "lastUpdated": "2020-03-20T05:14:01.849Z",
    "id": "AcULcZBozObOhwuRKMjJ",
    "infected": 11,
    "recovered": 0,
    "latitude": 47.012918,
    "sick": 11
  },
  {
    "latitude": 27.285971,
    "longitude": 116.01609,
    "name": "Jiangxi",
    "country": "CN",
    "dead": 1,
    "lastUpdated": "2020-03-20T01:19:58.255Z",
    "id": "AmBYm5J6E9Cuez1FQjiN",
    "infected": 935,
    "recovered": 934,
    "sick": 0
  },
  {
    "recovered": 32,
    "latitude": 28.033886,
    "longitude": 1.659626,
    "name": "Algeria",
    "country": "DZ",
    "dead": 9,
    "lastUpdated": "2020-03-20T05:13:05.000Z",
    "id": "AwN0CScPDApcLFgz6e3z",
    "infected": 90,
    "sick": 49
  },
  {
    "latitude": 45.099998,
    "longitude": 15.2,
    "name": "Croatia",
    "country": "HR",
    "dead": 1,
    "lastUpdated": "2020-03-20T05:13:05.554Z",
    "id": "B82Ef45M8cDu4q7VsSHF",
    "infected": 110,
    "recovered": 5,
    "sick": 104
  },
  {
    "recovered": 0,
    "latitude": 39.509109,
    "longitude": -76.98432,
    "name": "Maryland",
    "country": "US",
    "dead": 1,
    "lastUpdated": "2020-03-20T05:14:02.178Z",
    "id": "BF51mWl51fgEcyBpCSzb",
    "infected": 107,
    "sick": 106
  },
  {
    "longitude": 27.953388,
    "name": "Belarus",
    "country": "BY",
    "dead": 0,
    "lastUpdated": "2020-03-20T05:13:04.984Z",
    "id": "BGg6yVU5VP71B8NXU0oh",
    "infected": 51,
    "recovered": 5,
    "latitude": 53.709808,
    "sick": 46
  },
  {
    "longitude": 0.1713,
    "name": "Normandie",
    "country": "FR",
    "dead": 1,
    "lastUpdated": "2020-03-20T05:25:10.732Z",
    "id": "BGtoyzb7y54LVlJ91rbf",
    "infected": 241,
    "recovered": 0,
    "latitude": 48.8799,
    "sick": 240
  },
  {
    "recovered": 0,
    "latitude": 34.048927,
    "longitude": -111.093735,
    "name": "Arizona",
    "country": "US",
    "dead": 0,
    "lastUpdated": "2020-03-20T05:14:02.204Z",
    "id": "BTEESCuD2ZbS1afunR2A",
    "infected": 45,
    "sick": 45
  },
  {
    "longitude": -73.982597,
    "name": "New York",
    "country": "US",
    "dead": 38,
    "lastUpdated": "2020-03-20T05:14:01.830Z",
    "id": "C3BCUzV80z9GfiuByIcr",
    "infected": 5711,
    "recovered": 0,
    "latitude": 40.719042,
    "sick": 5673
  },
  {
    "latitude": 49.731626,
    "longitude": 15.359413,
    "name": "Czechia",
    "country": "CZ",
    "dead": 0,
    "lastUpdated": "2020-03-20T05:13:05.626Z",
    "id": "C6S76AggdWVU8G22jFHQ",
    "infected": 694,
    "recovered": 3,
    "sick": 691
  },
  {
    "dead": 1,
    "lastUpdated": "2020-03-20T05:13:04.978Z",
    "id": "C7cj4nwRITs13KnaJrQ2",
    "infected": 279,
    "recovered": 110,
    "latitude": 26.0667,
    "longitude": 50.557701,
    "name": "Bahrain",
    "country": "BH",
    "sick": 168
  },
  {
    "longitude": 74.2179,
    "name": "Rajasthan",
    "country": "IN",
    "dead": 0,
    "lastUpdated": "2020-03-20T05:19:04.609Z",
    "id": "CKZCZTPlrcq5fbfUPA9k",
    "infected": 7,
    "recovered": 3,
    "latitude": 27.0238,
    "sick": 4
  },
  {
    "dead": 0,
    "lastUpdated": "2020-03-20T05:13:05.783Z",
    "id": "Cgvmtle61ehMvCzRzYx7",
    "infected": 1,
    "recovered": 0,
    "latitude": 13.803,
    "longitude": -88.9053,
    "name": "El Salvador",
    "country": "SV",
    "sick": 1
  },
  {
    "dead": 144,
    "lastUpdated": "2020-03-20T05:13:05.648Z",
    "id": "CrXu6i5Sqx11iwdfHfBs",
    "infected": 3269,
    "recovered": 65,
    "latitude": 52.355518,
    "longitude": -1.17432,
    "name": "United Kingdom",
    "country": "GB",
    "sick": 3060
  },
  {
    "infected": 122,
    "recovered": 1,
    "latitude": 40.259003,
    "longitude": 44.818474,
    "name": "Armenia",
    "country": "AM",
    "dead": 0,
    "lastUpdated": "2020-03-20T05:13:05.009Z",
    "id": "DCJCtZoBTWQ4mzdDNljD",
    "sick": 121
  },
  {
    "recovered": 10,
    "latitude": 22.192039,
    "longitude": 113.551262,
    "name": "Macao",
    "country": "MO",
    "dead": 0,
    "lastUpdated": "2020-03-20T05:13:05.737Z",
    "id": "DdBt8qsG6A3g92oOR3ow",
    "infected": 17,
    "sick": 7
  },
  {
    "infected": 18,
    "recovered": 0,
    "latitude": 42.962334,
    "longitude": -107.534868,
    "name": "Wyoming",
    "country": "US",
    "dead": 0,
    "lastUpdated": "2020-03-20T05:14:01.791Z",
    "id": "DrGzziUglmBognCGY7R2",
    "sick": 18
  },
  {
    "latitude": 40.6401,
    "longitude": 22.9444,
    "name": "Greece",
    "country": "GR",
    "dead": 6,
    "lastUpdated": "2020-03-20T05:13:05.601Z",
    "id": "Dtr1lap1RpJpXJdXGJiW",
    "infected": 464,
    "recovered": 19,
    "sick": 439
  },
  {
    "dead": 1,
    "lastUpdated": "2020-03-20T05:13:05.016Z",
    "id": "EKTfs8e7M6DXzI1HqyyX",
    "infected": 108,
    "recovered": 26,
    "latitude": 25.03841,
    "longitude": 121.563698,
    "name": "Taiwan",
    "country": "TW",
    "sick": 81
  },
  {
    "recovered": 0,
    "latitude": 10.327273,
    "longitude": -84.387618,
    "name": "Costa Rica",
    "country": "CR",
    "dead": 2,
    "lastUpdated": "2020-03-20T05:13:05.617Z",
    "id": "EQzJvzVHKjs8kLmK7BMu",
    "infected": 89,
    "sick": 87
  },
  {
    "latitude": 30.7333,
    "longitude": 76.7794,
    "name": "Chandigarh",
    "country": "IN",
    "dead": 0,
    "lastUpdated": "2020-03-20T05:19:04.605Z",
    "id": "Esl5UlCVB9s8pmGB5Ofr",
    "infected": 1,
    "recovered": 0,
    "sick": 1
  },
  {
    "longitude": -66.664513,
    "name": "Puerto Rico",
    "country": "PR",
    "dead": 0,
    "lastUpdated": "2020-03-20T05:13:05.789Z",
    "id": "F4rPrEVGAIMM5rfPEMv4",
    "infected": 6,
    "recovered": 0,
    "latitude": 18.200178,
    "sick": 6
  },
  {
    "recovered": 1,
    "latitude": 33.93911,
    "longitude": 67.709953,
    "name": "Afghanistan",
    "country": "AF",
    "dead": 0,
    "lastUpdated": "2020-03-20T05:13:05.706Z",
    "id": "FCDmlmnIIswd8bQiUjfN",
    "infected": 22,
    "sick": 21
  },
  {
    "infected": 576,
    "recovered": 570,
    "latitude": 29.431585,
    "longitude": 106.912254,
    "name": "Chongqing",
    "country": "CN",
    "dead": 6,
    "lastUpdated": "2020-03-20T01:21:15.207Z",
    "id": "FErOU1m4Tj7jIkRam3vF",
    "sick": 0
  },
  {
    "id": "FZsUkhxBEgqsPb4eO0PN",
    "infected": 148,
    "recovered": 18,
    "latitude": 29.311661,
    "longitude": 47.481766,
    "name": "Kuwait",
    "country": "KW",
    "dead": 0,
    "lastUpdated": "2020-03-20T05:13:04.960Z",
    "sick": 130
  },
  {
    "recovered": 1,
    "latitude": 11.1271,
    "longitude": 78.6569,
    "name": "Tamil Nadu",
    "country": "IN",
    "dead": 0,
    "lastUpdated": "2020-03-20T05:19:04.621Z",
    "id": "FeS45oMNC27pI17F0xEV",
    "infected": 3,
    "sick": 2
  },
  {
    "latitude": 18.947829,
    "longitude": -70.430399,
    "name": "Dominican Republic",
    "country": "DO",
    "dead": 2,
    "lastUpdated": "2020-03-20T05:13:05.540Z",
    "id": "FuiVEJvWb0QMCpxJ3563",
    "infected": 34,
    "recovered": 0,
    "sick": 32
  },
  {
    "recovered": 1,
    "latitude": 18.1124,
    "longitude": 79.0193,
    "name": "Telangana",
    "country": "IN",
    "dead": 0,
    "lastUpdated": "2020-03-20T05:19:04.625Z",
    "id": "FyC551oNwmENxbr9Yght",
    "infected": 16,
    "sick": 15
  },
  {
    "dead": 0,
    "lastUpdated": "2020-03-20T05:13:04.948Z",
    "id": "FzIDXoqWnTI3nUfhPyT2",
    "infected": 124,
    "recovered": 0,
    "latitude": 48.669,
    "longitude": 19.699,
    "name": "Slovakia",
    "country": "SK",
    "sick": 124
  },
  {
    "latitude": 30.37532,
    "longitude": 69.345116,
    "name": "Pakistan",
    "country": "PK",
    "dead": 2,
    "lastUpdated": "2020-03-20T05:13:05.518Z",
    "id": "GAp7Wb6IMhdgbvEtMza9",
    "infected": 454,
    "recovered": 13,
    "sick": 439
  },
  {
    "latitude": 31.1471,
    "longitude": 75.3412,
    "name": "Punjab",
    "country": "IN",
    "dead": 1,
    "lastUpdated": "2020-03-20T05:19:04.071Z",
    "id": "GGru8cG08mANO8XDDUtZ",
    "infected": 2,
    "recovered": 0,
    "sick": 1
  },
  {
    "infected": 140,
    "recovered": 31,
    "latitude": 23.424076,
    "longitude": 53.847816,
    "name": "United Arab Emirates",
    "country": "AE",
    "dead": 0,
    "lastUpdated": "2020-03-20T05:13:05.013Z",
    "id": "GHzBIsHy2GiBc5JV2HMs",
    "sick": 109
  },
  {
    "dead": 18,
    "lastUpdated": "2020-03-20T05:14:01.859Z",
    "id": "Gh46r6vuaY7fbGt3IboN",
    "infected": 1030,
    "recovered": 0,
    "latitude": 36.621981,
    "longitude": -119.339046,
    "name": "California",
    "country": "US",
    "sick": 1012
  },
  {
    "recovered": 0,
    "latitude": 35.87189,
    "longitude": -97.145514,
    "name": "Oklahoma",
    "country": "US",
    "dead": 1,
    "lastUpdated": "2020-03-20T05:14:01.794Z",
    "id": "GpF8ULuKOQiFDCUHN44h",
    "infected": 44,
    "sick": 43
  },
  {
    "infected": 75,
    "recovered": 74,
    "latitude": 42.83263,
    "longitude": 113.750972,
    "name": "Inner Mongolia",
    "country": "CN",
    "dead": 1,
    "lastUpdated": "2020-03-20T01:15:51.711Z",
    "id": "H3JeVigVbo5CSYfZG4WI",
    "sick": 0
  },
  {
    "dead": 1,
    "lastUpdated": "2020-03-20T05:14:02.165Z",
    "id": "H3bDg4eV30up4WWrIDAS",
    "infected": 95,
    "recovered": 0,
    "latitude": 39.74536,
    "longitude": -116.724977,
    "name": "Nevada",
    "country": "US",
    "sick": 94
  },
  {
    "dead": 1,
    "lastUpdated": "2020-03-20T05:19:04.607Z",
    "id": "HN5mGmxlqlSeFSNeu1K5",
    "infected": 15,
    "recovered": 0,
    "latitude": 15.3173,
    "longitude": 75.7139,
    "name": "Karnataka",
    "country": "IN",
    "sick": 14
  },
  {
    "recovered": 0,
    "latitude": 27.5142,
    "longitude": 90.4336,
    "name": "Bhutan",
    "country": "BT",
    "dead": 0,
    "lastUpdated": "2020-03-20T05:13:05.812Z",
    "id": "HRDpwyxpqW9RN0xLFyNu",
    "infected": 1,
    "sick": 1
  },
  {
    "recovered": 0,
    "latitude": 41.3775,
    "longitude": 64.5853,
    "name": "Uzbekistan",
    "country": "UZ",
    "dead": 0,
    "lastUpdated": "2020-03-20T05:13:05.702Z",
    "id": "HRTA10dtrruDEwjJEGMp",
    "infected": 23,
    "sick": 23
  },
  {
    "infected": 35,
    "recovered": 0,
    "latitude": 34.138916,
    "longitude": -105.576255,
    "name": "New Mexico",
    "country": "US",
    "dead": 0,
    "lastUpdated": "2020-03-20T05:14:01.833Z",
    "id": "HSSFomRju0doHhWgW8On",
    "sick": 35
  },
  {
    "dead": 0,
    "lastUpdated": "2020-03-20T05:27:02.979Z",
    "id": "He1gSS1v50t06i3YrqvB",
    "infected": 133,
    "recovered": 0,
    "latitude": 53.6127,
    "longitude": 12.4296,
    "name": "Mecklenburg-Vorpommern",
    "country": "DE",
    "sick": 133
  },
  {
    "latitude": 23.634501,
    "longitude": -102.552788,
    "name": "Mexico",
    "country": "MX",
    "dead": 1,
    "lastUpdated": "2020-03-20T05:13:04.972Z",
    "id": "I4OJ6z9Vjs1byOcbsJrd",
    "infected": 164,
    "recovered": 4,
    "sick": 159
  },
  {
    "infected": 1378,
    "recovered": 1318,
    "latitude": 23.363855,
    "longitude": 113.373448,
    "name": "Guangdong",
    "country": "CN",
    "dead": 8,
    "lastUpdated": "2020-03-20T01:19:52.243Z",
    "id": "IAX0OQLVnUwU7FX0ENF1",
    "sick": 52
  },
  {
    "dead": 22,
    "lastUpdated": "2020-03-20T01:21:06.658Z",
    "id": "IFuMrMvSjoiX5agYvllh",
    "infected": 1273,
    "recovered": 1250,
    "latitude": 33.875408,
    "longitude": 113.484016,
    "name": "Henan",
    "country": "CN",
    "sick": 1
  },
  {
    "latitude": 32.528564,
    "longitude": -83.280125,
    "name": "Georgia (US)",
    "country": "US",
    "dead": 10,
    "lastUpdated": "2020-03-20T05:14:02.148Z",
    "id": "IvQkDJkTAsoIqPRAU25n",
    "infected": 287,
    "recovered": 0,
    "sick": 277
  },
  {
    "infected": 39,
    "recovered": 0,
    "latitude": -42.8285,
    "longitude": 172.488081,
    "name": "New Zealand",
    "country": "NZ",
    "dead": 0,
    "lastUpdated": "2020-03-20T05:13:04.959Z",
    "id": "IvVhpOoGpH6JVkGyUhXN",
    "sick": 39
  },
  {
    "latitude": 6.4238,
    "longitude": -66.5897,
    "name": "Venezuela",
    "country": "VE",
    "dead": 0,
    "lastUpdated": "2020-03-20T05:13:05.546Z",
    "id": "J3mZXlfEnnJx4CDZLvRG",
    "infected": 42,
    "recovered": 0,
    "sick": 42
  },
  {
    "recovered": 0,
    "latitude": 35.1264,
    "longitude": 33.4299,
    "name": "Cyprus",
    "country": "CY",
    "dead": 0,
    "lastUpdated": "2020-03-20T05:13:04.924Z",
    "id": "JQByE4l2OA6sGOqIcWrM",
    "infected": 67,
    "sick": 67
  },
  {
    "recovered": 0,
    "latitude": 14.628434,
    "longitude": -90.522713,
    "name": "Guatemala",
    "country": "GT",
    "dead": 1,
    "lastUpdated": "2020-03-20T05:13:05.830Z",
    "id": "JUWE6bG3b5oL7fKQMSvv",
    "infected": 9,
    "sick": 8
  },
  {
    "recovered": 6,
    "latitude": 49.8153,
    "longitude": 6.1296,
    "name": "Luxembourg",
    "country": "LU",
    "dead": 4,
    "lastUpdated": "2020-03-20T05:13:04.968Z",
    "id": "JcFsHSn2WvZ5LJW42ovG",
    "infected": 335,
    "sick": 325
  },
  {
    "longitude": 0.8248,
    "name": "Togo",
    "country": "TG",
    "dead": 0,
    "lastUpdated": "2020-03-20T05:13:05.736Z",
    "id": "JrBbirlBKGdWSdcDt7PF",
    "infected": 1,
    "recovered": 0,
    "latitude": 8.6195,
    "sick": 1
  },
  {
    "id": "JzZ8sbqzjutThVjkPKPL",
    "infected": 107,
    "recovered": 0,
    "latitude": 42.7339,
    "longitude": 25.4858,
    "name": "Bulgaria",
    "country": "BG",
    "dead": 3,
    "lastUpdated": "2020-03-20T05:13:05.003Z",
    "sick": 104
  },
  {
    "infected": 60,
    "recovered": 3,
    "latitude": 7.873054,
    "longitude": 80.771797,
    "name": "Sri Lanka",
    "country": "LK",
    "dead": 0,
    "lastUpdated": "2020-03-20T05:13:05.606Z",
    "id": "KsWzJO06cf0d6LJ4ZNh9",
    "sick": 57
  },
  {
    "latitude": 15.9129,
    "longitude": 79.74,
    "name": "Andhra Pradesh",
    "country": "IN",
    "dead": 0,
    "lastUpdated": "2020-03-20T05:19:04.610Z",
    "id": "KtQIo2DoqjELtPAlyDVO",
    "infected": 2,
    "recovered": 0,
    "sick": 2
  },
  {
    "latitude": 61.52401,
    "longitude": 105.318756,
    "name": "Russia",
    "country": "RU",
    "dead": 1,
    "lastUpdated": "2020-03-20T05:13:04.965Z",
    "id": "KwOuGBKSMRlmwftxAvLX",
    "infected": 199,
    "recovered": 8,
    "sick": 190
  },
  {
    "recovered": 0,
    "latitude": 18.0708,
    "longitude": -63.0501,
    "name": "Saint-Martin",
    "country": "FR",
    "dead": 0,
    "lastUpdated": "2020-03-20T05:25:09.624Z",
    "id": "LBUtrLDKJiupXjlUNTUe",
    "infected": 4,
    "sick": 4
  },
  {
    "infected": 28,
    "recovered": 0,
    "latitude": 47.166,
    "longitude": 9.5554,
    "name": "Liechtenstein",
    "country": "LI",
    "dead": 0,
    "lastUpdated": "2020-03-20T05:13:05.519Z",
    "id": "LTGEU2E9MFkrCcFhZYVk",
    "sick": 28
  },
  {
    "latitude": 9.9456,
    "longitude": -9.6966,
    "name": "Guinea",
    "country": "GN",
    "dead": 0,
    "lastUpdated": "2020-03-20T05:13:05.918Z",
    "id": "LU2QWt5ao8IJa8evNYVV",
    "infected": 1,
    "recovered": 0,
    "sick": 1
  },
  {
    "infected": 1,
    "recovered": 0,
    "latitude": 3.9193051,
    "longitude": -56.0277824,
    "name": "Suriname",
    "country": "SR",
    "dead": 0,
    "lastUpdated": "2020-03-20T05:13:05.757Z",
    "id": "LglKINHyQpYpFxjckbQ6",
    "sick": 1
  },
  {
    "longitude": -106.4509,
    "name": "Saskatchewan",
    "country": "CA",
    "dead": 0,
    "lastUpdated": "2020-03-20T05:14:02.187Z",
    "id": "LkIDKY0CMAqzbwBHyYCP",
    "infected": 20,
    "recovered": 0,
    "latitude": 52.9399,
    "sick": 20
  },
  {
    "id": "MC8MXFw9iXYybnF8v7e6",
    "infected": 50,
    "recovered": 0,
    "latitude": 37.8393,
    "longitude": -84.27,
    "name": "Kentucky",
    "country": "US",
    "dead": 2,
    "lastUpdated": "2020-03-20T05:14:01.842Z",
    "sick": 48
  },
  {
    "latitude": 40.2672,
    "longitude": -86.1349,
    "name": "Indiana",
    "country": "US",
    "dead": 2,
    "lastUpdated": "2020-03-20T05:14:02.150Z",
    "id": "MOxDkmQ4wBi1CuAdVxDE",
    "infected": 60,
    "recovered": 0,
    "sick": 58
  },
  {
    "latitude": 7.54,
    "longitude": -5.5471,
    "name": "Ivory Coast",
    "country": "CI",
    "dead": 0,
    "lastUpdated": "2020-03-20T05:13:05.740Z",
    "id": "MdQOfc1gNh2DOqwSP6UV",
    "infected": 9,
    "recovered": 1,
    "sick": 8
  },
  {
    "dead": 17,
    "lastUpdated": "2020-03-20T05:27:02.977Z",
    "id": "MjpYq3zQyAvSQlVVYjD2",
    "infected": 4971,
    "recovered": 75,
    "latitude": 51.4332,
    "longitude": 7.6616,
    "name": "Nordrhein-Westfalen",
    "country": "DE",
    "sick": 4879
  },
  {
    "id": "MntmjjuHljarCdt6aIeE",
    "infected": 75,
    "recovered": 75,
    "latitude": 37.330509,
    "longitude": 105.977203,
    "name": "Ningxia",
    "country": "CN",
    "dead": 0,
    "lastUpdated": "2020-03-20T01:15:38.605Z",
    "sick": 0
  },
  {
    "latitude": 48.6616,
    "longitude": 9.3501,
    "name": "Baden-Württemberg",
    "country": "DE",
    "dead": 11,
    "lastUpdated": "2020-03-20T05:27:03.063Z",
    "id": "N3XsRBwJSsNclkEf7Zz5",
    "infected": 2748,
    "recovered": 8,
    "sick": 2729
  },
  {
    "id": "N7c13sCQF0G789XAVazJ",
    "infected": 64,
    "recovered": 2,
    "latitude": 44.696652,
    "longitude": 17.824332,
    "name": "Bosnia and Herzegovina",
    "country": "BA",
    "dead": 0,
    "lastUpdated": "2020-03-20T05:13:05.007Z",
    "sick": 62
  },
  {
    "recovered": 133,
    "latitude": 37.242565,
    "longitude": 111.856857,
    "name": "Shanxi",
    "country": "CN",
    "dead": 0,
    "lastUpdated": "2020-03-20T01:16:11.534Z",
    "id": "NBRIGIRrJB1Ry8prDNAC",
    "infected": 133,
    "sick": 0
  },
  {
    "infected": 123,
    "recovered": 0,
    "latitude": 35.7596,
    "longitude": -79.0193,
    "name": "North Carolina",
    "country": "US",
    "dead": 0,
    "lastUpdated": "2020-03-20T05:14:01.813Z",
    "id": "NC64Qp5kTqAfiTuR27k8",
    "sick": 123
  },
  {
    "infected": 204,
    "recovered": 1,
    "latitude": 52.4125,
    "longitude": 12.5316,
    "name": "Brandenburg",
    "country": "DE",
    "dead": 0,
    "lastUpdated": "2020-03-20T05:27:02.775Z",
    "id": "NJjo2gfBvnbK4xatrsUz",
    "sick": 203
  },
  {
    "latitude": 30.0668,
    "longitude": 79.0193,
    "name": "Uttarakhand",
    "country": "IN",
    "dead": 0,
    "lastUpdated": "2020-03-20T05:19:04.624Z",
    "id": "NMeZEcGToxXfpi16PfFV",
    "infected": 1,
    "recovered": 0,
    "sick": 1
  },
  {
    "dead": 1,
    "lastUpdated": "2020-03-20T05:27:03.069Z",
    "id": "Nk5vPgUIXsWVfbWZf15O",
    "infected": 740,
    "recovered": 3,
    "latitude": 50.6521,
    "longitude": 9.1624,
    "name": "Hessen",
    "country": "DE",
    "sick": 736
  },
  {
    "infected": 86,
    "recovered": 1,
    "latitude": 56.96776,
    "longitude": 25.837107,
    "name": "Latvia",
    "country": "LV",
    "dead": 0,
    "lastUpdated": "2020-03-20T05:13:05.605Z",
    "id": "NmmMKy0YqA8StHdGzB5N",
    "sick": 85
  },
  {
    "recovered": 0,
    "latitude": 6.4281,
    "longitude": -9.4295,
    "name": "Liberia",
    "country": "LR",
    "dead": 0,
    "lastUpdated": "2020-03-20T05:13:05.770Z",
    "id": "O4g88K49HKEZLFXm5gxb",
    "infected": 2,
    "sick": 2
  },
  {
    "recovered": 0,
    "latitude": 34.003307,
    "longitude": -80.525613,
    "name": "South Carolina",
    "country": "US",
    "dead": 1,
    "lastUpdated": "2020-03-20T05:14:02.157Z",
    "id": "ONU4CK8QjViFHKg2w5if",
    "infected": 81,
    "sick": 80
  },
  {
    "longitude": -89.582775,
    "name": "Mississippi",
    "country": "US",
    "dead": 1,
    "lastUpdated": "2020-03-20T05:14:02.194Z",
    "id": "OYa0jFzdbAgo8zUsRv6q",
    "infected": 50,
    "recovered": 0,
    "latitude": 33.51822,
    "sick": 49
  },
  {
    "infected": 52,
    "recovered": 0,
    "latitude": 45.2538,
    "longitude": -69.4455,
    "name": "Maine",
    "country": "US",
    "dead": 0,
    "lastUpdated": "2020-03-20T05:14:01.789Z",
    "id": "OcXNp9kNVSwrRlG3bNVN",
    "sick": 52
  },
  {
    "latitude": -41.915264,
    "longitude": 146.725256,
    "name": "Tasmania",
    "country": "AU",
    "dead": 0,
    "lastUpdated": "2020-03-20T05:25:05.433Z",
    "id": "OnOseaqWdnuP18oruABW",
    "infected": 10,
    "recovered": 3,
    "sick": 7
  },
  {
    "longitude": -81.2546,
    "name": "Cayman Islands",
    "country": "KY",
    "dead": 1,
    "lastUpdated": "2020-03-20T05:13:05.710Z",
    "id": "P4mwRFLbrvT0t75uD8Wo",
    "infected": 3,
    "recovered": 0,
    "latitude": 19.3133,
    "sick": 2
  },
  {
    "infected": 1,
    "recovered": 0,
    "latitude": 16.7424984,
    "longitude": -62.1873665,
    "name": "Montserrat",
    "country": "MS",
    "dead": 0,
    "lastUpdated": "2020-03-20T05:13:05.767Z",
    "id": "PEDkeFMTOZpvHiSVxBk7",
    "sick": 1
  },
  {
    "infected": 11,
    "recovered": 0,
    "latitude": -1.9403,
    "longitude": 29.8739,
    "name": "Rwanda",
    "country": "RW",
    "dead": 0,
    "lastUpdated": "2020-03-20T05:13:05.762Z",
    "id": "PEcgZGEkyhABztt1Ufgc",
    "sick": 11
  },
  {
    "infected": 89,
    "recovered": 0,
    "latitude": 46.7296,
    "longitude": -94.6859,
    "name": "Minnesota",
    "country": "US",
    "dead": 0,
    "lastUpdated": "2020-03-20T05:14:01.831Z",
    "id": "PJvVYosLIhbcRZYnKX1R",
    "sick": 89
  },
  {
    "longitude": -89.3985,
    "name": "Illinois",
    "country": "US",
    "dead": 4,
    "lastUpdated": "2020-03-20T05:14:01.828Z",
    "id": "PTwQr9ijo0TBBsPH2sdJ",
    "infected": 422,
    "recovered": 0,
    "latitude": 40.6331,
    "sick": 418
  },
  {
    "longitude": -60.978893,
    "name": "Saint Lucia",
    "country": "LC",
    "dead": 0,
    "lastUpdated": "2020-03-20T05:13:05.704Z",
    "id": "PjLqCeFdyzdZNcZxMkK1",
    "infected": 2,
    "recovered": 0,
    "latitude": 13.909444,
    "sick": 2
  },
  {
    "latitude": 34.201507,
    "longitude": 9.460554,
    "name": "Tunisia",
    "country": "TN",
    "dead": 1,
    "lastUpdated": "2020-03-20T05:13:05.010Z",
    "id": "Pr76V4raf108uSRoEXac",
    "infected": 39,
    "recovered": 1,
    "sick": 37
  },
  {
    "latitude": -26.5225,
    "longitude": 31.4659,
    "name": "Eswatini",
    "country": "SZ",
    "dead": 0,
    "lastUpdated": "2020-03-20T05:13:05.792Z",
    "id": "PuQgOd9KWiMzGZXm11sR",
    "infected": 1,
    "recovered": 0,
    "sick": 1
  },
  {
    "infected": 150,
    "recovered": 8,
    "latitude": -37.009609,
    "longitude": 143.94853,
    "name": "Victoria",
    "country": "AU",
    "dead": 0,
    "lastUpdated": "2020-03-20T05:25:05.436Z",
    "id": "Q18mrGvFWTLX2BU9SqhQ",
    "sick": 142
  },
  {
    "infected": 253,
    "recovered": 0,
    "latitude": 54.2194,
    "longitude": 9.6961,
    "name": "Schleswig-Holstein",
    "country": "DE",
    "dead": 1,
    "lastUpdated": "2020-03-20T05:27:02.873Z",
    "id": "Q39XkabIYxt15mHINzTa",
    "sick": 252
  },
  {
    "infected": 267,
    "recovered": 1,
    "latitude": 58.595272,
    "longitude": 25.013607,
    "name": "Estonia",
    "country": "EE",
    "dead": 0,
    "lastUpdated": "2020-03-20T05:13:04.995Z",
    "id": "QR9go2hQKXjty7JHUYe4",
    "sick": 266
  },
  {
    "infected": 3,
    "recovered": 0,
    "latitude": 18.3358,
    "longitude": -64.8963,
    "name": "U.S. Virgin Islands",
    "country": "VI",
    "dead": 0,
    "lastUpdated": "2020-03-20T05:13:05.800Z",
    "id": "QqhD3YDMKXojvQY3Yu41",
    "sick": 3
  },
  {
    "latitude": 8.538,
    "longitude": -80.7821,
    "name": "Panama",
    "country": "PA",
    "dead": 1,
    "lastUpdated": "2020-03-20T05:13:05.639Z",
    "id": "R8YCgephnxTufvcPWMgx",
    "infected": 137,
    "recovered": 1,
    "sick": 135
  },
  {
    "longitude": -86.2419,
    "name": "Honduras",
    "country": "HN",
    "dead": 0,
    "lastUpdated": "2020-03-20T05:13:05.824Z",
    "id": "RA2SE0p2bVhqo0P2hzGY",
    "infected": 24,
    "recovered": 0,
    "latitude": 15.2,
    "sick": 24
  },
  {
    "latitude": 41.878,
    "longitude": -93.0977,
    "name": "Iowa",
    "country": "US",
    "dead": 0,
    "lastUpdated": "2020-03-20T05:14:02.188Z",
    "id": "RX0KDu1AFrlCsrRso0nb",
    "infected": 44,
    "recovered": 0,
    "sick": 44
  },
  {
    "infected": 35,
    "recovered": 0,
    "latitude": 39.0119,
    "longitude": -98.4842,
    "name": "Kansas",
    "country": "US",
    "dead": 1,
    "lastUpdated": "2020-03-20T05:14:02.176Z",
    "id": "Rf4uvBfP3GRDSHdZElRd",
    "sick": 34
  },
  {
    "infected": 2643,
    "recovered": 0,
    "latitude": 48.6998,
    "longitude": 6.1878,
    "name": "Grand Est",
    "country": "FR",
    "dead": 61,
    "lastUpdated": "2020-03-20T05:25:10.929Z",
    "id": "RmEgf1xeclWt7XCF9oiR",
    "sick": 2582
  },
  {
    "recovered": 5,
    "latitude": 51.2538,
    "longitude": -85.3232,
    "name": "Ontario",
    "country": "CA",
    "dead": 2,
    "lastUpdated": "2020-03-20T05:14:01.792Z",
    "id": "Rx4TuyMpfGb3S8wYJX0x",
    "infected": 257,
    "sick": 250
  },
  {
    "longitude": -61.011715,
    "name": "Martinique",
    "country": "FR",
    "dead": 1,
    "lastUpdated": "2020-03-20T05:25:10.834Z",
    "id": "SDdefnq1bc3ZNr7SpEsW",
    "infected": 32,
    "recovered": 0,
    "latitude": 14.652027,
    "sick": 31
  },
  {
    "longitude": -1.0232,
    "name": "Ghana",
    "country": "GH",
    "dead": 0,
    "lastUpdated": "2020-03-20T05:13:05.699Z",
    "id": "SG9VWLOV3x2JsTkXmVSz",
    "infected": 11,
    "recovered": 0,
    "latitude": 7.9465,
    "sick": 11
  },
  {
    "recovered": 15,
    "latitude": 46.818188,
    "longitude": 8.227512,
    "name": "Switzerland",
    "country": "CH",
    "dead": 43,
    "lastUpdated": "2020-03-20T05:13:05.529Z",
    "id": "SGe9sCPayMqh6RsGFaBA",
    "infected": 4222,
    "sick": 4164
  },
  {
    "infected": 121,
    "recovered": 0,
    "latitude": 46.8139,
    "longitude": -71.208,
    "name": "Quebec",
    "country": "CA",
    "dead": 1,
    "lastUpdated": "2020-03-20T05:14:01.783Z",
    "id": "SHoOE3NiJgWAlDVBzwYH",
    "sick": 120
  },
  {
    "recovered": 0,
    "latitude": 42.6026,
    "longitude": 20.903,
    "name": "Kosovo",
    "country": "XK",
    "dead": 0,
    "lastUpdated": "2020-03-20T05:14:31.924Z",
    "id": "SMWvuMMuKp2QK7O2tNia",
    "infected": 21,
    "sick": 21
  },
  {
    "recovered": 0,
    "latitude": 41.4925,
    "longitude": -99.9018,
    "name": "Nebraska",
    "country": "US",
    "dead": 0,
    "lastUpdated": "2020-03-20T05:14:01.840Z",
    "id": "SakhKQzKu1LRI8laqdQq",
    "infected": 29,
    "sick": 29
  },
  {
    "latitude": -21.1151,
    "longitude": 55.5364,
    "name": "La Réunion",
    "country": "FR",
    "dead": 0,
    "lastUpdated": "2020-03-20T01:41:43.093Z",
    "id": "SgHzWAAYK1j2sipovxM6",
    "infected": 28,
    "recovered": 0,
    "sick": 28
  },
  {
    "recovered": 1,
    "latitude": 12.565679,
    "longitude": 104.990967,
    "name": "Cambodia",
    "country": "KH",
    "dead": 0,
    "lastUpdated": "2020-03-20T05:13:04.992Z",
    "id": "SioMALgUbo7peXmbco2f",
    "infected": 37,
    "sick": 36
  },
  {
    "longitude": 144.7937,
    "name": "Guam",
    "country": "GU",
    "dead": 0,
    "lastUpdated": "2020-03-20T05:14:02.144Z",
    "id": "SsWhuEElU7dCTTuH5fdQ",
    "infected": 12,
    "recovered": 0,
    "latitude": 13.4443,
    "sick": 12
  },
  {
    "latitude": -4.0383,
    "longitude": 21.7587,
    "name": "DR Congo",
    "country": "CD",
    "dead": 0,
    "lastUpdated": "2020-03-20T05:13:05.794Z",
    "id": "T3iRf8mTUTAzbKrORTap",
    "infected": 14,
    "recovered": 0,
    "sick": 14
  },
  {
    "dead": 0,
    "lastUpdated": "2020-03-20T05:13:05.516Z",
    "id": "T7NffoeCgTUpAbOHvYwP",
    "infected": 274,
    "recovered": 8,
    "latitude": 23.635796,
    "longitude": 44.344334,
    "name": "Saudi Arabia",
    "country": "SA",
    "sick": 266
  },
  {
    "id": "TQZmzsLhJqjtCSExAkCP",
    "infected": 73,
    "recovered": 0,
    "latitude": 4.506106,
    "longitude": 114.650692,
    "name": "Brunei",
    "country": "BN",
    "dead": 0,
    "lastUpdated": "2020-03-20T05:13:05.522Z",
    "sick": 73
  },
  {
    "longitude": 4.3853,
    "name": "Auvergne-Rhône-Alpes",
    "country": "FR",
    "dead": 7,
    "lastUpdated": "2020-03-20T05:25:09.621Z",
    "id": "TT0MKODSjrxHvG19xZCa",
    "infected": 1014,
    "recovered": 27,
    "latitude": 45.4471,
    "sick": 980
  },
  {
    "infected": 277,
    "recovered": 0,
    "latitude": 39.318928,
    "longitude": -105.461392,
    "name": "Colorado",
    "country": "US",
    "dead": 4,
    "lastUpdated": "2020-03-20T05:14:02.166Z",
    "id": "Th4dlpXXmSDgi1OHs36P",
    "sick": 273
  },
  {
    "longitude": -1.5616,
    "name": "Burkina Faso",
    "country": "BF",
    "dead": 1,
    "lastUpdated": "2020-03-20T05:13:04.954Z",
    "id": "Tup6oDCHj6DgqZR3nQ3x",
    "infected": 33,
    "recovered": 0,
    "latitude": 12.2383,
    "sick": 32
  },
  {
    "infected": 1151,
    "recovered": 1,
    "latitude": 55.675758,
    "longitude": 12.56902,
    "name": "Denmark",
    "country": "DK",
    "dead": 6,
    "lastUpdated": "2020-03-20T05:13:05.530Z",
    "id": "Ty1AY3VLPJcRZgdBIERx",
    "sick": 1144
  },
  {
    "infected": 762,
    "recovered": 748,
    "latitude": 36.395859,
    "longitude": 118.769882,
    "name": "Shandong",
    "country": "CN",
    "dead": 7,
    "lastUpdated": "2020-03-20T01:16:35.451Z",
    "id": "U0tkTJ9CGsBuFJ2Gdoum",
    "sick": 7
  },
  {
    "latitude": 43.94236,
    "longitude": 12.457777,
    "name": "San Marino",
    "country": "SM",
    "dead": 14,
    "lastUpdated": "2020-03-20T05:13:05.537Z",
    "id": "U12rMD5GDW58Q0lIwrB1",
    "infected": 144,
    "recovered": 4,
    "sick": 126
  },
  {
    "longitude": 138.25293,
    "name": "Japan",
    "country": "JP",
    "dead": 33,
    "lastUpdated": "2020-03-20T05:13:05.510Z",
    "id": "U13Gy4BpRLAZ95bPmBXd",
    "infected": 943,
    "recovered": 191,
    "latitude": 36.204823,
    "sick": 719
  },
  {
    "latitude": 48.202,
    "longitude": -2.9326,
    "name": "Bretagne",
    "country": "FR",
    "dead": 3,
    "lastUpdated": "2020-03-20T05:25:10.829Z",
    "id": "URKMlJ7OTNldjpaxFbjE",
    "infected": 297,
    "recovered": 0,
    "sick": 294
  },
  {
    "infected": 506,
    "recovered": 1,
    "latitude": 53.5511,
    "longitude": 9.9937,
    "name": "Hamburg",
    "country": "DE",
    "dead": 1,
    "lastUpdated": "2020-03-20T05:27:02.963Z",
    "id": "UfFaUECHINUutv1M9tzq",
    "sick": 504
  },
  {
    "longitude": -63.0548286,
    "name": "Sint Maarten",
    "country": "SX",
    "dead": 0,
    "lastUpdated": "2020-03-20T05:13:05.764Z",
    "id": "UsxgpiuFCtlR2CW1UUFm",
    "infected": 1,
    "recovered": 0,
    "latitude": 18.0424805,
    "sick": 1
  },
  {
    "infected": 1,
    "recovered": 0,
    "latitude": 11.943179,
    "longitude": 79.808206,
    "name": "Puducherry",
    "country": "IN",
    "dead": 0,
    "lastUpdated": "2020-03-20T05:19:04.600Z",
    "id": "V1qE740s3EUGyKGr6SVv",
    "sick": 1
  },
  {
    "id": "VAAmtxtDuCY0o55zRsOh",
    "infected": 128,
    "recovered": 1,
    "latitude": 3.527606,
    "longitude": -72.998674,
    "name": "Colombia",
    "country": "CO",
    "dead": 0,
    "lastUpdated": "2020-03-20T05:13:05.523Z",
    "sick": 127
  },
  {
    "id": "VAG9AcMABTf8oIAfELPh",
    "infected": 16,
    "recovered": 0,
    "latitude": 21.5218,
    "longitude": -77.7812,
    "name": "Cuba",
    "country": "CU",
    "dead": 1,
    "lastUpdated": "2020-03-20T05:13:05.911Z",
    "sick": 15
  },
  {
    "id": "VIf8T8PD3ZzlzAm5eBCX",
    "infected": 176,
    "recovered": 172,
    "latitude": 25.181129,
    "longitude": 101.864143,
    "name": "Yunnan",
    "country": "CN",
    "dead": 2,
    "lastUpdated": "2020-03-20T01:17:56.260Z",
    "sick": 2
  },
  {
    "latitude": 26.8467,
    "longitude": 80.9462,
    "name": "Uttar Pradesh",
    "country": "IN",
    "dead": 0,
    "lastUpdated": "2020-03-20T05:19:04.604Z",
    "id": "VcKcLdCkC6YpPfIDnRVD",
    "infected": 19,
    "recovered": 9,
    "sick": 10
  },
  {
    "id": "WAnbFrEjtZDTCIYBt8rz",
    "infected": 444,
    "recovered": 0,
    "latitude": 43.8927,
    "longitude": 3.2828,
    "name": "Occitanie",
    "country": "FR",
    "dead": 10,
    "lastUpdated": "2020-03-20T05:25:09.623Z",
    "sick": 434
  },
  {
    "infected": 150,
    "recovered": 0,
    "latitude": -30.5595,
    "longitude": 22.9375,
    "name": "South Africa",
    "country": "ZA",
    "dead": 0,
    "lastUpdated": "2020-03-20T05:13:04.980Z",
    "id": "Whrue10NtwIObLvFFyBr",
    "sick": 150
  },
  {
    "id": "Wk811YwpQxsOCfz8As86",
    "infected": 1,
    "recovered": 0,
    "latitude": 13.443182,
    "longitude": -15.3101387,
    "name": "Gambia",
    "country": "GM",
    "dead": 0,
    "lastUpdated": "2020-03-20T05:13:05.837Z",
    "sick": 1
  },
  {
    "id": "WpLayPPLIJ7VcHZdQaoM",
    "infected": 18,
    "recovered": 3,
    "latitude": 23.685,
    "longitude": 90.3563,
    "name": "Bangladesh",
    "country": "BD",
    "dead": 1,
    "lastUpdated": "2020-03-20T05:13:05.793Z",
    "sick": 14
  },
  {
    "latitude": 34.152588,
    "longitude": 77.577049,
    "name": "Ladakh",
    "country": "IN",
    "dead": 0,
    "lastUpdated": "2020-03-20T05:19:04.584Z",
    "id": "X3PZqaJxtnlxcgP4tzya",
    "infected": 10,
    "recovered": 0,
    "sick": 10
  },
  {
    "latitude": 25.92448,
    "longitude": 118.278992,
    "name": "Fujian",
    "country": "CN",
    "dead": 1,
    "lastUpdated": "2020-03-20T01:19:41.899Z",
    "id": "XBBw0iMPrmiEu3qogkbi",
    "infected": 296,
    "recovered": 295,
    "sick": 0
  },
  {
    "infected": 41035,
    "recovered": 4440,
    "latitude": 41.871941,
    "longitude": 12.56738,
    "name": "Italy",
    "country": "IT",
    "dead": 3405,
    "lastUpdated": "2020-03-20T05:13:04.860Z",
    "id": "XdekMZcw1lJK2MWpBlNK",
    "sick": 33190
  },
  {
    "infected": 94,
    "recovered": 0,
    "latitude": -32.5228,
    "longitude": -55.7658,
    "name": "Uruguay",
    "country": "UY",
    "dead": 0,
    "lastUpdated": "2020-03-20T05:13:05.535Z",
    "id": "XrsuLstdybIqIvv0E0aJ",
    "sick": 94
  },
  {
    "infected": 162,
    "recovered": 0,
    "latitude": 42.0396,
    "longitude": 9.0129,
    "name": "Corse",
    "country": "FR",
    "dead": 7,
    "lastUpdated": "2020-03-20T05:25:10.922Z",
    "id": "YGXgIObKVabP2CYEdcb9",
    "sick": 155
  },
  {
    "infected": 47,
    "recovered": 0,
    "latitude": 31.9522,
    "longitude": 35.2332,
    "name": "Palestine",
    "country": "PS",
    "dead": 0,
    "lastUpdated": "2020-03-20T05:13:05.520Z",
    "id": "YMzKw0SnXG71VT7H1jff",
    "sick": 47
  },
  {
    "longitude": -149.4937,
    "name": "Alaska",
    "country": "US",
    "dead": 0,
    "lastUpdated": "2020-03-20T05:14:02.193Z",
    "id": "YaCODTMD1KKRnrAlkg2u",
    "infected": 9,
    "recovered": 0,
    "latitude": 64.2008,
    "sick": 9
  },
  {
    "id": "Yw9uBekNlefXBcOCNMfP",
    "infected": 8652,
    "recovered": 2233,
    "latitude": 37.568291,
    "longitude": 126.99778,
    "name": "South Korea",
    "country": "KR",
    "dead": 94,
    "lastUpdated": "2020-03-20T05:13:04.993Z",
    "sick": 6325
  },
  {
    "infected": 5,
    "recovered": 0,
    "latitude": 13.193887,
    "longitude": -59.543198,
    "name": "Barbados",
    "country": "BB",
    "dead": 0,
    "lastUpdated": "2020-03-20T05:13:05.760Z",
    "id": "YzZqZMJGvG6joQCdiuXC",
    "sick": 5
  },
  {
    "longitude": 21.0122,
    "name": "Poland",
    "country": "PL",
    "dead": 5,
    "lastUpdated": "2020-03-20T05:13:05.539Z",
    "id": "ZAZNuCK1VweBaTLCFzCk",
    "infected": 355,
    "recovered": 13,
    "latitude": 52.2297,
    "sick": 337
  },
  {
    "infected": 159,
    "recovered": 0,
    "latitude": 41.6032,
    "longitude": -73.0877,
    "name": "Connecticut",
    "country": "US",
    "dead": 3,
    "lastUpdated": "2020-03-20T05:14:01.800Z",
    "id": "Zqy0gftQzocR49jEJNMl",
    "sick": 156
  },
  {
    "latitude": 51.011,
    "longitude": 10.8453,
    "name": "Thüringen",
    "country": "DE",
    "dead": 0,
    "lastUpdated": "2020-03-20T05:27:03.066Z",
    "id": "a9OgUWo6ZSWA3HyF0xnj",
    "infected": 166,
    "recovered": 2,
    "sick": 164
  },
  {
    "longitude": 136.209152,
    "name": "South Australia",
    "country": "AU",
    "dead": 0,
    "lastUpdated": "2020-03-20T05:25:05.518Z",
    "id": "a9p9pAOsjg1WAjPGc2a6",
    "infected": 42,
    "recovered": 3,
    "latitude": -30.000233,
    "sick": 39
  },
  {
    "recovered": 0,
    "latitude": 37.9643,
    "longitude": -91.8318,
    "name": "Missouri",
    "country": "US",
    "dead": 1,
    "lastUpdated": "2020-03-20T05:14:02.142Z",
    "id": "aPubGfQ8ToSEuKJldKRT",
    "infected": 39,
    "sick": 38
  },
  {
    "latitude": 23.64407,
    "longitude": 108.26651,
    "name": "Guangxi",
    "country": "CN",
    "dead": 2,
    "lastUpdated": "2020-03-20T01:19:35.202Z",
    "id": "aTa8MiBjtH3iY0SRs2HQ",
    "infected": 254,
    "recovered": 250,
    "sick": 2
  },
  {
    "latitude": 6.6111,
    "longitude": 20.9394,
    "name": "CAR",
    "country": "CF",
    "dead": 0,
    "lastUpdated": "2020-03-20T05:13:05.791Z",
    "id": "adcBUeAYp6ey0ZXCzKNs",
    "infected": 1,
    "recovered": 0,
    "sick": 1
  },
  {
    "infected": 105,
    "recovered": 0,
    "latitude": 37.4316,
    "longitude": -78.6569,
    "name": "Virginia",
    "country": "US",
    "dead": 2,
    "lastUpdated": "2020-03-20T05:14:01.807Z",
    "id": "afeZTVC1J1SMMNFxkrcc",
    "sick": 103
  },
  {
    "infected": 485,
    "recovered": 384,
    "latitude": 39.904202,
    "longitude": 116.407394,
    "name": "Beijing",
    "country": "CN",
    "dead": 8,
    "lastUpdated": "2020-03-20T01:17:38.178Z",
    "id": "alj4hkxg9cjrTxOzwFKt",
    "sick": 93
  },
  {
    "longitude": 43.679291,
    "name": "Iraq",
    "country": "IQ",
    "dead": 13,
    "lastUpdated": "2020-03-20T05:13:05.549Z",
    "id": "b7TwXX46FA0EmH1CjHET",
    "infected": 192,
    "recovered": 49,
    "latitude": 33.22319,
    "sick": 130
  },
  {
    "longitude": -14.358636,
    "name": "Senegal",
    "country": "SN",
    "dead": 0,
    "lastUpdated": "2020-03-20T05:13:05.552Z",
    "id": "b9p1JhVml3GGC7iiPmKv",
    "infected": 36,
    "recovered": 2,
    "latitude": 14.457474,
    "sick": 34
  },
  {
    "infected": 7,
    "recovered": 0,
    "latitude": -0.0236,
    "longitude": 37.9062,
    "name": "Kenya",
    "country": "KE",
    "dead": 0,
    "lastUpdated": "2020-03-20T05:13:05.822Z",
    "id": "bVHiTolbUJGHIeVht3eG",
    "sick": 7
  },
  {
    "latitude": 39.561889,
    "longitude": -74.672169,
    "name": "New Jersey",
    "country": "US",
    "dead": 9,
    "lastUpdated": "2020-03-20T05:14:02.183Z",
    "id": "bYp4RRHv19M7lYtSzQeV",
    "infected": 742,
    "recovered": 0,
    "sick": 733
  },
  {
    "infected": 900,
    "recovered": 75,
    "latitude": 3.139,
    "longitude": 101.6869,
    "name": "Malaysia",
    "country": "MY",
    "dead": 2,
    "lastUpdated": "2020-03-20T05:13:05.682Z",
    "id": "bdqD4kpdqGgUaX70Tm2Q",
    "sick": 823
  },
  {
    "infected": 1439,
    "recovered": 16,
    "latitude": 60.128162,
    "longitude": 18.643501,
    "name": "Sweden",
    "country": "SE",
    "dead": 11,
    "lastUpdated": "2020-03-20T05:13:05.612Z",
    "id": "bignnyt2A8BBx8VNo32p",
    "sick": 1412
  },
  {
    "id": "cCGmFmwHOoBrEpvG3qBP",
    "infected": 64,
    "recovered": 0,
    "latitude": 40.973765,
    "longitude": 20.010162,
    "name": "Albania",
    "country": "AL",
    "dead": 2,
    "lastUpdated": "2020-03-20T05:13:04.966Z",
    "sick": 62
  },
  {
    "dead": 0,
    "lastUpdated": "2020-03-20T05:13:05.774Z",
    "id": "cPxONYsVo6BgvCW9HUeQ",
    "infected": 6,
    "recovered": 0,
    "latitude": 46.8625,
    "longitude": 103.8467,
    "name": "Mongolia",
    "country": "MN",
    "sick": 6
  },
  {
    "infected": 330,
    "recovered": 5,
    "latitude": 64.963051,
    "longitude": -19.020836,
    "name": "Iceland",
    "country": "IS",
    "dead": 0,
    "lastUpdated": "2020-03-20T05:13:05.526Z",
    "id": "cPxe7nsRnOf6aOPqHElJ",
    "sick": 325
  },
  {
    "infected": 677,
    "recovered": 14,
    "latitude": 31.046051,
    "longitude": 34.851612,
    "name": "Israel",
    "country": "IL",
    "dead": 0,
    "lastUpdated": "2020-03-20T05:13:05.542Z",
    "id": "cX891t0ONLNFj0MYq6La",
    "sick": 663
  },
  {
    "latitude": 4.749531,
    "longitude": -53.112909,
    "name": "Guyane",
    "country": "FR",
    "dead": 0,
    "lastUpdated": "2020-03-20T05:25:10.824Z",
    "id": "cc7s6hYGQ2MovBBBgkKb",
    "infected": 15,
    "recovered": 5,
    "sick": 10
  },
  {
    "dead": 0,
    "lastUpdated": "2020-03-20T05:13:04.951Z",
    "id": "cgzd5EM8PZv5ziJtTz1w",
    "infected": 72,
    "recovered": 1,
    "latitude": 61.8926,
    "longitude": -6.9118,
    "name": "Faeroe Islands",
    "country": "FO",
    "sick": 71
  },
  {
    "longitude": -77.1945,
    "name": "Pennsylvania",
    "country": "US",
    "dead": 1,
    "lastUpdated": "2020-03-20T05:14:02.180Z",
    "id": "chj2FF3zb4Xxcop9RHre",
    "infected": 206,
    "recovered": 0,
    "latitude": 41.2033,
    "sick": 205
  },
  {
    "dead": 2,
    "lastUpdated": "2020-03-20T05:25:09.548Z",
    "id": "cpf3Y5PQTYywIm3PrpIQ",
    "infected": 280,
    "recovered": 2,
    "latitude": 45.7087,
    "longitude": 0.6269,
    "name": "Nouvelle-Aquitaine",
    "country": "FR",
    "sick": 276
  },
  {
    "latitude": 40.463669,
    "longitude": -3.74922,
    "name": "Spain",
    "country": "ES",
    "dead": 831,
    "lastUpdated": "2020-03-20T05:13:05.015Z",
    "id": "d0ExINgPaWUBm3l4ioJL",
    "infected": 18077,
    "recovered": 1107,
    "sick": 16139
  },
  {
    "recovered": 1,
    "latitude": 42.50837,
    "longitude": 1.517155,
    "name": "Andorra",
    "country": "AD",
    "dead": 0,
    "lastUpdated": "2020-03-20T05:13:04.969Z",
    "id": "dedMXSYR2k92wkSXNZqn",
    "infected": 74,
    "sick": 73
  },
  {
    "latitude": 38.831163,
    "longitude": -75.375673,
    "name": "Delaware",
    "country": "US",
    "dead": 0,
    "lastUpdated": "2020-03-20T05:14:01.838Z",
    "id": "dzCgqYduzyncjNKU9z6G",
    "infected": 30,
    "recovered": 0,
    "sick": 30
  },
  {
    "latitude": 38.9637,
    "longitude": 35.2433,
    "name": "Turkey",
    "country": "TR",
    "dead": 4,
    "lastUpdated": "2020-03-20T05:13:04.957Z",
    "id": "dzIcCaUZlbIXuRw0SyDE",
    "infected": 359,
    "recovered": 0,
    "sick": 355
  },
  {
    "id": "e3BtI12qbqhE8jypOoZu",
    "infected": 2196,
    "recovered": 9,
    "latitude": 47.516232,
    "longitude": 14.550072,
    "name": "Austria",
    "country": "AT",
    "dead": 6,
    "lastUpdated": "2020-03-20T05:13:05.544Z",
    "sick": 2181
  },
  {
    "recovered": 1,
    "latitude": 52.6367,
    "longitude": 9.8451,
    "name": "Niedersachsen",
    "country": "DE",
    "dead": 0,
    "lastUpdated": "2020-03-20T05:27:02.871Z",
    "id": "e3CJgTO8wVbBQZaxqNze",
    "infected": 981,
    "sick": 980
  },
  {
    "id": "e7P83iImanpd9r36oXK3",
    "infected": 125,
    "recovered": 122,
    "latitude": 41.097481,
    "longitude": 122.310669,
    "name": "Liaoning",
    "country": "CN",
    "dead": 1,
    "lastUpdated": "2020-03-20T01:17:20.081Z",
    "sick": 2
  },
  {
    "latitude": 31.230391,
    "longitude": 121.473701,
    "name": "Shanghai",
    "country": "CN",
    "dead": 3,
    "lastUpdated": "2020-03-20T01:19:26.377Z",
    "id": "e9pQqQa7CEblCYoDtfKo",
    "infected": 371,
    "recovered": 326,
    "sick": 42
  },
  {
    "latitude": 42.407211,
    "longitude": -71.382439,
    "name": "Massachusetts",
    "country": "US",
    "dead": 0,
    "lastUpdated": "2020-03-20T05:14:01.834Z",
    "id": "eCKDGssww4pF7NrxOySu",
    "infected": 328,
    "recovered": 0,
    "sick": 328
  },
  {
    "latitude": 43.740451,
    "longitude": 7.432032,
    "name": "Monaco",
    "country": "MC",
    "dead": 0,
    "lastUpdated": "2020-03-20T05:13:05.776Z",
    "id": "eLgKPNUwYM5MNDAtF6ql",
    "infected": 10,
    "recovered": 0,
    "sick": 10
  },
  {
    "longitude": 4.9994,
    "name": "Bourgogne-Franche-Comté",
    "country": "FR",
    "dead": 20,
    "lastUpdated": "2020-03-20T05:25:10.821Z",
    "id": "ejrjMKfHexGnK52FS9Aa",
    "infected": 696,
    "recovered": 8,
    "latitude": 47.2805,
    "sick": 668
  },
  {
    "latitude": 48.0196,
    "longitude": 66.9237,
    "name": "Kazakhstan",
    "country": "KZ",
    "dead": 3,
    "lastUpdated": "2020-03-20T04:13:02.958Z",
    "id": "etrmrftkQg6Kbd9seAga",
    "infected": 44,
    "recovered": 0,
    "sick": 41
  },
  {
    "id": "eyK5bxFkwdoAouIBvLFM",
    "infected": 540,
    "recovered": 536,
    "latitude": 30.14208,
    "longitude": 102.960701,
    "name": "Sichuan",
    "country": "CN",
    "dead": 3,
    "lastUpdated": "2020-03-20T01:18:25.053Z",
    "sick": 1
  },
  {
    "longitude": 55.975414,
    "name": "Oman",
    "country": "OM",
    "dead": 0,
    "lastUpdated": "2020-03-20T05:13:05.004Z",
    "id": "f9kmlhYtc3WA3kjbWszW",
    "infected": 48,
    "recovered": 13,
    "latitude": 21.473534,
    "sick": 35
  },
  {
    "dead": 0,
    "lastUpdated": "2020-03-20T05:27:02.974Z",
    "id": "fGqVm2khm3IBRs709S1f",
    "infected": 389,
    "recovered": 0,
    "latitude": 51.1045,
    "longitude": 13.2017,
    "name": "Sachsen",
    "country": "DE",
    "sick": 389
  },
  {
    "latitude": 47,
    "longitude": 2,
    "name": "Région non communiquée",
    "country": "FR",
    "dead": 195,
    "lastUpdated": "2020-03-19T21:02:41.903Z",
    "id": "fIp76gl05LhZ0aOxUbhz",
    "infected": 0,
    "recovered": 0,
    "sick": 0
  },
  {
    "infected": 69,
    "recovered": 1,
    "latitude": 31.295929,
    "longitude": 36.691952,
    "name": "Jordan",
    "country": "JO",
    "dead": 0,
    "lastUpdated": "2020-03-20T05:13:05.528Z",
    "id": "fK06AziL8wyrcoz7rsmJ",
    "sick": 68
  },
  {
    "recovered": 0,
    "latitude": 27.716933,
    "longitude": -81.555239,
    "name": "Florida",
    "country": "US",
    "dead": 9,
    "lastUpdated": "2020-03-20T05:14:02.135Z",
    "id": "fNganaGVPifA4QahEQPS",
    "infected": 432,
    "sick": 423
  },
  {
    "dead": 7,
    "lastUpdated": "2020-03-19T11:35:36.139Z",
    "id": "fNnE9CD0SttEVrCUo1Ym",
    "infected": 696,
    "recovered": 325,
    "latitude": 35.452016,
    "longitude": 139.664285,
    "name": "Diamond Princess (Cruise)",
    "country": "ZZ",
    "sick": 364
  },
  {
    "latitude": 52.52,
    "longitude": 13.405,
    "name": "Berlin",
    "country": "DE",
    "dead": 0,
    "lastUpdated": "2020-03-20T05:27:02.876Z",
    "id": "ffKhENYKy3bwsyBLiYtE",
    "infected": 688,
    "recovered": 6,
    "sick": 682
  },
  {
    "latitude": 31.160629,
    "longitude": 112.255402,
    "name": "Hubei",
    "country": "CN",
    "dead": 3132,
    "lastUpdated": "2020-03-20T01:20:53.000Z",
    "id": "fiJ14DCxw15e3SMemh8R",
    "infected": 67800,
    "recovered": 58381,
    "sick": 6287
  },
  {
    "infected": 26,
    "recovered": 0,
    "latitude": 50.4501,
    "longitude": 30.5234,
    "name": "Ukraine",
    "country": "UA",
    "dead": 3,
    "lastUpdated": "2020-03-20T05:13:05.779Z",
    "id": "flbZ2kaR5kBuV8XZ2Nsu",
    "sick": 23
  },
  {
    "infected": 6,
    "recovered": 0,
    "latitude": 41.2044,
    "longitude": 74.7661,
    "name": "Kyrgyzstan",
    "country": "KG",
    "dead": 0,
    "lastUpdated": "2020-03-20T05:13:05.748Z",
    "id": "fst48lrFxiMJbQPf4nur",
    "sick": 6
  },
  {
    "latitude": 52.132633,
    "longitude": 5.291266,
    "name": "Netherlands",
    "country": "NL",
    "dead": 76,
    "lastUpdated": "2020-03-20T05:13:04.939Z",
    "id": "g0lRMtEJbucWIGqSPn0I",
    "infected": 2460,
    "recovered": 2,
    "sick": 2382
  },
  {
    "latitude": 34.69522,
    "longitude": -92.288012,
    "name": "Arkansas",
    "country": "US",
    "dead": 0,
    "lastUpdated": "2020-03-20T05:14:01.847Z",
    "id": "gIdgxJZfTl2QOSYEwMAz",
    "infected": 62,
    "recovered": 0,
    "sick": 62
  },
  {
    "longitude": -58.9301796,
    "name": "Guyana",
    "country": "GY",
    "dead": 1,
    "lastUpdated": "2020-03-20T05:13:05.831Z",
    "id": "gXd2X2PjmGP0XVwxpWqT",
    "infected": 5,
    "recovered": 0,
    "latitude": 4.8604159,
    "sick": 4
  },
  {
    "id": "gYDsNgvuvtbg8t77w6FS",
    "infected": 14,
    "recovered": 0,
    "latitude": 43.9695,
    "longitude": -99.9018,
    "name": "South Dakota",
    "country": "US",
    "dead": 1,
    "lastUpdated": "2020-03-20T05:14:01.804Z",
    "sick": 13
  },
  {
    "longitude": 14.432846,
    "name": "Malta",
    "country": "MT",
    "dead": 0,
    "lastUpdated": "2020-03-20T05:13:04.841Z",
    "id": "h9UqxYZ5xC4JZrmdDz0q",
    "infected": 53,
    "recovered": 2,
    "latitude": 35.894231,
    "sick": 51
  },
  {
    "infected": 17,
    "recovered": 3,
    "latitude": 28.7041,
    "longitude": 77.1025,
    "name": "Delhi",
    "country": "IN",
    "dead": 1,
    "lastUpdated": "2020-03-20T05:19:04.602Z",
    "id": "hqwsh1rmvkWI3LFUVuMk",
    "sick": 13
  },
  {
    "latitude": 35.751835,
    "longitude": 104.28611,
    "name": "Gansu",
    "country": "CN",
    "dead": 2,
    "lastUpdated": "2020-03-20T01:17:46.900Z",
    "id": "iGkTscdD0XyHFSP23Qrp",
    "infected": 134,
    "recovered": 98,
    "sick": 34
  },
  {
    "id": "idymmgoqLHImnBdyC7r7",
    "infected": 28,
    "recovered": 3,
    "latitude": 10.8505,
    "longitude": 76.2711,
    "name": "Kerala",
    "country": "IN",
    "dead": 0,
    "lastUpdated": "2020-03-20T05:19:04.611Z",
    "sick": 25
  },
  {
    "id": "iwcBlwhnL6MDiXogzf8g",
    "infected": 0,
    "recovered": 23,
    "latitude": -25.2744,
    "longitude": 133.7751,
    "name": "Unknown state",
    "country": "AU",
    "dead": 0,
    "lastUpdated": "2020-03-19T02:03:51.485Z",
    "sick": 0
  },
  {
    "recovered": 0,
    "latitude": 16.265,
    "longitude": -61.551,
    "name": "Guadeloupe",
    "country": "FR",
    "dead": 0,
    "lastUpdated": "2020-03-20T05:25:10.839Z",
    "id": "j8eMjjqNAqHAJhAKdBYN",
    "infected": 45,
    "sick": 45
  },
  {
    "latitude": 50.1183,
    "longitude": 7.309,
    "name": "Rheinland-Pfalz",
    "country": "DE",
    "dead": 0,
    "lastUpdated": "2020-03-20T05:27:02.779Z",
    "id": "jKn2pIFlIBScjb47GjRX",
    "infected": 749,
    "recovered": 1,
    "sick": 748
  },
  {
    "infected": 137,
    "recovered": 133,
    "latitude": 39.343357,
    "longitude": 117.361649,
    "name": "Tianjin",
    "country": "CN",
    "dead": 3,
    "lastUpdated": "2020-03-20T01:17:06.134Z",
    "id": "jMlHjIOb7eMPSxFBrmG1",
    "sick": 1
  },
  {
    "latitude": 44.5588,
    "longitude": -72.5778,
    "name": "Vermont",
    "country": "US",
    "dead": 0,
    "lastUpdated": "2020-03-20T05:14:02.168Z",
    "id": "jPC0eOG50FWknCDe3K6P",
    "infected": 22,
    "recovered": 0,
    "sick": 22
  },
  {
    "recovered": 5,
    "latitude": 53.3498,
    "longitude": -6.2603,
    "name": "Ireland",
    "country": "IE",
    "dead": 3,
    "lastUpdated": "2020-03-20T05:13:05.622Z",
    "id": "jpVXEDCyfyq26gPoCtHL",
    "infected": 557,
    "sick": 549
  },
  {
    "latitude": 11.572076,
    "longitude": 43.145645,
    "name": "Djibouti",
    "country": "DJ",
    "dead": 0,
    "lastUpdated": "2020-03-20T05:13:05.781Z",
    "id": "l4nYeaqwy2yrEVqnijFj",
    "infected": 1,
    "recovered": 0,
    "sick": 1
  },
  {
    "longitude": -114.742,
    "name": "Idaho",
    "country": "US",
    "dead": 0,
    "lastUpdated": "2020-03-20T05:14:02.244Z",
    "id": "l7fHSKOmcaRX3tq9FCT6",
    "infected": 23,
    "recovered": 0,
    "latitude": 44.0682,
    "sick": 23
  },
  {
    "dead": 0,
    "lastUpdated": "2020-03-20T05:13:05.785Z",
    "id": "lfLdfRP7hyiA6MVnQqqn",
    "infected": 9,
    "recovered": 0,
    "latitude": 10.6918,
    "longitude": -61.2225,
    "name": "Trinidad and Tobago",
    "country": "TT",
    "sick": 9
  },
  {
    "dead": 3,
    "lastUpdated": "2020-03-20T01:15:30.845Z",
    "id": "lhPjpn6CzqTRDN0RW8uE",
    "infected": 76,
    "recovered": 73,
    "latitude": 42.524635,
    "longitude": 87.539589,
    "name": "Xinjiang",
    "country": "CN",
    "sick": 0
  },
  {
    "id": "m45gI2UbWMuTrOnTtp9k",
    "infected": 13,
    "recovered": 0,
    "latitude": 3.2028,
    "longitude": 73.2207,
    "name": "Maldives",
    "country": "MV",
    "dead": 0,
    "lastUpdated": "2020-03-20T05:13:05.739Z",
    "sick": 13
  },
  {
    "recovered": 0,
    "latitude": 41.9029,
    "longitude": 12.4534,
    "name": "Vatican City",
    "country": "VA",
    "dead": 0,
    "lastUpdated": "2020-03-20T05:13:05.921Z",
    "id": "mF7rVMdVnazAuw8G22xs",
    "infected": 1,
    "sick": 1
  },
  {
    "recovered": 0,
    "latitude": 19.7515,
    "longitude": 75.7139,
    "name": "Maharashtra",
    "country": "IN",
    "dead": 1,
    "lastUpdated": "2020-03-20T05:19:04.619Z",
    "id": "mJtdLs4ub6CkcAOeMWUm",
    "infected": 47,
    "sick": 46
  },
  {
    "infected": 342,
    "recovered": 0,
    "latitude": -33.4489,
    "longitude": -70.6693,
    "name": "Chile",
    "country": "CL",
    "dead": 0,
    "lastUpdated": "2020-03-20T05:13:05.684Z",
    "id": "mSACWVbCy5QE7ciLA93J",
    "sick": 342
  },
  {
    "dead": 0,
    "lastUpdated": "2020-03-20T05:13:05.753Z",
    "id": "mnew3ojzmWV0dWSPfCQ9",
    "infected": 6,
    "recovered": 0,
    "latitude": -6.369,
    "longitude": 34.8888,
    "name": "Tanzania",
    "country": "TZ",
    "sick": 6
  },
  {
    "latitude": 35.693323,
    "longitude": -86.605748,
    "name": "Tennessee",
    "country": "US",
    "dead": 0,
    "lastUpdated": "2020-03-20T05:14:01.806Z",
    "id": "nLhJXE2apq8yNNj363ai",
    "infected": 154,
    "recovered": 0,
    "sick": 154
  },
  {
    "longitude": 55.492,
    "name": "Seychelles",
    "country": "SC",
    "dead": 0,
    "lastUpdated": "2020-03-20T05:13:05.838Z",
    "id": "oB5fSyjWJ0FbNAkssuci",
    "infected": 6,
    "recovered": 0,
    "latitude": -4.6796,
    "sick": 6
  },
  {
    "latitude": 31.893778,
    "longitude": -6.196132,
    "name": "Morocco",
    "country": "MA",
    "dead": 2,
    "lastUpdated": "2020-03-20T05:13:05.536Z",
    "id": "oJ5vSDE9vgXC2PG8LElp",
    "infected": 63,
    "recovered": 2,
    "sick": 59
  },
  {
    "infected": 700,
    "recovered": 0,
    "latitude": 50.4801,
    "longitude": 2.7937,
    "name": "Hauts-de-France",
    "country": "FR",
    "dead": 46,
    "lastUpdated": "2020-03-20T05:25:10.932Z",
    "id": "ofWLu9EuQoK2nHjwU1mA",
    "sick": 654
  },
  {
    "recovered": 8,
    "latitude": -20.917574,
    "longitude": 142.702789,
    "name": "Queensland",
    "country": "AU",
    "dead": 0,
    "lastUpdated": "2020-03-20T05:25:05.327Z",
    "id": "oxz2l1rJipCsfMfy8Mmk",
    "infected": 144,
    "sick": 136
  },
  {
    "dead": 13,
    "lastUpdated": "2020-03-20T01:17:12.767Z",
    "id": "p1aZboN4BtRJe7hPl8cw",
    "infected": 483,
    "recovered": 460,
    "latitude": 47.121647,
    "longitude": 128.738235,
    "name": "Heilongjiang",
    "country": "CN",
    "sick": 10
  },
  {
    "longitude": 117.252747,
    "name": "Anhui",
    "country": "CN",
    "dead": 6,
    "lastUpdated": "2020-03-20T01:20:40.620Z",
    "id": "pFhBwPnGGpQ6DLppJ6YS",
    "infected": 990,
    "recovered": 984,
    "latitude": 32.026379,
    "sick": 0
  },
  {
    "recovered": 0,
    "latitude": 2.046934,
    "longitude": 45.318161,
    "name": "Somalia",
    "country": "SO",
    "dead": 0,
    "lastUpdated": "2020-03-20T05:13:05.773Z",
    "id": "pHrUAOBW5WDdMsVWpEEi",
    "infected": 1,
    "sick": 1
  },
  {
    "infected": 1,
    "recovered": 0,
    "latitude": 21.2787,
    "longitude": 81.8661,
    "name": "Chhattisgarh",
    "country": "IN",
    "dead": 0,
    "lastUpdated": "2020-03-20T05:19:04.577Z",
    "id": "pu6AXEsDnpmmqnhajobN",
    "sick": 1
  },
  {
    "latitude": 38.9072,
    "longitude": -77.0369,
    "name": "Washington, D.C.",
    "country": "US",
    "dead": 0,
    "lastUpdated": "2020-03-20T05:14:01.851Z",
    "id": "q5cfvHprVTraL1yXnhDx",
    "infected": 71,
    "recovered": 0,
    "sick": 71
  },
  {
    "infected": 52,
    "recovered": 0,
    "latitude": -26.190439,
    "longitude": 123.325947,
    "name": "Western Australia",
    "country": "AU",
    "dead": 1,
    "lastUpdated": "2020-03-20T05:25:05.426Z",
    "id": "qnQ0dkxAxnDP01YpdZgk",
    "sick": 51
  },
  {
    "infected": 1795,
    "recovered": 165,
    "latitude": 50.503887,
    "longitude": 4.469936,
    "name": "Belgium",
    "country": "BE",
    "dead": 21,
    "lastUpdated": "2020-03-20T05:13:04.963Z",
    "id": "qpAxVz0garcS0gNZxtOw",
    "sick": 1609
  },
  {
    "recovered": 0,
    "latitude": 39,
    "longitude": -80.5,
    "name": "West Virginia",
    "country": "US",
    "dead": 0,
    "lastUpdated": "2020-03-20T02:29:04.304Z",
    "id": "qrYN2o4c4gAK3ffF5JIw",
    "infected": 2,
    "sick": 2
  },
  {
    "recovered": 0,
    "latitude": 31,
    "longitude": -100,
    "name": "Texas",
    "country": "US",
    "dead": 5,
    "lastUpdated": "2020-03-20T05:14:01.860Z",
    "id": "qsrWiq0qCmIG66hpWojP",
    "infected": 307,
    "sick": 302
  },
  {
    "dead": 7,
    "lastUpdated": "2020-03-20T05:25:10.925Z",
    "id": "qyX9xXEuKg3co8yKe3Fl",
    "infected": 693,
    "recovered": 1,
    "latitude": 43.9352,
    "longitude": 6.0679,
    "name": "Provence-Alpes-Côte d’Azur",
    "country": "FR",
    "sick": 685
  },
  {
    "infected": 392,
    "recovered": 0,
    "latitude": 30.9843,
    "longitude": -91.9623,
    "name": "Louisiana",
    "country": "US",
    "dead": 10,
    "lastUpdated": "2020-03-20T05:14:02.191Z",
    "id": "qzuktS0qQVU4PEookjss",
    "sick": 382
  },
  {
    "id": "rKbrli0DkAmp1UpbrqHQ",
    "infected": 5,
    "recovered": 1,
    "latitude": 12.5211,
    "longitude": -69.9683,
    "name": "Aruba",
    "country": "AW",
    "dead": 0,
    "lastUpdated": "2020-03-20T05:13:05.708Z",
    "sick": 4
  },
  {
    "recovered": 16,
    "latitude": 14.058324,
    "longitude": 108.277199,
    "name": "Vietnam",
    "country": "VN",
    "dead": 0,
    "lastUpdated": "2020-03-20T05:13:04.863Z",
    "id": "rKnSEyG03ak4YmGzonlg",
    "infected": 85,
    "sick": 69
  },
  {
    "latitude": 1.6508009,
    "longitude": 10.2678947,
    "name": "Equatorial Guinea",
    "country": "GQ",
    "dead": 0,
    "lastUpdated": "2020-03-20T05:13:05.729Z",
    "id": "rS04qvFoAknfeZsL2w5f",
    "infected": 6,
    "recovered": 0,
    "sick": 6
  },
  {
    "id": "rUQ6Z3pmWTPVlqEUSmN7",
    "infected": 6,
    "recovered": 0,
    "latitude": -12.8275,
    "longitude": 45.1662,
    "name": "Mayotte",
    "country": "FR",
    "dead": 0,
    "lastUpdated": "2020-03-20T05:25:10.831Z",
    "sick": 6
  },
  {
    "latitude": 29.159849,
    "longitude": 120.326447,
    "name": "Zhejiang",
    "country": "CN",
    "dead": 1,
    "lastUpdated": "2020-03-19T07:49:45.041Z",
    "id": "rgBVJ4hPofqjjchnroiY",
    "infected": 1233,
    "recovered": 1217,
    "sick": 15
  },
  {
    "id": "rxSafpWsyKhfkV0HTtb4",
    "infected": 1790,
    "recovered": 1,
    "latitude": 60.472023,
    "longitude": 8.468946,
    "name": "Norway",
    "country": "NO",
    "dead": 7,
    "lastUpdated": "2020-03-20T05:13:05.012Z",
    "sick": 1782
  },
  {
    "recovered": 0,
    "latitude": 53.9333,
    "longitude": -116.5765,
    "name": "Alberta",
    "country": "CA",
    "dead": 1,
    "lastUpdated": "2020-03-20T05:14:01.809Z",
    "id": "sBFMOzZJdrdXdyLZpweO",
    "infected": 146,
    "sick": 145
  },
  {
    "infected": 168,
    "recovered": 161,
    "latitude": 19.566395,
    "longitude": 109.949684,
    "name": "Hainan",
    "country": "CN",
    "dead": 6,
    "lastUpdated": "2020-03-20T01:17:27.378Z",
    "id": "sKNhMvgXeyivpNFg02RA",
    "sick": 1
  },
  {
    "id": "sLL1jETcJYjT6g5bfcEG",
    "infected": 234,
    "recovered": 1,
    "latitude": -10.33755,
    "longitude": -75.630295,
    "name": "Peru",
    "country": "PE",
    "dead": 3,
    "lastUpdated": "2020-03-20T05:13:05.511Z",
    "sick": 230
  },
  {
    "infected": 318,
    "recovered": 310,
    "latitude": 37.89566,
    "longitude": 114.904221,
    "name": "Hebei",
    "country": "CN",
    "dead": 6,
    "lastUpdated": "2020-03-20T01:16:57.295Z",
    "id": "sgsBhTwHxF1VVnqXbXXp",
    "sick": 2
  },
  {
    "infected": 40,
    "recovered": 1,
    "latitude": 42.3154,
    "longitude": 43.3569,
    "name": "Georgia",
    "country": "GE",
    "dead": 0,
    "lastUpdated": "2020-03-20T05:13:05.556Z",
    "id": "sjW9OwjFqrOvjVHRXWoR",
    "sick": 39
  },
  {
    "longitude": -58.4438,
    "name": "Paraguay",
    "country": "PY",
    "dead": 0,
    "lastUpdated": "2020-03-20T05:13:05.746Z",
    "id": "t2fq7L9UcXfhuXfQNVRj",
    "infected": 13,
    "recovered": 0,
    "latitude": -23.4425,
    "sick": 13
  },
  {
    "dead": 0,
    "lastUpdated": "2020-03-20T05:14:01.826Z",
    "id": "tSmr8vNsiDhhpXMSBsms",
    "infected": 80,
    "recovered": 0,
    "latitude": 39.147061,
    "longitude": -111.596466,
    "name": "Utah",
    "country": "US",
    "sick": 80
  },
  {
    "recovered": 1014,
    "latitude": 27.3818,
    "longitude": 111.510681,
    "name": "Hunan",
    "country": "CN",
    "dead": 4,
    "lastUpdated": "2020-03-20T01:20:13.982Z",
    "id": "tdNRDDrgvBQqqwzdFGh4",
    "infected": 1018,
    "sick": 0
  },
  {
    "infected": 146,
    "recovered": 144,
    "latitude": 26.842964,
    "longitude": 107.290283,
    "name": "Guizhou",
    "country": "CN",
    "dead": 2,
    "lastUpdated": "2020-03-20T01:15:45.386Z",
    "id": "tyY4QSHWG9sXqSO9jm0Y",
    "sick": 0
  },
  {
    "latitude": -20.2067,
    "longitude": 57.6755,
    "name": "Mauritius",
    "country": "MU",
    "dead": 0,
    "lastUpdated": "2020-03-20T05:13:05.815Z",
    "id": "uZg9Xtu4zR5tp12TMpOQ",
    "infected": 7,
    "recovered": 0,
    "sick": 7
  },
  {
    "dead": 0,
    "lastUpdated": "2020-03-20T05:19:04.588Z",
    "id": "ubUuY89n0cXVgahI4Ytp",
    "infected": 17,
    "recovered": 0,
    "latitude": 29.0588,
    "longitude": 76.0856,
    "name": "Haryana",
    "country": "IN",
    "sick": 17
  },
  {
    "recovered": 631,
    "latitude": 32.93708,
    "longitude": 119.151932,
    "name": "Jiangsu",
    "country": "CN",
    "dead": 0,
    "lastUpdated": "2020-03-20T01:16:26.441Z",
    "id": "uvxN28EpGmRq3K9REtBP",
    "infected": 631,
    "sick": 0
  },
  {
    "infected": 174,
    "recovered": 0,
    "latitude": 51.9503,
    "longitude": 11.6923,
    "name": "Sachsen-Anhalt",
    "country": "DE",
    "dead": 0,
    "lastUpdated": "2020-03-20T05:27:02.864Z",
    "id": "uxAceZxiizwmo60pyyGn",
    "sick": 174
  },
  {
    "dead": 0,
    "lastUpdated": "2020-03-20T05:19:04.091Z",
    "id": "v5wfBhxjYTpTMaKko6AW",
    "infected": 4,
    "recovered": 0,
    "latitude": 33.7782,
    "longitude": 76.5762,
    "name": "Jammu and Kashmir",
    "country": "IN",
    "sick": 4
  },
  {
    "infected": 256,
    "recovered": 42,
    "latitude": 26.820553,
    "longitude": 30.802498,
    "name": "Egypt",
    "country": "EG",
    "dead": 7,
    "lastUpdated": "2020-03-20T05:13:04.981Z",
    "id": "v8JcH4FHH7BDpJlNNHjv",
    "sick": 207
  },
  {
    "latitude": 47.288374,
    "longitude": -119.928431,
    "name": "Washington",
    "country": "US",
    "dead": 74,
    "lastUpdated": "2020-03-20T05:14:02.129Z",
    "id": "vCUVQn7RK8pkw5y2rvYN",
    "infected": 1376,
    "recovered": 0,
    "sick": 1302
  },
  {
    "longitude": -77.2975,
    "name": "Jamaica",
    "country": "JM",
    "dead": 1,
    "lastUpdated": "2020-03-20T05:13:05.896Z",
    "id": "vMGALmMJbagxGIbLyFfS",
    "infected": 15,
    "recovered": 2,
    "latitude": 18.1096,
    "sick": 12
  },
  {
    "latitude": 32.3182,
    "longitude": -86.9023,
    "name": "Alabama",
    "country": "US",
    "dead": 0,
    "lastUpdated": "2020-03-20T05:14:01.801Z",
    "id": "vSMJR4m49MZM15umlC9B",
    "infected": 78,
    "recovered": 0,
    "sick": 78
  },
  {
    "latitude": 48.8499,
    "longitude": 2.637,
    "name": "Ile-de-France",
    "country": "FR",
    "dead": 11,
    "lastUpdated": "2020-03-20T05:25:10.918Z",
    "id": "vSwFXxTSLgzsG25zOJUy",
    "infected": 3384,
    "recovered": 5,
    "sick": 3368
  },
  {
    "infected": 2,
    "recovered": 0,
    "latitude": 46.5107,
    "longitude": -63.4168,
    "name": "Prince Edward Island",
    "country": "CA",
    "dead": 0,
    "lastUpdated": "2020-03-20T05:14:02.170Z",
    "id": "vjK6292ALJl5wq8XHw3P",
    "sick": 2
  },
  {
    "id": "vkkXVaqUswO5JsMZx0mX",
    "infected": 18407,
    "recovered": 5979,
    "latitude": 32.42791,
    "longitude": 53.688046,
    "name": "Iran",
    "country": "IR",
    "dead": 1284,
    "lastUpdated": "2020-03-20T05:13:05.618Z",
    "sick": 11144
  },
  {
    "latitude": 53.7609,
    "longitude": -98.8139,
    "name": "Manitoba",
    "country": "CA",
    "dead": 0,
    "lastUpdated": "2020-03-20T05:14:01.781Z",
    "id": "wCnlOr8oX3DlF0otQrFc",
    "infected": 17,
    "recovered": 0,
    "sick": 17
  },
  {
    "recovered": 3,
    "latitude": -34.6037,
    "longitude": -58.3816,
    "name": "Argentina",
    "country": "AR",
    "dead": 3,
    "lastUpdated": "2020-03-20T05:13:05.642Z",
    "id": "wEl0cjiA6OcZiI9kaSsF",
    "infected": 128,
    "sick": 122
  },
  {
    "latitude": 44.3148,
    "longitude": -85.6024,
    "name": "Michigan",
    "country": "US",
    "dead": 3,
    "lastUpdated": "2020-03-20T05:14:01.796Z",
    "id": "wgRwpPMGBaKLAl1xo1C7",
    "infected": 334,
    "recovered": 0,
    "sick": 331
  },
  {
    "latitude": 21.287261,
    "longitude": -157.838954,
    "name": "Hawaii",
    "country": "US",
    "dead": 0,
    "lastUpdated": "2020-03-20T05:14:02.158Z",
    "id": "wi47s9vKxiMqxfgurj3B",
    "infected": 26,
    "recovered": 0,
    "sick": 26
  },
  {
    "latitude": 34.08267,
    "longitude": 35.918113,
    "name": "Lebanon",
    "country": "LB",
    "dead": 4,
    "lastUpdated": "2020-03-20T05:13:04.962Z",
    "id": "xFgM48q8JxVPfvQLQDNb",
    "infected": 157,
    "recovered": 4,
    "sick": 149
  },
  {
    "id": "xHWPTTpNHEwWv6MqfxP5",
    "infected": 12,
    "recovered": 1,
    "latitude": 9.081999,
    "longitude": 8.675277,
    "name": "Nigeria",
    "country": "NG",
    "dead": 0,
    "lastUpdated": "2020-03-20T05:13:05.751Z",
    "sick": 11
  },
  {
    "infected": 19,
    "recovered": 0,
    "latitude": 47.5515,
    "longitude": -101.002,
    "name": "North Dakota",
    "country": "US",
    "dead": 0,
    "lastUpdated": "2020-03-20T05:14:01.824Z",
    "id": "xQpNodSQfHNHAtG9Onnj",
    "sick": 19
  },
  {
    "infected": 160,
    "recovered": 0,
    "latitude": 44.5,
    "longitude": -89.5,
    "name": "Wisconsin",
    "country": "US",
    "dead": 0,
    "lastUpdated": "2020-03-20T05:14:02.185Z",
    "id": "xSHgaJlyPxHFWB6hhyng",
    "sick": 160
  },
  {
    "infected": 9,
    "recovered": 0,
    "latitude": 9.145,
    "longitude": 40.4897,
    "name": "Ethiopia",
    "country": "ET",
    "dead": 0,
    "lastUpdated": "2020-03-20T05:13:05.771Z",
    "id": "xY69Nr3VSiZCwD2Qp0SD",
    "sick": 9
  },
  {
    "id": "xtX46kxBlEapOMdD1Emh",
    "infected": 3,
    "recovered": 0,
    "latitude": -22.95763,
    "longitude": 18.4904,
    "name": "Namibia",
    "country": "NA",
    "dead": 0,
    "lastUpdated": "2020-03-20T05:13:05.827Z",
    "sick": 3
  },
  {
    "id": "y0d3PQgXJXdKsxweTIWv",
    "infected": 119,
    "recovered": 3,
    "latitude": 53.0793,
    "longitude": 8.8017,
    "name": "Bremen",
    "country": "DE",
    "dead": 0,
    "lastUpdated": "2020-03-20T05:27:02.782Z",
    "sick": 116
  },
  {
    "id": "yOfFKDRrscqcZ85WMRqF",
    "infected": 11,
    "recovered": 0,
    "latitude": -17.6797,
    "longitude": -149.4068,
    "name": "Polynésie française",
    "country": "PF",
    "dead": 0,
    "lastUpdated": "2020-03-20T05:13:05.913Z",
    "sick": 11
  },
  {
    "longitude": -68.99,
    "name": "Curaçao",
    "country": "CW",
    "dead": 1,
    "lastUpdated": "2020-03-20T05:13:05.691Z",
    "id": "z0KDu61I2qPILneW2Lih",
    "infected": 3,
    "recovered": 0,
    "latitude": 12.1696,
    "sick": 2
  },
  {
    "recovered": 0,
    "latitude": 46.5653,
    "longitude": -66.4619,
    "name": "New Brunswick",
    "country": "CA",
    "dead": 0,
    "lastUpdated": "2020-03-20T05:14:02.172Z",
    "id": "z1Vx0y33oMGoeJSuS8Ui",
    "infected": 11,
    "sick": 11
  },
  {
    "longitude": -78.183403,
    "name": "Ecuador",
    "country": "EC",
    "dead": 3,
    "lastUpdated": "2020-03-20T05:13:05.625Z",
    "id": "zC03Urt1iJJb2Tf6p0jd",
    "infected": 260,
    "recovered": 1,
    "latitude": -1.831239,
    "sick": 256
  },
  {
    "infected": 322,
    "recovered": 42,
    "latitude": 15.870032,
    "longitude": 100.992538,
    "name": "Thailand",
    "country": "TH",
    "dead": 1,
    "lastUpdated": "2020-03-20T05:13:04.971Z",
    "id": "zvdC0u72Bk5YKNaazZFZ",
    "sick": 279
  },
  {
    "infected": 103,
    "recovered": 1,
    "latitude": 44.0165,
    "longitude": 21.0059,
    "name": "Serbia",
    "country": "RS",
    "dead": 0,
    "lastUpdated": "2020-03-20T05:13:04.987Z",
    "id": "zyxFwuiyCJHhRyNEg60C",
    "sick": 102
  }
]