[
  {
    "dead": 0,
    "lastUpdated": "2020-03-19T18:04:02.669Z",
    "id": "0VG7S6aaK4eSo59fL9JO",
    "infected": 1,
    "recovered": 0,
    "latitude": 20.9517,
    "longitude": 85.0985,
    "name": "Odisha",
    "country": "IN",
    "sick": 1
  },
  {
    "infected": 452,
    "recovered": 4,
    "latitude": 25.315058,
    "longitude": 51.145517,
    "name": "Qatar",
    "country": "QA",
    "dead": 0,
    "lastUpdated": "2020-03-19T18:13:10.089Z",
    "id": "0m4aECS0Z2DGFEr8ldgI",
    "sick": 448
  },
  {
    "infected": 1,
    "recovered": 0,
    "latitude": 22.9868,
    "longitude": 87.855,
    "name": "West Bengal",
    "country": "IN",
    "dead": 0,
    "lastUpdated": "2020-03-19T18:04:02.674Z",
    "id": "0n54EMSDJcRoT1QEvw80",
    "sick": 1
  },
  {
    "infected": 0,
    "recovered": 108,
    "latitude": 37.0902,
    "longitude": -95.7129,
    "name": "Unknown US state",
    "country": "US",
    "dead": 0,
    "lastUpdated": "2020-03-19T18:13:10.105Z",
    "id": "0tFoopNTs6e4tOoaltu2",
    "sick": 0
  },
  {
    "infected": 246,
    "recovered": 237,
    "latitude": 35.64249,
    "longitude": 108.472214,
    "name": "Shaanxi",
    "country": "CN",
    "dead": 3,
    "lastUpdated": "2020-03-19T07:47:25.214Z",
    "id": "0x2HLhr5z5xAtEdO4iZm",
    "sick": 6
  },
  {
    "longitude": 21.668393,
    "name": "North Macedonia",
    "country": "MK",
    "dead": 0,
    "lastUpdated": "2020-03-19T18:13:09.998Z",
    "id": "19MvIhipqTyYv1H37Upw",
    "infected": 49,
    "recovered": 1,
    "latitude": 41.643351,
    "sick": 48
  },
  {
    "dead": 0,
    "lastUpdated": "2020-03-19T18:12:01.767Z",
    "id": "1DOMOmCWDtva46OVSZLv",
    "infected": 3,
    "recovered": 0,
    "latitude": 53.1355,
    "longitude": -57.6604,
    "name": "Newfoundland and Labrador",
    "country": "CA",
    "sick": 3
  },
  {
    "recovered": 18,
    "latitude": 35.801933,
    "longitude": 96.779286,
    "name": "Qinghai",
    "country": "CN",
    "dead": 0,
    "lastUpdated": "2020-03-19T07:47:45.746Z",
    "id": "1Fap7rZu9SIRqf5TG9Dg",
    "infected": 18,
    "sick": 0
  },
  {
    "infected": 534,
    "recovered": 2,
    "latitude": -14.235004,
    "longitude": -51.925282,
    "name": "Brazil",
    "country": "BR",
    "dead": 6,
    "lastUpdated": "2020-03-19T18:13:09.961Z",
    "id": "1f0YoV0vAcexEhpESyZc",
    "sick": 526
  },
  {
    "latitude": 47.4116,
    "longitude": 28.3699,
    "name": "Moldova",
    "country": "MD",
    "dead": 1,
    "lastUpdated": "2020-03-19T18:13:09.458Z",
    "id": "1qTPB8X3tyLyIdsb5TN3",
    "infected": 49,
    "recovered": 1,
    "sick": 47
  },
  {
    "latitude": 30.15336,
    "longitude": 88.787865,
    "name": "Tibet",
    "country": "CN",
    "dead": 0,
    "lastUpdated": "2020-03-19T07:46:40.361Z",
    "id": "25qIBtsW2nfQj3pwBKg9",
    "infected": 1,
    "recovered": 1,
    "sick": 0
  },
  {
    "infected": 309,
    "recovered": 15,
    "latitude": -1.572184,
    "longitude": 115.66779,
    "name": "Indonesia",
    "country": "ID",
    "dead": 25,
    "lastUpdated": "2020-03-19T17:28:03.274Z",
    "id": "2KHYUb5t3lwzVVmDjwNX",
    "sick": 269
  },
  {
    "latitude": 43.807191,
    "longitude": -120.585594,
    "name": "Oregon",
    "country": "US",
    "dead": 3,
    "lastUpdated": "2020-03-19T18:12:01.726Z",
    "id": "2OrsssmGUs4XCzaZzvTv",
    "infected": 75,
    "recovered": 0,
    "sick": 72
  },
  {
    "latitude": 43.851921,
    "longitude": 126.548103,
    "name": "Jilin",
    "country": "CN",
    "dead": 1,
    "lastUpdated": "2020-03-19T07:47:52.452Z",
    "id": "2jxHvSsxdnom0nPNvOT8",
    "infected": 93,
    "recovered": 92,
    "sick": 0
  },
  {
    "infected": 8,
    "recovered": 2,
    "latitude": 36.1408,
    "longitude": -5.3536,
    "name": "Gibraltar",
    "country": "GI",
    "dead": 0,
    "lastUpdated": "2020-03-19T18:13:10.452Z",
    "id": "2p11BjSAs3wVyymgqBOe",
    "sick": 6
  },
  {
    "latitude": 47.7516,
    "longitude": 1.6751,
    "name": "Centre-Val de Loire",
    "country": "FR",
    "dead": 0,
    "lastUpdated": "2020-03-19T18:10:07.332Z",
    "id": "2sLNkkHpyaHx7dD3aMDO",
    "infected": 128,
    "recovered": 0,
    "sick": 128
  },
  {
    "dead": 0,
    "lastUpdated": "2020-03-19T18:13:10.538Z",
    "id": "3IlPjAbP5qVMn1nlgLTJ",
    "infected": 2,
    "recovered": 0,
    "latitude": -13.133896,
    "longitude": 27.849332,
    "name": "Zambia",
    "country": "ZM",
    "sick": 2
  },
  {
    "dead": 0,
    "lastUpdated": "2020-03-19T18:13:10.415Z",
    "id": "3LstMSN5XMYBkxbe5HN7",
    "infected": 10,
    "recovered": 0,
    "latitude": 42.7044,
    "longitude": 19.3958,
    "name": "Montenegro",
    "country": "ME",
    "sick": 10
  },
  {
    "infected": 3,
    "recovered": 0,
    "latitude": -35.4735,
    "longitude": 149.0124,
    "name": "Australian Capital Territory",
    "country": "AU",
    "dead": 0,
    "lastUpdated": "2020-03-19T18:10:02.437Z",
    "id": "3OZoQsKrzxZ18EKyfGE6",
    "sick": 3
  },
  {
    "infected": 89,
    "recovered": 0,
    "latitude": 40.4173,
    "longitude": -82.9071,
    "name": "Ohio",
    "country": "US",
    "dead": 0,
    "lastUpdated": "2020-03-19T18:12:01.639Z",
    "id": "3fC3bAyIRUquOQOEnQNe",
    "sick": 89
  },
  {
    "latitude": 21.0079,
    "longitude": -10.9408,
    "name": "Mauritania",
    "country": "MR",
    "dead": 0,
    "lastUpdated": "2020-03-19T18:13:10.490Z",
    "id": "4NnFMekRK2m14IlnZZoj",
    "infected": 2,
    "recovered": 0,
    "sick": 2
  },
  {
    "dead": 7,
    "lastUpdated": "2020-03-19T18:12:01.671Z",
    "id": "4hfZRUoUgI4a3vrG0GBk",
    "infected": 231,
    "recovered": 4,
    "latitude": 53.7267,
    "longitude": -127.6476,
    "name": "British Columbia",
    "country": "CA",
    "sick": 220
  },
  {
    "dead": 3,
    "lastUpdated": "2020-03-19T18:13:10.054Z",
    "id": "4rQLxUCMmQLpbi6E9tbH",
    "infected": 785,
    "recovered": 4,
    "latitude": 41.065877,
    "longitude": -7.920053,
    "name": "Portugal",
    "country": "PT",
    "sick": 778
  },
  {
    "infected": 44,
    "recovered": 7,
    "latitude": 40.3426,
    "longitude": 47.93802,
    "name": "Azerbaijan",
    "country": "AZ",
    "dead": 1,
    "lastUpdated": "2020-03-19T18:13:09.930Z",
    "id": "4zqzRm2xHn0CDVOUQJ8p",
    "sick": 36
  },
  {
    "latitude": 25.025885,
    "longitude": -78.035889,
    "name": "Bahamas",
    "country": "BS",
    "dead": 0,
    "lastUpdated": "2020-03-19T18:13:10.443Z",
    "id": "5MHegCUO9L3LiAU7DDey",
    "infected": 3,
    "recovered": 0,
    "sick": 3
  },
  {
    "latitude": -31.253218,
    "longitude": 146.921097,
    "name": "New South Wales",
    "country": "AU",
    "dead": 5,
    "lastUpdated": "2020-03-19T07:54:24.673Z",
    "id": "5N16a2OXXRpsEFanw0TC",
    "infected": 267,
    "recovered": 4,
    "sick": 258
  },
  {
    "infected": 2,
    "recovered": 0,
    "latitude": -20.9043045,
    "longitude": 165.618042,
    "name": "New Caledonia",
    "country": "NC",
    "dead": 0,
    "lastUpdated": "2020-03-19T18:13:10.465Z",
    "id": "5fg04eyDwFw3kEXnrxez",
    "sick": 2
  },
  {
    "longitude": 84.124008,
    "name": "Nepal",
    "country": "NP",
    "dead": 0,
    "lastUpdated": "2020-03-19T18:13:10.588Z",
    "id": "5gXZIjRgAvd6xWN1LOv8",
    "infected": 1,
    "recovered": 1,
    "latitude": 28.394857,
    "sick": 0
  },
  {
    "longitude": 121.774017,
    "name": "Philippines",
    "country": "PH",
    "dead": 17,
    "lastUpdated": "2020-03-19T18:13:09.500Z",
    "id": "5pwmh7aSdGRKqRbnuyc0",
    "infected": 217,
    "recovered": 8,
    "latitude": 12.879721,
    "sick": 192
  },
  {
    "infected": 41,
    "recovered": 1,
    "latitude": 55.621011,
    "longitude": 23.804991,
    "name": "Lithuania",
    "country": "LT",
    "dead": 0,
    "lastUpdated": "2020-03-19T18:13:10.082Z",
    "id": "694ON7d0mRJDeM1gHBTR",
    "sick": 40
  },
  {
    "infected": 208,
    "recovered": 98,
    "latitude": 22.396427,
    "longitude": 114.109497,
    "name": "Hong Kong",
    "country": "HK",
    "dead": 4,
    "lastUpdated": "2020-03-19T18:13:09.985Z",
    "id": "6IcHIIH0zXpY0POmBZTv",
    "sick": 106
  },
  {
    "infected": 2,
    "recovered": 0,
    "latitude": 9.3077,
    "longitude": 2.3158,
    "name": "Benin",
    "country": "BJ",
    "dead": 0,
    "lastUpdated": "2020-03-19T18:13:10.600Z",
    "id": "6SlpghTyB6lpMFvx3g9U",
    "sick": 2
  },
  {
    "longitude": 14.5058,
    "name": "Slovenia",
    "country": "SI",
    "dead": 1,
    "lastUpdated": "2020-03-19T18:13:10.143Z",
    "id": "6ahNiyKDSDAftCctgLH3",
    "infected": 319,
    "recovered": 0,
    "latitude": 46.0569,
    "sick": 318
  },
  {
    "latitude": -0.8037,
    "longitude": 11.6094,
    "name": "Gabon",
    "country": "GA",
    "dead": 0,
    "lastUpdated": "2020-03-19T18:13:10.543Z",
    "id": "6pBi38TUgYfFm0bry2uh",
    "infected": 3,
    "recovered": 0,
    "sick": 3
  },
  {
    "latitude": 17.901672,
    "longitude": -62.818544,
    "name": "Saint-Barthélemy",
    "country": "FR",
    "dead": 0,
    "lastUpdated": "2020-03-19T18:13:10.548Z",
    "id": "78Ox26bNHDA2Pk2b3Uwn",
    "infected": 3,
    "recovered": 0,
    "sick": 3
  },
  {
    "infected": 1,
    "recovered": 0,
    "latitude": 17.0608,
    "longitude": -61.7964,
    "name": "Antigua and Barbuda",
    "country": "AG",
    "dead": 0,
    "lastUpdated": "2020-03-19T18:13:10.574Z",
    "id": "7hVFcEV7nV0MrQr3LHrl",
    "sick": 1
  },
  {
    "recovered": 14,
    "latitude": 48.7904,
    "longitude": 11.4979,
    "name": "Bayern",
    "country": "DE",
    "dead": 13,
    "lastUpdated": "2020-03-19T18:12:03.128Z",
    "id": "7kCrrlOBE3jN6FtOVNUB",
    "infected": 2282,
    "sick": 2255
  },
  {
    "latitude": 47.4979,
    "longitude": 19.0402,
    "name": "Hungary",
    "country": "HU",
    "dead": 1,
    "lastUpdated": "2020-03-19T18:13:10.191Z",
    "id": "7rYC2iFB50c55Ihgbs4Q",
    "infected": 73,
    "recovered": 2,
    "sick": 70
  },
  {
    "id": "8C0d7WVCjyUGtnc2gUAR",
    "infected": 13,
    "recovered": 0,
    "latitude": 7.3697,
    "longitude": 12.3547,
    "name": "Cameroon",
    "country": "CM",
    "dead": 0,
    "lastUpdated": "2020-03-19T18:13:10.668Z",
    "sick": 13
  },
  {
    "infected": 15,
    "recovered": 0,
    "latitude": -16.2902,
    "longitude": -63.5887,
    "name": "Bolivia",
    "country": "BO",
    "dead": 0,
    "lastUpdated": "2020-03-19T18:13:10.540Z",
    "id": "8RihJrXw4NQXPxaRxr1u",
    "sick": 15
  },
  {
    "infected": 1,
    "recovered": 0,
    "latitude": 12.9843,
    "longitude": -61.2872,
    "name": "St. Vincent Grenadines",
    "country": "VC",
    "dead": 0,
    "lastUpdated": "2020-03-19T18:13:10.592Z",
    "id": "8ZTySQROQejkDAad0qxQ",
    "sick": 1
  },
  {
    "dead": 0,
    "lastUpdated": "2020-03-19T18:13:10.147Z",
    "id": "8pA3fM4xC2c2wv1b4TnE",
    "infected": 345,
    "recovered": 124,
    "latitude": 1.352083,
    "longitude": 103.819839,
    "name": "Singapore",
    "country": "SG",
    "sick": 221
  },
  {
    "id": "98hwAoohgWEOQVa3NlM5",
    "infected": 128,
    "recovered": 4,
    "latitude": 47.2184,
    "longitude": -1.5536,
    "name": "Pays de la Loire",
    "country": "FR",
    "dead": 0,
    "lastUpdated": "2020-03-19T18:10:07.342Z",
    "sick": 124
  },
  {
    "infected": 2,
    "recovered": 0,
    "latitude": 12.8628,
    "longitude": 30.2176,
    "name": "Sudan",
    "country": "SD",
    "dead": 1,
    "lastUpdated": "2020-03-19T18:13:10.667Z",
    "id": "9DPOkpIqrFy9mR4e9fuv",
    "sick": 1
  },
  {
    "infected": 277,
    "recovered": 25,
    "latitude": 45.943161,
    "longitude": 24.966761,
    "name": "Romania",
    "country": "RO",
    "dead": 0,
    "lastUpdated": "2020-03-19T18:13:10.186Z",
    "id": "9QcETqEcM2fTv9zRvx5T",
    "sick": 252
  },
  {
    "infected": 1,
    "recovered": 0,
    "latitude": 12.136389,
    "longitude": -86.251389,
    "name": "Nicaragua",
    "country": "NI",
    "dead": 0,
    "lastUpdated": "2020-03-19T18:13:10.474Z",
    "id": "9Y5wmCqNCC6ZrenM31uA",
    "sick": 1
  },
  {
    "dead": 0,
    "lastUpdated": "2020-03-19T18:13:10.117Z",
    "id": "9p6OCdZbUUwBLA60Gk3W",
    "infected": 400,
    "recovered": 10,
    "latitude": 61.92411,
    "longitude": 25.748152,
    "name": "Finland",
    "country": "FI",
    "sick": 390
  },
  {
    "longitude": -71.590315,
    "name": "New Hampshire",
    "country": "US",
    "dead": 0,
    "lastUpdated": "2020-03-19T18:12:01.634Z",
    "id": "A84CwQ52kA46Hr7pn6Bm",
    "infected": 39,
    "recovered": 0,
    "latitude": 43.311643,
    "sick": 39
  },
  {
    "recovered": 0,
    "latitude": 41.823261,
    "longitude": -71.412257,
    "name": "Rhode Island",
    "country": "US",
    "dead": 0,
    "lastUpdated": "2020-03-19T18:12:01.663Z",
    "id": "AEUWUHS65qvjEslew11c",
    "infected": 33,
    "sick": 33
  },
  {
    "recovered": 0,
    "latitude": 49.3964,
    "longitude": 7.023,
    "name": "Saarland",
    "country": "DE",
    "dead": 0,
    "lastUpdated": "2020-03-19T18:12:03.031Z",
    "id": "AKjFRQGnzuuZQhv5Qwx7",
    "infected": 217,
    "sick": 217
  },
  {
    "dead": 0,
    "lastUpdated": "2020-03-19T18:13:10.608Z",
    "id": "APaZzlGCEeuoLBtzTJMe",
    "infected": 2,
    "recovered": 0,
    "latitude": 71.7069,
    "longitude": -42.6043,
    "name": "Greenland",
    "country": "GL",
    "sick": 2
  },
  {
    "latitude": 45.65107,
    "longitude": -63.582687,
    "name": "Nova Scotia",
    "country": "CA",
    "dead": 0,
    "lastUpdated": "2020-03-19T18:12:01.721Z",
    "id": "AVCpxeh0fuH2WrHWNDYH",
    "infected": 12,
    "recovered": 0,
    "sick": 12
  },
  {
    "infected": 11,
    "recovered": 0,
    "latitude": 47.012918,
    "longitude": -109.128641,
    "name": "Montana",
    "country": "US",
    "dead": 0,
    "lastUpdated": "2020-03-19T18:12:01.680Z",
    "id": "AcULcZBozObOhwuRKMjJ",
    "sick": 11
  },
  {
    "dead": 1,
    "lastUpdated": "2020-03-19T07:50:38.647Z",
    "id": "AmBYm5J6E9Cuez1FQjiN",
    "infected": 935,
    "recovered": 934,
    "latitude": 27.285971,
    "longitude": 116.01609,
    "name": "Jiangxi",
    "country": "CN",
    "sick": 0
  },
  {
    "infected": 90,
    "recovered": 32,
    "latitude": 28.033886,
    "longitude": 1.659626,
    "name": "Algeria",
    "country": "DZ",
    "dead": 9,
    "lastUpdated": "2020-03-19T18:13:10.077Z",
    "id": "AwN0CScPDApcLFgz6e3z",
    "sick": 49
  },
  {
    "recovered": 5,
    "latitude": 45.099998,
    "longitude": 15.2,
    "name": "Croatia",
    "country": "HR",
    "dead": 1,
    "lastUpdated": "2020-03-19T18:13:09.951Z",
    "id": "B82Ef45M8cDu4q7VsSHF",
    "infected": 105,
    "sick": 99
  },
  {
    "recovered": 0,
    "latitude": 39.509109,
    "longitude": -76.98432,
    "name": "Maryland",
    "country": "US",
    "dead": 0,
    "lastUpdated": "2020-03-19T18:12:01.649Z",
    "id": "BF51mWl51fgEcyBpCSzb",
    "infected": 107,
    "sick": 107
  },
  {
    "latitude": 53.709808,
    "longitude": 27.953388,
    "name": "Belarus",
    "country": "BY",
    "dead": 0,
    "lastUpdated": "2020-03-19T18:13:10.099Z",
    "id": "BGg6yVU5VP71B8NXU0oh",
    "infected": 51,
    "recovered": 5,
    "sick": 46
  },
  {
    "latitude": 48.8799,
    "longitude": 0.1713,
    "name": "Normandie",
    "country": "FR",
    "dead": 1,
    "lastUpdated": "2020-03-19T18:10:07.628Z",
    "id": "BGtoyzb7y54LVlJ91rbf",
    "infected": 208,
    "recovered": 0,
    "sick": 207
  },
  {
    "dead": 0,
    "lastUpdated": "2020-03-19T18:12:01.678Z",
    "id": "BTEESCuD2ZbS1afunR2A",
    "infected": 31,
    "recovered": 0,
    "latitude": 34.048927,
    "longitude": -111.093735,
    "name": "Arizona",
    "country": "US",
    "sick": 31
  },
  {
    "latitude": 40.719042,
    "longitude": -73.982597,
    "name": "New York",
    "country": "US",
    "dead": 20,
    "lastUpdated": "2020-03-19T18:12:01.670Z",
    "id": "C3BCUzV80z9GfiuByIcr",
    "infected": 4152,
    "recovered": 0,
    "sick": 4132
  },
  {
    "latitude": 49.731626,
    "longitude": 15.359413,
    "name": "Czechia",
    "country": "CZ",
    "dead": 0,
    "lastUpdated": "2020-03-19T18:13:10.206Z",
    "id": "C6S76AggdWVU8G22jFHQ",
    "infected": 694,
    "recovered": 3,
    "sick": 691
  },
  {
    "dead": 1,
    "lastUpdated": "2020-03-19T18:13:09.515Z",
    "id": "C7cj4nwRITs13KnaJrQ2",
    "infected": 277,
    "recovered": 100,
    "latitude": 26.0667,
    "longitude": 50.557701,
    "name": "Bahrain",
    "country": "BH",
    "sick": 176
  },
  {
    "infected": 10,
    "recovered": 3,
    "latitude": 27.0238,
    "longitude": 74.2179,
    "name": "Rajasthan",
    "country": "IN",
    "dead": 0,
    "lastUpdated": "2020-03-19T07:03:01.736Z",
    "id": "CKZCZTPlrcq5fbfUPA9k",
    "sick": 7
  },
  {
    "infected": 1,
    "recovered": 0,
    "latitude": 13.803,
    "longitude": -88.9053,
    "name": "El Salvador",
    "country": "SV",
    "dead": 0,
    "lastUpdated": "2020-03-19T18:13:10.395Z",
    "id": "Cgvmtle61ehMvCzRzYx7",
    "sick": 1
  },
  {
    "infected": 2692,
    "recovered": 65,
    "latitude": 52.355518,
    "longitude": -1.17432,
    "name": "United Kingdom",
    "country": "GB",
    "dead": 137,
    "lastUpdated": "2020-03-19T18:13:10.037Z",
    "id": "CrXu6i5Sqx11iwdfHfBs",
    "sick": 2490
  },
  {
    "infected": 122,
    "recovered": 1,
    "latitude": 40.259003,
    "longitude": 44.818474,
    "name": "Armenia",
    "country": "AM",
    "dead": 0,
    "lastUpdated": "2020-03-19T18:13:09.464Z",
    "id": "DCJCtZoBTWQ4mzdDNljD",
    "sick": 121
  },
  {
    "latitude": 22.192039,
    "longitude": 113.551262,
    "name": "Macao",
    "country": "MO",
    "dead": 0,
    "lastUpdated": "2020-03-19T18:13:10.557Z",
    "id": "DdBt8qsG6A3g92oOR3ow",
    "infected": 17,
    "recovered": 10,
    "sick": 7
  },
  {
    "infected": 18,
    "recovered": 0,
    "latitude": 42.962334,
    "longitude": -107.534868,
    "name": "Wyoming",
    "country": "US",
    "dead": 0,
    "lastUpdated": "2020-03-19T18:12:01.664Z",
    "id": "DrGzziUglmBognCGY7R2",
    "sick": 18
  },
  {
    "infected": 464,
    "recovered": 19,
    "latitude": 40.6401,
    "longitude": 22.9444,
    "name": "Greece",
    "country": "GR",
    "dead": 6,
    "lastUpdated": "2020-03-19T18:13:09.522Z",
    "id": "Dtr1lap1RpJpXJdXGJiW",
    "sick": 439
  },
  {
    "latitude": 25.03841,
    "longitude": 121.563698,
    "name": "Taiwan",
    "country": "TW",
    "dead": 1,
    "lastUpdated": "2020-03-19T18:13:09.983Z",
    "id": "EKTfs8e7M6DXzI1HqyyX",
    "infected": 108,
    "recovered": 26,
    "sick": 81
  },
  {
    "latitude": 10.327273,
    "longitude": -84.387618,
    "name": "Costa Rica",
    "country": "CR",
    "dead": 1,
    "lastUpdated": "2020-03-19T18:13:10.048Z",
    "id": "EQzJvzVHKjs8kLmK7BMu",
    "infected": 69,
    "recovered": 0,
    "sick": 68
  },
  {
    "longitude": 76.7794,
    "name": "Chandigarh",
    "country": "IN",
    "dead": 0,
    "lastUpdated": "2020-03-19T18:04:02.678Z",
    "id": "Esl5UlCVB9s8pmGB5Ofr",
    "infected": 1,
    "recovered": 0,
    "latitude": 30.7333,
    "sick": 1
  },
  {
    "id": "F4rPrEVGAIMM5rfPEMv4",
    "infected": 6,
    "recovered": 0,
    "latitude": 18.200178,
    "longitude": -66.664513,
    "name": "Puerto Rico",
    "country": "PR",
    "dead": 0,
    "lastUpdated": "2020-03-19T18:13:10.446Z",
    "sick": 6
  },
  {
    "infected": 22,
    "recovered": 1,
    "latitude": 33.93911,
    "longitude": 67.709953,
    "name": "Afghanistan",
    "country": "AF",
    "dead": 0,
    "lastUpdated": "2020-03-19T18:13:10.495Z",
    "id": "FCDmlmnIIswd8bQiUjfN",
    "sick": 21
  },
  {
    "infected": 576,
    "recovered": 570,
    "latitude": 29.431585,
    "longitude": 106.912254,
    "name": "Chongqing",
    "country": "CN",
    "dead": 6,
    "lastUpdated": "2020-03-19T07:51:26.354Z",
    "id": "FErOU1m4Tj7jIkRam3vF",
    "sick": 0
  },
  {
    "infected": 148,
    "recovered": 18,
    "latitude": 29.311661,
    "longitude": 47.481766,
    "name": "Kuwait",
    "country": "KW",
    "dead": 0,
    "lastUpdated": "2020-03-19T18:13:10.107Z",
    "id": "FZsUkhxBEgqsPb4eO0PN",
    "sick": 130
  },
  {
    "dead": 0,
    "lastUpdated": "2020-03-19T07:03:01.685Z",
    "id": "FeS45oMNC27pI17F0xEV",
    "infected": 3,
    "recovered": 1,
    "latitude": 11.1271,
    "longitude": 78.6569,
    "name": "Tamil Nadu",
    "country": "IN",
    "sick": 2
  },
  {
    "infected": 34,
    "recovered": 0,
    "latitude": 18.947829,
    "longitude": -70.430399,
    "name": "Dominican Republic",
    "country": "DO",
    "dead": 2,
    "lastUpdated": "2020-03-19T18:13:10.128Z",
    "id": "FuiVEJvWb0QMCpxJ3563",
    "sick": 32
  },
  {
    "longitude": 79.0193,
    "name": "Telangana",
    "country": "IN",
    "dead": 0,
    "lastUpdated": "2020-03-19T07:03:01.740Z",
    "id": "FyC551oNwmENxbr9Yght",
    "infected": 13,
    "recovered": 1,
    "latitude": 18.1124,
    "sick": 12
  },
  {
    "infected": 124,
    "recovered": 0,
    "latitude": 48.669,
    "longitude": 19.699,
    "name": "Slovakia",
    "country": "SK",
    "dead": 0,
    "lastUpdated": "2020-03-19T18:13:10.039Z",
    "id": "FzIDXoqWnTI3nUfhPyT2",
    "sick": 124
  },
  {
    "latitude": 30.37532,
    "longitude": 69.345116,
    "name": "Pakistan",
    "country": "PK",
    "dead": 2,
    "lastUpdated": "2020-03-19T18:13:10.179Z",
    "id": "GAp7Wb6IMhdgbvEtMza9",
    "infected": 453,
    "recovered": 13,
    "sick": 438
  },
  {
    "recovered": 0,
    "latitude": 31.1471,
    "longitude": 75.3412,
    "name": "Punjab",
    "country": "IN",
    "dead": 1,
    "lastUpdated": "2020-03-19T18:04:02.682Z",
    "id": "GGru8cG08mANO8XDDUtZ",
    "infected": 2,
    "sick": 1
  },
  {
    "infected": 140,
    "recovered": 31,
    "latitude": 23.424076,
    "longitude": 53.847816,
    "name": "United Arab Emirates",
    "country": "AE",
    "dead": 0,
    "lastUpdated": "2020-03-19T18:13:09.946Z",
    "id": "GHzBIsHy2GiBc5JV2HMs",
    "sick": 109
  },
  {
    "infected": 870,
    "recovered": 0,
    "latitude": 36.621981,
    "longitude": -119.339046,
    "name": "California",
    "country": "US",
    "dead": 16,
    "lastUpdated": "2020-03-19T18:12:01.728Z",
    "id": "Gh46r6vuaY7fbGt3IboN",
    "sick": 854
  },
  {
    "infected": 31,
    "recovered": 0,
    "latitude": 35.87189,
    "longitude": -97.145514,
    "name": "Oklahoma",
    "country": "US",
    "dead": 0,
    "lastUpdated": "2020-03-19T18:12:01.675Z",
    "id": "GpF8ULuKOQiFDCUHN44h",
    "sick": 31
  },
  {
    "latitude": 42.83263,
    "longitude": 113.750972,
    "name": "Inner Mongolia",
    "country": "CN",
    "dead": 1,
    "lastUpdated": "2020-03-19T07:47:10.576Z",
    "id": "H3JeVigVbo5CSYfZG4WI",
    "infected": 75,
    "recovered": 74,
    "sick": 0
  },
  {
    "dead": 1,
    "lastUpdated": "2020-03-19T18:12:01.736Z",
    "id": "H3bDg4eV30up4WWrIDAS",
    "infected": 84,
    "recovered": 0,
    "latitude": 39.74536,
    "longitude": -116.724977,
    "name": "Nevada",
    "country": "US",
    "sick": 83
  },
  {
    "infected": 16,
    "recovered": 0,
    "latitude": 15.3173,
    "longitude": 75.7139,
    "name": "Karnataka",
    "country": "IN",
    "dead": 1,
    "lastUpdated": "2020-03-19T07:03:01.719Z",
    "id": "HN5mGmxlqlSeFSNeu1K5",
    "sick": 15
  },
  {
    "longitude": 90.4336,
    "name": "Bhutan",
    "country": "BT",
    "dead": 0,
    "lastUpdated": "2020-03-19T18:13:10.072Z",
    "id": "HRDpwyxpqW9RN0xLFyNu",
    "infected": 1,
    "recovered": 0,
    "latitude": 27.5142,
    "sick": 1
  },
  {
    "latitude": 41.3775,
    "longitude": 64.5853,
    "name": "Uzbekistan",
    "country": "UZ",
    "dead": 0,
    "lastUpdated": "2020-03-19T18:13:10.411Z",
    "id": "HRTA10dtrruDEwjJEGMp",
    "infected": 23,
    "recovered": 0,
    "sick": 23
  },
  {
    "latitude": 34.138916,
    "longitude": -105.576255,
    "name": "New Mexico",
    "country": "US",
    "dead": 0,
    "lastUpdated": "2020-03-19T18:12:01.658Z",
    "id": "HSSFomRju0doHhWgW8On",
    "infected": 28,
    "recovered": 0,
    "sick": 28
  },
  {
    "id": "He1gSS1v50t06i3YrqvB",
    "infected": 133,
    "recovered": 0,
    "latitude": 53.6127,
    "longitude": 12.4296,
    "name": "Mecklenburg-Vorpommern",
    "country": "DE",
    "dead": 0,
    "lastUpdated": "2020-03-19T18:12:03.135Z",
    "sick": 133
  },
  {
    "infected": 118,
    "recovered": 4,
    "latitude": 23.634501,
    "longitude": -102.552788,
    "name": "Mexico",
    "country": "MX",
    "dead": 1,
    "lastUpdated": "2020-03-19T18:13:10.169Z",
    "id": "I4OJ6z9Vjs1byOcbsJrd",
    "sick": 113
  },
  {
    "infected": 1378,
    "recovered": 1318,
    "latitude": 23.363855,
    "longitude": 113.373448,
    "name": "Guangdong",
    "country": "CN",
    "dead": 8,
    "lastUpdated": "2020-03-19T07:50:29.085Z",
    "id": "IAX0OQLVnUwU7FX0ENF1",
    "sick": 52
  },
  {
    "latitude": 33.875408,
    "longitude": 113.484016,
    "name": "Henan",
    "country": "CN",
    "dead": 22,
    "lastUpdated": "2020-03-19T07:51:19.210Z",
    "id": "IFuMrMvSjoiX5agYvllh",
    "infected": 1273,
    "recovered": 1250,
    "sick": 1
  },
  {
    "dead": 4,
    "lastUpdated": "2020-03-19T18:12:01.737Z",
    "id": "IvQkDJkTAsoIqPRAU25n",
    "infected": 197,
    "recovered": 0,
    "latitude": 32.528564,
    "longitude": -83.280125,
    "name": "Georgia (US)",
    "country": "US",
    "sick": 193
  },
  {
    "latitude": -42.8285,
    "longitude": 172.488081,
    "name": "New Zealand",
    "country": "NZ",
    "dead": 0,
    "lastUpdated": "2020-03-19T18:13:10.066Z",
    "id": "IvVhpOoGpH6JVkGyUhXN",
    "infected": 28,
    "recovered": 0,
    "sick": 28
  },
  {
    "infected": 36,
    "recovered": 0,
    "latitude": 6.4238,
    "longitude": -66.5897,
    "name": "Venezuela",
    "country": "VE",
    "dead": 0,
    "lastUpdated": "2020-03-19T18:13:10.158Z",
    "id": "J3mZXlfEnnJx4CDZLvRG",
    "sick": 36
  },
  {
    "infected": 67,
    "recovered": 0,
    "latitude": 35.1264,
    "longitude": 33.4299,
    "name": "Cyprus",
    "country": "CY",
    "dead": 0,
    "lastUpdated": "2020-03-19T18:13:09.497Z",
    "id": "JQByE4l2OA6sGOqIcWrM",
    "sick": 67
  },
  {
    "latitude": 14.628434,
    "longitude": -90.522713,
    "name": "Guatemala",
    "country": "GT",
    "dead": 1,
    "lastUpdated": "2020-03-19T18:13:10.602Z",
    "id": "JUWE6bG3b5oL7fKQMSvv",
    "infected": 9,
    "recovered": 0,
    "sick": 8
  },
  {
    "latitude": 49.8153,
    "longitude": 6.1296,
    "name": "Luxembourg",
    "country": "LU",
    "dead": 4,
    "lastUpdated": "2020-03-19T18:13:10.166Z",
    "id": "JcFsHSn2WvZ5LJW42ovG",
    "infected": 335,
    "recovered": 0,
    "sick": 331
  },
  {
    "longitude": 0.8248,
    "name": "Togo",
    "country": "TG",
    "dead": 0,
    "lastUpdated": "2020-03-19T18:13:10.590Z",
    "id": "JrBbirlBKGdWSdcDt7PF",
    "infected": 1,
    "recovered": 0,
    "latitude": 8.6195,
    "sick": 1
  },
  {
    "latitude": 42.7339,
    "longitude": 25.4858,
    "name": "Bulgaria",
    "country": "BG",
    "dead": 3,
    "lastUpdated": "2020-03-19T18:13:10.188Z",
    "id": "JzZ8sbqzjutThVjkPKPL",
    "infected": 107,
    "recovered": 0,
    "sick": 104
  },
  {
    "infected": 60,
    "recovered": 3,
    "latitude": 7.873054,
    "longitude": 80.771797,
    "name": "Sri Lanka",
    "country": "LK",
    "dead": 0,
    "lastUpdated": "2020-03-19T18:13:09.949Z",
    "id": "KsWzJO06cf0d6LJ4ZNh9",
    "sick": 57
  },
  {
    "infected": 2,
    "recovered": 0,
    "latitude": 15.9129,
    "longitude": 79.74,
    "name": "Andhra Pradesh",
    "country": "IN",
    "dead": 0,
    "lastUpdated": "2020-03-19T18:04:02.657Z",
    "id": "KtQIo2DoqjELtPAlyDVO",
    "sick": 2
  },
  {
    "latitude": 61.52401,
    "longitude": 105.318756,
    "name": "Russia",
    "country": "RU",
    "dead": 1,
    "lastUpdated": "2020-03-19T18:13:09.937Z",
    "id": "KwOuGBKSMRlmwftxAvLX",
    "infected": 199,
    "recovered": 8,
    "sick": 190
  },
  {
    "longitude": -63.0501,
    "name": "Saint-Martin",
    "country": "FR",
    "dead": 0,
    "lastUpdated": "2020-03-19T18:10:07.436Z",
    "id": "LBUtrLDKJiupXjlUNTUe",
    "infected": 4,
    "recovered": 0,
    "latitude": 18.0708,
    "sick": 4
  },
  {
    "infected": 28,
    "recovered": 0,
    "latitude": 47.166,
    "longitude": 9.5554,
    "name": "Liechtenstein",
    "country": "LI",
    "dead": 0,
    "lastUpdated": "2020-03-19T18:13:10.025Z",
    "id": "LTGEU2E9MFkrCcFhZYVk",
    "sick": 28
  },
  {
    "dead": 0,
    "lastUpdated": "2020-03-19T18:13:10.569Z",
    "id": "LU2QWt5ao8IJa8evNYVV",
    "infected": 1,
    "recovered": 0,
    "latitude": 9.9456,
    "longitude": -9.6966,
    "name": "Guinea",
    "country": "GN",
    "sick": 1
  },
  {
    "longitude": -56.0277824,
    "name": "Suriname",
    "country": "SR",
    "dead": 0,
    "lastUpdated": "2020-03-19T18:13:10.606Z",
    "id": "LglKINHyQpYpFxjckbQ6",
    "infected": 1,
    "recovered": 0,
    "latitude": 3.9193051,
    "sick": 1
  },
  {
    "infected": 16,
    "recovered": 0,
    "latitude": 52.9399,
    "longitude": -106.4509,
    "name": "Saskatchewan",
    "country": "CA",
    "dead": 0,
    "lastUpdated": "2020-03-19T18:12:01.731Z",
    "id": "LkIDKY0CMAqzbwBHyYCP",
    "sick": 16
  },
  {
    "latitude": 37.8393,
    "longitude": -84.27,
    "name": "Kentucky",
    "country": "US",
    "dead": 1,
    "lastUpdated": "2020-03-19T18:12:01.738Z",
    "id": "MC8MXFw9iXYybnF8v7e6",
    "infected": 35,
    "recovered": 0,
    "sick": 34
  },
  {
    "dead": 2,
    "lastUpdated": "2020-03-19T18:12:01.751Z",
    "id": "MOxDkmQ4wBi1CuAdVxDE",
    "infected": 56,
    "recovered": 0,
    "latitude": 40.2672,
    "longitude": -86.1349,
    "name": "Indiana",
    "country": "US",
    "sick": 54
  },
  {
    "infected": 9,
    "recovered": 1,
    "latitude": 7.54,
    "longitude": -5.5471,
    "name": "Ivory Coast",
    "country": "CI",
    "dead": 0,
    "lastUpdated": "2020-03-19T18:13:10.525Z",
    "id": "MdQOfc1gNh2DOqwSP6UV",
    "sick": 8
  },
  {
    "longitude": 7.6616,
    "name": "Nordrhein-Westfalen",
    "country": "DE",
    "dead": 17,
    "lastUpdated": "2020-03-19T18:12:03.041Z",
    "id": "MjpYq3zQyAvSQlVVYjD2",
    "infected": 4971,
    "recovered": 75,
    "latitude": 51.4332,
    "sick": 4879
  },
  {
    "latitude": 37.330509,
    "longitude": 105.977203,
    "name": "Ningxia",
    "country": "CN",
    "dead": 0,
    "lastUpdated": "2020-03-19T07:46:55.468Z",
    "id": "MntmjjuHljarCdt6aIeE",
    "infected": 75,
    "recovered": 75,
    "sick": 0
  },
  {
    "id": "N3XsRBwJSsNclkEf7Zz5",
    "infected": 2184,
    "recovered": 8,
    "latitude": 48.6616,
    "longitude": 9.3501,
    "name": "Baden-Württemberg",
    "country": "DE",
    "dead": 11,
    "lastUpdated": "2020-03-19T18:12:03.035Z",
    "sick": 2165
  },
  {
    "longitude": 17.824332,
    "name": "Bosnia and Herzegovina",
    "country": "BA",
    "dead": 0,
    "lastUpdated": "2020-03-19T18:13:10.182Z",
    "id": "N7c13sCQF0G789XAVazJ",
    "infected": 63,
    "recovered": 2,
    "latitude": 44.696652,
    "sick": 61
  },
  {
    "latitude": 37.242565,
    "longitude": 111.856857,
    "name": "Shanxi",
    "country": "CN",
    "dead": 0,
    "lastUpdated": "2020-03-19T07:47:18.255Z",
    "id": "NBRIGIRrJB1Ry8prDNAC",
    "infected": 133,
    "recovered": 133,
    "sick": 0
  },
  {
    "infected": 119,
    "recovered": 0,
    "latitude": 35.7596,
    "longitude": -79.0193,
    "name": "North Carolina",
    "country": "US",
    "dead": 0,
    "lastUpdated": "2020-03-19T18:12:01.694Z",
    "id": "NC64Qp5kTqAfiTuR27k8",
    "sick": 119
  },
  {
    "latitude": 52.4125,
    "longitude": 12.5316,
    "name": "Brandenburg",
    "country": "DE",
    "dead": 0,
    "lastUpdated": "2020-03-19T18:12:03.045Z",
    "id": "NJjo2gfBvnbK4xatrsUz",
    "infected": 204,
    "recovered": 1,
    "sick": 203
  },
  {
    "infected": 1,
    "recovered": 0,
    "latitude": 30.0668,
    "longitude": 79.0193,
    "name": "Uttarakhand",
    "country": "IN",
    "dead": 0,
    "lastUpdated": "2020-03-19T18:04:02.660Z",
    "id": "NMeZEcGToxXfpi16PfFV",
    "sick": 1
  },
  {
    "latitude": 50.6521,
    "longitude": 9.1624,
    "name": "Hessen",
    "country": "DE",
    "dead": 1,
    "lastUpdated": "2020-03-19T18:12:03.132Z",
    "id": "Nk5vPgUIXsWVfbWZf15O",
    "infected": 682,
    "recovered": 2,
    "sick": 679
  },
  {
    "longitude": 25.837107,
    "name": "Latvia",
    "country": "LV",
    "dead": 0,
    "lastUpdated": "2020-03-19T18:13:10.133Z",
    "id": "NmmMKy0YqA8StHdGzB5N",
    "infected": 86,
    "recovered": 1,
    "latitude": 56.96776,
    "sick": 85
  },
  {
    "latitude": 6.4281,
    "longitude": -9.4295,
    "name": "Liberia",
    "country": "LR",
    "dead": 0,
    "lastUpdated": "2020-03-19T18:13:10.559Z",
    "id": "O4g88K49HKEZLFXm5gxb",
    "infected": 2,
    "recovered": 0,
    "sick": 2
  },
  {
    "longitude": -80.525613,
    "name": "South Carolina",
    "country": "US",
    "dead": 1,
    "lastUpdated": "2020-03-19T18:12:01.758Z",
    "id": "ONU4CK8QjViFHKg2w5if",
    "infected": 60,
    "recovered": 0,
    "latitude": 34.003307,
    "sick": 59
  },
  {
    "infected": 50,
    "recovered": 0,
    "latitude": 33.51822,
    "longitude": -89.582775,
    "name": "Mississippi",
    "country": "US",
    "dead": 0,
    "lastUpdated": "2020-03-19T18:12:01.775Z",
    "id": "OYa0jFzdbAgo8zUsRv6q",
    "sick": 50
  },
  {
    "longitude": -69.4455,
    "name": "Maine",
    "country": "US",
    "dead": 0,
    "lastUpdated": "2020-03-19T18:12:01.741Z",
    "id": "OcXNp9kNVSwrRlG3bNVN",
    "infected": 42,
    "recovered": 0,
    "latitude": 45.2538,
    "sick": 42
  },
  {
    "latitude": -41.915264,
    "longitude": 146.725256,
    "name": "Tasmania",
    "country": "AU",
    "dead": 0,
    "lastUpdated": "2020-03-19T18:10:02.354Z",
    "id": "OnOseaqWdnuP18oruABW",
    "infected": 10,
    "recovered": 0,
    "sick": 10
  },
  {
    "infected": 1,
    "recovered": 0,
    "latitude": 19.3133,
    "longitude": -81.2546,
    "name": "Cayman Islands",
    "country": "KY",
    "dead": 1,
    "lastUpdated": "2020-03-19T18:13:10.567Z",
    "id": "P4mwRFLbrvT0t75uD8Wo",
    "sick": 0
  },
  {
    "id": "PEDkeFMTOZpvHiSVxBk7",
    "infected": 1,
    "recovered": 0,
    "latitude": 16.7424984,
    "longitude": -62.1873665,
    "name": "Montserrat",
    "country": "MS",
    "dead": 0,
    "lastUpdated": "2020-03-19T18:13:10.423Z",
    "sick": 1
  },
  {
    "recovered": 0,
    "latitude": -1.9403,
    "longitude": 29.8739,
    "name": "Rwanda",
    "country": "RW",
    "dead": 0,
    "lastUpdated": "2020-03-19T18:13:10.546Z",
    "id": "PEcgZGEkyhABztt1Ufgc",
    "infected": 11,
    "sick": 11
  },
  {
    "recovered": 0,
    "latitude": 46.7296,
    "longitude": -94.6859,
    "name": "Minnesota",
    "country": "US",
    "dead": 0,
    "lastUpdated": "2020-03-19T18:12:01.630Z",
    "id": "PJvVYosLIhbcRZYnKX1R",
    "infected": 76,
    "sick": 76
  },
  {
    "latitude": 40.6331,
    "longitude": -89.3985,
    "name": "Illinois",
    "country": "US",
    "dead": 1,
    "lastUpdated": "2020-03-19T18:12:01.674Z",
    "id": "PTwQr9ijo0TBBsPH2sdJ",
    "infected": 295,
    "recovered": 0,
    "sick": 294
  },
  {
    "infected": 2,
    "recovered": 0,
    "latitude": 13.909444,
    "longitude": -60.978893,
    "name": "Saint Lucia",
    "country": "LC",
    "dead": 0,
    "lastUpdated": "2020-03-19T18:13:10.632Z",
    "id": "PjLqCeFdyzdZNcZxMkK1",
    "sick": 2
  },
  {
    "recovered": 1,
    "latitude": 34.201507,
    "longitude": 9.460554,
    "name": "Tunisia",
    "country": "TN",
    "dead": 1,
    "lastUpdated": "2020-03-19T18:13:10.004Z",
    "id": "Pr76V4raf108uSRoEXac",
    "infected": 39,
    "sick": 37
  },
  {
    "infected": 1,
    "recovered": 0,
    "latitude": -26.5225,
    "longitude": 31.4659,
    "name": "Eswatini",
    "country": "SZ",
    "dead": 0,
    "lastUpdated": "2020-03-19T18:13:10.623Z",
    "id": "PuQgOd9KWiMzGZXm11sR",
    "sick": 1
  },
  {
    "recovered": 8,
    "latitude": -37.009609,
    "longitude": 143.94853,
    "name": "Victoria",
    "country": "AU",
    "dead": 0,
    "lastUpdated": "2020-03-19T18:10:02.427Z",
    "id": "Q18mrGvFWTLX2BU9SqhQ",
    "infected": 121,
    "sick": 113
  },
  {
    "infected": 253,
    "recovered": 0,
    "latitude": 54.2194,
    "longitude": 9.6961,
    "name": "Schleswig-Holstein",
    "country": "DE",
    "dead": 1,
    "lastUpdated": "2020-03-19T18:12:03.050Z",
    "id": "Q39XkabIYxt15mHINzTa",
    "sick": 252
  },
  {
    "infected": 267,
    "recovered": 1,
    "latitude": 58.595272,
    "longitude": 25.013607,
    "name": "Estonia",
    "country": "EE",
    "dead": 0,
    "lastUpdated": "2020-03-19T18:13:10.064Z",
    "id": "QR9go2hQKXjty7JHUYe4",
    "sick": 266
  },
  {
    "infected": 3,
    "recovered": 0,
    "latitude": 18.3358,
    "longitude": -64.8963,
    "name": "U.S. Virgin Islands",
    "country": "VI",
    "dead": 0,
    "lastUpdated": "2020-03-19T18:13:10.658Z",
    "id": "QqhD3YDMKXojvQY3Yu41",
    "sick": 3
  },
  {
    "id": "R8YCgephnxTufvcPWMgx",
    "infected": 109,
    "recovered": 0,
    "latitude": 8.538,
    "longitude": -80.7821,
    "name": "Panama",
    "country": "PA",
    "dead": 1,
    "lastUpdated": "2020-03-19T18:13:10.035Z",
    "sick": 108
  },
  {
    "infected": 12,
    "recovered": 0,
    "latitude": 15.2,
    "longitude": -86.2419,
    "name": "Honduras",
    "country": "HN",
    "dead": 0,
    "lastUpdated": "2020-03-19T18:13:10.528Z",
    "id": "RA2SE0p2bVhqo0P2hzGY",
    "sick": 12
  },
  {
    "infected": 39,
    "recovered": 0,
    "latitude": 41.878,
    "longitude": -93.0977,
    "name": "Iowa",
    "country": "US",
    "dead": 0,
    "lastUpdated": "2020-03-19T18:12:01.665Z",
    "id": "RX0KDu1AFrlCsrRso0nb",
    "sick": 39
  },
  {
    "recovered": 0,
    "latitude": 39.0119,
    "longitude": -98.4842,
    "name": "Kansas",
    "country": "US",
    "dead": 1,
    "lastUpdated": "2020-03-19T18:12:01.765Z",
    "id": "Rf4uvBfP3GRDSHdZElRd",
    "infected": 22,
    "sick": 21
  },
  {
    "dead": 61,
    "lastUpdated": "2020-03-19T18:10:07.446Z",
    "id": "RmEgf1xeclWt7XCF9oiR",
    "infected": 2163,
    "recovered": 0,
    "latitude": 48.6998,
    "longitude": 6.1878,
    "name": "Grand Est",
    "country": "FR",
    "sick": 2102
  },
  {
    "recovered": 5,
    "latitude": 51.2538,
    "longitude": -85.3232,
    "name": "Ontario",
    "country": "CA",
    "dead": 1,
    "lastUpdated": "2020-03-19T18:12:01.753Z",
    "id": "Rx4TuyMpfGb3S8wYJX0x",
    "infected": 257,
    "sick": 251
  },
  {
    "infected": 23,
    "recovered": 0,
    "latitude": 14.652027,
    "longitude": -61.011715,
    "name": "Martinique",
    "country": "FR",
    "dead": 1,
    "lastUpdated": "2020-03-19T18:13:10.619Z",
    "id": "SDdefnq1bc3ZNr7SpEsW",
    "sick": 22
  },
  {
    "infected": 11,
    "recovered": 0,
    "latitude": 7.9465,
    "longitude": -1.0232,
    "name": "Ghana",
    "country": "GH",
    "dead": 0,
    "lastUpdated": "2020-03-19T18:13:10.651Z",
    "id": "SG9VWLOV3x2JsTkXmVSz",
    "sick": 11
  },
  {
    "dead": 41,
    "lastUpdated": "2020-03-19T18:13:10.007Z",
    "id": "SGe9sCPayMqh6RsGFaBA",
    "infected": 3944,
    "recovered": 15,
    "latitude": 46.818188,
    "longitude": 8.227512,
    "name": "Switzerland",
    "country": "CH",
    "sick": 3888
  },
  {
    "infected": 121,
    "recovered": 0,
    "latitude": 46.8139,
    "longitude": -71.208,
    "name": "Quebec",
    "country": "CA",
    "dead": 1,
    "lastUpdated": "2020-03-19T18:12:01.637Z",
    "id": "SHoOE3NiJgWAlDVBzwYH",
    "sick": 120
  },
  {
    "latitude": 42.6026,
    "longitude": 20.903,
    "name": "Kosovo",
    "country": "XK",
    "dead": 0,
    "lastUpdated": "2020-03-19T11:22:05.571Z",
    "id": "SMWvuMMuKp2QK7O2tNia",
    "infected": 20,
    "recovered": 0,
    "sick": 20
  },
  {
    "dead": 0,
    "lastUpdated": "2020-03-19T18:12:01.709Z",
    "id": "SakhKQzKu1LRI8laqdQq",
    "infected": 29,
    "recovered": 0,
    "latitude": 41.4925,
    "longitude": -99.9018,
    "name": "Nebraska",
    "country": "US",
    "sick": 29
  },
  {
    "latitude": -21.1151,
    "longitude": 55.5364,
    "name": "La Réunion",
    "country": "FR",
    "dead": 0,
    "lastUpdated": "2020-03-19T08:09:52.322Z",
    "id": "SgHzWAAYK1j2sipovxM6",
    "infected": 15,
    "recovered": 0,
    "sick": 15
  },
  {
    "infected": 37,
    "recovered": 1,
    "latitude": 12.565679,
    "longitude": 104.990967,
    "name": "Cambodia",
    "country": "KH",
    "dead": 0,
    "lastUpdated": "2020-03-19T18:13:09.481Z",
    "id": "SioMALgUbo7peXmbco2f",
    "sick": 36
  },
  {
    "dead": 0,
    "lastUpdated": "2020-03-19T18:13:09.455Z",
    "id": "SsWhuEElU7dCTTuH5fdQ",
    "infected": 12,
    "recovered": 0,
    "latitude": 13.4443,
    "longitude": 144.7937,
    "name": "Guam",
    "country": "GU",
    "sick": 12
  },
  {
    "dead": 0,
    "lastUpdated": "2020-03-19T18:13:10.043Z",
    "id": "T3iRf8mTUTAzbKrORTap",
    "infected": 14,
    "recovered": 0,
    "latitude": -4.0383,
    "longitude": 21.7587,
    "name": "DR Congo",
    "country": "CD",
    "sick": 14
  },
  {
    "infected": 238,
    "recovered": 8,
    "latitude": 23.635796,
    "longitude": 44.344334,
    "name": "Saudi Arabia",
    "country": "SA",
    "dead": 0,
    "lastUpdated": "2020-03-19T18:13:10.046Z",
    "id": "T7NffoeCgTUpAbOHvYwP",
    "sick": 230
  },
  {
    "dead": 0,
    "lastUpdated": "2020-03-19T18:13:10.020Z",
    "id": "TQZmzsLhJqjtCSExAkCP",
    "infected": 73,
    "recovered": 0,
    "latitude": 4.506106,
    "longitude": 114.650692,
    "name": "Brunei",
    "country": "BN",
    "sick": 73
  },
  {
    "infected": 858,
    "recovered": 27,
    "latitude": 45.4471,
    "longitude": 4.3853,
    "name": "Auvergne-Rhône-Alpes",
    "country": "FR",
    "dead": 7,
    "lastUpdated": "2020-03-19T18:10:07.536Z",
    "id": "TT0MKODSjrxHvG19xZCa",
    "sick": 824
  },
  {
    "dead": 2,
    "lastUpdated": "2020-03-19T18:12:01.642Z",
    "id": "Th4dlpXXmSDgi1OHs36P",
    "infected": 221,
    "recovered": 0,
    "latitude": 39.318928,
    "longitude": -105.461392,
    "name": "Colorado",
    "country": "US",
    "sick": 219
  },
  {
    "infected": 33,
    "recovered": 0,
    "latitude": 12.2383,
    "longitude": -1.5616,
    "name": "Burkina Faso",
    "country": "BF",
    "dead": 1,
    "lastUpdated": "2020-03-19T18:13:09.484Z",
    "id": "Tup6oDCHj6DgqZR3nQ3x",
    "sick": 32
  },
  {
    "dead": 6,
    "lastUpdated": "2020-03-19T18:13:10.202Z",
    "id": "Ty1AY3VLPJcRZgdBIERx",
    "infected": 1151,
    "recovered": 1,
    "latitude": 55.675758,
    "longitude": 12.56902,
    "name": "Denmark",
    "country": "DK",
    "sick": 1144
  },
  {
    "latitude": 36.395859,
    "longitude": 118.769882,
    "name": "Shandong",
    "country": "CN",
    "dead": 7,
    "lastUpdated": "2020-03-19T07:47:39.566Z",
    "id": "U0tkTJ9CGsBuFJ2Gdoum",
    "infected": 761,
    "recovered": 747,
    "sick": 7
  },
  {
    "latitude": 43.94236,
    "longitude": 12.457777,
    "name": "San Marino",
    "country": "SM",
    "dead": 14,
    "lastUpdated": "2020-03-19T18:13:09.916Z",
    "id": "U12rMD5GDW58Q0lIwrB1",
    "infected": 140,
    "recovered": 4,
    "sick": 122
  },
  {
    "infected": 923,
    "recovered": 191,
    "latitude": 36.204823,
    "longitude": 138.25293,
    "name": "Japan",
    "country": "JP",
    "dead": 32,
    "lastUpdated": "2020-03-19T18:13:09.928Z",
    "id": "U13Gy4BpRLAZ95bPmBXd",
    "sick": 700
  },
  {
    "dead": 3,
    "lastUpdated": "2020-03-19T18:10:07.443Z",
    "id": "URKMlJ7OTNldjpaxFbjE",
    "infected": 273,
    "recovered": 0,
    "latitude": 48.202,
    "longitude": -2.9326,
    "name": "Bretagne",
    "country": "FR",
    "sick": 270
  },
  {
    "latitude": 53.5511,
    "longitude": 9.9937,
    "name": "Hamburg",
    "country": "DE",
    "dead": 1,
    "lastUpdated": "2020-03-19T18:12:02.930Z",
    "id": "UfFaUECHINUutv1M9tzq",
    "infected": 506,
    "recovered": 1,
    "sick": 504
  },
  {
    "recovered": 0,
    "latitude": 18.0424805,
    "longitude": -63.0548286,
    "name": "Sint Maarten",
    "country": "SX",
    "dead": 0,
    "lastUpdated": "2020-03-19T18:13:10.433Z",
    "id": "UsxgpiuFCtlR2CW1UUFm",
    "infected": 1,
    "sick": 1
  },
  {
    "latitude": 11.943179,
    "longitude": 79.808206,
    "name": "Puducherry",
    "country": "IN",
    "dead": 0,
    "lastUpdated": "2020-03-19T18:04:02.724Z",
    "id": "V1qE740s3EUGyKGr6SVv",
    "infected": 1,
    "recovered": 0,
    "sick": 1
  },
  {
    "recovered": 1,
    "latitude": 3.527606,
    "longitude": -72.998674,
    "name": "Colombia",
    "country": "CO",
    "dead": 0,
    "lastUpdated": "2020-03-19T18:13:10.197Z",
    "id": "VAAmtxtDuCY0o55zRsOh",
    "infected": 108,
    "sick": 107
  },
  {
    "latitude": 21.5218,
    "longitude": -77.7812,
    "name": "Cuba",
    "country": "CU",
    "dead": 1,
    "lastUpdated": "2020-03-19T18:13:10.516Z",
    "id": "VAG9AcMABTf8oIAfELPh",
    "infected": 11,
    "recovered": 0,
    "sick": 10
  },
  {
    "recovered": 172,
    "latitude": 25.181129,
    "longitude": 101.864143,
    "name": "Yunnan",
    "country": "CN",
    "dead": 2,
    "lastUpdated": "2020-03-19T07:49:36.046Z",
    "id": "VIf8T8PD3ZzlzAm5eBCX",
    "infected": 176,
    "sick": 2
  },
  {
    "dead": 0,
    "lastUpdated": "2020-03-19T18:04:02.683Z",
    "id": "VcKcLdCkC6YpPfIDnRVD",
    "infected": 19,
    "recovered": 9,
    "latitude": 26.8467,
    "longitude": 80.9462,
    "name": "Uttar Pradesh",
    "country": "IN",
    "sick": 10
  },
  {
    "infected": 371,
    "recovered": 0,
    "latitude": 43.8927,
    "longitude": 3.2828,
    "name": "Occitanie",
    "country": "FR",
    "dead": 0,
    "lastUpdated": "2020-03-19T18:10:07.631Z",
    "id": "WAnbFrEjtZDTCIYBt8rz",
    "sick": 371
  },
  {
    "longitude": 22.9375,
    "name": "South Africa",
    "country": "ZA",
    "dead": 0,
    "lastUpdated": "2020-03-19T14:43:02.558Z",
    "id": "Whrue10NtwIObLvFFyBr",
    "infected": 151,
    "recovered": 0,
    "latitude": -30.5595,
    "sick": 151
  },
  {
    "latitude": 13.443182,
    "longitude": -15.3101387,
    "name": "Gambia",
    "country": "GM",
    "dead": 0,
    "lastUpdated": "2020-03-19T18:13:10.672Z",
    "id": "Wk811YwpQxsOCfz8As86",
    "infected": 1,
    "recovered": 0,
    "sick": 1
  },
  {
    "recovered": 3,
    "latitude": 23.685,
    "longitude": 90.3563,
    "name": "Bangladesh",
    "country": "BD",
    "dead": 1,
    "lastUpdated": "2020-03-19T18:13:09.491Z",
    "id": "WpLayPPLIJ7VcHZdQaoM",
    "infected": 18,
    "sick": 14
  },
  {
    "infected": 8,
    "recovered": 0,
    "latitude": 34.2996,
    "longitude": 78.2932,
    "name": "Ladakh",
    "country": "IN",
    "dead": 0,
    "lastUpdated": "2020-03-19T18:04:02.665Z",
    "id": "X3PZqaJxtnlxcgP4tzya",
    "sick": 8
  },
  {
    "infected": 296,
    "recovered": 295,
    "latitude": 25.92448,
    "longitude": 118.278992,
    "name": "Fujian",
    "country": "CN",
    "dead": 1,
    "lastUpdated": "2020-03-19T07:50:18.660Z",
    "id": "XBBw0iMPrmiEu3qogkbi",
    "sick": 0
  },
  {
    "recovered": 4440,
    "latitude": 41.871941,
    "longitude": 12.56738,
    "name": "Italy",
    "country": "IT",
    "dead": 3405,
    "lastUpdated": "2020-03-19T18:13:10.012Z",
    "id": "XdekMZcw1lJK2MWpBlNK",
    "infected": 41035,
    "sick": 33190
  },
  {
    "dead": 0,
    "lastUpdated": "2020-03-19T18:13:09.940Z",
    "id": "XrsuLstdybIqIvv0E0aJ",
    "infected": 79,
    "recovered": 0,
    "latitude": -32.5228,
    "longitude": -55.7658,
    "name": "Uruguay",
    "country": "UY",
    "sick": 79
  },
  {
    "infected": 152,
    "recovered": 0,
    "latitude": 42.0396,
    "longitude": 9.0129,
    "name": "Corse",
    "country": "FR",
    "dead": 7,
    "lastUpdated": "2020-03-19T18:10:07.534Z",
    "id": "YGXgIObKVabP2CYEdcb9",
    "sick": 145
  },
  {
    "latitude": 31.9522,
    "longitude": 35.2332,
    "name": "Palestine",
    "country": "PS",
    "dead": 0,
    "lastUpdated": "2020-03-19T18:13:10.097Z",
    "id": "YMzKw0SnXG71VT7H1jff",
    "infected": 47,
    "recovered": 0,
    "sick": 47
  },
  {
    "infected": 9,
    "recovered": 0,
    "latitude": 64.2008,
    "longitude": -149.4937,
    "name": "Alaska",
    "country": "US",
    "dead": 0,
    "lastUpdated": "2020-03-19T18:12:01.662Z",
    "id": "YaCODTMD1KKRnrAlkg2u",
    "sick": 9
  },
  {
    "dead": 91,
    "lastUpdated": "2020-03-19T18:13:09.959Z",
    "id": "Yw9uBekNlefXBcOCNMfP",
    "infected": 8565,
    "recovered": 1947,
    "latitude": 37.568291,
    "longitude": 126.99778,
    "name": "South Korea",
    "country": "KR",
    "sick": 6527
  },
  {
    "dead": 5,
    "lastUpdated": "2020-03-19T18:13:10.028Z",
    "id": "ZAZNuCK1VweBaTLCFzCk",
    "infected": 325,
    "recovered": 13,
    "latitude": 52.2297,
    "longitude": 21.0122,
    "name": "Poland",
    "country": "PL",
    "sick": 307
  },
  {
    "id": "Zqy0gftQzocR49jEJNMl",
    "infected": 97,
    "recovered": 0,
    "latitude": 41.6032,
    "longitude": -73.0877,
    "name": "Connecticut",
    "country": "US",
    "dead": 2,
    "lastUpdated": "2020-03-19T18:12:01.650Z",
    "sick": 95
  },
  {
    "infected": 166,
    "recovered": 1,
    "latitude": 51.011,
    "longitude": 10.8453,
    "name": "Thüringen",
    "country": "DE",
    "dead": 0,
    "lastUpdated": "2020-03-19T18:12:03.126Z",
    "id": "a9OgUWo6ZSWA3HyF0xnj",
    "sick": 165
  },
  {
    "infected": 37,
    "recovered": 3,
    "latitude": -30.000233,
    "longitude": 136.209152,
    "name": "South Australia",
    "country": "AU",
    "dead": 0,
    "lastUpdated": "2020-03-19T18:10:02.359Z",
    "id": "a9p9pAOsjg1WAjPGc2a6",
    "sick": 34
  },
  {
    "latitude": 37.9643,
    "longitude": -91.8318,
    "name": "Missouri",
    "country": "US",
    "dead": 1,
    "lastUpdated": "2020-03-19T18:12:01.746Z",
    "id": "aPubGfQ8ToSEuKJldKRT",
    "infected": 26,
    "recovered": 0,
    "sick": 25
  },
  {
    "latitude": 23.64407,
    "longitude": 108.26651,
    "name": "Guangxi",
    "country": "CN",
    "dead": 2,
    "lastUpdated": "2020-03-19T07:50:11.049Z",
    "id": "aTa8MiBjtH3iY0SRs2HQ",
    "infected": 253,
    "recovered": 250,
    "sick": 1
  },
  {
    "dead": 0,
    "lastUpdated": "2020-03-19T18:13:10.581Z",
    "id": "adcBUeAYp6ey0ZXCzKNs",
    "infected": 1,
    "recovered": 0,
    "latitude": 6.6111,
    "longitude": 20.9394,
    "name": "CAR",
    "country": "CF",
    "sick": 1
  },
  {
    "latitude": 37.4316,
    "longitude": -78.6569,
    "name": "Virginia",
    "country": "US",
    "dead": 2,
    "lastUpdated": "2020-03-19T18:12:01.677Z",
    "id": "afeZTVC1J1SMMNFxkrcc",
    "infected": 79,
    "recovered": 0,
    "sick": 77
  },
  {
    "dead": 8,
    "lastUpdated": "2020-03-19T07:49:18.412Z",
    "id": "alj4hkxg9cjrTxOzwFKt",
    "infected": 480,
    "recovered": 380,
    "latitude": 39.904202,
    "longitude": 116.407394,
    "name": "Beijing",
    "country": "CN",
    "sick": 92
  },
  {
    "longitude": 43.679291,
    "name": "Iraq",
    "country": "IQ",
    "dead": 12,
    "lastUpdated": "2020-03-19T18:13:09.506Z",
    "id": "b7TwXX46FA0EmH1CjHET",
    "infected": 177,
    "recovered": 49,
    "latitude": 33.22319,
    "sick": 116
  },
  {
    "infected": 36,
    "recovered": 2,
    "latitude": 14.457474,
    "longitude": -14.358636,
    "name": "Senegal",
    "country": "SN",
    "dead": 0,
    "lastUpdated": "2020-03-19T18:13:10.176Z",
    "id": "b9p1JhVml3GGC7iiPmKv",
    "sick": 34
  },
  {
    "infected": 7,
    "recovered": 0,
    "latitude": -0.0236,
    "longitude": 37.9062,
    "name": "Kenya",
    "country": "KE",
    "dead": 0,
    "lastUpdated": "2020-03-19T18:13:10.584Z",
    "id": "bVHiTolbUJGHIeVht3eG",
    "sick": 7
  },
  {
    "recovered": 0,
    "latitude": 39.561889,
    "longitude": -74.672169,
    "name": "New Jersey",
    "country": "US",
    "dead": 5,
    "lastUpdated": "2020-03-19T18:12:01.688Z",
    "id": "bYp4RRHv19M7lYtSzQeV",
    "infected": 427,
    "sick": 422
  },
  {
    "latitude": 3.139,
    "longitude": 101.6869,
    "name": "Malaysia",
    "country": "MY",
    "dead": 2,
    "lastUpdated": "2020-03-19T18:13:10.015Z",
    "id": "bdqD4kpdqGgUaX70Tm2Q",
    "infected": 900,
    "recovered": 75,
    "sick": 823
  },
  {
    "latitude": 60.128162,
    "longitude": 18.643501,
    "name": "Sweden",
    "country": "SE",
    "dead": 11,
    "lastUpdated": "2020-03-19T18:13:10.059Z",
    "id": "bignnyt2A8BBx8VNo32p",
    "infected": 1439,
    "recovered": 16,
    "sick": 1412
  },
  {
    "infected": 64,
    "recovered": 0,
    "latitude": 40.973765,
    "longitude": 20.010162,
    "name": "Albania",
    "country": "AL",
    "dead": 2,
    "lastUpdated": "2020-03-19T18:13:09.956Z",
    "id": "cCGmFmwHOoBrEpvG3qBP",
    "sick": 62
  },
  {
    "recovered": 0,
    "latitude": 46.8625,
    "longitude": 103.8467,
    "name": "Mongolia",
    "country": "MN",
    "dead": 0,
    "lastUpdated": "2020-03-19T18:13:10.615Z",
    "id": "cPxONYsVo6BgvCW9HUeQ",
    "infected": 6,
    "sick": 6
  },
  {
    "longitude": -19.020836,
    "name": "Iceland",
    "country": "IS",
    "dead": 0,
    "lastUpdated": "2020-03-19T18:13:09.995Z",
    "id": "cPxe7nsRnOf6aOPqHElJ",
    "infected": 330,
    "recovered": 5,
    "latitude": 64.963051,
    "sick": 325
  },
  {
    "longitude": 34.851612,
    "name": "Israel",
    "country": "IL",
    "dead": 0,
    "lastUpdated": "2020-03-19T18:13:10.086Z",
    "id": "cX891t0ONLNFj0MYq6La",
    "infected": 529,
    "recovered": 13,
    "latitude": 31.046051,
    "sick": 516
  },
  {
    "infected": 11,
    "recovered": 5,
    "latitude": 4.749531,
    "longitude": -53.112909,
    "name": "Guyane",
    "country": "FR",
    "dead": 0,
    "lastUpdated": "2020-03-19T18:10:07.647Z",
    "id": "cc7s6hYGQ2MovBBBgkKb",
    "sick": 6
  },
  {
    "id": "cgzd5EM8PZv5ziJtTz1w",
    "infected": 72,
    "recovered": 1,
    "latitude": 61.8926,
    "longitude": -6.9118,
    "name": "Faeroe Islands",
    "country": "FO",
    "dead": 0,
    "lastUpdated": "2020-03-19T18:13:09.471Z",
    "sick": 71
  },
  {
    "latitude": 41.2033,
    "longitude": -77.1945,
    "name": "Pennsylvania",
    "country": "US",
    "dead": 1,
    "lastUpdated": "2020-03-19T18:12:01.661Z",
    "id": "chj2FF3zb4Xxcop9RHre",
    "infected": 163,
    "recovered": 0,
    "sick": 162
  },
  {
    "longitude": 0.6269,
    "name": "Nouvelle-Aquitaine",
    "country": "FR",
    "dead": 2,
    "lastUpdated": "2020-03-19T18:10:07.635Z",
    "id": "cpf3Y5PQTYywIm3PrpIQ",
    "infected": 237,
    "recovered": 2,
    "latitude": 45.7087,
    "sick": 233
  },
  {
    "infected": 17395,
    "recovered": 1107,
    "latitude": 40.463669,
    "longitude": -3.74922,
    "name": "Spain",
    "country": "ES",
    "dead": 803,
    "lastUpdated": "2020-03-19T18:13:10.068Z",
    "id": "d0ExINgPaWUBm3l4ioJL",
    "sick": 15485
  },
  {
    "infected": 53,
    "recovered": 1,
    "latitude": 42.50837,
    "longitude": 1.517155,
    "name": "Andorra",
    "country": "AD",
    "dead": 0,
    "lastUpdated": "2020-03-19T18:13:10.061Z",
    "id": "dedMXSYR2k92wkSXNZqn",
    "sick": 52
  },
  {
    "longitude": -75.375673,
    "name": "Delaware",
    "country": "US",
    "dead": 0,
    "lastUpdated": "2020-03-19T18:12:01.620Z",
    "id": "dzCgqYduzyncjNKU9z6G",
    "infected": 26,
    "recovered": 0,
    "latitude": 38.831163,
    "sick": 26
  },
  {
    "latitude": 38.9637,
    "longitude": 35.2433,
    "name": "Turkey",
    "country": "TR",
    "dead": 3,
    "lastUpdated": "2020-03-19T18:13:10.154Z",
    "id": "dzIcCaUZlbIXuRw0SyDE",
    "infected": 192,
    "recovered": 0,
    "sick": 189
  },
  {
    "infected": 2013,
    "recovered": 9,
    "latitude": 47.516232,
    "longitude": 14.550072,
    "name": "Austria",
    "country": "AT",
    "dead": 6,
    "lastUpdated": "2020-03-19T18:13:10.137Z",
    "id": "e3BtI12qbqhE8jypOoZu",
    "sick": 1998
  },
  {
    "id": "e3CJgTO8wVbBQZaxqNze",
    "infected": 981,
    "recovered": 1,
    "latitude": 52.6367,
    "longitude": 9.8451,
    "name": "Niedersachsen",
    "country": "DE",
    "dead": 0,
    "lastUpdated": "2020-03-19T18:12:03.038Z",
    "sick": 980
  },
  {
    "infected": 125,
    "recovered": 122,
    "latitude": 41.097481,
    "longitude": 122.310669,
    "name": "Liaoning",
    "country": "CN",
    "dead": 1,
    "lastUpdated": "2020-03-19T07:48:56.784Z",
    "id": "e7P83iImanpd9r36oXK3",
    "sick": 2
  },
  {
    "dead": 3,
    "lastUpdated": "2020-03-19T07:50:01.564Z",
    "id": "e9pQqQa7CEblCYoDtfKo",
    "infected": 363,
    "recovered": 326,
    "latitude": 31.230391,
    "longitude": 121.473701,
    "name": "Shanghai",
    "country": "CN",
    "sick": 34
  },
  {
    "recovered": 0,
    "latitude": 42.407211,
    "longitude": -71.382439,
    "name": "Massachusetts",
    "country": "US",
    "dead": 0,
    "lastUpdated": "2020-03-19T18:12:01.603Z",
    "id": "eCKDGssww4pF7NrxOySu",
    "infected": 256,
    "sick": 256
  },
  {
    "recovered": 0,
    "latitude": 43.740451,
    "longitude": 7.432032,
    "name": "Monaco",
    "country": "MC",
    "dead": 0,
    "lastUpdated": "2020-03-19T18:13:10.135Z",
    "id": "eLgKPNUwYM5MNDAtF6ql",
    "infected": 10,
    "sick": 10
  },
  {
    "dead": 20,
    "lastUpdated": "2020-03-19T18:10:07.345Z",
    "id": "ejrjMKfHexGnK52FS9Aa",
    "infected": 593,
    "recovered": 8,
    "latitude": 47.2805,
    "longitude": 4.9994,
    "name": "Bourgogne-Franche-Comté",
    "country": "FR",
    "sick": 565
  },
  {
    "latitude": 48.0196,
    "longitude": 66.9237,
    "name": "Kazakhstan",
    "country": "KZ",
    "dead": 0,
    "lastUpdated": "2020-03-19T18:13:09.520Z",
    "id": "etrmrftkQg6Kbd9seAga",
    "infected": 44,
    "recovered": 0,
    "sick": 44
  },
  {
    "infected": 540,
    "recovered": 531,
    "latitude": 30.14208,
    "longitude": 102.960701,
    "name": "Sichuan",
    "country": "CN",
    "dead": 3,
    "lastUpdated": "2020-03-19T07:49:53.684Z",
    "id": "eyK5bxFkwdoAouIBvLFM",
    "sick": 6
  },
  {
    "infected": 39,
    "recovered": 13,
    "latitude": 21.473534,
    "longitude": 55.975414,
    "name": "Oman",
    "country": "OM",
    "dead": 0,
    "lastUpdated": "2020-03-19T18:13:09.495Z",
    "id": "f9kmlhYtc3WA3kjbWszW",
    "sick": 26
  },
  {
    "infected": 389,
    "recovered": 0,
    "latitude": 51.1045,
    "longitude": 13.2017,
    "name": "Sachsen",
    "country": "DE",
    "dead": 0,
    "lastUpdated": "2020-03-19T18:12:03.028Z",
    "id": "fGqVm2khm3IBRs709S1f",
    "sick": 389
  },
  {
    "infected": 0,
    "recovered": 0,
    "latitude": 47,
    "longitude": 2,
    "name": "Région non communiquée",
    "country": "FR",
    "dead": 84,
    "lastUpdated": "2020-03-19T03:32:05.832Z",
    "id": "fIp76gl05LhZ0aOxUbhz",
    "sick": 0
  },
  {
    "infected": 69,
    "recovered": 1,
    "latitude": 31.295929,
    "longitude": 36.691952,
    "name": "Jordan",
    "country": "JO",
    "dead": 0,
    "lastUpdated": "2020-03-19T18:13:10.109Z",
    "id": "fK06AziL8wyrcoz7rsmJ",
    "sick": 68
  },
  {
    "infected": 360,
    "recovered": 0,
    "latitude": 27.716933,
    "longitude": -81.555239,
    "name": "Florida",
    "country": "US",
    "dead": 9,
    "lastUpdated": "2020-03-19T18:12:01.683Z",
    "id": "fNganaGVPifA4QahEQPS",
    "sick": 351
  },
  {
    "longitude": 139.664285,
    "name": "Diamond Princess (Cruise)",
    "country": "ZZ",
    "dead": 7,
    "lastUpdated": "2020-03-19T11:35:36.139Z",
    "id": "fNnE9CD0SttEVrCUo1Ym",
    "infected": 696,
    "recovered": 325,
    "latitude": 35.452016,
    "sick": 364
  },
  {
    "dead": 0,
    "lastUpdated": "2020-03-19T18:12:03.130Z",
    "id": "ffKhENYKy3bwsyBLiYtE",
    "infected": 573,
    "recovered": 6,
    "latitude": 52.52,
    "longitude": 13.405,
    "name": "Berlin",
    "country": "DE",
    "sick": 567
  },
  {
    "infected": 67800,
    "recovered": 57678,
    "latitude": 31.160629,
    "longitude": 112.255402,
    "name": "Hubei",
    "country": "CN",
    "dead": 3130,
    "lastUpdated": "2020-03-19T07:51:11.886Z",
    "id": "fiJ14DCxw15e3SMemh8R",
    "sick": 6992
  },
  {
    "dead": 2,
    "lastUpdated": "2020-03-19T18:13:09.488Z",
    "id": "flbZ2kaR5kBuV8XZ2Nsu",
    "infected": 18,
    "recovered": 0,
    "latitude": 50.4501,
    "longitude": 30.5234,
    "name": "Ukraine",
    "country": "UA",
    "sick": 16
  },
  {
    "longitude": 74.7661,
    "name": "Kyrgyzstan",
    "country": "KG",
    "dead": 0,
    "lastUpdated": "2020-03-19T18:13:10.637Z",
    "id": "fst48lrFxiMJbQPf4nur",
    "infected": 3,
    "recovered": 0,
    "latitude": 41.2044,
    "sick": 3
  },
  {
    "latitude": 52.132633,
    "longitude": 5.291266,
    "name": "Netherlands",
    "country": "NL",
    "dead": 76,
    "lastUpdated": "2020-03-19T18:13:10.164Z",
    "id": "g0lRMtEJbucWIGqSPn0I",
    "infected": 2460,
    "recovered": 2,
    "sick": 2382
  },
  {
    "id": "gIdgxJZfTl2QOSYEwMAz",
    "infected": 37,
    "recovered": 0,
    "latitude": 34.69522,
    "longitude": -92.288012,
    "name": "Arkansas",
    "country": "US",
    "dead": 0,
    "lastUpdated": "2020-03-19T18:12:01.626Z",
    "sick": 37
  },
  {
    "dead": 1,
    "lastUpdated": "2020-03-19T18:12:01.748Z",
    "id": "gYDsNgvuvtbg8t77w6FS",
    "infected": 11,
    "recovered": 0,
    "latitude": 43.9695,
    "longitude": -99.9018,
    "name": "South Dakota",
    "country": "US",
    "sick": 10
  },
  {
    "latitude": 35.894231,
    "longitude": 14.432846,
    "name": "Malta",
    "country": "MT",
    "dead": 0,
    "lastUpdated": "2020-03-19T18:13:09.437Z",
    "id": "h9UqxYZ5xC4JZrmdDz0q",
    "infected": 53,
    "recovered": 2,
    "sick": 51
  },
  {
    "latitude": 28.7041,
    "longitude": 77.1025,
    "name": "Delhi",
    "country": "IN",
    "dead": 1,
    "lastUpdated": "2020-03-19T07:03:01.706Z",
    "id": "hqwsh1rmvkWI3LFUVuMk",
    "infected": 15,
    "recovered": 2,
    "sick": 12
  },
  {
    "dead": 2,
    "lastUpdated": "2020-03-19T07:49:27.678Z",
    "id": "iGkTscdD0XyHFSP23Qrp",
    "infected": 133,
    "recovered": 91,
    "latitude": 35.751835,
    "longitude": 104.28611,
    "name": "Gansu",
    "country": "CN",
    "sick": 40
  },
  {
    "latitude": 10.8505,
    "longitude": 76.2711,
    "name": "Kerala",
    "country": "IN",
    "dead": 0,
    "lastUpdated": "2020-03-19T07:03:01.752Z",
    "id": "idymmgoqLHImnBdyC7r7",
    "infected": 30,
    "recovered": 3,
    "sick": 27
  },
  {
    "longitude": 133.7751,
    "name": "Unknown state",
    "country": "AU",
    "dead": 0,
    "lastUpdated": "2020-03-19T02:03:51.485Z",
    "id": "iwcBlwhnL6MDiXogzf8g",
    "infected": 0,
    "recovered": 23,
    "latitude": -25.2744,
    "sick": 0
  },
  {
    "latitude": 16.265,
    "longitude": -61.551,
    "name": "Guadeloupe",
    "country": "FR",
    "dead": 0,
    "lastUpdated": "2020-03-19T18:13:10.115Z",
    "id": "j8eMjjqNAqHAJhAKdBYN",
    "infected": 33,
    "recovered": 0,
    "sick": 33
  },
  {
    "infected": 749,
    "recovered": 1,
    "latitude": 50.1183,
    "longitude": 7.309,
    "name": "Rheinland-Pfalz",
    "country": "DE",
    "dead": 0,
    "lastUpdated": "2020-03-19T18:12:02.926Z",
    "id": "jKn2pIFlIBScjb47GjRX",
    "sick": 748
  },
  {
    "infected": 136,
    "recovered": 133,
    "latitude": 39.343357,
    "longitude": 117.361649,
    "name": "Tianjin",
    "country": "CN",
    "dead": 3,
    "lastUpdated": "2020-03-19T07:48:07.573Z",
    "id": "jMlHjIOb7eMPSxFBrmG1",
    "sick": 0
  },
  {
    "longitude": -72.5778,
    "name": "Vermont",
    "country": "US",
    "dead": 0,
    "lastUpdated": "2020-03-19T18:12:01.724Z",
    "id": "jPC0eOG50FWknCDe3K6P",
    "infected": 19,
    "recovered": 0,
    "latitude": 44.5588,
    "sick": 19
  },
  {
    "dead": 2,
    "lastUpdated": "2020-03-19T18:13:10.160Z",
    "id": "jpVXEDCyfyq26gPoCtHL",
    "infected": 366,
    "recovered": 5,
    "latitude": 53.3498,
    "longitude": -6.2603,
    "name": "Ireland",
    "country": "IE",
    "sick": 359
  },
  {
    "id": "l4nYeaqwy2yrEVqnijFj",
    "infected": 1,
    "recovered": 0,
    "latitude": 11.572076,
    "longitude": 43.145645,
    "name": "Djibouti",
    "country": "DJ",
    "dead": 0,
    "lastUpdated": "2020-03-19T18:13:10.511Z",
    "sick": 1
  },
  {
    "recovered": 0,
    "latitude": 44.0682,
    "longitude": -114.742,
    "name": "Idaho",
    "country": "US",
    "dead": 0,
    "lastUpdated": "2020-03-19T18:12:01.697Z",
    "id": "l7fHSKOmcaRX3tq9FCT6",
    "infected": 11,
    "sick": 11
  },
  {
    "latitude": 10.6918,
    "longitude": -61.2225,
    "name": "Trinidad and Tobago",
    "country": "TT",
    "dead": 0,
    "lastUpdated": "2020-03-19T18:13:10.298Z",
    "id": "lfLdfRP7hyiA6MVnQqqn",
    "infected": 9,
    "recovered": 0,
    "sick": 9
  },
  {
    "infected": 76,
    "recovered": 73,
    "latitude": 42.524635,
    "longitude": 87.539589,
    "name": "Xinjiang",
    "country": "CN",
    "dead": 3,
    "lastUpdated": "2020-03-19T07:46:49.164Z",
    "id": "lhPjpn6CzqTRDN0RW8uE",
    "sick": 0
  },
  {
    "latitude": 3.2028,
    "longitude": 73.2207,
    "name": "Maldives",
    "country": "MV",
    "dead": 0,
    "lastUpdated": "2020-03-19T18:13:10.458Z",
    "id": "m45gI2UbWMuTrOnTtp9k",
    "infected": 13,
    "recovered": 0,
    "sick": 13
  },
  {
    "infected": 1,
    "recovered": 0,
    "latitude": 41.9029,
    "longitude": 12.4534,
    "name": "Vatican City",
    "country": "VA",
    "dead": 0,
    "lastUpdated": "2020-03-19T18:13:10.554Z",
    "id": "mF7rVMdVnazAuw8G22xs",
    "sick": 1
  },
  {
    "longitude": 75.7139,
    "name": "Maharashtra",
    "country": "IN",
    "dead": 1,
    "lastUpdated": "2020-03-19T18:04:02.685Z",
    "id": "mJtdLs4ub6CkcAOeMWUm",
    "infected": 47,
    "recovered": 0,
    "latitude": 19.7515,
    "sick": 46
  },
  {
    "dead": 0,
    "lastUpdated": "2020-03-19T18:13:09.466Z",
    "id": "mSACWVbCy5QE7ciLA93J",
    "infected": 342,
    "recovered": 0,
    "latitude": -33.4489,
    "longitude": -70.6693,
    "name": "Chile",
    "country": "CL",
    "sick": 342
  },
  {
    "id": "mnew3ojzmWV0dWSPfCQ9",
    "infected": 6,
    "recovered": 0,
    "latitude": -6.369,
    "longitude": 34.8888,
    "name": "Tanzania",
    "country": "TZ",
    "dead": 0,
    "lastUpdated": "2020-03-19T18:13:10.483Z",
    "sick": 6
  },
  {
    "infected": 100,
    "recovered": 0,
    "latitude": 35.693323,
    "longitude": -86.605748,
    "name": "Tennessee",
    "country": "US",
    "dead": 0,
    "lastUpdated": "2020-03-19T18:12:01.636Z",
    "id": "nLhJXE2apq8yNNj363ai",
    "sick": 100
  },
  {
    "dead": 0,
    "lastUpdated": "2020-03-19T18:13:10.498Z",
    "id": "oB5fSyjWJ0FbNAkssuci",
    "infected": 6,
    "recovered": 0,
    "latitude": -4.6796,
    "longitude": 55.492,
    "name": "Seychelles",
    "country": "SC",
    "sick": 6
  },
  {
    "recovered": 2,
    "latitude": 31.893778,
    "longitude": -6.196132,
    "name": "Morocco",
    "country": "MA",
    "dead": 2,
    "lastUpdated": "2020-03-19T18:13:10.050Z",
    "id": "oJ5vSDE9vgXC2PG8LElp",
    "infected": 61,
    "sick": 57
  },
  {
    "infected": 665,
    "recovered": 0,
    "latitude": 50.4801,
    "longitude": 2.7937,
    "name": "Hauts-de-France",
    "country": "FR",
    "dead": 46,
    "lastUpdated": "2020-03-19T18:10:07.448Z",
    "id": "ofWLu9EuQoK2nHjwU1mA",
    "sick": 619
  },
  {
    "infected": 94,
    "recovered": 8,
    "latitude": -20.917574,
    "longitude": 142.702789,
    "name": "Queensland",
    "country": "AU",
    "dead": 0,
    "lastUpdated": "2020-03-19T18:10:02.432Z",
    "id": "oxz2l1rJipCsfMfy8Mmk",
    "sick": 86
  },
  {
    "latitude": 47.121647,
    "longitude": 128.738235,
    "name": "Heilongjiang",
    "country": "CN",
    "dead": 13,
    "lastUpdated": "2020-03-19T07:48:17.613Z",
    "id": "p1aZboN4BtRJe7hPl8cw",
    "infected": 483,
    "recovered": 460,
    "sick": 10
  },
  {
    "latitude": 32.026379,
    "longitude": 117.252747,
    "name": "Anhui",
    "country": "CN",
    "dead": 6,
    "lastUpdated": "2020-03-19T07:50:59.860Z",
    "id": "pFhBwPnGGpQ6DLppJ6YS",
    "infected": 990,
    "recovered": 984,
    "sick": 0
  },
  {
    "infected": 1,
    "recovered": 0,
    "latitude": 2.046934,
    "longitude": 45.318161,
    "name": "Somalia",
    "country": "SO",
    "dead": 0,
    "lastUpdated": "2020-03-19T18:13:10.522Z",
    "id": "pHrUAOBW5WDdMsVWpEEi",
    "sick": 1
  },
  {
    "infected": 40,
    "recovered": 0,
    "latitude": 38.9072,
    "longitude": -77.0369,
    "name": "Washington, D.C.",
    "country": "US",
    "dead": 0,
    "lastUpdated": "2020-03-19T18:12:01.659Z",
    "id": "q5cfvHprVTraL1yXnhDx",
    "sick": 40
  },
  {
    "latitude": -26.190439,
    "longitude": 123.325947,
    "name": "Western Australia",
    "country": "AU",
    "dead": 1,
    "lastUpdated": "2020-03-19T18:10:02.418Z",
    "id": "qnQ0dkxAxnDP01YpdZgk",
    "infected": 35,
    "recovered": 0,
    "sick": 34
  },
  {
    "infected": 1795,
    "recovered": 31,
    "latitude": 50.503887,
    "longitude": 4.469936,
    "name": "Belgium",
    "country": "BE",
    "dead": 21,
    "lastUpdated": "2020-03-19T12:58:03.272Z",
    "id": "qpAxVz0garcS0gNZxtOw",
    "sick": 1743
  },
  {
    "recovered": 0,
    "latitude": 39,
    "longitude": -80.5,
    "name": "West Virginia",
    "country": "US",
    "dead": 0,
    "lastUpdated": "2020-03-19T12:27:21.865Z",
    "id": "qrYN2o4c4gAK3ffF5JIw",
    "infected": 2,
    "sick": 2
  },
  {
    "dead": 3,
    "lastUpdated": "2020-03-19T16:12:01.910Z",
    "id": "qsrWiq0qCmIG66hpWojP",
    "infected": 223,
    "recovered": 0,
    "latitude": 31,
    "longitude": -100,
    "name": "Texas",
    "country": "US",
    "sick": 220
  },
  {
    "infected": 574,
    "recovered": 1,
    "latitude": 43.9352,
    "longitude": 6.0679,
    "name": "Provence-Alpes-Côte d'Azur",
    "country": "FR",
    "dead": 1,
    "lastUpdated": "2020-03-19T07:45:46.845Z",
    "id": "qyX9xXEuKg3co8yKe3Fl",
    "sick": 572
  },
  {
    "dead": 7,
    "lastUpdated": "2020-03-19T18:12:01.734Z",
    "id": "qzuktS0qQVU4PEookjss",
    "infected": 347,
    "recovered": 0,
    "latitude": 30.9843,
    "longitude": -91.9623,
    "name": "Louisiana",
    "country": "US",
    "sick": 340
  },
  {
    "latitude": 12.5211,
    "longitude": -69.9683,
    "name": "Aruba",
    "country": "AW",
    "dead": 0,
    "lastUpdated": "2020-03-19T18:13:10.531Z",
    "id": "rKbrli0DkAmp1UpbrqHQ",
    "infected": 5,
    "recovered": 1,
    "sick": 4
  },
  {
    "dead": 0,
    "lastUpdated": "2020-03-19T18:13:09.509Z",
    "id": "rKnSEyG03ak4YmGzonlg",
    "infected": 76,
    "recovered": 16,
    "latitude": 14.058324,
    "longitude": 108.277199,
    "name": "Vietnam",
    "country": "VN",
    "sick": 60
  },
  {
    "latitude": 1.6508009,
    "longitude": 10.2678947,
    "name": "Equatorial Guinea",
    "country": "GQ",
    "dead": 0,
    "lastUpdated": "2020-03-19T18:13:10.648Z",
    "id": "rS04qvFoAknfeZsL2w5f",
    "infected": 4,
    "recovered": 0,
    "sick": 4
  },
  {
    "longitude": 45.1662,
    "name": "Mayotte",
    "country": "FR",
    "dead": 0,
    "lastUpdated": "2020-03-19T18:13:10.562Z",
    "id": "rUQ6Z3pmWTPVlqEUSmN7",
    "infected": 3,
    "recovered": 0,
    "latitude": -12.8275,
    "sick": 3
  },
  {
    "latitude": 29.159849,
    "longitude": 120.326447,
    "name": "Zhejiang",
    "country": "CN",
    "dead": 1,
    "lastUpdated": "2020-03-19T07:49:45.041Z",
    "id": "rgBVJ4hPofqjjchnroiY",
    "infected": 1234,
    "recovered": 1217,
    "sick": 16
  },
  {
    "id": "rxSafpWsyKhfkV0HTtb4",
    "infected": 1754,
    "recovered": 1,
    "latitude": 60.472023,
    "longitude": 8.468946,
    "name": "Norway",
    "country": "NO",
    "dead": 7,
    "lastUpdated": "2020-03-19T18:13:09.923Z",
    "sick": 1746
  },
  {
    "infected": 119,
    "recovered": 0,
    "latitude": 53.9333,
    "longitude": -116.5765,
    "name": "Alberta",
    "country": "CA",
    "dead": 0,
    "lastUpdated": "2020-03-19T18:12:01.745Z",
    "id": "sBFMOzZJdrdXdyLZpweO",
    "sick": 119
  },
  {
    "infected": 168,
    "recovered": 161,
    "latitude": 19.566395,
    "longitude": 109.949684,
    "name": "Hainan",
    "country": "CN",
    "dead": 6,
    "lastUpdated": "2020-03-19T07:49:07.143Z",
    "id": "sKNhMvgXeyivpNFg02RA",
    "sick": 1
  },
  {
    "dead": 0,
    "lastUpdated": "2020-03-19T18:13:10.002Z",
    "id": "sLL1jETcJYjT6g5bfcEG",
    "infected": 234,
    "recovered": 1,
    "latitude": -10.33755,
    "longitude": -75.630295,
    "name": "Peru",
    "country": "PE",
    "sick": 233
  },
  {
    "longitude": 114.904221,
    "name": "Hebei",
    "country": "CN",
    "dead": 6,
    "lastUpdated": "2020-03-19T07:48:01.533Z",
    "id": "sgsBhTwHxF1VVnqXbXXp",
    "infected": 318,
    "recovered": 310,
    "latitude": 37.89566,
    "sick": 2
  },
  {
    "recovered": 1,
    "latitude": 42.3154,
    "longitude": 43.3569,
    "name": "Georgia",
    "country": "GE",
    "dead": 0,
    "lastUpdated": "2020-03-19T18:13:10.031Z",
    "id": "sjW9OwjFqrOvjVHRXWoR",
    "infected": 40,
    "sick": 39
  },
  {
    "dead": 0,
    "lastUpdated": "2020-03-19T18:13:10.626Z",
    "id": "t2fq7L9UcXfhuXfQNVRj",
    "infected": 11,
    "recovered": 0,
    "latitude": -23.4425,
    "longitude": -58.4438,
    "name": "Paraguay",
    "country": "PY",
    "sick": 11
  },
  {
    "dead": 0,
    "lastUpdated": "2020-03-19T18:12:01.667Z",
    "id": "tSmr8vNsiDhhpXMSBsms",
    "infected": 66,
    "recovered": 0,
    "latitude": 39.147061,
    "longitude": -111.596466,
    "name": "Utah",
    "country": "US",
    "sick": 66
  },
  {
    "dead": 4,
    "lastUpdated": "2020-03-19T07:50:45.771Z",
    "id": "tdNRDDrgvBQqqwzdFGh4",
    "infected": 1018,
    "recovered": 1014,
    "latitude": 27.3818,
    "longitude": 111.510681,
    "name": "Hunan",
    "country": "CN",
    "sick": 0
  },
  {
    "dead": 2,
    "lastUpdated": "2020-03-19T07:47:01.847Z",
    "id": "tyY4QSHWG9sXqSO9jm0Y",
    "infected": 146,
    "recovered": 144,
    "latitude": 26.842964,
    "longitude": 107.290283,
    "name": "Guizhou",
    "country": "CN",
    "sick": 0
  },
  {
    "infected": 3,
    "recovered": 0,
    "latitude": -20.2067,
    "longitude": 57.6755,
    "name": "Mauritius",
    "country": "MU",
    "dead": 0,
    "lastUpdated": "2020-03-19T18:13:10.469Z",
    "id": "uZg9Xtu4zR5tp12TMpOQ",
    "sick": 3
  },
  {
    "latitude": 29.0588,
    "longitude": 76.0856,
    "name": "Haryana",
    "country": "IN",
    "dead": 0,
    "lastUpdated": "2020-03-19T18:04:02.680Z",
    "id": "ubUuY89n0cXVgahI4Ytp",
    "infected": 17,
    "recovered": 0,
    "sick": 17
  },
  {
    "latitude": 32.93708,
    "longitude": 119.151932,
    "name": "Jiangsu",
    "country": "CN",
    "dead": 0,
    "lastUpdated": "2020-03-19T07:47:30.883Z",
    "id": "uvxN28EpGmRq3K9REtBP",
    "infected": 631,
    "recovered": 631,
    "sick": 0
  },
  {
    "infected": 174,
    "recovered": 0,
    "latitude": 51.9503,
    "longitude": 11.6923,
    "name": "Sachsen-Anhalt",
    "country": "DE",
    "dead": 0,
    "lastUpdated": "2020-03-19T18:12:02.833Z",
    "id": "uxAceZxiizwmo60pyyGn",
    "sick": 174
  },
  {
    "infected": 4,
    "recovered": 0,
    "latitude": 33.7782,
    "longitude": 76.5762,
    "name": "Jammu and Kashmir",
    "country": "IN",
    "dead": 0,
    "lastUpdated": "2020-03-19T18:04:02.676Z",
    "id": "v5wfBhxjYTpTMaKko6AW",
    "sick": 4
  },
  {
    "dead": 6,
    "lastUpdated": "2020-03-19T18:13:10.057Z",
    "id": "v8JcH4FHH7BDpJlNNHjv",
    "infected": 210,
    "recovered": 28,
    "latitude": 26.820553,
    "longitude": 30.802498,
    "name": "Egypt",
    "country": "EG",
    "sick": 176
  },
  {
    "longitude": -119.928431,
    "name": "Washington",
    "country": "US",
    "dead": 68,
    "lastUpdated": "2020-03-19T18:12:01.712Z",
    "id": "vCUVQn7RK8pkw5y2rvYN",
    "infected": 1187,
    "recovered": 0,
    "latitude": 47.288374,
    "sick": 1119
  },
  {
    "latitude": 18.1096,
    "longitude": -77.2975,
    "name": "Jamaica",
    "country": "JM",
    "dead": 1,
    "lastUpdated": "2020-03-19T18:13:10.597Z",
    "id": "vMGALmMJbagxGIbLyFfS",
    "infected": 15,
    "recovered": 2,
    "sick": 12
  },
  {
    "dead": 0,
    "lastUpdated": "2020-03-19T18:12:01.673Z",
    "id": "vSMJR4m49MZM15umlC9B",
    "infected": 68,
    "recovered": 0,
    "latitude": 32.3182,
    "longitude": -86.9023,
    "name": "Alabama",
    "country": "US",
    "sick": 68
  },
  {
    "latitude": 48.8499,
    "longitude": 2.637,
    "name": "Île-de-France",
    "country": "FR",
    "dead": 11,
    "lastUpdated": "2020-03-19T07:46:05.106Z",
    "id": "vSwFXxTSLgzsG25zOJUy",
    "infected": 2693,
    "recovered": 5,
    "sick": 2677
  },
  {
    "latitude": 46.5107,
    "longitude": -63.4168,
    "name": "Prince Edward Island",
    "country": "CA",
    "dead": 0,
    "lastUpdated": "2020-03-19T07:52:57.310Z",
    "id": "vjK6292ALJl5wq8XHw3P",
    "infected": 1,
    "recovered": 0,
    "sick": 1
  },
  {
    "dead": 1284,
    "lastUpdated": "2020-03-19T18:13:09.919Z",
    "id": "vkkXVaqUswO5JsMZx0mX",
    "infected": 18407,
    "recovered": 5979,
    "latitude": 32.42791,
    "longitude": 53.688046,
    "name": "Iran",
    "country": "IR",
    "sick": 11144
  },
  {
    "latitude": 53.7609,
    "longitude": -98.8139,
    "name": "Manitoba",
    "country": "CA",
    "dead": 0,
    "lastUpdated": "2020-03-19T18:12:01.699Z",
    "id": "wCnlOr8oX3DlF0otQrFc",
    "infected": 17,
    "recovered": 0,
    "sick": 17
  },
  {
    "latitude": -34.6037,
    "longitude": -58.3816,
    "name": "Argentina",
    "country": "AR",
    "dead": 3,
    "lastUpdated": "2020-03-19T18:13:10.018Z",
    "id": "wEl0cjiA6OcZiI9kaSsF",
    "infected": 97,
    "recovered": 3,
    "sick": 91
  },
  {
    "infected": 164,
    "recovered": 0,
    "latitude": 44.3148,
    "longitude": -85.6024,
    "name": "Michigan",
    "country": "US",
    "dead": 3,
    "lastUpdated": "2020-03-19T18:12:01.714Z",
    "id": "wgRwpPMGBaKLAl1xo1C7",
    "sick": 161
  },
  {
    "latitude": 21.287261,
    "longitude": -157.838954,
    "name": "Hawaii",
    "country": "US",
    "dead": 0,
    "lastUpdated": "2020-03-19T18:12:01.711Z",
    "id": "wi47s9vKxiMqxfgurj3B",
    "infected": 16,
    "recovered": 0,
    "sick": 16
  },
  {
    "dead": 4,
    "lastUpdated": "2020-03-19T18:13:09.944Z",
    "id": "xFgM48q8JxVPfvQLQDNb",
    "infected": 149,
    "recovered": 4,
    "latitude": 34.08267,
    "longitude": 35.918113,
    "name": "Lebanon",
    "country": "LB",
    "sick": 141
  },
  {
    "infected": 12,
    "recovered": 1,
    "latitude": 9.081999,
    "longitude": 8.675277,
    "name": "Nigeria",
    "country": "NG",
    "dead": 0,
    "lastUpdated": "2020-03-19T18:13:10.508Z",
    "id": "xHWPTTpNHEwWv6MqfxP5",
    "sick": 11
  },
  {
    "longitude": -101.002,
    "name": "North Dakota",
    "country": "US",
    "dead": 0,
    "lastUpdated": "2020-03-19T18:12:01.743Z",
    "id": "xQpNodSQfHNHAtG9Onnj",
    "infected": 7,
    "recovered": 0,
    "latitude": 47.5515,
    "sick": 7
  },
  {
    "dead": 0,
    "lastUpdated": "2020-03-19T18:12:01.771Z",
    "id": "xSHgaJlyPxHFWB6hhyng",
    "infected": 116,
    "recovered": 0,
    "latitude": 44.5,
    "longitude": -89.5,
    "name": "Wisconsin",
    "country": "US",
    "sick": 116
  },
  {
    "dead": 0,
    "lastUpdated": "2020-03-19T18:13:09.910Z",
    "id": "xY69Nr3VSiZCwD2Qp0SD",
    "infected": 7,
    "recovered": 0,
    "latitude": 9.145,
    "longitude": 40.4897,
    "name": "Ethiopia",
    "country": "ET",
    "sick": 7
  },
  {
    "longitude": 18.4904,
    "name": "Namibia",
    "country": "NA",
    "dead": 0,
    "lastUpdated": "2020-03-19T18:13:10.662Z",
    "id": "xtX46kxBlEapOMdD1Emh",
    "infected": 2,
    "recovered": 0,
    "latitude": -22.95763,
    "sick": 2
  },
  {
    "dead": 0,
    "lastUpdated": "2020-03-19T18:12:02.924Z",
    "id": "y0d3PQgXJXdKsxweTIWv",
    "infected": 80,
    "recovered": 3,
    "latitude": 53.0793,
    "longitude": 8.8017,
    "name": "Bremen",
    "country": "DE",
    "sick": 77
  },
  {
    "infected": 6,
    "recovered": 0,
    "latitude": -17.6797,
    "longitude": -149.4068,
    "name": "Polynésie française",
    "country": "FR",
    "dead": 0,
    "lastUpdated": "2020-03-19T18:13:10.676Z",
    "id": "yOfFKDRrscqcZ85WMRqF",
    "sick": 6
  },
  {
    "infected": 3,
    "recovered": 0,
    "latitude": 12.1696,
    "longitude": -68.99,
    "name": "Curaçao",
    "country": "CW",
    "dead": 1,
    "lastUpdated": "2020-03-19T18:13:10.594Z",
    "id": "z0KDu61I2qPILneW2Lih",
    "sick": 2
  },
  {
    "infected": 11,
    "recovered": 0,
    "latitude": 46.5653,
    "longitude": -66.4619,
    "name": "New Brunswick",
    "country": "CA",
    "dead": 0,
    "lastUpdated": "2020-03-19T18:12:01.685Z",
    "id": "z1Vx0y33oMGoeJSuS8Ui",
    "sick": 11
  },
  {
    "longitude": -78.183403,
    "name": "Ecuador",
    "country": "EC",
    "dead": 3,
    "lastUpdated": "2020-03-19T18:13:10.139Z",
    "id": "zC03Urt1iJJb2Tf6p0jd",
    "infected": 199,
    "recovered": 1,
    "latitude": -1.831239,
    "sick": 195
  },
  {
    "latitude": 15.870032,
    "longitude": 100.992538,
    "name": "Thailand",
    "country": "TH",
    "dead": 1,
    "lastUpdated": "2020-03-19T18:13:10.112Z",
    "id": "zvdC0u72Bk5YKNaazZFZ",
    "infected": 272,
    "recovered": 42,
    "sick": 229
  },
  {
    "longitude": 21.0059,
    "name": "Serbia",
    "country": "RS",
    "dead": 0,
    "lastUpdated": "2020-03-19T18:13:10.126Z",
    "id": "zyxFwuiyCJHhRyNEg60C",
    "infected": 103,
    "recovered": 1,
    "latitude": 44.0165,
    "sick": 102
  }
]