[
  {
    "recovered": 0,
    "latitude": 25.315058,
    "longitude": 51.145517,
    "name": "Qatar",
    "country": "QA",
    "dead": 0,
    "lastUpdated": "2020-03-10T05:16:01.933Z",
    "id": "0m4aECS0Z2DGFEr8ldgI",
    "hide": false,
    "infected": 18,
    "sick": 18
  },
  {
    "dead": 1,
    "lastUpdated": "2020-03-10T03:42:09.825Z",
    "id": "0x2HLhr5z5xAtEdO4iZm",
    "hide": false,
    "infected": 245,
    "recovered": 227,
    "latitude": 35.64249,
    "longitude": 108.472214,
    "name": "Shaanxi",
    "country": "CN",
    "sick": 17
  },
  {
    "hide": false,
    "infected": 4,
    "recovered": 0,
    "latitude": 41.643351,
    "longitude": 21.668393,
    "name": "North Macedonia",
    "country": "MK",
    "dead": 0,
    "lastUpdated": "2020-03-10T05:16:02.063Z",
    "id": "19MvIhipqTyYv1H37Upw",
    "sick": 4
  },
  {
    "recovered": 18,
    "latitude": 35.801933,
    "longitude": 96.779286,
    "name": "Qinghai",
    "country": "CN",
    "dead": 0,
    "lastUpdated": "2020-03-10T03:41:43.192Z",
    "id": "1Fap7rZu9SIRqf5TG9Dg",
    "hide": false,
    "infected": 18,
    "sick": 0
  },
  {
    "dead": 0,
    "lastUpdated": "2020-03-10T05:16:01.909Z",
    "id": "1f0YoV0vAcexEhpESyZc",
    "hide": false,
    "infected": 25,
    "recovered": 0,
    "latitude": -14.235004,
    "longitude": -51.925282,
    "name": "Brazil",
    "country": "BR",
    "sick": 25
  },
  {
    "recovered": 1,
    "latitude": 30.15336,
    "longitude": 88.787865,
    "name": "Tibet",
    "country": "CN",
    "dead": 0,
    "lastUpdated": "2020-03-10T03:43:04.672Z",
    "id": "25qIBtsW2nfQj3pwBKg9",
    "hide": false,
    "infected": 1,
    "sick": 0
  },
  {
    "hide": false,
    "infected": 19,
    "recovered": 0,
    "latitude": -1.572184,
    "longitude": 115.66779,
    "name": "Indonesia",
    "country": "ID",
    "dead": 0,
    "lastUpdated": "2020-03-10T05:16:02.092Z",
    "id": "2KHYUb5t3lwzVVmDjwNX",
    "sick": 19
  },
  {
    "hide": false,
    "infected": 14,
    "recovered": 0,
    "latitude": 43.807191,
    "longitude": -120.585594,
    "name": "Oregon",
    "country": "US",
    "dead": 0,
    "lastUpdated": "2020-03-10T03:21:16.317Z",
    "id": "2OrsssmGUs4XCzaZzvTv",
    "sick": 14
  },
  {
    "longitude": 126.548103,
    "name": "Jilin",
    "country": "CN",
    "dead": 1,
    "lastUpdated": "2020-03-10T03:41:35.179Z",
    "id": "2jxHvSsxdnom0nPNvOT8",
    "hide": false,
    "infected": 93,
    "recovered": 91,
    "latitude": 43.851921,
    "sick": 1
  },
  {
    "hide": false,
    "infected": 1,
    "recovered": 1,
    "latitude": 36.1408,
    "longitude": -5.3536,
    "name": "Gibraltar",
    "country": "GI",
    "dead": 0,
    "lastUpdated": "2020-03-10T05:16:01.982Z",
    "id": "2p11BjSAs3wVyymgqBOe",
    "sick": 0
  },
  {
    "hide": false,
    "infected": 32,
    "recovered": 4,
    "latitude": 53.7267,
    "longitude": -127.6476,
    "name": "British Columbia",
    "country": "CA",
    "dead": 1,
    "lastUpdated": "2020-03-10T03:43:19.883Z",
    "id": "4hfZRUoUgI4a3vrG0GBk",
    "sick": 27
  },
  {
    "hide": false,
    "infected": 39,
    "recovered": 0,
    "latitude": 41.065877,
    "longitude": -7.920053,
    "name": "Portugal",
    "country": "PT",
    "dead": 0,
    "lastUpdated": "2020-03-10T05:16:02.104Z",
    "id": "4rQLxUCMmQLpbi6E9tbH",
    "sick": 39
  },
  {
    "latitude": 40.3426,
    "longitude": 47.93802,
    "name": "Azerbaijan",
    "country": "AZ",
    "dead": 0,
    "lastUpdated": "2020-03-10T05:16:01.979Z",
    "id": "4zqzRm2xHn0CDVOUQJ8p",
    "hide": false,
    "infected": 9,
    "recovered": 0,
    "sick": 9
  },
  {
    "hide": false,
    "infected": 48,
    "recovered": 4,
    "latitude": -31.253218,
    "longitude": 146.921097,
    "name": "New South Wales",
    "country": "AU",
    "dead": 3,
    "lastUpdated": "2020-03-10T03:45:00.830Z",
    "id": "5N16a2OXXRpsEFanw0TC",
    "sick": 41
  },
  {
    "id": "5gXZIjRgAvd6xWN1LOv8",
    "hide": false,
    "infected": 1,
    "recovered": 1,
    "latitude": 28.394857,
    "longitude": 84.124008,
    "name": "Nepal",
    "country": "NP",
    "dead": 0,
    "lastUpdated": "2020-03-10T05:16:02.065Z",
    "sick": 0
  },
  {
    "recovered": 2,
    "latitude": 12.879721,
    "longitude": 121.774017,
    "name": "Philippines",
    "country": "PH",
    "dead": 1,
    "lastUpdated": "2020-03-10T05:16:02.046Z",
    "id": "5pwmh7aSdGRKqRbnuyc0",
    "hide": false,
    "infected": 24,
    "sick": 21
  },
  {
    "latitude": 55.621011,
    "longitude": 23.804991,
    "name": "Lithuania",
    "country": "LT",
    "dead": 0,
    "lastUpdated": "2020-03-10T05:16:02.087Z",
    "id": "694ON7d0mRJDeM1gHBTR",
    "hide": false,
    "infected": 1,
    "recovered": 0,
    "sick": 1
  },
  {
    "longitude": 114.109497,
    "name": "Hong Kong",
    "country": "HK",
    "dead": 3,
    "lastUpdated": "2020-03-10T05:16:02.102Z",
    "id": "6IcHIIH0zXpY0POmBZTv",
    "hide": false,
    "infected": 116,
    "recovered": 59,
    "latitude": 22.396427,
    "sick": 54
  },
  {
    "latitude": 46.0569,
    "longitude": 14.5058,
    "name": "Slovenia",
    "country": "SI",
    "dead": 0,
    "lastUpdated": "2020-03-10T05:16:02.001Z",
    "id": "6ahNiyKDSDAftCctgLH3",
    "hide": false,
    "infected": 25,
    "recovered": 0,
    "sick": 25
  },
  {
    "longitude": -62.818544,
    "name": "Saint-Barthélemy",
    "country": "FR",
    "dead": 0,
    "lastUpdated": "2020-03-10T05:16:03.070Z",
    "id": "78Ox26bNHDA2Pk2b3Uwn",
    "hide": false,
    "infected": 1,
    "recovered": 0,
    "latitude": 17.901672,
    "sick": 1
  },
  {
    "longitude": 19.0402,
    "name": "Hungary",
    "country": "HU",
    "dead": 0,
    "lastUpdated": "2020-03-10T05:16:02.078Z",
    "id": "7rYC2iFB50c55Ihgbs4Q",
    "hide": false,
    "infected": 9,
    "recovered": 0,
    "latitude": 47.4979,
    "sick": 9
  },
  {
    "hide": false,
    "infected": 3,
    "recovered": 0,
    "latitude": 53.560281,
    "longitude": -113.487916,
    "name": "Edmonton",
    "country": "CA",
    "dead": 0,
    "lastUpdated": "2020-03-09T08:08:46.376Z",
    "id": "88Jeyxv0ccymGSIJLKsT",
    "sick": 3
  },
  {
    "id": "8C0d7WVCjyUGtnc2gUAR",
    "hide": false,
    "infected": 2,
    "recovered": 0,
    "latitude": 7.3697,
    "longitude": 12.3547,
    "name": "Cameroon",
    "country": "CM",
    "dead": 0,
    "lastUpdated": "2020-03-10T05:16:01.948Z",
    "sick": 2
  },
  {
    "longitude": 103.819839,
    "name": "Singapore",
    "country": "SG",
    "dead": 0,
    "lastUpdated": "2020-03-10T05:16:02.036Z",
    "id": "8pA3fM4xC2c2wv1b4TnE",
    "hide": false,
    "infected": 160,
    "recovered": 93,
    "latitude": 1.352083,
    "sick": 67
  },
  {
    "id": "9QcETqEcM2fTv9zRvx5T",
    "hide": false,
    "infected": 17,
    "recovered": 5,
    "latitude": 45.943161,
    "longitude": 24.966761,
    "name": "Romania",
    "country": "RO",
    "dead": 0,
    "lastUpdated": "2020-03-10T05:16:02.007Z",
    "sick": 12
  },
  {
    "recovered": 1,
    "latitude": 61.92411,
    "longitude": 25.748152,
    "name": "Finland",
    "country": "FI",
    "dead": 0,
    "lastUpdated": "2020-03-10T05:16:02.070Z",
    "id": "9p6OCdZbUUwBLA60Gk3W",
    "hide": false,
    "infected": 33,
    "sick": 32
  },
  {
    "longitude": -71.590315,
    "name": "New Hampshire",
    "country": "US",
    "dead": 0,
    "lastUpdated": "2020-03-10T03:22:05.492Z",
    "id": "A84CwQ52kA46Hr7pn6Bm",
    "hide": false,
    "infected": 6,
    "recovered": 0,
    "latitude": 43.311643,
    "sick": 6
  },
  {
    "hide": false,
    "infected": 3,
    "recovered": 0,
    "latitude": 41.823261,
    "longitude": -71.412257,
    "name": "Rhode Island",
    "country": "US",
    "dead": 0,
    "lastUpdated": "2020-03-10T03:21:35.005Z",
    "id": "AEUWUHS65qvjEslew11c",
    "sick": 3
  },
  {
    "latitude": 27.285971,
    "longitude": 116.01609,
    "name": "Jiangxi",
    "country": "CN",
    "dead": 1,
    "lastUpdated": "2020-03-10T03:35:01.461Z",
    "id": "AmBYm5J6E9Cuez1FQjiN",
    "hide": false,
    "infected": 935,
    "recovered": 927,
    "sick": 7
  },
  {
    "hide": false,
    "infected": 20,
    "recovered": 0,
    "latitude": 28.033886,
    "longitude": 1.659626,
    "name": "Algeria",
    "country": "DZ",
    "dead": 0,
    "lastUpdated": "2020-03-10T05:16:02.098Z",
    "id": "AwN0CScPDApcLFgz6e3z",
    "sick": 20
  },
  {
    "dead": 0,
    "lastUpdated": "2020-03-10T05:16:01.975Z",
    "id": "B05tcRxZlMUSyed5WcAA",
    "hide": false,
    "infected": 47,
    "recovered": 4,
    "latitude": 20.5937,
    "longitude": 78.9629,
    "name": "India",
    "country": "IN",
    "sick": 43
  },
  {
    "latitude": 45.099998,
    "longitude": 15.2,
    "name": "Croatia",
    "country": "HR",
    "dead": 0,
    "lastUpdated": "2020-03-10T05:16:01.978Z",
    "id": "B82Ef45M8cDu4q7VsSHF",
    "hide": false,
    "infected": 13,
    "recovered": 0,
    "sick": 13
  },
  {
    "recovered": 0,
    "latitude": 40.23985,
    "longitude": -100.996784,
    "name": "United States (Unknown State)",
    "country": "US",
    "dead": 0,
    "lastUpdated": "2020-03-10T03:21:04.711Z",
    "id": "BCFAwm0wjOZlbPfnttGd",
    "hide": false,
    "infected": 46,
    "sick": 46
  },
  {
    "hide": false,
    "infected": 6,
    "recovered": 0,
    "latitude": 39.509109,
    "longitude": -76.98432,
    "name": "Maryland",
    "country": "US",
    "dead": 0,
    "lastUpdated": "2020-03-10T03:22:47.939Z",
    "id": "BF51mWl51fgEcyBpCSzb",
    "sick": 6
  },
  {
    "latitude": 53.709808,
    "longitude": 27.953388,
    "name": "Belarus",
    "country": "BY",
    "dead": 0,
    "lastUpdated": "2020-03-10T05:16:01.950Z",
    "id": "BGg6yVU5VP71B8NXU0oh",
    "hide": false,
    "infected": 6,
    "recovered": 0,
    "sick": 6
  },
  {
    "hide": false,
    "infected": 6,
    "recovered": 2,
    "latitude": 33.42744,
    "longitude": -111.94012,
    "name": "Arizona",
    "country": "US",
    "dead": 0,
    "lastUpdated": "2020-03-10T03:20:15.542Z",
    "id": "BTEESCuD2ZbS1afunR2A",
    "sick": 4
  },
  {
    "longitude": -73.982597,
    "name": "New York",
    "country": "US",
    "dead": 0,
    "lastUpdated": "2020-03-10T03:21:25.269Z",
    "id": "C3BCUzV80z9GfiuByIcr",
    "hide": false,
    "infected": 143,
    "recovered": 0,
    "latitude": 40.719042,
    "sick": 143
  },
  {
    "dead": 0,
    "lastUpdated": "2020-03-10T05:16:01.895Z",
    "id": "C6S76AggdWVU8G22jFHQ",
    "hide": false,
    "infected": 38,
    "recovered": 0,
    "latitude": 49.731626,
    "longitude": 15.359413,
    "name": "Czechia",
    "country": "CZ",
    "sick": 38
  },
  {
    "id": "C7cj4nwRITs13KnaJrQ2",
    "hide": false,
    "infected": 109,
    "recovered": 22,
    "latitude": 26.0667,
    "longitude": 50.557701,
    "name": "Bahrain",
    "country": "BH",
    "dead": 0,
    "lastUpdated": "2020-03-10T05:16:02.002Z",
    "sick": 87
  },
  {
    "latitude": 52.355518,
    "longitude": -1.17432,
    "name": "United Kingdom",
    "country": "GB",
    "dead": 5,
    "lastUpdated": "2020-03-10T05:16:02.064Z",
    "id": "CrXu6i5Sqx11iwdfHfBs",
    "hide": false,
    "infected": 321,
    "recovered": 18,
    "sick": 298
  },
  {
    "hide": false,
    "infected": 1,
    "recovered": 0,
    "latitude": 40.259003,
    "longitude": 44.818474,
    "name": "Armenia",
    "country": "AM",
    "dead": 0,
    "lastUpdated": "2020-03-10T05:16:01.988Z",
    "id": "DCJCtZoBTWQ4mzdDNljD",
    "sick": 1
  },
  {
    "dead": 0,
    "lastUpdated": "2020-03-10T05:16:01.917Z",
    "id": "DdBt8qsG6A3g92oOR3ow",
    "hide": false,
    "infected": 10,
    "recovered": 10,
    "latitude": 22.192039,
    "longitude": 113.551262,
    "name": "Macao",
    "country": "MO",
    "sick": 0
  },
  {
    "dead": 0,
    "lastUpdated": "2020-03-10T05:16:02.019Z",
    "id": "Dtr1lap1RpJpXJdXGJiW",
    "hide": false,
    "infected": 84,
    "recovered": 0,
    "latitude": 40.6401,
    "longitude": 22.9444,
    "name": "Greece",
    "country": "GR",
    "sick": 84
  },
  {
    "hide": false,
    "infected": 45,
    "recovered": 15,
    "latitude": 25.03841,
    "longitude": 121.563698,
    "name": "Taiwan",
    "country": "TW",
    "dead": 1,
    "lastUpdated": "2020-03-10T05:16:01.990Z",
    "id": "EKTfs8e7M6DXzI1HqyyX",
    "sick": 29
  },
  {
    "dead": 0,
    "lastUpdated": "2020-03-10T05:16:01.973Z",
    "id": "EQzJvzVHKjs8kLmK7BMu",
    "hide": false,
    "infected": 9,
    "recovered": 0,
    "latitude": 10.327273,
    "longitude": -84.387618,
    "name": "Costa Rica",
    "country": "CR",
    "sick": 9
  },
  {
    "hide": false,
    "infected": 4,
    "recovered": 0,
    "latitude": 33.93911,
    "longitude": 67.709953,
    "name": "Afghanistan",
    "country": "AF",
    "dead": 0,
    "lastUpdated": "2020-03-10T05:16:01.965Z",
    "id": "FCDmlmnIIswd8bQiUjfN",
    "sick": 4
  },
  {
    "dead": 6,
    "lastUpdated": "2020-03-10T03:34:07.635Z",
    "id": "FErOU1m4Tj7jIkRam3vF",
    "hide": false,
    "infected": 576,
    "recovered": 542,
    "latitude": 29.431585,
    "longitude": 106.912254,
    "name": "Chongqing",
    "country": "CN",
    "sick": 28
  },
  {
    "hide": false,
    "infected": 65,
    "recovered": 1,
    "latitude": 29.311661,
    "longitude": 47.481766,
    "name": "Kuwait",
    "country": "KW",
    "dead": 0,
    "lastUpdated": "2020-03-10T05:16:01.995Z",
    "id": "FZsUkhxBEgqsPb4eO0PN",
    "sick": 64
  },
  {
    "hide": false,
    "infected": 5,
    "recovered": 0,
    "latitude": 18.947829,
    "longitude": -70.430399,
    "name": "Dominican Republic",
    "country": "DO",
    "dead": 0,
    "lastUpdated": "2020-03-10T05:16:02.003Z",
    "id": "FuiVEJvWb0QMCpxJ3563",
    "sick": 5
  },
  {
    "longitude": 19.699,
    "name": "Slovakia",
    "country": "SK",
    "dead": 0,
    "lastUpdated": "2020-03-10T05:16:01.947Z",
    "id": "FzIDXoqWnTI3nUfhPyT2",
    "hide": false,
    "infected": 7,
    "recovered": 0,
    "latitude": 48.669,
    "sick": 7
  },
  {
    "dead": 0,
    "lastUpdated": "2020-03-10T05:16:02.035Z",
    "id": "GAp7Wb6IMhdgbvEtMza9",
    "hide": false,
    "infected": 16,
    "recovered": 1,
    "latitude": 30.37532,
    "longitude": 69.345116,
    "name": "Pakistan",
    "country": "PK",
    "sick": 15
  },
  {
    "latitude": 23.424076,
    "longitude": 53.847816,
    "name": "United Arab Emirates",
    "country": "AE",
    "dead": 0,
    "lastUpdated": "2020-03-10T05:16:02.006Z",
    "id": "GHzBIsHy2GiBc5JV2HMs",
    "hide": false,
    "infected": 59,
    "recovered": 12,
    "sick": 47
  },
  {
    "latitude": 36.621981,
    "longitude": -119.339046,
    "name": "California",
    "country": "US",
    "dead": 2,
    "lastUpdated": "2020-03-10T03:20:28.787Z",
    "id": "Gh46r6vuaY7fbGt3IboN",
    "hide": false,
    "infected": 136,
    "recovered": 3,
    "sick": 131
  },
  {
    "recovered": 0,
    "latitude": 35.87189,
    "longitude": -97.145514,
    "name": "Oklahoma",
    "country": "US",
    "dead": 0,
    "lastUpdated": "2020-03-10T03:24:20.800Z",
    "id": "GpF8ULuKOQiFDCUHN44h",
    "hide": false,
    "infected": 1,
    "sick": 1
  },
  {
    "recovered": 70,
    "latitude": 42.83263,
    "longitude": 113.750972,
    "name": "Inner Mongolia",
    "country": "CN",
    "dead": 1,
    "lastUpdated": "2020-03-10T03:42:26.605Z",
    "id": "H3JeVigVbo5CSYfZG4WI",
    "hide": false,
    "infected": 75,
    "sick": 4
  },
  {
    "dead": 0,
    "lastUpdated": "2020-03-10T03:22:56.152Z",
    "id": "H3bDg4eV30up4WWrIDAS",
    "hide": false,
    "infected": 4,
    "recovered": 0,
    "latitude": 39.74536,
    "longitude": -116.724977,
    "name": "Nevada",
    "country": "US",
    "sick": 4
  },
  {
    "latitude": 27.5142,
    "longitude": 90.4336,
    "name": "Bhutan",
    "country": "BT",
    "dead": 0,
    "lastUpdated": "2020-03-10T05:16:01.926Z",
    "id": "HRDpwyxpqW9RN0xLFyNu",
    "hide": false,
    "infected": 1,
    "recovered": 0,
    "sick": 1
  },
  {
    "recovered": 4,
    "latitude": 23.634501,
    "longitude": -102.552788,
    "name": "Mexico",
    "country": "MX",
    "dead": 0,
    "lastUpdated": "2020-03-10T05:16:01.946Z",
    "id": "I4OJ6z9Vjs1byOcbsJrd",
    "hide": false,
    "infected": 7,
    "sick": 3
  },
  {
    "latitude": 23.363855,
    "longitude": 113.373448,
    "name": "Guangdong",
    "country": "CN",
    "dead": 8,
    "lastUpdated": "2020-03-10T03:35:12.910Z",
    "id": "IAX0OQLVnUwU7FX0ENF1",
    "hide": false,
    "infected": 1353,
    "recovered": 1270,
    "sick": 75
  },
  {
    "latitude": 33.875408,
    "longitude": 113.484016,
    "name": "Henan",
    "country": "CN",
    "dead": 22,
    "lastUpdated": "2020-03-10T03:34:17.569Z",
    "id": "IFuMrMvSjoiX5agYvllh",
    "hide": false,
    "infected": 1272,
    "recovered": 1247,
    "sick": 3
  },
  {
    "latitude": 32.528564,
    "longitude": -83.280125,
    "name": "Georgia (US)",
    "country": "US",
    "dead": 0,
    "lastUpdated": "2020-03-10T03:22:18.945Z",
    "id": "IvQkDJkTAsoIqPRAU25n",
    "hide": false,
    "infected": 13,
    "recovered": 0,
    "sick": 13
  },
  {
    "dead": 0,
    "lastUpdated": "2020-03-10T05:16:01.942Z",
    "id": "IvVhpOoGpH6JVkGyUhXN",
    "hide": false,
    "infected": 5,
    "recovered": 0,
    "latitude": -42.8285,
    "longitude": 172.488081,
    "name": "New Zealand",
    "country": "NZ",
    "sick": 5
  },
  {
    "id": "JcFsHSn2WvZ5LJW42ovG",
    "hide": false,
    "infected": 5,
    "recovered": 0,
    "latitude": 49.8153,
    "longitude": 6.1296,
    "name": "Luxembourg",
    "country": "LU",
    "dead": 0,
    "lastUpdated": "2020-03-10T05:16:01.931Z",
    "sick": 5
  },
  {
    "dead": 0,
    "lastUpdated": "2020-03-10T05:16:02.042Z",
    "id": "JrBbirlBKGdWSdcDt7PF",
    "hide": false,
    "infected": 1,
    "recovered": 0,
    "latitude": 8.6195,
    "longitude": 0.8248,
    "name": "Togo",
    "country": "TG",
    "sick": 1
  },
  {
    "hide": false,
    "infected": 4,
    "recovered": 0,
    "latitude": 42.7339,
    "longitude": 25.4858,
    "name": "Bulgaria",
    "country": "BG",
    "dead": 0,
    "lastUpdated": "2020-03-10T05:16:01.914Z",
    "id": "JzZ8sbqzjutThVjkPKPL",
    "sick": 4
  },
  {
    "longitude": 80.771797,
    "name": "Sri Lanka",
    "country": "LK",
    "dead": 0,
    "lastUpdated": "2020-03-10T05:16:02.039Z",
    "id": "KsWzJO06cf0d6LJ4ZNh9",
    "hide": false,
    "infected": 1,
    "recovered": 1,
    "latitude": 7.873054,
    "sick": 0
  },
  {
    "id": "KwOuGBKSMRlmwftxAvLX",
    "hide": false,
    "infected": 20,
    "recovered": 3,
    "latitude": 61.52401,
    "longitude": 105.318756,
    "name": "Russia",
    "country": "RU",
    "dead": 0,
    "lastUpdated": "2020-03-10T05:16:02.061Z",
    "sick": 17
  },
  {
    "latitude": 18.0708,
    "longitude": -63.0501,
    "name": "Saint-Martin",
    "country": "FR",
    "dead": 0,
    "lastUpdated": "2020-03-10T05:16:03.091Z",
    "id": "LBUtrLDKJiupXjlUNTUe",
    "hide": false,
    "infected": 2,
    "recovered": 0,
    "sick": 2
  },
  {
    "hide": false,
    "infected": 1,
    "recovered": 0,
    "latitude": 47.166,
    "longitude": 9.5554,
    "name": "Liechtenstein",
    "country": "LI",
    "dead": 0,
    "lastUpdated": "2020-03-10T05:16:02.048Z",
    "id": "LTGEU2E9MFkrCcFhZYVk",
    "sick": 1
  },
  {
    "hide": false,
    "infected": 6,
    "recovered": 0,
    "latitude": 37.8393,
    "longitude": -84.27,
    "name": "Kentucky",
    "country": "US",
    "dead": 0,
    "lastUpdated": "2020-03-10T03:23:22.101Z",
    "id": "MC8MXFw9iXYybnF8v7e6",
    "sick": 6
  },
  {
    "hide": false,
    "infected": 4,
    "recovered": 0,
    "latitude": 40.2672,
    "longitude": -86.1349,
    "name": "Indiana",
    "country": "US",
    "dead": 0,
    "lastUpdated": "2020-03-10T03:23:12.554Z",
    "id": "MOxDkmQ4wBi1CuAdVxDE",
    "sick": 4
  },
  {
    "hide": false,
    "infected": 75,
    "recovered": 71,
    "latitude": 37.330509,
    "longitude": 105.977203,
    "name": "Ningxia",
    "country": "CN",
    "dead": 0,
    "lastUpdated": "2020-03-10T03:42:44.485Z",
    "id": "MntmjjuHljarCdt6aIeE",
    "sick": 4
  },
  {
    "hide": false,
    "infected": 5,
    "recovered": 0,
    "latitude": 44.696652,
    "longitude": 17.824332,
    "name": "Bosnia and Herzegovina",
    "country": "BA",
    "dead": 0,
    "lastUpdated": "2020-03-10T05:16:02.052Z",
    "id": "N7c13sCQF0G789XAVazJ",
    "sick": 5
  },
  {
    "id": "NBRIGIRrJB1Ry8prDNAC",
    "hide": false,
    "infected": 133,
    "recovered": 130,
    "latitude": 37.242565,
    "longitude": 111.856857,
    "name": "Shanxi",
    "country": "CN",
    "dead": 0,
    "lastUpdated": "2020-03-10T03:42:19.074Z",
    "sick": 3
  },
  {
    "hide": false,
    "infected": 7,
    "recovered": 0,
    "latitude": 35.7596,
    "longitude": -79.0193,
    "name": "North Carolina",
    "country": "US",
    "dead": 0,
    "lastUpdated": "2020-03-10T03:23:55.488Z",
    "id": "NC64Qp5kTqAfiTuR27k8",
    "sick": 7
  },
  {
    "dead": 0,
    "lastUpdated": "2020-03-10T05:16:01.964Z",
    "id": "NmmMKy0YqA8StHdGzB5N",
    "hide": false,
    "infected": 6,
    "recovered": 1,
    "latitude": 56.96776,
    "longitude": 25.837107,
    "name": "Latvia",
    "country": "LV",
    "sick": 5
  },
  {
    "hide": false,
    "infected": 7,
    "recovered": 0,
    "latitude": 34.003307,
    "longitude": -80.525613,
    "name": "South Carolina",
    "country": "US",
    "dead": 0,
    "lastUpdated": "2020-03-10T03:24:29.265Z",
    "id": "ONU4CK8QjViFHKg2w5if",
    "sick": 7
  },
  {
    "latitude": -41.915264,
    "longitude": 146.725256,
    "name": "Tasmania",
    "country": "AU",
    "dead": 0,
    "lastUpdated": "2020-03-10T03:45:44.717Z",
    "id": "OnOseaqWdnuP18oruABW",
    "hide": false,
    "infected": 2,
    "recovered": 0,
    "sick": 2
  },
  {
    "dead": 0,
    "lastUpdated": "2020-03-10T03:23:43.774Z",
    "id": "PJvVYosLIhbcRZYnKX1R",
    "hide": false,
    "infected": 2,
    "recovered": 0,
    "latitude": 46.7296,
    "longitude": -94.6859,
    "name": "Minnesota",
    "country": "US",
    "sick": 2
  },
  {
    "dead": 0,
    "lastUpdated": "2020-03-10T03:20:04.466Z",
    "id": "PTwQr9ijo0TBBsPH2sdJ",
    "hide": false,
    "infected": 11,
    "recovered": 2,
    "latitude": 41.908724,
    "longitude": -87.631753,
    "name": "Illinois",
    "country": "US",
    "sick": 9
  },
  {
    "id": "Pr76V4raf108uSRoEXac",
    "hide": false,
    "infected": 5,
    "recovered": 0,
    "latitude": 34.201507,
    "longitude": 9.460554,
    "name": "Tunisia",
    "country": "TN",
    "dead": 0,
    "lastUpdated": "2020-03-10T05:16:01.985Z",
    "sick": 5
  },
  {
    "latitude": -37.009609,
    "longitude": 143.94853,
    "name": "Victoria",
    "country": "AU",
    "dead": 0,
    "lastUpdated": "2020-03-10T03:45:09.882Z",
    "id": "Q18mrGvFWTLX2BU9SqhQ",
    "hide": false,
    "infected": 15,
    "recovered": 7,
    "sick": 8
  },
  {
    "latitude": 58.595272,
    "longitude": 25.013607,
    "name": "Estonia",
    "country": "EE",
    "dead": 0,
    "lastUpdated": "2020-03-10T05:16:01.963Z",
    "id": "QR9go2hQKXjty7JHUYe4",
    "hide": false,
    "infected": 10,
    "recovered": 0,
    "sick": 10
  },
  {
    "latitude": 43.653225,
    "longitude": -79.383186,
    "name": "Toronto, ON",
    "country": "CA",
    "dead": 0,
    "lastUpdated": "2020-03-09T08:08:39.883Z",
    "id": "Rx4TuyMpfGb3S8wYJX0x",
    "hide": false,
    "infected": 28,
    "recovered": 3,
    "sick": 25
  },
  {
    "hide": false,
    "infected": 2,
    "recovered": 0,
    "latitude": 14.652027,
    "longitude": -61.011715,
    "name": "Martinique",
    "country": "FR",
    "dead": 0,
    "lastUpdated": "2020-03-10T05:16:03.096Z",
    "id": "SDdefnq1bc3ZNr7SpEsW",
    "sick": 2
  },
  {
    "latitude": 46.818188,
    "longitude": 8.227512,
    "name": "Switzerland",
    "country": "CH",
    "dead": 2,
    "lastUpdated": "2020-03-10T05:16:02.083Z",
    "id": "SGe9sCPayMqh6RsGFaBA",
    "hide": false,
    "infected": 374,
    "recovered": 3,
    "sick": 369
  },
  {
    "latitude": 45.505029,
    "longitude": -73.581878,
    "name": "Montreal",
    "country": "CA",
    "dead": 0,
    "lastUpdated": "2020-03-09T08:07:56.452Z",
    "id": "SHoOE3NiJgWAlDVBzwYH",
    "hide": false,
    "infected": 4,
    "recovered": 0,
    "sick": 4
  },
  {
    "latitude": 41.4925,
    "longitude": -99.9018,
    "name": "Nebraska",
    "country": "US",
    "dead": 0,
    "lastUpdated": "2020-03-10T03:23:35.097Z",
    "id": "SakhKQzKu1LRI8laqdQq",
    "hide": false,
    "infected": 3,
    "recovered": 0,
    "sick": 3
  },
  {
    "latitude": 12.565679,
    "longitude": 104.990967,
    "name": "Cambodia",
    "country": "KH",
    "dead": 0,
    "lastUpdated": "2020-03-10T05:16:01.945Z",
    "id": "SioMALgUbo7peXmbco2f",
    "hide": false,
    "infected": 2,
    "recovered": 1,
    "sick": 1
  },
  {
    "latitude": 23.635796,
    "longitude": 44.344334,
    "name": "Saudi Arabia",
    "country": "SA",
    "dead": 0,
    "lastUpdated": "2020-03-10T05:16:01.961Z",
    "id": "T7NffoeCgTUpAbOHvYwP",
    "hide": false,
    "infected": 20,
    "recovered": 1,
    "sick": 19
  },
  {
    "latitude": 39.318928,
    "longitude": -105.461392,
    "name": "Colorado",
    "country": "US",
    "dead": 0,
    "lastUpdated": "2020-03-10T03:22:37.822Z",
    "id": "Th4dlpXXmSDgi1OHs36P",
    "hide": false,
    "infected": 11,
    "recovered": 0,
    "sick": 11
  },
  {
    "latitude": 55.675758,
    "longitude": 12.56902,
    "name": "Denmark",
    "country": "DK",
    "dead": 0,
    "lastUpdated": "2020-03-10T05:16:01.938Z",
    "id": "Ty1AY3VLPJcRZgdBIERx",
    "hide": false,
    "infected": 90,
    "recovered": 1,
    "sick": 89
  },
  {
    "latitude": 36.395859,
    "longitude": 118.769882,
    "name": "Shandong",
    "country": "CN",
    "dead": 6,
    "lastUpdated": "2020-03-10T03:41:52.482Z",
    "id": "U0tkTJ9CGsBuFJ2Gdoum",
    "hide": false,
    "infected": 758,
    "recovered": 703,
    "sick": 49
  },
  {
    "dead": 2,
    "lastUpdated": "2020-03-10T05:16:01.983Z",
    "id": "U12rMD5GDW58Q0lIwrB1",
    "hide": false,
    "infected": 51,
    "recovered": 0,
    "latitude": 43.94236,
    "longitude": 12.457777,
    "name": "San Marino",
    "country": "SM",
    "sick": 49
  },
  {
    "hide": false,
    "infected": 530,
    "recovered": 101,
    "latitude": 36.204823,
    "longitude": 138.25293,
    "name": "Japan",
    "country": "JP",
    "dead": 9,
    "lastUpdated": "2020-03-10T05:16:01.952Z",
    "id": "U13Gy4BpRLAZ95bPmBXd",
    "sick": 420
  },
  {
    "latitude": 3.527606,
    "longitude": -72.998674,
    "name": "Colombia",
    "country": "CO",
    "dead": 0,
    "lastUpdated": "2020-03-10T05:16:02.066Z",
    "id": "VAAmtxtDuCY0o55zRsOh",
    "hide": false,
    "infected": 3,
    "recovered": 0,
    "sick": 3
  },
  {
    "longitude": 101.864143,
    "name": "Yunnan",
    "country": "CN",
    "dead": 2,
    "lastUpdated": "2020-03-10T03:38:49.705Z",
    "id": "VIf8T8PD3ZzlzAm5eBCX",
    "hide": false,
    "infected": 174,
    "recovered": 170,
    "latitude": 25.181129,
    "sick": 2
  },
  {
    "latitude": -30.5595,
    "longitude": 22.9375,
    "name": "South Africa",
    "country": "ZA",
    "dead": 0,
    "lastUpdated": "2020-03-10T05:16:02.067Z",
    "id": "Whrue10NtwIObLvFFyBr",
    "hide": false,
    "infected": 7,
    "recovered": 0,
    "sick": 7
  },
  {
    "recovered": 0,
    "latitude": 23.685,
    "longitude": 90.3563,
    "name": "Bangladesh",
    "country": "BD",
    "dead": 0,
    "lastUpdated": "2020-03-10T05:16:01.992Z",
    "id": "WpLayPPLIJ7VcHZdQaoM",
    "hide": false,
    "infected": 3,
    "sick": 3
  },
  {
    "hide": false,
    "infected": 296,
    "recovered": 295,
    "latitude": 25.92448,
    "longitude": 118.278992,
    "name": "Fujian",
    "country": "CN",
    "dead": 1,
    "lastUpdated": "2020-03-10T03:35:50.494Z",
    "id": "XBBw0iMPrmiEu3qogkbi",
    "sick": 0
  },
  {
    "recovered": 18,
    "latitude": 51.165691,
    "longitude": 10.451526,
    "name": "Germany",
    "country": "DE",
    "dead": 2,
    "lastUpdated": "2020-03-10T05:16:01.940Z",
    "id": "XWtMdKtp2HAFy68kPZLa",
    "hide": false,
    "infected": 1224,
    "sick": 1204
  },
  {
    "recovered": 724,
    "latitude": 41.871941,
    "longitude": 12.56738,
    "name": "Italy",
    "country": "IT",
    "dead": 463,
    "lastUpdated": "2020-03-10T05:16:02.050Z",
    "id": "XdekMZcw1lJK2MWpBlNK",
    "hide": false,
    "infected": 9172,
    "sick": 7985
  },
  {
    "hide": false,
    "infected": 25,
    "recovered": 0,
    "latitude": 31.9522,
    "longitude": 35.2332,
    "name": "Palestine",
    "country": "PS",
    "dead": 0,
    "lastUpdated": "2020-03-10T05:16:02.044Z",
    "id": "YMzKw0SnXG71VT7H1jff",
    "sick": 25
  },
  {
    "dead": 54,
    "lastUpdated": "2020-03-10T05:16:01.928Z",
    "id": "Yw9uBekNlefXBcOCNMfP",
    "hide": false,
    "infected": 7513,
    "recovered": 247,
    "latitude": 37.568291,
    "longitude": 126.99778,
    "name": "South Korea",
    "country": "KR",
    "sick": 7212
  },
  {
    "dead": 0,
    "lastUpdated": "2020-03-10T05:16:02.021Z",
    "id": "ZAZNuCK1VweBaTLCFzCk",
    "hide": false,
    "infected": 17,
    "recovered": 0,
    "latitude": 52.2297,
    "longitude": 21.0122,
    "name": "Poland",
    "country": "PL",
    "sick": 17
  },
  {
    "hide": false,
    "infected": 7,
    "recovered": 2,
    "latitude": -30.000233,
    "longitude": 136.209152,
    "name": "South Australia",
    "country": "AU",
    "dead": 0,
    "lastUpdated": "2020-03-10T03:45:30.208Z",
    "id": "a9p9pAOsjg1WAjPGc2a6",
    "sick": 5
  },
  {
    "recovered": 234,
    "latitude": 23.64407,
    "longitude": 108.26651,
    "name": "Guangxi",
    "country": "CN",
    "dead": 2,
    "lastUpdated": "2020-03-10T03:36:00.231Z",
    "id": "aTa8MiBjtH3iY0SRs2HQ",
    "hide": false,
    "infected": 256,
    "sick": 20
  },
  {
    "latitude": 37.4316,
    "longitude": -78.6569,
    "name": "Virginia",
    "country": "US",
    "dead": 0,
    "lastUpdated": "2020-03-10T03:25:38.110Z",
    "id": "afeZTVC1J1SMMNFxkrcc",
    "hide": false,
    "infected": 5,
    "recovered": 0,
    "sick": 5
  },
  {
    "hide": false,
    "infected": 429,
    "recovered": 320,
    "latitude": 39.904202,
    "longitude": 116.407394,
    "name": "Beijing",
    "country": "CN",
    "dead": 8,
    "lastUpdated": "2020-03-10T03:40:11.479Z",
    "id": "alj4hkxg9cjrTxOzwFKt",
    "sick": 101
  },
  {
    "latitude": 33.22319,
    "longitude": 43.679291,
    "name": "Iraq",
    "country": "IQ",
    "dead": 7,
    "lastUpdated": "2020-03-10T05:16:02.041Z",
    "id": "b7TwXX46FA0EmH1CjHET",
    "hide": false,
    "infected": 71,
    "recovered": 3,
    "sick": 61
  },
  {
    "id": "b9p1JhVml3GGC7iiPmKv",
    "hide": false,
    "infected": 4,
    "recovered": 1,
    "latitude": 14.457474,
    "longitude": -14.358636,
    "name": "Senegal",
    "country": "SN",
    "dead": 0,
    "lastUpdated": "2020-03-10T05:16:02.031Z",
    "sick": 3
  },
  {
    "latitude": 39.561889,
    "longitude": -74.672169,
    "name": "New Jersey",
    "country": "US",
    "dead": 0,
    "lastUpdated": "2020-03-10T03:22:28.475Z",
    "id": "bYp4RRHv19M7lYtSzQeV",
    "hide": false,
    "infected": 11,
    "recovered": 0,
    "sick": 11
  },
  {
    "longitude": 101.6869,
    "name": "Malaysia",
    "country": "MY",
    "dead": 0,
    "lastUpdated": "2020-03-10T05:16:01.951Z",
    "id": "bdqD4kpdqGgUaX70Tm2Q",
    "hide": false,
    "infected": 117,
    "recovered": 24,
    "latitude": 3.139,
    "sick": 93
  },
  {
    "dead": 0,
    "lastUpdated": "2020-03-10T05:16:02.072Z",
    "id": "bignnyt2A8BBx8VNo32p",
    "hide": false,
    "infected": 261,
    "recovered": 1,
    "latitude": 60.128162,
    "longitude": 18.643501,
    "name": "Sweden",
    "country": "SE",
    "sick": 260
  },
  {
    "hide": false,
    "infected": 65,
    "recovered": 1,
    "latitude": 64.963051,
    "longitude": -19.020836,
    "name": "Iceland",
    "country": "IS",
    "dead": 0,
    "lastUpdated": "2020-03-10T05:16:01.987Z",
    "id": "cPxe7nsRnOf6aOPqHElJ",
    "sick": 64
  },
  {
    "longitude": 34.851612,
    "name": "Israel",
    "country": "IL",
    "dead": 0,
    "lastUpdated": "2020-03-10T05:16:02.053Z",
    "id": "cX891t0ONLNFj0MYq6La",
    "hide": false,
    "infected": 50,
    "recovered": 4,
    "latitude": 31.046051,
    "sick": 46
  },
  {
    "latitude": 4.749531,
    "longitude": -53.112909,
    "name": "Guyane",
    "country": "FR",
    "dead": 0,
    "lastUpdated": "2020-03-10T05:16:03.072Z",
    "id": "cc7s6hYGQ2MovBBBgkKb",
    "hide": false,
    "infected": 5,
    "recovered": 0,
    "sick": 5
  },
  {
    "latitude": 61.8926,
    "longitude": -6.9118,
    "name": "Faeroe Islands",
    "country": "FO",
    "dead": 0,
    "lastUpdated": "2020-03-10T05:16:01.960Z",
    "id": "cgzd5EM8PZv5ziJtTz1w",
    "hide": false,
    "infected": 2,
    "recovered": 0,
    "sick": 2
  },
  {
    "longitude": -77.1945,
    "name": "Pennsylvania",
    "country": "US",
    "dead": 0,
    "lastUpdated": "2020-03-10T03:24:02.994Z",
    "id": "chj2FF3zb4Xxcop9RHre",
    "hide": false,
    "infected": 10,
    "recovered": 0,
    "latitude": 41.2033,
    "sick": 10
  },
  {
    "latitude": 40.463669,
    "longitude": -3.74922,
    "name": "Spain",
    "country": "ES",
    "dead": 30,
    "lastUpdated": "2020-03-10T05:16:02.097Z",
    "id": "d0ExINgPaWUBm3l4ioJL",
    "hide": false,
    "infected": 1231,
    "recovered": 32,
    "sick": 1169
  },
  {
    "hide": false,
    "infected": 1,
    "recovered": 0,
    "latitude": 42.50837,
    "longitude": 1.517155,
    "name": "Andorra",
    "country": "AD",
    "dead": 0,
    "lastUpdated": "2020-03-10T05:16:02.038Z",
    "id": "dedMXSYR2k92wkSXNZqn",
    "sick": 1
  },
  {
    "recovered": 2,
    "latitude": 47.516232,
    "longitude": 14.550072,
    "name": "Austria",
    "country": "AT",
    "dead": 0,
    "lastUpdated": "2020-03-10T05:16:02.071Z",
    "id": "e3BtI12qbqhE8jypOoZu",
    "hide": false,
    "infected": 131,
    "sick": 129
  },
  {
    "id": "e7P83iImanpd9r36oXK3",
    "hide": false,
    "infected": 125,
    "recovered": 110,
    "latitude": 41.097481,
    "longitude": 122.310669,
    "name": "Liaoning",
    "country": "CN",
    "dead": 1,
    "lastUpdated": "2020-03-10T03:40:42.032Z",
    "sick": 14
  },
  {
    "hide": false,
    "infected": 342,
    "recovered": 315,
    "latitude": 31.230391,
    "longitude": 121.473701,
    "name": "Shanghai",
    "country": "CN",
    "dead": 3,
    "lastUpdated": "2020-03-10T03:36:08.593Z",
    "id": "e9pQqQa7CEblCYoDtfKo",
    "sick": 24
  },
  {
    "hide": false,
    "infected": 41,
    "recovered": 1,
    "latitude": 42.360081,
    "longitude": -71.058884,
    "name": "Massachusetts",
    "country": "US",
    "dead": 0,
    "lastUpdated": "2020-03-10T03:16:22.129Z",
    "id": "eCKDGssww4pF7NrxOySu",
    "sick": 40
  },
  {
    "hide": false,
    "infected": 1,
    "recovered": 0,
    "latitude": 43.740451,
    "longitude": 7.432032,
    "name": "Monaco",
    "country": "MC",
    "dead": 0,
    "lastUpdated": "2020-03-10T05:16:02.029Z",
    "id": "eLgKPNUwYM5MNDAtF6ql",
    "sick": 1
  },
  {
    "latitude": 30.14208,
    "longitude": 102.960701,
    "name": "Sichuan",
    "country": "CN",
    "dead": 3,
    "lastUpdated": "2020-03-10T03:38:33.385Z",
    "id": "eyK5bxFkwdoAouIBvLFM",
    "hide": false,
    "infected": 539,
    "recovered": 470,
    "sick": 66
  },
  {
    "recovered": 9,
    "latitude": 21.473534,
    "longitude": 55.975414,
    "name": "Oman",
    "country": "OM",
    "dead": 0,
    "lastUpdated": "2020-03-10T05:16:02.032Z",
    "id": "f9kmlhYtc3WA3kjbWszW",
    "hide": false,
    "infected": 18,
    "sick": 9
  },
  {
    "hide": false,
    "infected": 1,
    "recovered": 0,
    "latitude": 31.295929,
    "longitude": 36.691952,
    "name": "Jordan",
    "country": "JO",
    "dead": 0,
    "lastUpdated": "2020-03-10T05:16:01.955Z",
    "id": "fK06AziL8wyrcoz7rsmJ",
    "sick": 1
  },
  {
    "id": "fNganaGVPifA4QahEQPS",
    "hide": false,
    "infected": 14,
    "recovered": 0,
    "latitude": 27.716933,
    "longitude": -81.555239,
    "name": "Florida",
    "country": "US",
    "dead": 2,
    "lastUpdated": "2020-03-10T03:21:43.358Z",
    "sick": 12
  },
  {
    "hide": false,
    "infected": 706,
    "recovered": 245,
    "latitude": 35.452016,
    "longitude": 139.664285,
    "name": "Diamond Princess (Cruise)",
    "country": "ZZ",
    "dead": 7,
    "lastUpdated": "2020-03-10T03:27:50.066Z",
    "id": "fNnE9CD0SttEVrCUo1Ym",
    "sick": 454
  },
  {
    "id": "fiJ14DCxw15e3SMemh8R",
    "hide": false,
    "infected": 67760,
    "recovered": 47585,
    "latitude": 31.160629,
    "longitude": 112.255402,
    "name": "Hubei",
    "country": "CN",
    "dead": 3024,
    "lastUpdated": "2020-03-10T03:34:33.065Z",
    "sick": 17151
  },
  {
    "latitude": 50.4501,
    "longitude": 30.5234,
    "name": "Ukraine",
    "country": "UA",
    "dead": 0,
    "lastUpdated": "2020-03-10T05:16:02.089Z",
    "id": "flbZ2kaR5kBuV8XZ2Nsu",
    "hide": false,
    "infected": 1,
    "recovered": 0,
    "sick": 1
  },
  {
    "longitude": 5.291266,
    "name": "Netherlands",
    "country": "NL",
    "dead": 4,
    "lastUpdated": "2020-03-10T05:16:01.971Z",
    "id": "g0lRMtEJbucWIGqSPn0I",
    "hide": false,
    "infected": 321,
    "recovered": 0,
    "latitude": 52.132633,
    "sick": 317
  },
  {
    "latitude": 42.984268,
    "longitude": -81.247528,
    "name": "London, ON",
    "country": "CA",
    "dead": 0,
    "lastUpdated": "2020-03-09T08:08:30.738Z",
    "id": "g93vYzplUjSlZyA1PNCo",
    "hide": false,
    "infected": 1,
    "recovered": 1,
    "sick": 0
  },
  {
    "recovered": 0,
    "latitude": 35.894231,
    "longitude": 14.432846,
    "name": "Malta",
    "country": "MT",
    "dead": 0,
    "lastUpdated": "2020-03-10T05:16:01.935Z",
    "id": "h9UqxYZ5xC4JZrmdDz0q",
    "hide": false,
    "infected": 4,
    "sick": 4
  },
  {
    "longitude": 104.28611,
    "name": "Gansu",
    "country": "CN",
    "dead": 2,
    "lastUpdated": "2020-03-10T03:40:01.848Z",
    "id": "iGkTscdD0XyHFSP23Qrp",
    "hide": false,
    "infected": 124,
    "recovered": 88,
    "latitude": 35.751835,
    "sick": 34
  },
  {
    "recovered": 130,
    "latitude": 39.343357,
    "longitude": 117.361649,
    "name": "Tianjin",
    "country": "CN",
    "dead": 3,
    "lastUpdated": "2020-03-10T03:41:13.150Z",
    "id": "jMlHjIOb7eMPSxFBrmG1",
    "hide": false,
    "infected": 136,
    "sick": 3
  },
  {
    "latitude": 53.3498,
    "longitude": -6.2603,
    "name": "Ireland",
    "country": "IE",
    "dead": 0,
    "lastUpdated": "2020-03-10T05:16:01.922Z",
    "id": "jpVXEDCyfyq26gPoCtHL",
    "hide": false,
    "infected": 24,
    "recovered": 0,
    "sick": 24
  },
  {
    "recovered": 73,
    "latitude": 42.524635,
    "longitude": 87.539589,
    "name": "Xinjiang",
    "country": "CN",
    "dead": 3,
    "lastUpdated": "2020-03-10T03:42:54.488Z",
    "id": "lhPjpn6CzqTRDN0RW8uE",
    "hide": false,
    "infected": 76,
    "sick": 0
  },
  {
    "longitude": 12.4534,
    "name": "Vatican City",
    "country": "VA",
    "dead": 0,
    "lastUpdated": "2020-03-10T05:16:02.079Z",
    "id": "mF7rVMdVnazAuw8G22xs",
    "hide": false,
    "infected": 1,
    "recovered": 0,
    "latitude": 41.9029,
    "sick": 1
  },
  {
    "longitude": -70.6693,
    "name": "Chile",
    "country": "CL",
    "dead": 0,
    "lastUpdated": "2020-03-10T05:16:01.903Z",
    "id": "mSACWVbCy5QE7ciLA93J",
    "hide": false,
    "infected": 13,
    "recovered": 0,
    "latitude": -33.4489,
    "sick": 13
  },
  {
    "dead": 0,
    "lastUpdated": "2020-03-10T03:23:04.946Z",
    "id": "nLhJXE2apq8yNNj363ai",
    "hide": false,
    "infected": 4,
    "recovered": 0,
    "latitude": 35.693323,
    "longitude": -86.605748,
    "name": "Tennessee",
    "country": "US",
    "sick": 4
  },
  {
    "longitude": -6.196132,
    "name": "Morocco",
    "country": "MA",
    "dead": 0,
    "lastUpdated": "2020-03-10T05:16:01.953Z",
    "id": "oJ5vSDE9vgXC2PG8LElp",
    "hide": false,
    "infected": 2,
    "recovered": 0,
    "latitude": 31.893778,
    "sick": 2
  },
  {
    "dead": 0,
    "lastUpdated": "2020-03-10T03:45:20.286Z",
    "id": "oxz2l1rJipCsfMfy8Mmk",
    "hide": false,
    "infected": 15,
    "recovered": 8,
    "latitude": -20.917574,
    "longitude": 142.702789,
    "name": "Queensland",
    "country": "AU",
    "sick": 7
  },
  {
    "dead": 13,
    "lastUpdated": "2020-03-10T03:40:52.591Z",
    "id": "p1aZboN4BtRJe7hPl8cw",
    "hide": false,
    "infected": 481,
    "recovered": 434,
    "latitude": 47.121647,
    "longitude": 128.738235,
    "name": "Heilongjiang",
    "country": "CN",
    "sick": 34
  },
  {
    "recovered": 984,
    "latitude": 32.026379,
    "longitude": 117.252747,
    "name": "Anhui",
    "country": "CN",
    "dead": 6,
    "lastUpdated": "2020-03-10T03:34:42.238Z",
    "id": "pFhBwPnGGpQ6DLppJ6YS",
    "hide": false,
    "infected": 990,
    "sick": 0
  },
  {
    "hide": false,
    "infected": 2,
    "recovered": 0,
    "latitude": 38.9072,
    "longitude": -77.0369,
    "name": "Washington, D.C",
    "country": "US",
    "dead": 0,
    "lastUpdated": "2020-03-10T03:26:33.098Z",
    "id": "q5cfvHprVTraL1yXnhDx",
    "sick": 2
  },
  {
    "latitude": -26.190439,
    "longitude": 123.325947,
    "name": "Western Australia",
    "country": "AU",
    "dead": 1,
    "lastUpdated": "2020-03-10T03:45:38.082Z",
    "id": "qnQ0dkxAxnDP01YpdZgk",
    "hide": false,
    "infected": 4,
    "recovered": 0,
    "sick": 3
  },
  {
    "hide": false,
    "infected": 239,
    "recovered": 1,
    "latitude": 50.503887,
    "longitude": 4.469936,
    "name": "Belgium",
    "country": "BE",
    "dead": 0,
    "lastUpdated": "2020-03-10T05:16:01.888Z",
    "id": "qpAxVz0garcS0gNZxtOw",
    "sick": 238
  },
  {
    "dead": 0,
    "lastUpdated": "2020-03-10T03:20:49.590Z",
    "id": "qsrWiq0qCmIG66hpWojP",
    "hide": false,
    "infected": 14,
    "recovered": 0,
    "latitude": 29.424122,
    "longitude": -98.493629,
    "name": "Texas",
    "country": "US",
    "sick": 14
  },
  {
    "longitude": 108.277199,
    "name": "Vietnam",
    "country": "VN",
    "dead": 0,
    "lastUpdated": "2020-03-10T05:16:02.059Z",
    "id": "rKnSEyG03ak4YmGzonlg",
    "hide": false,
    "infected": 31,
    "recovered": 16,
    "latitude": 14.058324,
    "sick": 15
  },
  {
    "id": "rgBVJ4hPofqjjchnroiY",
    "hide": false,
    "infected": 1215,
    "recovered": 1178,
    "latitude": 29.159849,
    "longitude": 120.326447,
    "name": "Zhejiang",
    "country": "CN",
    "dead": 1,
    "lastUpdated": "2020-03-10T03:38:42.405Z",
    "sick": 36
  },
  {
    "longitude": 8.468946,
    "name": "Norway",
    "country": "NO",
    "dead": 0,
    "lastUpdated": "2020-03-10T05:16:01.998Z",
    "id": "rxSafpWsyKhfkV0HTtb4",
    "hide": false,
    "infected": 227,
    "recovered": 1,
    "latitude": 60.472023,
    "sick": 226
  },
  {
    "hide": false,
    "infected": 1,
    "recovered": 0,
    "latitude": 51.048087,
    "longitude": -114.078022,
    "name": "Calgary",
    "country": "CA",
    "dead": 0,
    "lastUpdated": "2020-03-09T08:08:03.993Z",
    "id": "sBFMOzZJdrdXdyLZpweO",
    "sick": 1
  },
  {
    "latitude": 19.566395,
    "longitude": 109.949684,
    "name": "Hainan",
    "country": "CN",
    "dead": 6,
    "lastUpdated": "2020-03-10T03:40:20.262Z",
    "id": "sKNhMvgXeyivpNFg02RA",
    "hide": false,
    "infected": 168,
    "recovered": 159,
    "sick": 3
  },
  {
    "latitude": -10.33755,
    "longitude": -75.630295,
    "name": "Peru",
    "country": "PE",
    "dead": 0,
    "lastUpdated": "2020-03-10T05:16:02.017Z",
    "id": "sLL1jETcJYjT6g5bfcEG",
    "hide": false,
    "infected": 9,
    "recovered": 0,
    "sick": 9
  },
  {
    "longitude": 114.904221,
    "name": "Hebei",
    "country": "CN",
    "dead": 6,
    "lastUpdated": "2020-03-10T03:41:22.510Z",
    "id": "sgsBhTwHxF1VVnqXbXXp",
    "hide": false,
    "infected": 318,
    "recovered": 307,
    "latitude": 37.89566,
    "sick": 5
  },
  {
    "dead": 0,
    "lastUpdated": "2020-03-10T05:16:01.920Z",
    "id": "sjW9OwjFqrOvjVHRXWoR",
    "hide": false,
    "infected": 15,
    "recovered": 0,
    "latitude": 42.3154,
    "longitude": 43.3569,
    "name": "Georgia",
    "country": "GE",
    "sick": 15
  },
  {
    "hide": false,
    "infected": 1,
    "recovered": 0,
    "latitude": 39.147061,
    "longitude": -111.596466,
    "name": "Utah",
    "country": "US",
    "dead": 0,
    "lastUpdated": "2020-03-10T03:24:10.363Z",
    "id": "tSmr8vNsiDhhpXMSBsms",
    "sick": 1
  },
  {
    "longitude": 111.510681,
    "name": "Hunan",
    "country": "CN",
    "dead": 4,
    "lastUpdated": "2020-03-10T03:34:51.953Z",
    "id": "tdNRDDrgvBQqqwzdFGh4",
    "hide": false,
    "infected": 1018,
    "recovered": 988,
    "latitude": 27.3818,
    "sick": 26
  },
  {
    "recovered": 129,
    "latitude": 26.842964,
    "longitude": 107.290283,
    "name": "Guizhou",
    "country": "CN",
    "dead": 2,
    "lastUpdated": "2020-03-10T03:42:36.920Z",
    "id": "tyY4QSHWG9sXqSO9jm0Y",
    "hide": false,
    "infected": 146,
    "sick": 15
  },
  {
    "latitude": 32.93708,
    "longitude": 119.151932,
    "name": "Jiangsu",
    "country": "CN",
    "dead": 0,
    "lastUpdated": "2020-03-10T03:42:02.095Z",
    "id": "uvxN28EpGmRq3K9REtBP",
    "hide": false,
    "infected": 631,
    "recovered": 622,
    "sick": 9
  },
  {
    "dead": 1,
    "lastUpdated": "2020-03-10T05:16:02.027Z",
    "id": "v8JcH4FHH7BDpJlNNHjv",
    "hide": false,
    "infected": 59,
    "recovered": 1,
    "latitude": 26.820553,
    "longitude": 30.802498,
    "name": "Egypt",
    "country": "EG",
    "sick": 57
  },
  {
    "id": "vCUVQn7RK8pkw5y2rvYN",
    "hide": false,
    "infected": 167,
    "recovered": 1,
    "latitude": 47.288374,
    "longitude": -119.928431,
    "name": "Washington",
    "country": "US",
    "dead": 22,
    "lastUpdated": "2020-03-10T03:21:56.623Z",
    "sick": 144
  },
  {
    "latitude": 32.42791,
    "longitude": 53.688046,
    "name": "Iran",
    "country": "IR",
    "dead": 237,
    "lastUpdated": "2020-03-10T05:16:01.980Z",
    "id": "vkkXVaqUswO5JsMZx0mX",
    "hide": false,
    "infected": 7161,
    "recovered": 2394,
    "sick": 4530
  },
  {
    "latitude": -34.6037,
    "longitude": -58.3816,
    "name": "Argentina",
    "country": "AR",
    "dead": 1,
    "lastUpdated": "2020-03-10T05:16:01.991Z",
    "id": "wEl0cjiA6OcZiI9kaSsF",
    "hide": false,
    "infected": 17,
    "recovered": 0,
    "sick": 16
  },
  {
    "hide": false,
    "infected": 2,
    "recovered": 0,
    "latitude": 21.287261,
    "longitude": -157.838954,
    "name": "Hawaii",
    "country": "US",
    "dead": 0,
    "lastUpdated": "2020-03-10T03:25:16.967Z",
    "id": "wi47s9vKxiMqxfgurj3B",
    "sick": 2
  },
  {
    "latitude": 34.08267,
    "longitude": 35.918113,
    "name": "Lebanon",
    "country": "LB",
    "dead": 0,
    "lastUpdated": "2020-03-10T05:16:01.915Z",
    "id": "xFgM48q8JxVPfvQLQDNb",
    "hide": false,
    "infected": 41,
    "recovered": 1,
    "sick": 40
  },
  {
    "id": "xHWPTTpNHEwWv6MqfxP5",
    "hide": false,
    "infected": 2,
    "recovered": 0,
    "latitude": 9.081999,
    "longitude": 8.675277,
    "name": "Nigeria",
    "country": "NG",
    "dead": 0,
    "lastUpdated": "2020-03-10T05:16:02.068Z",
    "sick": 2
  },
  {
    "dead": 0,
    "lastUpdated": "2020-03-10T03:20:38.857Z",
    "id": "xSHgaJlyPxHFWB6hhyng",
    "hide": false,
    "infected": 2,
    "recovered": 1,
    "latitude": 43.073051,
    "longitude": -89.40123,
    "name": "Wisconsin",
    "country": "US",
    "sick": 1
  },
  {
    "latitude": 46.565366,
    "longitude": 2.693317,
    "name": "France (Métropole)",
    "country": "FR",
    "dead": 30,
    "lastUpdated": "2020-03-10T05:16:01.944Z",
    "id": "yXFfRqV9eQnNiCzS2k6w",
    "hide": false,
    "infected": 1412,
    "recovered": 12,
    "sick": 1370
  },
  {
    "longitude": -78.183403,
    "name": "Ecuador",
    "country": "EC",
    "dead": 0,
    "lastUpdated": "2020-03-10T05:16:02.025Z",
    "id": "zC03Urt1iJJb2Tf6p0jd",
    "hide": false,
    "infected": 15,
    "recovered": 0,
    "latitude": -1.831239,
    "sick": 15
  },
  {
    "dead": 1,
    "lastUpdated": "2020-03-10T05:16:01.930Z",
    "id": "zvdC0u72Bk5YKNaazZFZ",
    "hide": false,
    "infected": 50,
    "recovered": 33,
    "latitude": 15.870032,
    "longitude": 100.992538,
    "name": "Thailand",
    "country": "TH",
    "sick": 16
  },
  {
    "hide": false,
    "infected": 2,
    "recovered": 0,
    "latitude": 44.0165,
    "longitude": 21.0059,
    "name": "Serbia",
    "country": "RS",
    "dead": 0,
    "lastUpdated": "2020-03-10T05:16:02.077Z",
    "id": "zyxFwuiyCJHhRyNEg60C",
    "sick": 2
  }
]