[
  {
    "recovered": 27,
    "infected": 33,
    "id": "01b09TY4vmuZwzVuiRFK",
    "pop": 72600,
    "country": "CO",
    "longitude": -81.7006,
    "name": "San Andrés",
    "latitude": 12.5847,
    "dead": 0,
    "lastUpdated": "2020-07-25T07:21:46.911Z",
    "sick": 6,
    "invisible": false
  },
  {
    "name": "Guernsey",
    "alwaysShow": false,
    "latitude": 49.4482,
    "dead": 13,
    "lastUpdated": "2020-07-25T07:23:11.404Z",
    "recovered": 238,
    "infected": 252,
    "id": "0FOJefeLxQYXQ1CnJm9o",
    "pop": 63196,
    "country": "GG",
    "longitude": -2.5895,
    "sick": 1,
    "invisible": false
  },
  {
    "longitude": 14.333333,
    "name": "Campania",
    "latitude": 41.066666,
    "dead": 434,
    "lastUpdated": "2020-07-25T07:01:09.439Z",
    "recovered": 4114,
    "infected": 4880,
    "state": "72",
    "id": "0GJcws44NSPsDHAuxJhW",
    "pop": 5827000,
    "country": "IT",
    "sick": 332,
    "invisible": false
  },
  {
    "name": "Tarapacá",
    "latitude": -20.2167,
    "dead": 150,
    "lastUpdated": "2020-07-25T07:20:03.883Z",
    "recovered": 0,
    "infected": 8079,
    "id": "0HDQbiHe462xMCUV5HiI",
    "pop": 383870,
    "country": "CL",
    "longitude": -70.14222,
    "sick": 7929,
    "invisible": false
  },
  {
    "name": "Odisha",
    "latitude": 20.9517,
    "dead": 163,
    "lastUpdated": "2020-07-25T07:11:06.983Z",
    "recovered": 15201,
    "infected": 24013,
    "id": "0VG7S6aaK4eSo59fL9JO",
    "pop": 45990000,
    "country": "IN",
    "longitude": 85.0985,
    "sick": 8649,
    "invisible": false
  },
  {
    "lastUpdated": "2020-07-25T07:02:01.612Z",
    "recovered": 0,
    "infected": 5978,
    "id": "0XmCRqiK2ZaehoEJvfer",
    "pop": 2990300,
    "country": "MX",
    "longitude": -98.8582,
    "name": "Hidalgo",
    "latitude": 20.4737,
    "dead": 936,
    "sick": 5042,
    "invisible": false
  },
  {
    "id": "0jStOpTUNRaQYJqgmRoK",
    "pop": 427246,
    "country": "IN",
    "longitude": 92.6586,
    "name": "Andaman and Nicobar Islands",
    "latitude": 11.7401,
    "dead": 0,
    "lastUpdated": "2020-07-25T07:11:06.989Z",
    "recovered": 174,
    "infected": 259,
    "sick": 85,
    "invisible": false
  },
  {
    "country": "QA",
    "longitude": 51.145517,
    "name": "Qatar",
    "latitude": 25.315058,
    "dead": 164,
    "lastUpdated": "2020-07-25T07:16:03.616Z",
    "recovered": 105420,
    "infected": 108638,
    "id": "0m4aECS0Z2DGFEr8ldgI",
    "pop": 2639000,
    "sick": 3054,
    "invisible": false
  },
  {
    "latitude": 22.9868,
    "dead": 1290,
    "lastUpdated": "2020-07-25T07:11:06.982Z",
    "recovered": 33529,
    "infected": 53973,
    "id": "0n54EMSDJcRoT1QEvw80",
    "pop": 90320000,
    "country": "IN",
    "longitude": 87.855,
    "name": "West Bengal",
    "sick": 19154,
    "invisible": false
  },
  {
    "latitude": 22.9734,
    "dead": 791,
    "lastUpdated": "2020-07-25T07:11:06.983Z",
    "recovered": 17866,
    "infected": 26210,
    "id": "0s18o5DrDAHjbu5MFcrj",
    "pop": 73340000,
    "country": "IN",
    "longitude": 78.6569,
    "name": "Madhya Pradesh",
    "sick": 7553,
    "invisible": false
  },
  {
    "latitude": 37.0902,
    "dead": 0,
    "lastUpdated": "2020-07-25T07:16:03.614Z",
    "recovered": 2028361,
    "infected": 0,
    "id": "0tFoopNTs6e4tOoaltu2",
    "country": "US",
    "longitude": -95.7129,
    "invisible": true,
    "name": "Unknown US state",
    "sick": 0
  },
  {
    "country": "CN",
    "longitude": 108.472214,
    "name": "Shaanxi",
    "latitude": 35.64249,
    "dead": 3,
    "lastUpdated": "2020-07-25T07:23:05.064Z",
    "recovered": 317,
    "infected": 323,
    "id": "0x2HLhr5z5xAtEdO4iZm",
    "pop": 37330000,
    "sick": 3,
    "invisible": false
  },
  {
    "id": "19MvIhipqTyYv1H37Upw",
    "pop": 2077000,
    "country": "MK",
    "longitude": 21.668393,
    "name": "North Macedonia",
    "latitude": 41.643351,
    "dead": 451,
    "lastUpdated": "2020-07-25T07:16:03.625Z",
    "recovered": 5254,
    "infected": 9797,
    "sick": 4092,
    "invisible": false
  },
  {
    "longitude": -57.6604,
    "name": "Newfoundland and Labrador",
    "latitude": 53.1355,
    "dead": 3,
    "lastUpdated": "2020-07-25T07:07:02.225Z",
    "recovered": 259,
    "infected": 265,
    "state": "NL",
    "id": "1DOMOmCWDtva46OVSZLv",
    "pop": 521542,
    "country": "CA",
    "sick": 3,
    "invisible": false
  },
  {
    "name": "Qinghai",
    "latitude": 35.801933,
    "dead": 0,
    "lastUpdated": "2020-07-25T07:23:05.074Z",
    "recovered": 18,
    "infected": 18,
    "id": "1Fap7rZu9SIRqf5TG9Dg",
    "pop": 5627000,
    "country": "CN",
    "longitude": 96.779286,
    "sick": 0,
    "invisible": false
  },
  {
    "recovered": 242692,
    "infected": 0,
    "id": "1YXQMlVL3fUeDZmcVfJw",
    "pop": 126200000,
    "country": "MX",
    "longitude": -102.5528,
    "invisible": true,
    "name": "Unknown Mexico state",
    "latitude": 23.6345,
    "dead": 0,
    "lastUpdated": "2020-07-25T07:16:03.614Z",
    "sick": 0
  },
  {
    "id": "1at5nIap9H51v32otlQl",
    "pop": 1960000,
    "country": "RU",
    "longitude": 73.3167,
    "name": "Omsk Oblast",
    "latitude": 55.0555,
    "dead": 56,
    "lastUpdated": "2020-07-25T07:00:07.829Z",
    "recovered": 3707,
    "infected": 5969,
    "sick": 2206,
    "invisible": false
  },
  {
    "lastUpdated": "2020-07-25T07:01:09.442Z",
    "recovered": 26679,
    "infected": 31578,
    "state": "21",
    "id": "1eTSQyfp8RoDPeFrIwun",
    "pop": 4376000,
    "country": "IT",
    "longitude": 8.206944,
    "name": "Piemonte",
    "latitude": 44.9,
    "dead": 4123,
    "sick": 776,
    "invisible": false
  },
  {
    "longitude": 15.461,
    "name": "Lubuskie",
    "latitude": 51.993,
    "dead": 6,
    "lastUpdated": "2020-07-25T07:03:01.398Z",
    "recovered": 0,
    "infected": 350,
    "id": "1j1OurxLTpZYuWIWwQ9F",
    "pop": 1003000,
    "country": "PL",
    "sick": 344,
    "invisible": false
  },
  {
    "country": "MD",
    "longitude": 28.3699,
    "name": "Moldova",
    "latitude": 47.4116,
    "dead": 726,
    "lastUpdated": "2020-07-25T07:16:03.623Z",
    "recovered": 15407,
    "infected": 22483,
    "id": "1qTPB8X3tyLyIdsb5TN3",
    "pop": 3550000,
    "sick": 6350,
    "invisible": false
  },
  {
    "latitude": 37.0902,
    "dead": 100,
    "lastUpdated": "2020-07-25T07:17:02.182Z",
    "recovered": 0,
    "infected": 11318,
    "id": "22PJOAThcDFKgSbyQIkD",
    "country": "US",
    "longitude": -95.7129,
    "invisible": true,
    "name": "Federal Bureau of Prisons",
    "sick": 11218
  },
  {
    "latitude": 30.15336,
    "dead": 0,
    "lastUpdated": "2020-07-25T07:23:05.075Z",
    "recovered": 1,
    "infected": 1,
    "id": "25qIBtsW2nfQj3pwBKg9",
    "pop": 3180000,
    "country": "CN",
    "longitude": 88.787865,
    "name": "Tibet",
    "sick": 0,
    "invisible": false
  },
  {
    "recovered": 53945,
    "infected": 95418,
    "id": "2KHYUb5t3lwzVVmDjwNX",
    "pop": 264000000,
    "country": "ID",
    "longitude": 115.66779,
    "name": "Indonesia",
    "latitude": -1.572184,
    "dead": 4665,
    "lastUpdated": "2020-07-25T07:16:03.616Z",
    "sick": 36808,
    "invisible": false
  },
  {
    "recovered": 0,
    "infected": 16104,
    "state": "OR",
    "id": "2OrsssmGUs4XCzaZzvTv",
    "pop": 4191000,
    "country": "US",
    "longitude": -120.585594,
    "name": "Oregon",
    "latitude": 43.807191,
    "dead": 282,
    "lastUpdated": "2020-07-25T07:17:02.179Z",
    "sick": 15822,
    "invisible": false
  },
  {
    "name": "Antofagasta",
    "latitude": -23.65,
    "dead": 310,
    "lastUpdated": "2020-07-25T07:20:03.883Z",
    "recovered": 0,
    "infected": 13807,
    "id": "2c5HBZ1ffkCVXnMYUWnY",
    "pop": 425000,
    "country": "CL",
    "longitude": -70.400002,
    "sick": 13497,
    "invisible": false
  },
  {
    "lastUpdated": "2020-07-25T06:57:02.264Z",
    "recovered": 0,
    "infected": 35026,
    "state": "AP",
    "id": "2dzhyWsBSPpENWlNew0b",
    "pop": 9029000,
    "country": "BR",
    "longitude": -51.070534,
    "name": "Amapá",
    "latitude": 0.035574,
    "dead": 552,
    "sick": 34474,
    "invisible": false
  },
  {
    "latitude": 43.851921,
    "dead": 2,
    "lastUpdated": "2020-07-25T07:23:05.068Z",
    "recovered": 153,
    "infected": 155,
    "id": "2jxHvSsxdnom0nPNvOT8",
    "pop": 27460000,
    "country": "CN",
    "longitude": 126.548103,
    "name": "Jilin",
    "sick": 0,
    "invisible": false
  },
  {
    "recovered": 180,
    "infected": 184,
    "id": "2p11BjSAs3wVyymgqBOe",
    "pop": 34571,
    "country": "GI",
    "longitude": -5.3536,
    "name": "Gibraltar",
    "latitude": 36.1408,
    "dead": 0,
    "lastUpdated": "2020-07-25T07:16:03.637Z",
    "sick": 4,
    "invisible": false
  },
  {
    "id": "2sLNkkHpyaHx7dD3aMDO",
    "pop": 2567000,
    "country": "FR",
    "longitude": 1.6751,
    "name": "Centre-Val de Loire",
    "latitude": 47.7516,
    "dead": 557,
    "lastUpdated": "2020-07-24T23:51:58.289Z",
    "recovered": 2082,
    "infected": 4747,
    "sick": 2108,
    "invisible": false
  },
  {
    "longitude": 12.643751,
    "name": "Umbria",
    "latitude": 42.565044,
    "dead": 80,
    "lastUpdated": "2020-07-25T07:01:09.442Z",
    "recovered": 1366,
    "infected": 1465,
    "state": "55",
    "id": "319tiZOMczx1y0DfvOib",
    "pop": 884640,
    "country": "IT",
    "sick": 19,
    "invisible": false
  },
  {
    "lastUpdated": "2020-07-25T07:21:46.910Z",
    "recovered": 539,
    "infected": 1416,
    "id": "38T96Q3XNjt5FSJygPed",
    "pop": 1355000,
    "country": "CO",
    "longitude": -76.6131592,
    "name": "Cauca",
    "latitude": 2.43823,
    "dead": 43,
    "sick": 834,
    "invisible": false
  },
  {
    "country": "ZM",
    "longitude": 27.849332,
    "name": "Zambia",
    "latitude": -13.133896,
    "dead": 136,
    "lastUpdated": "2020-07-25T07:16:03.627Z",
    "recovered": 1677,
    "infected": 3856,
    "id": "3IlPjAbP5qVMn1nlgLTJ",
    "pop": 17090000,
    "sick": 2043,
    "invisible": false
  },
  {
    "longitude": 19.3958,
    "name": "Montenegro",
    "latitude": 42.7044,
    "dead": 43,
    "lastUpdated": "2020-07-25T07:16:03.630Z",
    "recovered": 643,
    "infected": 2665,
    "id": "3LstMSN5XMYBkxbe5HN7",
    "pop": 631219,
    "country": "ME",
    "sick": 1979,
    "invisible": false
  },
  {
    "latitude": -35.4735,
    "dead": 3,
    "lastUpdated": "2020-07-25T06:43:23.777Z",
    "recovered": 109,
    "infected": 113,
    "state": "ACT",
    "id": "3OZoQsKrzxZ18EKyfGE6",
    "pop": 418440,
    "country": "AU",
    "longitude": 149.0124,
    "name": "Australian Capital Territory",
    "sick": 1,
    "invisible": false
  },
  {
    "lastUpdated": "2020-07-25T07:00:07.830Z",
    "recovered": 5133,
    "infected": 5760,
    "id": "3PfzjWjvOkfgxc672BHQ",
    "pop": 608000,
    "country": "RU",
    "longitude": 38.8389,
    "name": "Yaroslavl Oblast",
    "latitude": 57.8992,
    "dead": 25,
    "sick": 602,
    "invisible": false
  },
  {
    "id": "3PpqgIUJAtzxo1j7z56i",
    "pop": 321000,
    "country": "RU",
    "longitude": 95.626,
    "name": "Tuva",
    "latitude": 51.8873,
    "dead": 46,
    "lastUpdated": "2020-07-25T07:00:07.830Z",
    "recovered": 3405,
    "infected": 5883,
    "sick": 2432,
    "invisible": false
  },
  {
    "longitude": 92.9376,
    "name": "Assam",
    "latitude": 26.2006,
    "dead": 76,
    "lastUpdated": "2020-07-25T07:11:06.983Z",
    "recovered": 21762,
    "infected": 29922,
    "id": "3cCbnJCsK7mKlTO08K1o",
    "pop": 30940000,
    "country": "IN",
    "sick": 8084,
    "invisible": false
  },
  {
    "longitude": -82.9071,
    "name": "Ohio",
    "latitude": 40.4173,
    "dead": 3306,
    "lastUpdated": "2020-07-25T07:17:02.177Z",
    "recovered": 0,
    "infected": 81790,
    "state": "OH",
    "id": "3fC3bAyIRUquOQOEnQNe",
    "pop": 11690000,
    "country": "US",
    "sick": 78484,
    "invisible": false
  },
  {
    "recovered": 0,
    "infected": 12091,
    "id": "3kFCzJguabtBvXaHxgiu",
    "pop": 3066400,
    "country": "MX",
    "longitude": -107.5,
    "name": "Sinaloa",
    "latitude": 25,
    "dead": 1991,
    "lastUpdated": "2020-07-25T07:02:01.611Z",
    "sick": 10100,
    "invisible": false
  },
  {
    "id": "3mC2LveOpXV8P1PmQGUj",
    "pop": 4708300,
    "country": "CO",
    "longitude": -76.522224,
    "name": "Valle del Cauca",
    "latitude": 3.420556,
    "dead": 659,
    "lastUpdated": "2020-07-25T07:21:46.908Z",
    "recovered": 9435,
    "infected": 18432,
    "sick": 8338,
    "invisible": false
  },
  {
    "country": "MR",
    "longitude": -10.9408,
    "name": "Mauritania",
    "latitude": 21.0079,
    "dead": 156,
    "lastUpdated": "2020-07-25T07:16:03.626Z",
    "recovered": 4206,
    "infected": 6116,
    "id": "4NnFMekRK2m14IlnZZoj",
    "pop": 4420000,
    "sick": 1754,
    "invisible": false
  },
  {
    "state": "BC",
    "id": "4hfZRUoUgI4a3vrG0GBk",
    "pop": 5071000,
    "country": "CA",
    "longitude": -127.6476,
    "name": "British Columbia",
    "latitude": 53.7267,
    "dead": 191,
    "lastUpdated": "2020-07-25T07:07:02.147Z",
    "recovered": 2934,
    "infected": 3419,
    "sick": 294,
    "invisible": false
  },
  {
    "latitude": -22.908333,
    "dead": 12654,
    "lastUpdated": "2020-07-25T06:57:02.260Z",
    "recovered": 0,
    "infected": 154879,
    "state": "RJ",
    "id": "4kq0z3kh5zt3YAUWxvtE",
    "pop": 17159960,
    "country": "BR",
    "longitude": -43.196388,
    "name": "Rio de Janeiro",
    "sick": 142225,
    "invisible": false
  },
  {
    "country": "BR",
    "longitude": -41.280857,
    "name": "Bahia",
    "latitude": -11.409874,
    "dead": 3096,
    "lastUpdated": "2020-07-25T06:57:02.261Z",
    "recovered": 0,
    "infected": 142767,
    "state": "BA",
    "id": "4yDbkEyqsNzZJjfrciYV",
    "pop": 14812617,
    "sick": 139671,
    "invisible": false
  },
  {
    "name": "Azerbaijan",
    "latitude": 40.3426,
    "dead": 400,
    "lastUpdated": "2020-07-25T07:16:03.622Z",
    "recovered": 21547,
    "infected": 29312,
    "id": "4zqzRm2xHn0CDVOUQJ8p",
    "pop": 9898000,
    "country": "AZ",
    "longitude": 47.93802,
    "sick": 7365,
    "invisible": false
  },
  {
    "latitude": 22.233105,
    "dead": 884,
    "lastUpdated": "2020-07-25T07:02:01.611Z",
    "recovered": 0,
    "infected": 14216,
    "id": "54cfsdsRF76XVHWtZs19",
    "pop": 3672300,
    "country": "MX",
    "longitude": -97.861099,
    "name": "Tamaulipas",
    "sick": 13332,
    "invisible": false
  },
  {
    "longitude": 3.7265,
    "name": "Flanders",
    "latitude": 51.0109,
    "dead": 4920,
    "lastUpdated": "2020-07-25T07:07:12.613Z",
    "recovered": 9578,
    "infected": 36911,
    "state": "VLG",
    "id": "57ydD48mLRD2YoyteJZj",
    "pop": 6596000,
    "country": "BE",
    "sick": 22413,
    "invisible": false
  },
  {
    "name": "Bahamas",
    "latitude": 25.025885,
    "dead": 11,
    "lastUpdated": "2020-07-25T07:16:03.636Z",
    "recovered": 91,
    "infected": 316,
    "id": "5MHegCUO9L3LiAU7DDey",
    "pop": 395361,
    "country": "BS",
    "longitude": -78.035889,
    "sick": 214,
    "invisible": false
  },
  {
    "lastUpdated": "2020-07-25T06:43:23.779Z",
    "recovered": 2988,
    "infected": 3640,
    "state": "NSW",
    "id": "5N16a2OXXRpsEFanw0TC",
    "pop": 7544000,
    "country": "AU",
    "longitude": 146.921097,
    "name": "New South Wales",
    "latitude": -31.253218,
    "dead": 49,
    "sick": 603,
    "invisible": false
  },
  {
    "lastUpdated": "2020-07-25T07:16:03.631Z",
    "recovered": 1175,
    "infected": 2258,
    "id": "5N4PRxsCDzzwk7R200V1",
    "pop": 12580000,
    "country": "SS",
    "longitude": 31.3069782,
    "name": "South Sudan",
    "latitude": 6.8769908,
    "dead": 45,
    "sick": 1038,
    "invisible": false
  },
  {
    "latitude": 39.484,
    "dead": 1433,
    "lastUpdated": "2020-07-24T23:38:38.478Z",
    "recovered": 9970,
    "infected": 16252,
    "state": "VC",
    "id": "5Va9A7CXR8AXdUz4HTJj",
    "pop": 4975000,
    "country": "ES",
    "longitude": -0.7533,
    "name": "C. Valenciana",
    "sick": 4849,
    "invisible": false
  },
  {
    "latitude": -20.9043045,
    "dead": 0,
    "lastUpdated": "2020-07-25T07:16:03.639Z",
    "recovered": 22,
    "infected": 22,
    "id": "5fg04eyDwFw3kEXnrxez",
    "pop": 280460,
    "country": "NC",
    "longitude": 165.618042,
    "name": "New Caledonia",
    "sick": 0,
    "invisible": false
  },
  {
    "lastUpdated": "2020-07-25T07:16:03.623Z",
    "recovered": 12947,
    "infected": 18374,
    "id": "5gXZIjRgAvd6xWN1LOv8",
    "pop": 29300000,
    "country": "NP",
    "longitude": 84.124008,
    "name": "Nepal",
    "latitude": 28.394857,
    "dead": 44,
    "sick": 5383,
    "invisible": false
  },
  {
    "id": "5pwmh7aSdGRKqRbnuyc0",
    "pop": 104900000,
    "country": "PH",
    "longitude": 121.774017,
    "name": "Philippines",
    "latitude": 12.879721,
    "dead": 1879,
    "lastUpdated": "2020-07-25T07:16:03.617Z",
    "recovered": 24502,
    "infected": 76444,
    "sick": 50063,
    "invisible": false
  },
  {
    "recovered": 514,
    "infected": 2296,
    "id": "5qtR9nx4BLwu1ODTniaY",
    "pop": 14802190,
    "country": "ZW",
    "longitude": 31.053028,
    "name": "Zimbabwe",
    "latitude": -17.824858,
    "dead": 32,
    "lastUpdated": "2020-07-25T07:16:03.631Z",
    "sick": 1750,
    "invisible": false
  },
  {
    "name": "Navajo Nation",
    "dead": 434,
    "latitude": 36.0672,
    "infected": 8768,
    "recovered": 0,
    "pop": 356890,
    "country": "US",
    "lastUpdated": "2020-07-25T07:17:02.182Z",
    "state": "NA",
    "id": "5vkKgxTaKq1IH0Go357L",
    "longitude": -109.188,
    "invisible": false,
    "sick": 8334
  },
  {
    "country": "MX",
    "longitude": -99.177254,
    "name": "Ciudad de México",
    "latitude": 19.432241,
    "dead": 8601,
    "lastUpdated": "2020-07-25T07:02:01.611Z",
    "recovered": 0,
    "infected": 67597,
    "id": "61E7TGjUwAo9xu6Y6gAH",
    "pop": 8781300,
    "sick": 58996,
    "invisible": false
  },
  {
    "lastUpdated": "2020-07-25T07:00:07.829Z",
    "recovered": 5682,
    "infected": 7044,
    "id": "63KYOuWe41mvqWQrJbr2",
    "pop": 1012000,
    "country": "RU",
    "longitude": 35.1889,
    "name": "Kaluga Oblast",
    "latitude": 54.3873,
    "dead": 56,
    "sick": 1306,
    "invisible": false
  },
  {
    "country": "LT",
    "longitude": 23.804991,
    "name": "Lithuania",
    "latitude": 55.621011,
    "dead": 80,
    "lastUpdated": "2020-07-25T07:16:03.632Z",
    "recovered": 1616,
    "infected": 1986,
    "id": "694ON7d0mRJDeM1gHBTR",
    "pop": 2794000,
    "sick": 290,
    "invisible": false
  },
  {
    "state": "EN",
    "id": "6IQAsvrmBv0HPdeTnh4x",
    "pop": 9175000,
    "country": "GB",
    "longitude": -0.5596,
    "name": "South East",
    "latitude": 51.1781,
    "dead": 0,
    "lastUpdated": "2020-07-25T07:13:11.413Z",
    "recovered": 0,
    "infected": 34943,
    "sick": 34943,
    "invisible": false
  },
  {
    "lastUpdated": "2020-07-25T07:16:03.630Z",
    "recovered": 1407,
    "infected": 2373,
    "id": "6IcHIIH0zXpY0POmBZTv",
    "pop": 7392000,
    "country": "HK",
    "longitude": 114.109497,
    "name": "Hong Kong",
    "latitude": 22.396427,
    "dead": 16,
    "sick": 950,
    "invisible": false
  },
  {
    "latitude": -8.65,
    "dead": 480,
    "lastUpdated": "2020-07-25T06:57:02.265Z",
    "recovered": 0,
    "infected": 18393,
    "state": "AC",
    "id": "6LQesrx5bHJsVUi1TXBp",
    "pop": 869265,
    "country": "BR",
    "longitude": -72.4,
    "name": "Acre",
    "sick": 17913,
    "invisible": false
  },
  {
    "longitude": 2.3158,
    "name": "Benin",
    "latitude": 9.3077,
    "dead": 34,
    "lastUpdated": "2020-07-25T07:16:03.632Z",
    "recovered": 918,
    "infected": 1694,
    "id": "6SlpghTyB6lpMFvx3g9U",
    "pop": 11180000,
    "country": "BJ",
    "sick": 742,
    "invisible": false
  },
  {
    "longitude": 9.5,
    "name": "Lombardia",
    "latitude": 45.6667,
    "dead": 16801,
    "lastUpdated": "2020-07-25T07:01:09.440Z",
    "recovered": 72208,
    "infected": 95768,
    "state": "25",
    "id": "6ZHcvMIzVWIaRnc4R3Qp",
    "pop": 10040000,
    "country": "IT",
    "sick": 6759,
    "invisible": false
  },
  {
    "latitude": 46.0569,
    "dead": 115,
    "lastUpdated": "2020-07-25T07:16:03.631Z",
    "recovered": 1678,
    "infected": 2052,
    "id": "6ahNiyKDSDAftCctgLH3",
    "pop": 2067000,
    "country": "SI",
    "longitude": 14.5058,
    "name": "Slovenia",
    "sick": 259,
    "invisible": false
  },
  {
    "id": "6nyns7UGGgkU7pxrHf8i",
    "pop": 300000,
    "country": "CL",
    "longitude": -70.331398,
    "name": "Atacama",
    "latitude": -27.3667908,
    "dead": 10,
    "lastUpdated": "2020-07-25T07:20:03.883Z",
    "recovered": 0,
    "infected": 2109,
    "sick": 2099,
    "invisible": false
  },
  {
    "lastUpdated": "2020-07-25T07:16:03.626Z",
    "recovered": 4463,
    "infected": 6984,
    "id": "6pBi38TUgYfFm0bry2uh",
    "pop": 2025000,
    "country": "GA",
    "longitude": 11.6094,
    "name": "Gabon",
    "latitude": -0.8037,
    "dead": 49,
    "sick": 2472,
    "invisible": false
  },
  {
    "name": "San Luis Potosí",
    "latitude": 22.1498,
    "dead": 405,
    "lastUpdated": "2020-07-25T07:02:01.612Z",
    "recovered": 0,
    "infected": 6986,
    "id": "6vjIVg1gSANFZghV7xtS",
    "pop": 2831900,
    "country": "MX",
    "longitude": -100.9792,
    "sick": 6581,
    "invisible": false
  },
  {
    "latitude": 17.901672,
    "dead": 0,
    "lastUpdated": "2020-07-25T07:16:03.641Z",
    "recovered": 6,
    "infected": 6,
    "id": "78Ox26bNHDA2Pk2b3Uwn",
    "pop": 9131,
    "country": "FR",
    "longitude": -62.818544,
    "name": "Saint-Barthélémy",
    "alwaysShow": true,
    "sick": 0,
    "invisible": false
  },
  {
    "latitude": 54.367,
    "dead": 39,
    "lastUpdated": "2020-07-25T07:03:01.398Z",
    "recovered": 0,
    "infected": 787,
    "id": "7JDx6UJiwGSJyL1fChaJ",
    "pop": 2305000,
    "country": "PL",
    "longitude": 18.633,
    "name": "Pomorskie",
    "sick": 748,
    "invisible": false
  },
  {
    "longitude": -2.9381,
    "name": "Melilla",
    "latitude": 35.2923,
    "dead": 2,
    "lastUpdated": "2020-07-24T23:40:51.137Z",
    "recovered": 125,
    "infected": 142,
    "state": "ML",
    "id": "7UASdZTZ1nPzzBwSTEA9",
    "pop": 84690,
    "country": "ES",
    "sick": 15,
    "invisible": false
  },
  {
    "name": "Antigua and Barbuda",
    "latitude": 17.0608,
    "dead": 3,
    "lastUpdated": "2020-07-25T07:16:03.638Z",
    "recovered": 60,
    "infected": 82,
    "id": "7hVFcEV7nV0MrQr3LHrl",
    "pop": 102012,
    "country": "AG",
    "longitude": -61.7964,
    "sick": 19,
    "invisible": false
  },
  {
    "recovered": 46640,
    "infected": 50489,
    "state": "BY",
    "id": "7kCrrlOBE3jN6FtOVNUB",
    "pop": 13000000,
    "country": "DE",
    "longitude": 11.4979,
    "name": "Bayern",
    "latitude": 48.7904,
    "dead": 2662,
    "lastUpdated": "2020-07-25T07:00:04.191Z",
    "sick": 1187,
    "invisible": false
  },
  {
    "id": "7rYC2iFB50c55Ihgbs4Q",
    "pop": 9773000,
    "country": "HU",
    "longitude": 19.0402,
    "name": "Hungary",
    "latitude": 47.4979,
    "dead": 596,
    "lastUpdated": "2020-07-25T07:16:03.627Z",
    "recovered": 3324,
    "infected": 4424,
    "sick": 504,
    "invisible": false
  },
  {
    "latitude": 10.9685,
    "dead": 1381,
    "lastUpdated": "2020-07-25T07:21:46.910Z",
    "recovered": 16950,
    "infected": 26788,
    "id": "7tqLvLyXcBDK808nJv0m",
    "pop": 1206000,
    "country": "CO",
    "longitude": -74.7813,
    "name": "Barranquilla D.E.",
    "sick": 8457,
    "invisible": false
  },
  {
    "country": "CM",
    "longitude": 12.3547,
    "name": "Cameroon",
    "latitude": 7.3697,
    "dead": 385,
    "lastUpdated": "2020-07-25T07:16:03.623Z",
    "recovered": 14539,
    "infected": 16708,
    "id": "8C0d7WVCjyUGtnc2gUAR",
    "pop": 24050000,
    "sick": 1784,
    "invisible": false
  },
  {
    "recovered": 2845,
    "infected": 6727,
    "state": "BRU",
    "id": "8DOZWbN6bDdgaLXVlUEu",
    "pop": 1209000,
    "country": "BE",
    "longitude": 4.3517,
    "name": "Brussels",
    "latitude": 50.8503,
    "dead": 1498,
    "lastUpdated": "2020-07-25T07:07:12.617Z",
    "sick": 2384,
    "invisible": false
  },
  {
    "recovered": 20614,
    "infected": 66456,
    "id": "8RihJrXw4NQXPxaRxr1u",
    "pop": 11050000,
    "country": "BO",
    "longitude": -63.5887,
    "name": "Bolivia",
    "latitude": -16.2902,
    "dead": 2473,
    "lastUpdated": "2020-07-25T07:16:03.618Z",
    "sick": 43369,
    "invisible": false
  },
  {
    "country": "VC",
    "longitude": -61.2872,
    "name": "St. Vincent Grenadines",
    "latitude": 12.9843,
    "dead": 0,
    "lastUpdated": "2020-07-25T07:16:03.638Z",
    "recovered": 39,
    "infected": 52,
    "id": "8ZTySQROQejkDAad0qxQ",
    "pop": 109897,
    "sick": 13,
    "invisible": false
  },
  {
    "lastUpdated": "2020-07-25T07:16:03.618Z",
    "recovered": 45172,
    "infected": 49375,
    "id": "8pA3fM4xC2c2wv1b4TnE",
    "pop": 5621000,
    "country": "SG",
    "longitude": 103.819839,
    "name": "Singapore",
    "latitude": 1.352083,
    "dead": 27,
    "sick": 4176,
    "invisible": false
  },
  {
    "longitude": -1.5536,
    "name": "Pays de la Loire",
    "latitude": 47.2184,
    "dead": 475,
    "lastUpdated": "2020-07-24T23:53:49.156Z",
    "recovered": 2199,
    "infected": 4492,
    "id": "98hwAoohgWEOQVa3NlM5",
    "pop": 3787000,
    "country": "FR",
    "sick": 1818,
    "invisible": false
  },
  {
    "id": "9DAvxOObTqIvMOU93nlY",
    "pop": 952300,
    "country": "MX",
    "longitude": -90.19885,
    "name": "Campeche",
    "latitude": 19.30754,
    "dead": 419,
    "lastUpdated": "2020-07-25T07:02:01.611Z",
    "recovered": 0,
    "infected": 4076,
    "sick": 3657,
    "invisible": false
  },
  {
    "id": "9DPOkpIqrFy9mR4e9fuv",
    "pop": 40530000,
    "country": "SD",
    "longitude": 30.2176,
    "name": "Sudan",
    "latitude": 12.8628,
    "dead": 715,
    "lastUpdated": "2020-07-25T07:16:03.625Z",
    "recovered": 5855,
    "infected": 11302,
    "sick": 4732,
    "invisible": false
  },
  {
    "name": "Kostroma Oblast",
    "latitude": 58.5501,
    "dead": 26,
    "lastUpdated": "2020-07-25T07:00:07.855Z",
    "recovered": 1425,
    "infected": 2040,
    "id": "9JFYfvpcejMIgYlHpngA",
    "pop": 643000,
    "country": "RU",
    "longitude": 43.9541,
    "sick": 589,
    "invisible": false
  },
  {
    "longitude": 24.966761,
    "name": "Romania",
    "latitude": 45.943161,
    "dead": 2150,
    "lastUpdated": "2020-07-25T07:16:03.619Z",
    "recovered": 25349,
    "infected": 42394,
    "id": "9QcETqEcM2fTv9zRvx5T",
    "pop": 19530000,
    "country": "RO",
    "sick": 14895,
    "invisible": false
  },
  {
    "latitude": 12.136389,
    "dead": 108,
    "lastUpdated": "2020-07-25T07:16:03.627Z",
    "recovered": 2492,
    "infected": 3439,
    "id": "9Y5wmCqNCC6ZrenM31uA",
    "pop": 6218000,
    "country": "NI",
    "longitude": -86.251389,
    "name": "Nicaragua",
    "sick": 839,
    "invisible": false
  },
  {
    "latitude": 17.5706921,
    "dead": 123,
    "lastUpdated": "2020-07-25T07:16:03.630Z",
    "recovered": 1901,
    "infected": 2503,
    "id": "9dIzxqDSVqPyINkHqwGv",
    "pop": 18540000,
    "country": "ML",
    "longitude": -3.996166,
    "name": "Mali",
    "sick": 479,
    "invisible": false
  },
  {
    "latitude": 61.92411,
    "dead": 329,
    "lastUpdated": "2020-07-25T07:16:03.626Z",
    "recovered": 6920,
    "infected": 7380,
    "id": "9p6OCdZbUUwBLA60Gk3W",
    "pop": 5513000,
    "country": "FI",
    "longitude": 25.748152,
    "name": "Finland",
    "sick": 131,
    "invisible": false
  },
  {
    "latitude": 64.248,
    "dead": 300,
    "lastUpdated": "2020-07-25T07:00:07.827Z",
    "recovered": 10320,
    "infected": 12057,
    "id": "A6Us0fpQVCc85SoIqzg3",
    "pop": 2876000,
    "country": "RU",
    "longitude": 95.1104,
    "name": "Krasnoyarsk Krai",
    "sick": 1437,
    "invisible": false
  },
  {
    "name": "New Hampshire",
    "latitude": 43.311643,
    "dead": 407,
    "lastUpdated": "2020-07-25T07:17:02.181Z",
    "recovered": 0,
    "infected": 6375,
    "state": "NH",
    "id": "A84CwQ52kA46Hr7pn6Bm",
    "pop": 1356000,
    "country": "US",
    "longitude": -71.590315,
    "sick": 5968,
    "invisible": false
  },
  {
    "latitude": 41.823261,
    "dead": 1002,
    "lastUpdated": "2020-07-25T07:17:02.179Z",
    "recovered": 0,
    "infected": 18224,
    "state": "RI",
    "id": "AEUWUHS65qvjEslew11c",
    "pop": 1057000,
    "country": "US",
    "longitude": -71.412257,
    "name": "Rhode Island",
    "sick": 17222,
    "invisible": false
  },
  {
    "recovered": 23758,
    "infected": 29413,
    "state": "45",
    "id": "AJ9jQ0iyKsafsmf5yHAR",
    "pop": 4453000,
    "country": "IT",
    "longitude": 11.327591,
    "name": "Emilia-Romagna",
    "latitude": 44.498955,
    "dead": 4283,
    "lastUpdated": "2020-07-25T07:01:09.439Z",
    "sick": 1372,
    "invisible": false
  },
  {
    "latitude": 49.3964,
    "dead": 178,
    "lastUpdated": "2020-07-25T07:00:04.195Z",
    "recovered": 2641,
    "infected": 2874,
    "state": "SL",
    "id": "AKjFRQGnzuuZQhv5Qwx7",
    "pop": 990509,
    "country": "DE",
    "longitude": 7.023,
    "name": "Saarland",
    "sick": 55,
    "invisible": false
  },
  {
    "id": "AOapJ3gElQApd8Gnt8EL",
    "pop": 3493000,
    "country": "RU",
    "longitude": 60.8789,
    "name": "Chelyabinsk Oblast",
    "latitude": 54.4319,
    "dead": 89,
    "lastUpdated": "2020-07-25T07:00:07.828Z",
    "recovered": 5997,
    "infected": 10329,
    "sick": 4243,
    "invisible": false
  },
  {
    "latitude": -35.717,
    "dead": 136,
    "lastUpdated": "2020-07-25T07:20:03.963Z",
    "recovered": 0,
    "infected": 8312,
    "id": "APTPgjAsjFi0nsGyJV7M",
    "pop": 1125002,
    "country": "CL",
    "longitude": -71.167,
    "name": "Maule",
    "sick": 8176,
    "invisible": false
  },
  {
    "latitude": 71.7069,
    "dead": 0,
    "lastUpdated": "2020-07-25T07:16:03.640Z",
    "recovered": 13,
    "infected": 13,
    "id": "APaZzlGCEeuoLBtzTJMe",
    "pop": 56171,
    "country": "GL",
    "longitude": -42.6043,
    "name": "Greenland",
    "sick": 0,
    "invisible": false
  },
  {
    "recovered": 2994,
    "infected": 3824,
    "id": "ATxF6ZoDJ2ibdE6ZRYIX",
    "pop": 984000,
    "country": "RU",
    "longitude": 112.4061,
    "name": "Buryatia",
    "latitude": 54.8331,
    "dead": 37,
    "lastUpdated": "2020-07-25T07:00:07.852Z",
    "sick": 793,
    "invisible": false
  },
  {
    "state": "NS",
    "id": "AVCpxeh0fuH2WrHWNDYH",
    "pop": 971395,
    "country": "CA",
    "longitude": -63.582687,
    "name": "Nova Scotia",
    "latitude": 45.65107,
    "dead": 63,
    "lastUpdated": "2020-07-25T07:07:02.225Z",
    "recovered": 1003,
    "infected": 1067,
    "sick": 1,
    "invisible": false
  },
  {
    "latitude": 47.012918,
    "dead": 46,
    "lastUpdated": "2020-07-25T07:17:02.181Z",
    "recovered": 0,
    "infected": 3039,
    "state": "MT",
    "id": "AcULcZBozObOhwuRKMjJ",
    "pop": 1062000,
    "country": "US",
    "longitude": -109.128641,
    "name": "Montana",
    "sick": 2993,
    "invisible": false
  },
  {
    "country": "TJ",
    "longitude": 71.2761,
    "name": "Tajikistan",
    "latitude": 38.861,
    "dead": 58,
    "lastUpdated": "2020-07-25T07:16:03.626Z",
    "recovered": 5851,
    "infected": 7104,
    "id": "AiIGs3ybYZZhm1ytVopr",
    "pop": 9275000,
    "sick": 1195,
    "invisible": false
  },
  {
    "recovered": 931,
    "infected": 932,
    "id": "AmBYm5J6E9Cuez1FQjiN",
    "pop": 45200000,
    "country": "CN",
    "longitude": 116.01609,
    "name": "Jiangxi",
    "latitude": 27.285971,
    "dead": 1,
    "lastUpdated": "2020-07-25T07:23:05.066Z",
    "sick": 0,
    "invisible": false
  },
  {
    "longitude": -3.7837,
    "name": "Wales",
    "latitude": 52.1307,
    "dead": 1548,
    "lastUpdated": "2020-07-25T07:13:11.412Z",
    "recovered": 0,
    "infected": 17075,
    "state": "WA",
    "id": "AoLhHdTydeWTfmp9koEX",
    "pop": 3136000,
    "country": "GB",
    "sick": 15527,
    "invisible": false
  },
  {
    "country": "RU",
    "longitude": 90.3982,
    "name": "Khakassia",
    "latitude": 53.0452,
    "dead": 30,
    "lastUpdated": "2020-07-25T07:00:07.853Z",
    "recovered": 2249,
    "infected": 2709,
    "id": "Avls64fLKoEsBFH0Ol0b",
    "pop": 537000,
    "sick": 430,
    "invisible": false
  },
  {
    "id": "AwN0CScPDApcLFgz6e3z",
    "pop": 41320000,
    "country": "DZ",
    "longitude": 1.659626,
    "name": "Algeria",
    "latitude": 28.033886,
    "dead": 1136,
    "lastUpdated": "2020-07-25T07:16:03.622Z",
    "recovered": 17369,
    "infected": 26159,
    "sick": 7654,
    "invisible": false
  },
  {
    "longitude": 15.2,
    "name": "Croatia",
    "latitude": 45.099998,
    "dead": 128,
    "lastUpdated": "2020-07-25T07:16:03.627Z",
    "recovered": 3555,
    "infected": 4715,
    "id": "B82Ef45M8cDu4q7VsSHF",
    "pop": 4076000,
    "country": "HR",
    "sick": 1032,
    "invisible": false
  },
  {
    "latitude": 17.6077881,
    "dead": 69,
    "lastUpdated": "2020-07-25T07:16:03.633Z",
    "recovered": 1024,
    "infected": 1124,
    "id": "BENubqQInFUJzhpZTsLT",
    "pop": 23716000,
    "country": "NE",
    "longitude": 8.081666,
    "name": "Niger",
    "sick": 31,
    "invisible": false
  },
  {
    "longitude": -76.98432,
    "name": "Maryland",
    "latitude": 39.509109,
    "dead": 3422,
    "lastUpdated": "2020-07-25T07:17:02.177Z",
    "recovered": 0,
    "infected": 81766,
    "state": "MD",
    "id": "BF51mWl51fgEcyBpCSzb",
    "pop": 6043000,
    "country": "US",
    "sick": 78344,
    "invisible": false
  },
  {
    "country": "BY",
    "longitude": 27.953388,
    "name": "Belarus",
    "latitude": 53.709808,
    "dead": 524,
    "lastUpdated": "2020-07-25T07:16:03.617Z",
    "recovered": 59755,
    "infected": 66846,
    "id": "BGg6yVU5VP71B8NXU0oh",
    "pop": 9508000,
    "sick": 6567,
    "invisible": false
  },
  {
    "lastUpdated": "2020-07-24T23:53:17.869Z",
    "recovered": 1771,
    "infected": 3812,
    "id": "BGtoyzb7y54LVlJ91rbf",
    "pop": 3319000,
    "country": "FR",
    "longitude": 0.1713,
    "name": "Normandie",
    "latitude": 48.8799,
    "dead": 438,
    "sick": 1603,
    "invisible": false
  },
  {
    "recovered": 0,
    "infected": 13046,
    "state": "EN",
    "id": "BQqMOlPFD36ZEDTGd3WC",
    "pop": 5616000,
    "country": "GB",
    "longitude": -3.9995,
    "name": "South West",
    "latitude": 50.7772,
    "dead": 0,
    "lastUpdated": "2020-07-25T07:13:11.413Z",
    "sick": 13046,
    "invisible": false
  },
  {
    "latitude": 34.048927,
    "dead": 3142,
    "lastUpdated": "2020-07-25T07:17:02.175Z",
    "recovered": 0,
    "infected": 156301,
    "state": "AZ",
    "id": "BTEESCuD2ZbS1afunR2A",
    "pop": 7172000,
    "country": "US",
    "longitude": -111.093735,
    "name": "Arizona",
    "sick": 153159,
    "invisible": false
  },
  {
    "lastUpdated": "2020-07-25T07:00:07.830Z",
    "recovered": 3543,
    "infected": 5504,
    "id": "BUb7oDHcBM4lQ5cufNoG",
    "pop": 949000,
    "country": "RU",
    "longitude": 32.6677,
    "name": "Smolensk Oblast",
    "latitude": 54.9883,
    "dead": 92,
    "sick": 1869,
    "invisible": false
  },
  {
    "id": "BWojXmuKU3szKlS7CE4k",
    "pop": 1283000,
    "country": "RU",
    "longitude": 50.2097,
    "name": "Kirov Oblast",
    "latitude": 58.4199,
    "dead": 59,
    "lastUpdated": "2020-07-25T07:00:07.852Z",
    "recovered": 4284,
    "infected": 4404,
    "sick": 61,
    "invisible": false
  },
  {
    "recovered": 0,
    "infected": 687,
    "id": "BZwZOAlDJ8AIiaRVLyC9",
    "pop": 1676000,
    "country": "PL",
    "longitude": 14.552812,
    "name": "Zachodniopomorskie",
    "latitude": 53.428543,
    "dead": 23,
    "lastUpdated": "2020-07-25T07:03:01.398Z",
    "sick": 664,
    "invisible": false
  },
  {
    "longitude": -70.6693,
    "invisible": true,
    "name": "Unknown Chile region",
    "latitude": -33.4489,
    "dead": 0,
    "lastUpdated": "2020-07-25T07:16:03.614Z",
    "recovered": 313696,
    "infected": 0,
    "id": "BbiuZcm8oURX7cZwaa5U",
    "country": "CL",
    "sick": 0
  },
  {
    "id": "BfT8o5DaEixC6JIZ28kY",
    "pop": 18620000,
    "country": "MW",
    "longitude": 34.3015,
    "name": "Malawi",
    "latitude": -13.2543,
    "dead": 87,
    "lastUpdated": "2020-07-25T07:16:03.627Z",
    "recovered": 1373,
    "infected": 3453,
    "sick": 1993,
    "invisible": false
  },
  {
    "lastUpdated": "2020-07-25T07:16:03.636Z",
    "recovered": 270,
    "infected": 345,
    "id": "BnpMamidC5yYzeK8tPUL",
    "pop": 10860000,
    "country": "BI",
    "longitude": 29.9188862,
    "name": "Burundi",
    "latitude": -3.3730559,
    "dead": 1,
    "sick": 74,
    "invisible": false
  },
  {
    "id": "BrToMzyq8y2xdwXn75kM",
    "pop": 5385000,
    "country": "PL",
    "longitude": 21.002,
    "name": "Mazowieckie",
    "latitude": 52.257,
    "dead": 370,
    "lastUpdated": "2020-07-25T07:03:01.397Z",
    "recovered": 0,
    "infected": 5945,
    "sick": 5575,
    "invisible": false
  },
  {
    "name": "Amazonas (Colombia)",
    "latitude": -1.333845,
    "dead": 101,
    "lastUpdated": "2020-07-25T07:21:46.912Z",
    "recovered": 2296,
    "infected": 2479,
    "id": "C25xSDm4iYibX5RYML14",
    "pop": 74751,
    "country": "CO",
    "longitude": -71.347573,
    "sick": 82,
    "invisible": false
  },
  {
    "state": "NY",
    "id": "C3BCUzV80z9GfiuByIcr",
    "pop": 19540000,
    "country": "US",
    "longitude": -73.982597,
    "name": "New York",
    "latitude": 40.719042,
    "dead": 32665,
    "lastUpdated": "2020-07-25T07:17:02.173Z",
    "recovered": 0,
    "infected": 438435,
    "sick": 405770,
    "invisible": false
  },
  {
    "name": "Guainía",
    "latitude": 3.86528,
    "dead": 1,
    "lastUpdated": "2020-07-25T07:21:46.912Z",
    "recovered": 13,
    "infected": 14,
    "id": "C5YXFiytAc1w9swtVGLz",
    "pop": 42800,
    "country": "CO",
    "longitude": -67.92389,
    "sick": 0,
    "invisible": false
  },
  {
    "id": "C6S76AggdWVU8G22jFHQ",
    "pop": 10650000,
    "country": "CZ",
    "longitude": 15.359413,
    "name": "Czechia",
    "latitude": 49.731626,
    "dead": 369,
    "lastUpdated": "2020-07-25T07:16:03.624Z",
    "recovered": 9422,
    "infected": 15081,
    "sick": 5290,
    "invisible": false
  },
  {
    "name": "Bahrain",
    "latitude": 26.0667,
    "dead": 136,
    "lastUpdated": "2020-07-25T07:16:03.619Z",
    "recovered": 34826,
    "infected": 38458,
    "id": "C7cj4nwRITs13KnaJrQ2",
    "pop": 1493000,
    "country": "BH",
    "longitude": 50.557701,
    "sick": 3496,
    "invisible": false
  },
  {
    "latitude": 10.4113,
    "dead": 175,
    "lastUpdated": "2020-07-25T07:21:46.911Z",
    "recovered": 883,
    "infected": 1825,
    "id": "CA9LaAl3bNaeAqBuozn4",
    "pop": 1285400,
    "country": "CO",
    "longitude": -74.4057,
    "name": "Magdalena",
    "sick": 767,
    "invisible": false
  },
  {
    "longitude": -101.430756,
    "name": "Coahuila",
    "latitude": 26.909979,
    "dead": 543,
    "lastUpdated": "2020-07-25T07:02:01.611Z",
    "recovered": 0,
    "infected": 10690,
    "id": "CCUFp4urvgXPo5unfMGy",
    "pop": 3073500,
    "country": "MX",
    "sick": 10147,
    "invisible": false
  },
  {
    "longitude": 74.2179,
    "name": "Rajasthan",
    "latitude": 27.0238,
    "dead": 608,
    "lastUpdated": "2020-07-25T07:11:06.982Z",
    "recovered": 24657,
    "infected": 34735,
    "id": "CKZCZTPlrcq5fbfUPA9k",
    "pop": 68890000,
    "country": "IN",
    "sick": 9470,
    "invisible": false
  },
  {
    "longitude": 86.2199,
    "name": "Altai",
    "latitude": 50.6182,
    "dead": 1,
    "lastUpdated": "2020-07-25T07:00:07.856Z",
    "recovered": 916,
    "infected": 1387,
    "id": "CX8z9U1iABNBhc1VK2Dy",
    "pop": 218000,
    "country": "RU",
    "sick": 470,
    "invisible": false
  },
  {
    "recovered": 7455,
    "infected": 13792,
    "id": "Cgvmtle61ehMvCzRzYx7",
    "pop": 6378000,
    "country": "SV",
    "longitude": -88.9053,
    "name": "El Salvador",
    "latitude": 13.803,
    "dead": 390,
    "lastUpdated": "2020-07-25T07:16:03.624Z",
    "sick": 5947,
    "invisible": false
  },
  {
    "longitude": 153.915,
    "name": "Magadan Oblast",
    "latitude": 62.6643,
    "dead": 7,
    "lastUpdated": "2020-07-25T07:00:07.856Z",
    "recovered": 828,
    "infected": 1216,
    "id": "D4WkbqyUXY1pazbOxfKx",
    "pop": 144000,
    "country": "RU",
    "sick": 381,
    "invisible": false
  },
  {
    "latitude": 58.897,
    "dead": 29,
    "lastUpdated": "2020-07-25T07:00:07.852Z",
    "recovered": 2219,
    "infected": 3766,
    "id": "DAp3PFow4BuCMYWWTo3i",
    "pop": 1078000,
    "country": "RU",
    "longitude": 82.6765,
    "name": "Tomsk Oblast",
    "sick": 1518,
    "invisible": false
  },
  {
    "longitude": 44.818474,
    "name": "Armenia",
    "latitude": 40.259003,
    "dead": 692,
    "lastUpdated": "2020-07-25T07:16:03.621Z",
    "recovered": 25734,
    "infected": 36613,
    "id": "DCJCtZoBTWQ4mzdDNljD",
    "pop": 2973000,
    "country": "AM",
    "sick": 10187,
    "invisible": false
  },
  {
    "country": "CO",
    "longitude": -73.368,
    "name": "Boyacá",
    "latitude": 5.535,
    "dead": 24,
    "lastUpdated": "2020-07-25T07:21:46.911Z",
    "recovered": 386,
    "infected": 734,
    "id": "DJJraANgQbEqz1wBBtZz",
    "pop": 1278000,
    "sick": 324,
    "invisible": false
  },
  {
    "latitude": 54.2369,
    "dead": 32,
    "lastUpdated": "2020-07-25T07:00:07.852Z",
    "recovered": 3173,
    "infected": 4261,
    "id": "DKwy7USk22oXUQGEvO42",
    "pop": 834000,
    "country": "RU",
    "longitude": 44.0684,
    "name": "Mordovia",
    "sick": 1056,
    "invisible": false
  },
  {
    "state": "EN",
    "id": "DPwBt2aJuwF0O71vwfM9",
    "pop": 7300000,
    "country": "GB",
    "longitude": -2.5945,
    "name": "North West",
    "latitude": 53.6221,
    "dead": 0,
    "lastUpdated": "2020-07-25T07:13:11.413Z",
    "recovered": 0,
    "infected": 44866,
    "sick": 44866,
    "invisible": false
  },
  {
    "recovered": 139,
    "infected": 153,
    "id": "DZyTD0Mu5WIcK6yTcJ91",
    "pop": 65440,
    "country": "BM",
    "longitude": -64.75737,
    "name": "Bermuda",
    "latitude": 32.3213844,
    "dead": 9,
    "lastUpdated": "2020-07-25T07:16:03.637Z",
    "sick": 5,
    "invisible": false
  },
  {
    "lastUpdated": "2020-07-25T07:16:03.638Z",
    "recovered": 26,
    "infected": 90,
    "id": "DaMrRSIGJXIG36nW0Pnc",
    "pop": 35446,
    "country": "TC",
    "longitude": -71.7979,
    "name": "Turks and Caicos",
    "latitude": 21.694,
    "dead": 2,
    "sick": 62,
    "invisible": false
  },
  {
    "state": "CM",
    "id": "Dbng0NBTH41EEwBxhMzE",
    "pop": 2035000,
    "country": "ES",
    "longitude": -3.0977,
    "name": "Castilla La Mancha",
    "latitude": 39.2796,
    "dead": 3032,
    "lastUpdated": "2020-07-24T23:39:16.159Z",
    "recovered": 6392,
    "infected": 27173,
    "sick": 17749,
    "invisible": false
  },
  {
    "lastUpdated": "2020-07-25T07:03:01.397Z",
    "recovered": 0,
    "infected": 2820,
    "id": "DcQ3D0WkacXEbv6iznRB",
    "pop": 3361000,
    "country": "PL",
    "longitude": 20.006,
    "name": "Malopolskie",
    "latitude": 50.023,
    "dead": 49,
    "sick": 2771,
    "invisible": false
  },
  {
    "id": "DdBt8qsG6A3g92oOR3ow",
    "pop": 622567,
    "country": "MO",
    "longitude": 113.551262,
    "name": "Macao",
    "latitude": 22.192039,
    "dead": 0,
    "lastUpdated": "2020-07-25T07:16:03.638Z",
    "recovered": 46,
    "infected": 46,
    "sick": 0,
    "invisible": false
  },
  {
    "recovered": 87,
    "infected": 588,
    "id": "Dh0O1vmhrVfmsCsfZCUg",
    "pop": 2651000,
    "country": "IN",
    "longitude": 91.3662,
    "name": "Meghalaya",
    "latitude": 25.467,
    "dead": 5,
    "lastUpdated": "2020-07-25T07:11:06.988Z",
    "sick": 496,
    "invisible": false
  },
  {
    "country": "RU",
    "longitude": 41.8259,
    "name": "Rostov Oblast",
    "latitude": 47.6853,
    "dead": 201,
    "lastUpdated": "2020-07-25T07:00:07.827Z",
    "recovered": 9580,
    "infected": 12020,
    "id": "DqzAhNFTJFQVm88ma21P",
    "pop": 4220000,
    "sick": 2239,
    "invisible": false
  },
  {
    "recovered": 0,
    "infected": 2405,
    "state": "WY",
    "id": "DrGzziUglmBognCGY7R2",
    "pop": 577737,
    "country": "US",
    "longitude": -107.534868,
    "name": "Wyoming",
    "latitude": 42.962334,
    "dead": 25,
    "lastUpdated": "2020-07-25T07:17:02.181Z",
    "sick": 2380,
    "invisible": false
  },
  {
    "id": "Dtr1lap1RpJpXJdXGJiW",
    "pop": 10740000,
    "country": "GR",
    "longitude": 23.7275,
    "name": "Greece",
    "latitude": 37.9838,
    "dead": 201,
    "lastUpdated": "2020-07-25T07:16:03.627Z",
    "recovered": 1374,
    "infected": 4135,
    "sick": 2560,
    "invisible": false
  },
  {
    "name": "Perm Krai",
    "latitude": 58.8232,
    "dead": 131,
    "lastUpdated": "2020-07-25T07:00:07.851Z",
    "recovered": 4101,
    "infected": 5354,
    "id": "E8vIyXLVNtcY9dxLHICp",
    "pop": 2623000,
    "country": "RU",
    "longitude": 56.5872,
    "sick": 1122,
    "invisible": false
  },
  {
    "id": "EHKZ6ivhrJUs3XqNDBOw",
    "pop": 3692000,
    "country": "RU",
    "longitude": 66.9483,
    "name": "Tyumen Oblast",
    "latitude": 56.9634,
    "dead": 24,
    "lastUpdated": "2020-07-25T07:00:07.851Z",
    "recovered": 3687,
    "infected": 5190,
    "sick": 1479,
    "invisible": false
  },
  {
    "latitude": 25.03841,
    "dead": 7,
    "lastUpdated": "2020-07-25T07:16:03.635Z",
    "recovered": 440,
    "infected": 458,
    "id": "EKTfs8e7M6DXzI1HqyyX",
    "pop": 23780000,
    "country": "TW",
    "longitude": 121.563698,
    "name": "Taiwan",
    "sick": 11,
    "invisible": false
  },
  {
    "longitude": -84.387618,
    "name": "Costa Rica",
    "latitude": 10.327273,
    "dead": 87,
    "lastUpdated": "2020-07-25T07:16:03.625Z",
    "recovered": 3505,
    "infected": 13669,
    "id": "EQzJvzVHKjs8kLmK7BMu",
    "pop": 4906000,
    "country": "CR",
    "sick": 10077,
    "invisible": false
  },
  {
    "name": "Gujarat",
    "latitude": 22.2587,
    "dead": 2282,
    "lastUpdated": "2020-07-25T07:11:06.982Z",
    "recovered": 38931,
    "infected": 53631,
    "id": "ERwk9R9en4m9WbdoMbIg",
    "pop": 62700000,
    "country": "IN",
    "longitude": 71.1924,
    "sick": 12418,
    "invisible": false
  },
  {
    "name": "Arkhangelsk Oblast",
    "latitude": 63.2853,
    "dead": 148,
    "lastUpdated": "2020-07-25T07:00:07.828Z",
    "recovered": 6559,
    "infected": 8225,
    "id": "EVMBsgCJedjHy91mDYEC",
    "pop": 1155000,
    "country": "RU",
    "longitude": 42.5884,
    "sick": 1518,
    "invisible": false
  },
  {
    "longitude": 76.7794,
    "name": "Chandigarh",
    "latitude": 30.7333,
    "dead": 13,
    "lastUpdated": "2020-07-25T07:11:06.988Z",
    "recovered": 535,
    "infected": 823,
    "id": "Esl5UlCVB9s8pmGB5Ofr",
    "pop": 1055000,
    "country": "IN",
    "sick": 275,
    "invisible": false
  },
  {
    "latitude": 51.24,
    "dead": 20,
    "lastUpdated": "2020-07-25T07:03:01.398Z",
    "recovered": 0,
    "infected": 899,
    "id": "Esy1La2CxwH5uB8bGVWZ",
    "pop": 2148000,
    "country": "PL",
    "longitude": 22.653,
    "name": "Lubelskie",
    "sick": 879,
    "invisible": false
  },
  {
    "longitude": -66.664513,
    "name": "Puerto Rico",
    "alwaysShow": true,
    "dead": 191,
    "latitude": 18.200178,
    "infected": 13967,
    "recovered": 0,
    "pop": 3195000,
    "country": "US",
    "lastUpdated": "2020-07-25T07:17:02.182Z",
    "state": "PR",
    "id": "F4rPrEVGAIMM5rfPEMv4",
    "sick": 13776,
    "invisible": false
  },
  {
    "lastUpdated": "2020-07-25T07:21:46.910Z",
    "recovered": 3273,
    "infected": 6825,
    "id": "F7MED5VwEhi3JvJu6KjB",
    "pop": 2919000,
    "country": "CO",
    "longitude": -74.058655,
    "name": "Cundinamarca",
    "latitude": 4.862437,
    "dead": 161,
    "sick": 3391,
    "invisible": false
  },
  {
    "name": "Comoros",
    "latitude": -11.6455,
    "dead": 7,
    "lastUpdated": "2020-07-25T07:16:03.636Z",
    "recovered": 324,
    "infected": 340,
    "id": "F8LnLqvuWoWh8awBqiw1",
    "pop": 832322,
    "country": "KM",
    "longitude": 43.3333,
    "sick": 9,
    "invisible": false
  },
  {
    "longitude": 67.709953,
    "name": "Afghanistan",
    "latitude": 33.93911,
    "dead": 1246,
    "lastUpdated": "2020-07-25T07:16:03.621Z",
    "recovered": 24793,
    "infected": 36036,
    "id": "FCDmlmnIIswd8bQiUjfN",
    "pop": 35530000,
    "country": "AF",
    "sick": 9997,
    "invisible": false
  },
  {
    "latitude": 29.431585,
    "dead": 6,
    "lastUpdated": "2020-07-25T07:23:05.064Z",
    "recovered": 576,
    "infected": 583,
    "id": "FErOU1m4Tj7jIkRam3vF",
    "pop": 30480000,
    "country": "CN",
    "longitude": 106.912254,
    "name": "Chongqing",
    "sick": 1,
    "invisible": false
  },
  {
    "latitude": 29.311661,
    "dead": 425,
    "lastUpdated": "2020-07-25T07:16:03.618Z",
    "recovered": 52915,
    "infected": 62625,
    "id": "FZsUkhxBEgqsPb4eO0PN",
    "pop": 4137000,
    "country": "KW",
    "longitude": 47.481766,
    "name": "Kuwait",
    "sick": 9285,
    "invisible": false
  },
  {
    "recovered": 0,
    "infected": 51132,
    "state": "SE",
    "id": "FboWeolpM62SZCLwdilT",
    "pop": 2278308,
    "country": "BR",
    "longitude": -37.0717,
    "name": "Sergipe",
    "latitude": -10.9111,
    "dead": 1284,
    "lastUpdated": "2020-07-25T06:57:02.264Z",
    "sick": 49848,
    "invisible": false
  },
  {
    "lastUpdated": "2020-07-25T07:11:06.980Z",
    "recovered": 143297,
    "infected": 199749,
    "id": "FeS45oMNC27pI17F0xEV",
    "pop": 67860000,
    "country": "IN",
    "longitude": 78.6569,
    "name": "Tamil Nadu",
    "latitude": 11.1271,
    "dead": 3320,
    "sick": 53132,
    "invisible": false
  },
  {
    "id": "FuiVEJvWb0QMCpxJ3563",
    "pop": 10770000,
    "country": "DO",
    "longitude": -70.430399,
    "name": "Dominican Republic",
    "latitude": 18.947829,
    "dead": 1036,
    "lastUpdated": "2020-07-25T07:16:03.618Z",
    "recovered": 27625,
    "infected": 59077,
    "sick": 30416,
    "invisible": false
  },
  {
    "id": "FyC551oNwmENxbr9Yght",
    "pop": 35190000,
    "country": "IN",
    "longitude": 79.0193,
    "name": "Telengana",
    "latitude": 18.1124,
    "dead": 455,
    "lastUpdated": "2020-07-25T07:11:06.982Z",
    "recovered": 40334,
    "infected": 52466,
    "sick": 11677,
    "invisible": false
  },
  {
    "lastUpdated": "2020-07-25T07:16:03.631Z",
    "recovered": 1577,
    "infected": 2118,
    "id": "FzIDXoqWnTI3nUfhPyT2",
    "pop": 5450000,
    "country": "SK",
    "longitude": 19.699,
    "name": "Slovakia",
    "latitude": 48.669,
    "dead": 28,
    "sick": 513,
    "invisible": false
  },
  {
    "name": "Pakistan",
    "latitude": 30.37532,
    "dead": 5787,
    "lastUpdated": "2020-07-25T07:16:03.615Z",
    "recovered": 236596,
    "infected": 271887,
    "id": "GAp7Wb6IMhdgbvEtMza9",
    "pop": 197000000,
    "country": "PK",
    "longitude": 69.345116,
    "sick": 29504,
    "invisible": false
  },
  {
    "lastUpdated": "2020-07-25T07:11:06.985Z",
    "recovered": 8096,
    "infected": 12216,
    "id": "GGru8cG08mANO8XDDUtZ",
    "pop": 27980000,
    "country": "IN",
    "longitude": 75.3412,
    "name": "Punjab",
    "latitude": 31.1471,
    "dead": 282,
    "sick": 3838,
    "invisible": false
  },
  {
    "name": "United Arab Emirates",
    "latitude": 23.424076,
    "dead": 343,
    "lastUpdated": "2020-07-25T07:16:03.618Z",
    "recovered": 51235,
    "infected": 58249,
    "id": "GHzBIsHy2GiBc5JV2HMs",
    "pop": 9400000,
    "country": "AE",
    "longitude": 53.847816,
    "sick": 6671,
    "invisible": false
  },
  {
    "latitude": 37.0902,
    "dead": 3,
    "lastUpdated": "2020-07-25T07:17:02.182Z",
    "recovered": 0,
    "infected": 103,
    "id": "GLViSIjDjwvptOphedAu",
    "country": "US",
    "longitude": -95.7129,
    "invisible": true,
    "name": "Grand Princess",
    "sick": 100
  },
  {
    "country": "GB",
    "longitude": -0.1278,
    "name": "London",
    "latitude": 51.5074,
    "dead": 0,
    "lastUpdated": "2020-07-25T07:13:11.413Z",
    "recovered": 0,
    "infected": 34864,
    "state": "EN",
    "id": "GPtoS0Yy2EnNafpmmTqY",
    "pop": 10100000,
    "sick": 34864,
    "invisible": false
  },
  {
    "lastUpdated": "2020-07-25T07:17:02.173Z",
    "recovered": 0,
    "infected": 442938,
    "state": "CA",
    "id": "Gh46r6vuaY7fbGt3IboN",
    "pop": 39560000,
    "country": "US",
    "longitude": -119.339046,
    "name": "California",
    "latitude": 36.621981,
    "dead": 8337,
    "sick": 434601,
    "invisible": false
  },
  {
    "recovered": 531,
    "infected": 864,
    "id": "GljWeVnun6o9DeW6rlEm",
    "pop": 343709,
    "country": "IN",
    "longitude": 72.8397,
    "name": "Dadra and Nagar Haveli",
    "latitude": 20.4283,
    "dead": 2,
    "lastUpdated": "2020-07-25T07:11:06.988Z",
    "sick": 331,
    "invisible": false
  },
  {
    "recovered": 0,
    "infected": 29116,
    "state": "OK",
    "id": "GpF8ULuKOQiFDCUHN44h",
    "pop": 3943000,
    "country": "US",
    "longitude": -97.145514,
    "name": "Oklahoma",
    "latitude": 35.87189,
    "dead": 484,
    "lastUpdated": "2020-07-25T07:17:02.179Z",
    "sick": 28632,
    "invisible": false
  },
  {
    "recovered": 106,
    "infected": 174,
    "id": "Gr09a1wn3BnMqjQbgEun",
    "pop": 256627,
    "country": "CO",
    "longitude": -71.557,
    "name": "Arauca",
    "latitude": 6.492,
    "dead": 1,
    "lastUpdated": "2020-07-25T07:21:46.912Z",
    "sick": 67,
    "invisible": false
  },
  {
    "latitude": 57.1057,
    "dead": 74,
    "lastUpdated": "2020-07-25T07:00:07.829Z",
    "recovered": 4618,
    "infected": 6222,
    "id": "GsecjBfopdgTOnyRgtCA",
    "pop": 1014000,
    "country": "RU",
    "longitude": 41.483,
    "name": "Ivanovo Oblast",
    "sick": 1530,
    "invisible": false
  },
  {
    "longitude": 11.35,
    "name": "P.A. Bolzano",
    "latitude": 46.5,
    "dead": 292,
    "lastUpdated": "2020-07-25T07:01:09.441Z",
    "recovered": 2312,
    "infected": 2687,
    "state": "BA",
    "id": "Gzx6GX1qhBm714BkEC6l",
    "pop": 520891,
    "country": "IT",
    "sick": 83,
    "invisible": false
  },
  {
    "recovered": 241,
    "infected": 251,
    "id": "H3JeVigVbo5CSYfZG4WI",
    "pop": 24710000,
    "country": "CN",
    "longitude": 113.750972,
    "name": "Inner Mongolia",
    "latitude": 42.83263,
    "dead": 1,
    "lastUpdated": "2020-07-25T07:23:05.063Z",
    "sick": 9,
    "invisible": false
  },
  {
    "longitude": -116.724977,
    "name": "Nevada",
    "latitude": 39.74536,
    "dead": 722,
    "lastUpdated": "2020-07-25T07:17:02.178Z",
    "recovered": 0,
    "infected": 40885,
    "state": "NV",
    "id": "H3bDg4eV30up4WWrIDAS",
    "pop": 3034000,
    "country": "US",
    "sick": 40163,
    "invisible": false
  },
  {
    "longitude": -38.526669,
    "name": "Ceará",
    "latitude": -3.731862,
    "dead": 7426,
    "lastUpdated": "2020-07-25T06:57:02.259Z",
    "recovered": 0,
    "infected": 158824,
    "state": "CE",
    "id": "HEMWNnFxeFEoeOCBOLJD",
    "pop": 9075649,
    "country": "BR",
    "sick": 151398,
    "invisible": false
  },
  {
    "name": "Karnataka",
    "latitude": 15.3173,
    "dead": 1726,
    "lastUpdated": "2020-07-25T07:11:06.981Z",
    "recovered": 31347,
    "infected": 85870,
    "id": "HN5mGmxlqlSeFSNeu1K5",
    "pop": 64060000,
    "country": "IN",
    "longitude": 75.7139,
    "sick": 52797,
    "invisible": false
  },
  {
    "country": "BT",
    "longitude": 90.4336,
    "name": "Bhutan",
    "latitude": 27.5142,
    "dead": 0,
    "lastUpdated": "2020-07-25T07:16:03.637Z",
    "recovered": 85,
    "infected": 92,
    "id": "HRDpwyxpqW9RN0xLFyNu",
    "pop": 807610,
    "sick": 7,
    "invisible": false
  },
  {
    "latitude": 41.3775,
    "dead": 107,
    "lastUpdated": "2020-07-25T07:16:03.623Z",
    "recovered": 10472,
    "infected": 19653,
    "id": "HRTA10dtrruDEwjJEGMp",
    "pop": 32390000,
    "country": "UZ",
    "longitude": 64.5853,
    "name": "Uzbekistan",
    "sick": 9074,
    "invisible": false
  },
  {
    "country": "US",
    "longitude": -105.576255,
    "name": "New Mexico",
    "latitude": 34.138916,
    "dead": 601,
    "lastUpdated": "2020-07-25T07:17:02.179Z",
    "recovered": 0,
    "infected": 18475,
    "state": "NM",
    "id": "HSSFomRju0doHhWgW8On",
    "pop": 2095000,
    "sick": 17874,
    "invisible": false
  },
  {
    "latitude": -40.231,
    "dead": 13,
    "lastUpdated": "2020-07-25T07:20:03.963Z",
    "recovered": 0,
    "infected": 859,
    "id": "HZkACHjW7NlYjg8vEMj2",
    "pop": 412812,
    "country": "CL",
    "longitude": -72.3311,
    "name": "Los Ríos",
    "sick": 846,
    "invisible": false
  },
  {
    "latitude": 53.6127,
    "dead": 21,
    "lastUpdated": "2020-07-25T07:00:04.194Z",
    "recovered": 786,
    "infected": 846,
    "state": "MV",
    "id": "He1gSS1v50t06i3YrqvB",
    "pop": 1635000,
    "country": "DE",
    "longitude": 12.4296,
    "name": "Mecklenburg-Vorpommern",
    "sick": 39,
    "invisible": false
  },
  {
    "latitude": 42.25,
    "dead": 470,
    "lastUpdated": "2020-07-25T07:01:09.431Z",
    "recovered": 2773,
    "infected": 3356,
    "state": "65",
    "id": "I9EqrZfbPnkioNU4wZGz",
    "pop": 1315000,
    "country": "IT",
    "longitude": 13.75,
    "name": "Abruzzo",
    "sick": 113,
    "invisible": false
  },
  {
    "country": "CN",
    "longitude": 113.373448,
    "name": "Guangdong",
    "latitude": 23.363855,
    "dead": 8,
    "lastUpdated": "2020-07-25T07:23:05.007Z",
    "recovered": 1641,
    "infected": 1669,
    "id": "IAX0OQLVnUwU7FX0ENF1",
    "pop": 113460000,
    "sick": 20,
    "invisible": false
  },
  {
    "country": "CN",
    "longitude": 113.484016,
    "name": "Henan",
    "latitude": 33.875408,
    "dead": 22,
    "lastUpdated": "2020-07-25T07:23:05.065Z",
    "recovered": 1254,
    "infected": 1276,
    "id": "IFuMrMvSjoiX5agYvllh",
    "pop": 94000000,
    "sick": 0,
    "invisible": false
  },
  {
    "longitude": -8.16667,
    "name": "Algarve",
    "latitude": 37.2,
    "dead": 15,
    "lastUpdated": "2020-07-25T07:23:01.654Z",
    "recovered": 0,
    "infected": 817,
    "id": "IHqRHC8K3OZPN8gniM7V",
    "pop": 451000,
    "country": "PT",
    "sick": 802,
    "invisible": false
  },
  {
    "lastUpdated": "2020-07-25T07:21:46.912Z",
    "recovered": 1424,
    "infected": 1984,
    "id": "IKWjRUo0SYgHQKdWjTvq",
    "pop": 333194,
    "country": "CO",
    "longitude": -77.0197,
    "name": "Buenaventura D.E.",
    "latitude": 3.883,
    "dead": 130,
    "sick": 430,
    "invisible": false
  },
  {
    "name": "East Midlands",
    "latitude": 52.87,
    "dead": 0,
    "lastUpdated": "2020-07-25T07:13:11.413Z",
    "recovered": 0,
    "infected": 22903,
    "state": "EN",
    "id": "INyu1R48Ppv8cfW4Nuz4",
    "pop": 4811000,
    "country": "GB",
    "longitude": -0.995,
    "sick": 22903,
    "invisible": false
  },
  {
    "id": "ISRKMzEDojyrZ9iyWwex",
    "pop": 1342600,
    "country": "MX",
    "longitude": -102.317,
    "name": "Aguascalientes",
    "latitude": 22.017,
    "dead": 252,
    "lastUpdated": "2020-07-25T07:02:01.612Z",
    "recovered": 0,
    "infected": 4675,
    "sick": 4423,
    "invisible": false
  },
  {
    "name": "Nuevo León",
    "latitude": 25.686613,
    "dead": 927,
    "lastUpdated": "2020-07-25T07:02:01.612Z",
    "recovered": 0,
    "infected": 27592,
    "id": "IdKbgzgKLpjBFh4UPOwu",
    "pop": 5321300,
    "country": "MX",
    "longitude": -100.316116,
    "sick": 26665,
    "invisible": false
  },
  {
    "lastUpdated": "2020-07-25T07:02:01.611Z",
    "recovered": 0,
    "infected": 7249,
    "id": "IhhiYI6T0TX4CYVPcnmH",
    "pop": 3826900,
    "country": "MX",
    "longitude": -106.069099,
    "name": "Chihuahua",
    "latitude": 28.632996,
    "dead": 856,
    "sick": 6393,
    "invisible": false
  },
  {
    "latitude": -36.7,
    "dead": 59,
    "lastUpdated": "2020-07-25T07:20:03.963Z",
    "recovered": 0,
    "infected": 3349,
    "id": "ImnOiVx9Cb8Nw7cbRcQ7",
    "pop": 480600,
    "country": "CL",
    "longitude": -72.57,
    "name": "Ñuble",
    "sick": 3290,
    "invisible": false
  },
  {
    "lastUpdated": "2020-07-25T07:16:03.626Z",
    "recovered": 4236,
    "infected": 7260,
    "id": "InZ38sIqyK7FN7XAOZoX",
    "pop": 10980000,
    "country": "HT",
    "longitude": -73.0513,
    "name": "Haiti",
    "latitude": 19.0558,
    "dead": 156,
    "sick": 2868,
    "invisible": false
  },
  {
    "name": "Georgia (US)",
    "latitude": 32.528564,
    "dead": 3442,
    "lastUpdated": "2020-07-25T07:17:02.175Z",
    "recovered": 0,
    "infected": 161401,
    "state": "GA",
    "id": "IvQkDJkTAsoIqPRAU25n",
    "pop": 10520000,
    "country": "US",
    "longitude": -83.280125,
    "sick": 157959,
    "invisible": false
  },
  {
    "name": "New Zealand",
    "latitude": -42.8285,
    "dead": 22,
    "lastUpdated": "2020-07-25T07:16:03.633Z",
    "recovered": 1513,
    "infected": 1556,
    "id": "IvVhpOoGpH6JVkGyUhXN",
    "pop": 4794000,
    "country": "NZ",
    "longitude": 172.488081,
    "sick": 21,
    "invisible": false
  },
  {
    "latitude": 28.218,
    "dead": 3,
    "lastUpdated": "2020-07-25T07:11:06.988Z",
    "recovered": 392,
    "infected": 1056,
    "id": "IwYKiIVY18NGwdGQFGWW",
    "pop": 1255000,
    "country": "IN",
    "longitude": 94.7278,
    "name": "Arunachal Pradesh",
    "sick": 661,
    "invisible": false
  },
  {
    "name": "Venezuela",
    "latitude": 6.4238,
    "dead": 134,
    "lastUpdated": "2020-07-25T07:16:03.624Z",
    "recovered": 8127,
    "infected": 14263,
    "id": "J3mZXlfEnnJx4CDZLvRG",
    "pop": 28870000,
    "country": "VE",
    "longitude": -66.5897,
    "sick": 6002,
    "invisible": false
  },
  {
    "latitude": 2.567,
    "dead": 0,
    "lastUpdated": "2020-07-25T07:21:46.912Z",
    "recovered": 43,
    "infected": 73,
    "id": "JEMCwkwXK39jd1lZ7VgJ",
    "pop": 107932,
    "country": "CO",
    "longitude": -72.633,
    "name": "Guaviare",
    "sick": 30,
    "invisible": false
  },
  {
    "latitude": 44.8229,
    "dead": 18,
    "lastUpdated": "2020-07-25T07:00:07.853Z",
    "recovered": 1978,
    "infected": 2496,
    "id": "JOJVBvOnsLDJPVeYJaI2",
    "pop": 453000,
    "country": "RU",
    "longitude": 40.1754,
    "name": "Adygea",
    "sick": 500,
    "invisible": false
  },
  {
    "longitude": 33.4299,
    "name": "Cyprus",
    "latitude": 35.1264,
    "dead": 19,
    "lastUpdated": "2020-07-25T07:16:03.634Z",
    "recovered": 847,
    "infected": 1047,
    "id": "JQByE4l2OA6sGOqIcWrM",
    "pop": 1170000,
    "country": "CY",
    "sick": 181,
    "invisible": false
  },
  {
    "id": "JR7hOGked7CZtIs2nCV5",
    "pop": 99020000,
    "country": "IN",
    "longitude": 85.3131,
    "name": "Bihar",
    "latitude": 25.0961,
    "dead": 221,
    "lastUpdated": "2020-07-25T07:11:06.982Z",
    "recovered": 22832,
    "infected": 33511,
    "sick": 10458,
    "invisible": false
  },
  {
    "lastUpdated": "2020-07-25T07:16:03.619Z",
    "recovered": 30150,
    "infected": 43283,
    "id": "JUWE6bG3b5oL7fKQMSvv",
    "pop": 17250000,
    "country": "GT",
    "longitude": -90.522713,
    "name": "Guatemala",
    "latitude": 14.628434,
    "dead": 1669,
    "sick": 11464,
    "invisible": false
  },
  {
    "longitude": 6.1296,
    "name": "Luxembourg",
    "latitude": 49.8153,
    "dead": 112,
    "lastUpdated": "2020-07-25T07:16:03.626Z",
    "recovered": 4647,
    "infected": 6056,
    "id": "JcFsHSn2WvZ5LJW42ovG",
    "pop": 602005,
    "country": "LU",
    "sick": 1297,
    "invisible": false
  },
  {
    "longitude": -74.167,
    "name": "Bolívar",
    "latitude": 8.8,
    "dead": 90,
    "lastUpdated": "2020-07-25T07:21:46.911Z",
    "recovered": 1088,
    "infected": 1990,
    "id": "JmOyaFe25yZCIV64JbZj",
    "pop": 2049000,
    "country": "CO",
    "sick": 812,
    "invisible": false
  },
  {
    "latitude": 31.4,
    "dead": 2510,
    "lastUpdated": "2020-07-25T07:02:01.610Z",
    "recovered": 0,
    "infected": 12659,
    "id": "Jp9ePErcc8i1aOozEAMf",
    "pop": 3648100,
    "country": "MX",
    "longitude": -115.783,
    "name": "Baja California",
    "sick": 10149,
    "invisible": false
  },
  {
    "name": "Córdoba",
    "latitude": 8.7479801,
    "dead": 404,
    "lastUpdated": "2020-07-25T07:21:46.911Z",
    "recovered": 895,
    "infected": 3458,
    "id": "Jr8syCB0lydmPDXw8Q6N",
    "pop": 1786500,
    "country": "CO",
    "longitude": -75.8814316,
    "sick": 2159,
    "invisible": false
  },
  {
    "recovered": 585,
    "infected": 839,
    "id": "JrBbirlBKGdWSdcDt7PF",
    "pop": 7798000,
    "country": "TG",
    "longitude": 0.8248,
    "name": "Togo",
    "latitude": 8.6195,
    "dead": 17,
    "lastUpdated": "2020-07-25T07:16:03.634Z",
    "sick": 237,
    "invisible": false
  },
  {
    "id": "JzZ8sbqzjutThVjkPKPL",
    "pop": 7050000,
    "country": "BG",
    "longitude": 25.4858,
    "name": "Bulgaria",
    "latitude": 42.7339,
    "dead": 337,
    "lastUpdated": "2020-07-25T07:16:03.625Z",
    "recovered": 5252,
    "infected": 10123,
    "sick": 4534,
    "invisible": false
  },
  {
    "name": "Świętokrzyskie",
    "latitude": 50.823,
    "dead": 45,
    "lastUpdated": "2020-07-25T07:03:01.398Z",
    "recovered": 0,
    "infected": 938,
    "id": "KGrK7gafkeWjmU6sHQd2",
    "pop": 1263000,
    "country": "PL",
    "longitude": 20.709,
    "sick": 893,
    "invisible": false
  },
  {
    "name": "Sverdlovsk Oblast",
    "latitude": 59.0077,
    "dead": 220,
    "lastUpdated": "2020-07-25T07:00:07.827Z",
    "recovered": 13816,
    "infected": 18981,
    "id": "KLBR5QHW6DePaGcFxlqH",
    "pop": 4325000,
    "country": "RU",
    "longitude": 61.9316,
    "sick": 4945,
    "invisible": false
  },
  {
    "country": "IT",
    "longitude": 8.833,
    "name": "Liguria",
    "latitude": 44.5,
    "dead": 1566,
    "lastUpdated": "2020-07-25T07:01:09.440Z",
    "recovered": 8380,
    "infected": 10144,
    "state": "42",
    "id": "KLXicxFogWnu0dLp4bNK",
    "pop": 1557000,
    "sick": 198,
    "invisible": false
  },
  {
    "name": "Mari El Republic",
    "latitude": 56.4385,
    "dead": 31,
    "lastUpdated": "2020-07-25T07:00:07.852Z",
    "recovered": 3076,
    "infected": 3627,
    "id": "KUnAVGJH6fLwFetE8A2x",
    "pop": 682000,
    "country": "RU",
    "longitude": 47.9608,
    "sick": 520,
    "invisible": false
  },
  {
    "recovered": 1259,
    "infected": 2367,
    "id": "KpOz3WmiZkrXUMlUJNlV",
    "pop": 1201000,
    "country": "CO",
    "longitude": -73.2532,
    "name": "Cesar",
    "latitude": 10.4631,
    "dead": 46,
    "lastUpdated": "2020-07-25T07:21:46.911Z",
    "sick": 1062,
    "invisible": false
  },
  {
    "state": "52",
    "id": "KrLrJbpDqqiXgUPGCCW9",
    "pop": 3737000,
    "country": "IT",
    "longitude": 11,
    "name": "Toscana",
    "latitude": 43.4167,
    "dead": 1131,
    "lastUpdated": "2020-07-25T07:01:09.442Z",
    "recovered": 8939,
    "infected": 10405,
    "sick": 335,
    "invisible": false
  },
  {
    "longitude": 80.771797,
    "name": "Sri Lanka",
    "latitude": 7.873054,
    "dead": 11,
    "lastUpdated": "2020-07-25T07:16:03.629Z",
    "recovered": 2094,
    "infected": 2764,
    "id": "KsWzJO06cf0d6LJ4ZNh9",
    "pop": 21440000,
    "country": "LK",
    "sick": 659,
    "invisible": false
  },
  {
    "longitude": 79.74,
    "name": "Andhra Pradesh",
    "latitude": 15.9129,
    "dead": 933,
    "lastUpdated": "2020-07-25T07:11:06.981Z",
    "recovered": 39935,
    "infected": 80858,
    "id": "KtQIo2DoqjELtPAlyDVO",
    "pop": 49670000,
    "country": "IN",
    "sick": 39990,
    "invisible": false
  },
  {
    "recovered": 39,
    "infected": 46,
    "id": "LBUtrLDKJiupXjlUNTUe",
    "pop": 32125,
    "country": "FR",
    "longitude": -63.0501,
    "name": "Saint-Martin",
    "alwaysShow": true,
    "latitude": 18.0708,
    "dead": 3,
    "lastUpdated": "2020-07-25T07:16:03.638Z",
    "sick": 4,
    "invisible": false
  },
  {
    "longitude": 36.9242,
    "name": "Oryol Oblast",
    "latitude": 52.7856,
    "dead": 81,
    "lastUpdated": "2020-07-25T07:00:07.830Z",
    "recovered": 4102,
    "infected": 5447,
    "id": "LD8TNScpLrLRvgpQAn9T",
    "pop": 747000,
    "country": "RU",
    "sick": 1264,
    "invisible": false
  },
  {
    "lastUpdated": "2020-07-25T07:16:03.638Z",
    "recovered": 81,
    "infected": 86,
    "id": "LTGEU2E9MFkrCcFhZYVk",
    "pop": 38557,
    "country": "LI",
    "longitude": 9.5554,
    "name": "Liechtenstein",
    "latitude": 47.166,
    "dead": 1,
    "sick": 4,
    "invisible": false
  },
  {
    "longitude": -9.6966,
    "name": "Guinea",
    "latitude": 9.9456,
    "dead": 42,
    "lastUpdated": "2020-07-25T07:16:03.626Z",
    "recovered": 6063,
    "infected": 6867,
    "id": "LU2QWt5ao8IJa8evNYVV",
    "pop": 12720000,
    "country": "GN",
    "sick": 762,
    "invisible": false
  },
  {
    "latitude": 29.6667,
    "dead": 1660,
    "lastUpdated": "2020-07-25T07:02:01.611Z",
    "recovered": 0,
    "infected": 16649,
    "id": "LYCBHrA9ms6GcxpLGPCT",
    "pop": 3062000,
    "country": "MX",
    "longitude": -110.5,
    "name": "Sonora",
    "sick": 14989,
    "invisible": false
  },
  {
    "recovered": 804,
    "infected": 1305,
    "id": "LglKINHyQpYpFxjckbQ6",
    "pop": 563402,
    "country": "SR",
    "longitude": -56.0277824,
    "name": "Suriname",
    "latitude": 3.9193051,
    "dead": 23,
    "lastUpdated": "2020-07-25T07:16:03.633Z",
    "sick": 478,
    "invisible": false
  },
  {
    "longitude": -106.4509,
    "name": "Saskatchewan",
    "latitude": 52.9399,
    "dead": 16,
    "lastUpdated": "2020-07-25T07:07:02.225Z",
    "recovered": 848,
    "infected": 1099,
    "state": "SK",
    "id": "LkIDKY0CMAqzbwBHyYCP",
    "pop": 1174000,
    "country": "CA",
    "sick": 235,
    "invisible": false
  },
  {
    "country": "EH",
    "longitude": -12.8858,
    "name": "Western Sahara",
    "latitude": 24.2155,
    "dead": 1,
    "lastUpdated": "2020-07-25T07:16:03.641Z",
    "recovered": 8,
    "infected": 10,
    "id": "LooNn6RuMiDhQnwa9svw",
    "pop": 636442,
    "sick": 1,
    "invisible": false
  },
  {
    "lastUpdated": "2020-07-24T23:41:08.388Z",
    "recovered": 1063,
    "infected": 3439,
    "state": "AS",
    "id": "Lsga7AvYNnY0qQ5gEfV8",
    "pop": 1022000,
    "country": "ES",
    "longitude": -5.951843,
    "name": "Principado de Asturias",
    "latitude": 43.363129,
    "dead": 334,
    "sick": 2042,
    "invisible": false
  },
  {
    "longitude": -6.0679,
    "name": "Extremadura",
    "latitude": 39.4937,
    "dead": 519,
    "lastUpdated": "2020-07-24T23:40:18.750Z",
    "recovered": 2652,
    "infected": 4303,
    "state": "EX",
    "id": "LuEErlF7dVKI0eJsRjFm",
    "pop": 1065000,
    "country": "ES",
    "sick": 1132,
    "invisible": false
  },
  {
    "id": "M3wdiueFtwrUHiQ2rOXA",
    "pop": 5965000,
    "country": "MX",
    "longitude": -101.2591,
    "name": "Guanajuato",
    "latitude": 21.0186,
    "dead": 1129,
    "lastUpdated": "2020-07-25T07:02:01.611Z",
    "recovered": 0,
    "infected": 18712,
    "sick": 17583,
    "invisible": false
  },
  {
    "state": "KY",
    "id": "MC8MXFw9iXYybnF8v7e6",
    "pop": 4468000,
    "country": "US",
    "longitude": -84.27,
    "name": "Kentucky",
    "latitude": 37.8393,
    "dead": 691,
    "lastUpdated": "2020-07-25T07:17:02.179Z",
    "recovered": 0,
    "infected": 25931,
    "sick": 25240,
    "invisible": false
  },
  {
    "id": "MEjlm8VYdGA28TTTnQmf",
    "country": "GB",
    "longitude": -3.436,
    "invisible": true,
    "name": "Unknown UK region or state",
    "latitude": 55.3781,
    "dead": 41082,
    "lastUpdated": "2020-07-25T07:13:11.414Z",
    "recovered": 0,
    "infected": 8411,
    "sick": 0
  },
  {
    "name": "Norte",
    "latitude": 41.3006,
    "dead": 828,
    "lastUpdated": "2020-07-25T07:23:01.654Z",
    "recovered": 0,
    "infected": 18441,
    "id": "MG4e9tulLJ010SZJvbYN",
    "pop": 3689000,
    "country": "PT",
    "longitude": -7.7441,
    "sick": 17613,
    "invisible": false
  },
  {
    "latitude": 56.4907,
    "dead": 2491,
    "lastUpdated": "2020-07-25T07:13:11.412Z",
    "recovered": 0,
    "infected": 18520,
    "state": "SC",
    "id": "MObRYyIriHG337L8FyFC",
    "pop": 5450000,
    "country": "GB",
    "longitude": -4.2026,
    "name": "Scotland",
    "sick": 16029,
    "invisible": false
  },
  {
    "country": "US",
    "longitude": -86.1349,
    "name": "Indiana",
    "latitude": 40.2672,
    "dead": 2884,
    "lastUpdated": "2020-07-25T07:17:02.177Z",
    "recovered": 0,
    "infected": 60598,
    "state": "IN",
    "id": "MOxDkmQ4wBi1CuAdVxDE",
    "pop": 6692000,
    "sick": 57714,
    "invisible": false
  },
  {
    "lastUpdated": "2020-07-25T07:16:03.623Z",
    "recovered": 9499,
    "infected": 15253,
    "id": "MdQOfc1gNh2DOqwSP6UV",
    "pop": 24290000,
    "country": "CI",
    "longitude": -5.5471,
    "name": "Ivory Coast",
    "latitude": 7.54,
    "dead": 94,
    "sick": 5660,
    "invisible": false
  },
  {
    "recovered": 43139,
    "infected": 47249,
    "state": "NW",
    "id": "MjpYq3zQyAvSQlVVYjD2",
    "pop": 17910000,
    "country": "DE",
    "longitude": 7.6616,
    "name": "Nordrhein-Westfalen",
    "latitude": 51.4332,
    "dead": 1740,
    "lastUpdated": "2020-07-25T07:00:04.194Z",
    "sick": 2370,
    "invisible": false
  },
  {
    "latitude": 37.330509,
    "dead": 0,
    "lastUpdated": "2020-07-25T07:23:05.073Z",
    "recovered": 75,
    "infected": 75,
    "id": "MntmjjuHljarCdt6aIeE",
    "pop": 6301000,
    "country": "CN",
    "longitude": 105.977203,
    "name": "Ningxia",
    "sick": 0,
    "invisible": false
  },
  {
    "latitude": -3.20166586,
    "dead": 5646,
    "lastUpdated": "2020-07-25T06:57:02.261Z",
    "recovered": 0,
    "infected": 146252,
    "state": "PA",
    "id": "MuEB2UgkId5crsxi9zQT",
    "pop": 8513497,
    "country": "BR",
    "longitude": -52.203499186,
    "name": "Pará",
    "sick": 140606,
    "invisible": false
  },
  {
    "id": "N0KGfqgROVOjAxWcd8wi",
    "pop": 1150000,
    "country": "RU",
    "longitude": 39.2032,
    "name": "Lipetsk Oblast",
    "latitude": 52.5265,
    "dead": 21,
    "lastUpdated": "2020-07-25T07:00:07.851Z",
    "recovered": 3517,
    "infected": 4460,
    "sick": 922,
    "invisible": false
  },
  {
    "name": "Baden-Württemberg",
    "latitude": 48.6616,
    "dead": 1898,
    "lastUpdated": "2020-07-25T07:00:04.190Z",
    "recovered": 34180,
    "infected": 37204,
    "state": "BW",
    "id": "N3XsRBwJSsNclkEf7Zz5",
    "pop": 11020000,
    "country": "DE",
    "longitude": 9.3501,
    "sick": 1126,
    "invisible": false
  },
  {
    "id": "N7c13sCQF0G789XAVazJ",
    "pop": 3507000,
    "country": "BA",
    "longitude": 17.824332,
    "name": "Bosnia and Herzegovina",
    "latitude": 44.696652,
    "dead": 280,
    "lastUpdated": "2020-07-25T07:16:03.625Z",
    "recovered": 4555,
    "infected": 9767,
    "sick": 4932,
    "invisible": false
  },
  {
    "id": "NBRIGIRrJB1Ry8prDNAC",
    "pop": 36500000,
    "country": "CN",
    "longitude": 111.856857,
    "name": "Shanxi",
    "latitude": 37.242565,
    "dead": 0,
    "lastUpdated": "2020-07-25T07:23:05.066Z",
    "recovered": 201,
    "infected": 201,
    "sick": 0,
    "invisible": false
  },
  {
    "recovered": 0,
    "infected": 109271,
    "state": "NC",
    "id": "NC64Qp5kTqAfiTuR27k8",
    "pop": 10380000,
    "country": "US",
    "longitude": -79.0193,
    "name": "North Carolina",
    "latitude": 35.7596,
    "dead": 1778,
    "lastUpdated": "2020-07-25T07:17:02.176Z",
    "sick": 107493,
    "invisible": false
  },
  {
    "state": "BB",
    "id": "NJjo2gfBvnbK4xatrsUz",
    "pop": 2504000,
    "country": "DE",
    "longitude": 12.5316,
    "name": "Brandenburg",
    "latitude": 52.4125,
    "dead": 177,
    "lastUpdated": "2020-07-25T07:00:04.193Z",
    "recovered": 3290,
    "infected": 3571,
    "sick": 104,
    "invisible": false
  },
  {
    "name": "Northern Mariana Islands",
    "alwaysShow": true,
    "dead": 2,
    "latitude": 15.0979,
    "infected": 38,
    "recovered": 0,
    "pop": 55144,
    "country": "US",
    "lastUpdated": "2020-07-25T07:17:02.182Z",
    "state": "MP",
    "id": "NLLL6pJhJSw0lrDMD4uP",
    "longitude": 145.6739,
    "sick": 36,
    "invisible": false
  },
  {
    "country": "IN",
    "longitude": 79.0193,
    "name": "Uttarakhand",
    "latitude": 30.0668,
    "dead": 62,
    "lastUpdated": "2020-07-25T07:11:06.986Z",
    "recovered": 3441,
    "infected": 5717,
    "id": "NMeZEcGToxXfpi16PfFV",
    "pop": 10080000,
    "sick": 2214,
    "invisible": false
  },
  {
    "lastUpdated": "2020-07-25T07:00:04.193Z",
    "recovered": 10675,
    "infected": 11650,
    "state": "HE",
    "id": "Nk5vPgUIXsWVfbWZf15O",
    "pop": 6243000,
    "country": "DE",
    "longitude": 9.1624,
    "name": "Hessen",
    "latitude": 50.6521,
    "dead": 524,
    "sick": 451,
    "invisible": false
  },
  {
    "lastUpdated": "2020-07-25T07:16:03.633Z",
    "recovered": 1045,
    "infected": 1205,
    "id": "NmmMKy0YqA8StHdGzB5N",
    "pop": 1920000,
    "country": "LV",
    "longitude": 25.837107,
    "name": "Latvia",
    "latitude": 56.96776,
    "dead": 31,
    "sick": 129,
    "invisible": false
  },
  {
    "recovered": 0,
    "infected": 85042,
    "state": "PE",
    "id": "NyGlFL1gATK1Omv9qtcC",
    "pop": 9496294,
    "country": "BR",
    "longitude": -37.946777,
    "name": "Pernambuco",
    "latitude": -8.472372,
    "dead": 6237,
    "lastUpdated": "2020-07-25T06:57:02.263Z",
    "sick": 78805,
    "invisible": false
  },
  {
    "latitude": 6.4281,
    "dead": 71,
    "lastUpdated": "2020-07-25T07:16:03.633Z",
    "recovered": 621,
    "infected": 1135,
    "id": "O4g88K49HKEZLFXm5gxb",
    "pop": 4732000,
    "country": "LR",
    "longitude": -9.4295,
    "name": "Liberia",
    "sick": 443,
    "invisible": false
  },
  {
    "id": "O5fNOGWKosps6JTrzkpn",
    "pop": 2350000,
    "country": "RU",
    "longitude": 82.6759,
    "name": "Altai Krai",
    "latitude": 51.7936,
    "dead": 59,
    "lastUpdated": "2020-07-25T07:00:07.828Z",
    "recovered": 5926,
    "infected": 8253,
    "sick": 2268,
    "invisible": false
  },
  {
    "name": "Zabaykalsky Krai",
    "latitude": 53.0929,
    "dead": 47,
    "lastUpdated": "2020-07-25T07:00:07.852Z",
    "recovered": 3437,
    "infected": 4002,
    "id": "O6PDzAxKENYbLsLjPx2K",
    "pop": 1072000,
    "country": "RU",
    "longitude": 116.9677,
    "sick": 518,
    "invisible": false
  },
  {
    "lastUpdated": "2020-07-25T07:17:02.177Z",
    "recovered": 0,
    "infected": 78607,
    "state": "SC",
    "id": "ONU4CK8QjViFHKg2w5if",
    "pop": 5084000,
    "country": "US",
    "longitude": -80.525613,
    "name": "South Carolina",
    "latitude": 34.003307,
    "dead": 1385,
    "sick": 77222,
    "invisible": false
  },
  {
    "name": "Mississippi",
    "latitude": 33.51822,
    "dead": 1463,
    "lastUpdated": "2020-07-25T07:17:02.178Z",
    "recovered": 0,
    "infected": 49663,
    "state": "MS",
    "id": "OYa0jFzdbAgo8zUsRv6q",
    "pop": 2987000,
    "country": "US",
    "longitude": -89.582775,
    "sick": 48200,
    "invisible": false
  },
  {
    "state": "ME",
    "id": "OcXNp9kNVSwrRlG3bNVN",
    "pop": 1338000,
    "country": "US",
    "longitude": -69.4455,
    "name": "Maine",
    "latitude": 45.2538,
    "dead": 118,
    "lastUpdated": "2020-07-25T07:17:02.181Z",
    "recovered": 0,
    "infected": 3757,
    "sick": 3639,
    "invisible": false
  },
  {
    "country": "RU",
    "longitude": 44.8203,
    "name": "Ingushetia",
    "latitude": 43.4052,
    "dead": 73,
    "lastUpdated": "2020-07-25T07:00:07.852Z",
    "recovered": 2755,
    "infected": 3529,
    "id": "OlKS5SPydHY2TedStFuf",
    "pop": 488000,
    "sick": 701,
    "invisible": false
  },
  {
    "lastUpdated": "2020-07-25T06:43:23.780Z",
    "recovered": 215,
    "infected": 229,
    "state": "TAS",
    "id": "OnOseaqWdnuP18oruABW",
    "pop": 515000,
    "country": "AU",
    "longitude": 146.725256,
    "name": "Tasmania",
    "latitude": -41.915264,
    "dead": 13,
    "sick": 1,
    "invisible": false
  },
  {
    "latitude": -16.35,
    "dead": 1501,
    "lastUpdated": "2020-07-25T06:57:02.264Z",
    "recovered": 0,
    "infected": 42206,
    "state": "MT",
    "id": "P0GHFGUt1pkKTk5PM8uz",
    "pop": 3441998,
    "country": "BR",
    "longitude": -56.666668,
    "name": "Mato Grosso",
    "sick": 40705,
    "invisible": false
  },
  {
    "recovered": 5021,
    "infected": 5402,
    "id": "P2I90oqdFSoVk03AaGo4",
    "pop": 1378000,
    "country": "RU",
    "longitude": 40.5927,
    "name": "Vladimir Oblast",
    "latitude": 56.1553,
    "dead": 121,
    "lastUpdated": "2020-07-25T07:00:07.850Z",
    "sick": 260,
    "invisible": false
  },
  {
    "name": "Cayman Islands",
    "latitude": 19.3133,
    "dead": 1,
    "lastUpdated": "2020-07-25T07:16:03.637Z",
    "recovered": 202,
    "infected": 203,
    "id": "P4mwRFLbrvT0t75uD8Wo",
    "pop": 61559,
    "country": "KY",
    "longitude": -81.2546,
    "sick": 0,
    "invisible": false
  },
  {
    "latitude": 16.7424984,
    "dead": 1,
    "lastUpdated": "2020-07-25T07:16:03.640Z",
    "recovered": 10,
    "infected": 12,
    "id": "PEDkeFMTOZpvHiSVxBk7",
    "pop": 5900,
    "country": "MS",
    "longitude": -62.1873665,
    "name": "Montserrat",
    "sick": 1,
    "invisible": false
  },
  {
    "recovered": 900,
    "infected": 1729,
    "id": "PEcgZGEkyhABztt1Ufgc",
    "pop": 12210000,
    "country": "RW",
    "longitude": 29.8739,
    "name": "Rwanda",
    "latitude": -1.9403,
    "dead": 5,
    "lastUpdated": "2020-07-25T07:16:03.632Z",
    "sick": 824,
    "invisible": false
  },
  {
    "country": "RU",
    "longitude": 56.1645,
    "name": "Bashkortostan",
    "latitude": 54.2312,
    "dead": 21,
    "lastUpdated": "2020-07-25T07:00:07.829Z",
    "recovered": 4781,
    "infected": 6500,
    "id": "PHlHdeqYd6KgxsJGfEz0",
    "pop": 4063000,
    "sick": 1698,
    "invisible": false
  },
  {
    "name": "Minnesota",
    "latitude": 46.7296,
    "dead": 1606,
    "lastUpdated": "2020-07-25T07:17:02.178Z",
    "recovered": 0,
    "infected": 49488,
    "state": "MN",
    "id": "PJvVYosLIhbcRZYnKX1R",
    "pop": 5611000,
    "country": "US",
    "longitude": -94.6859,
    "sick": 47882,
    "invisible": false
  },
  {
    "latitude": 40.6331,
    "dead": 7577,
    "lastUpdated": "2020-07-25T07:17:02.174Z",
    "recovered": 0,
    "infected": 169699,
    "state": "IL",
    "id": "PTwQr9ijo0TBBsPH2sdJ",
    "pop": 12740000,
    "country": "US",
    "longitude": -89.3985,
    "name": "Illinois",
    "sick": 162122,
    "invisible": false
  },
  {
    "latitude": 13.909444,
    "dead": 0,
    "lastUpdated": "2020-07-25T07:16:03.639Z",
    "recovered": 22,
    "infected": 24,
    "id": "PjLqCeFdyzdZNcZxMkK1",
    "pop": 178844,
    "country": "LC",
    "longitude": -60.978893,
    "name": "Saint Lucia",
    "sick": 2,
    "invisible": false
  },
  {
    "lastUpdated": "2020-07-24T23:39:59.011Z",
    "recovered": 3905,
    "infected": 9401,
    "state": "NC",
    "id": "PmUlsNx2uFLU797wwU39",
    "pop": 649900,
    "country": "ES",
    "longitude": -1.6761,
    "name": "Comunidad Foral de Navarra",
    "latitude": 42.6954,
    "dead": 529,
    "sick": 4967,
    "invisible": false
  },
  {
    "lastUpdated": "2020-07-25T07:16:03.633Z",
    "recovered": 1124,
    "infected": 1425,
    "id": "Pr76V4raf108uSRoEXac",
    "pop": 11530000,
    "country": "TN",
    "longitude": 9.460554,
    "name": "Tunisia",
    "latitude": 34.201507,
    "dead": 50,
    "sick": 251,
    "invisible": false
  },
  {
    "country": "SZ",
    "longitude": 31.4659,
    "name": "Eswatini",
    "latitude": -26.5225,
    "dead": 28,
    "lastUpdated": "2020-07-25T07:16:03.631Z",
    "recovered": 929,
    "infected": 2073,
    "id": "PuQgOd9KWiMzGZXm11sR",
    "pop": 1367000,
    "sick": 1116,
    "invisible": false
  },
  {
    "state": "VIC",
    "id": "Q18mrGvFWTLX2BU9SqhQ",
    "pop": 6359000,
    "country": "AU",
    "longitude": 143.94853,
    "name": "Victoria",
    "latitude": -37.009609,
    "dead": 55,
    "lastUpdated": "2020-07-25T06:43:23.780Z",
    "recovered": 3450,
    "infected": 7405,
    "sick": 3900,
    "invisible": false
  },
  {
    "latitude": 54.2194,
    "dead": 159,
    "lastUpdated": "2020-07-25T07:00:04.195Z",
    "recovered": 3066,
    "infected": 3316,
    "state": "SH",
    "id": "Q39XkabIYxt15mHINzTa",
    "pop": 2890000,
    "country": "DE",
    "longitude": 9.6961,
    "name": "Schleswig-Holstein",
    "sick": 91,
    "invisible": false
  },
  {
    "lastUpdated": "2020-07-25T06:57:02.263Z",
    "recovered": 0,
    "infected": 57007,
    "state": "RS",
    "id": "QGpQNhuoVTUPHXvS7qcu",
    "pop": 11329605,
    "country": "BR",
    "longitude": -52.031696,
    "name": "Rio Grande do Sul",
    "latitude": -27.953491,
    "dead": 1494,
    "sick": 55513,
    "invisible": false
  },
  {
    "latitude": 55.5596,
    "dead": 51,
    "lastUpdated": "2020-07-25T07:00:07.829Z",
    "recovered": 3485,
    "infected": 6440,
    "id": "QGyuno7Bc4kwuvGFgMiO",
    "pop": 1231000,
    "country": "RU",
    "longitude": 46.9284,
    "name": "Chuvashia",
    "sick": 2904,
    "invisible": false
  },
  {
    "country": "EE",
    "longitude": 25.013607,
    "name": "Estonia",
    "latitude": 58.595272,
    "dead": 69,
    "lastUpdated": "2020-07-25T07:16:03.631Z",
    "recovered": 1915,
    "infected": 2028,
    "id": "QR9go2hQKXjty7JHUYe4",
    "pop": 1328000,
    "sick": 44,
    "invisible": false
  },
  {
    "recovered": 3149,
    "infected": 4964,
    "id": "QTafh5fpbS8abcuyEjaL",
    "pop": 840000,
    "country": "RU",
    "longitude": 54.8313,
    "name": "Komi Republic",
    "latitude": 63.8631,
    "dead": 40,
    "lastUpdated": "2020-07-25T07:00:07.851Z",
    "sick": 1775,
    "invisible": false
  },
  {
    "lastUpdated": "2020-07-25T06:57:02.263Z",
    "recovered": 0,
    "infected": 75854,
    "state": "ES",
    "id": "QaWDLKH8SuwD0Qxq6c38",
    "pop": 3972388,
    "country": "BR",
    "longitude": -40.336,
    "name": "Espírito Santo",
    "latitude": -20.318,
    "dead": 2373,
    "sick": 73481,
    "invisible": false
  },
  {
    "lastUpdated": "2020-07-25T07:00:07.828Z",
    "recovered": 4909,
    "infected": 9146,
    "id": "Qh73PKA4KWeuPoqZfWXz",
    "pop": 795000,
    "country": "RU",
    "longitude": 35.0884,
    "name": "Murmansk Oblast",
    "latitude": 67.8443,
    "dead": 61,
    "sick": 4176,
    "invisible": false
  },
  {
    "latitude": 20.3333,
    "dead": 1361,
    "lastUpdated": "2020-07-25T07:02:01.612Z",
    "recovered": 0,
    "infected": 25277,
    "id": "Qkho455pBwx88Gohs3hL",
    "pop": 8222700,
    "country": "MX",
    "longitude": -103.6667,
    "name": "Jalisco",
    "sick": 23916,
    "invisible": false
  },
  {
    "country": "PG",
    "longitude": 143.9555,
    "name": "Papua New Guinea",
    "latitude": -6.315,
    "dead": 0,
    "lastUpdated": "2020-07-25T07:16:03.638Z",
    "recovered": 11,
    "infected": 32,
    "id": "QlZrE4nosm5WfdA2aCDg",
    "pop": 8251000,
    "sick": 21,
    "invisible": false
  },
  {
    "state": "VI",
    "id": "QqhD3YDMKXojvQY3Yu41",
    "longitude": -64.8963,
    "name": "U.S. Virgin Islands",
    "alwaysShow": true,
    "dead": 7,
    "latitude": 18.3358,
    "infected": 352,
    "recovered": 0,
    "pop": 107268,
    "country": "US",
    "lastUpdated": "2020-07-25T07:17:02.182Z",
    "sick": 345,
    "invisible": false
  },
  {
    "latitude": 15.414999,
    "dead": 0,
    "lastUpdated": "2020-07-25T07:16:03.639Z",
    "recovered": 18,
    "infected": 18,
    "id": "Qy2qW2ep5wltnYjPJBxh",
    "pop": 71937,
    "country": "DM",
    "longitude": -61.3709755,
    "name": "Dominica",
    "sick": 0,
    "invisible": false
  },
  {
    "longitude": -72.167,
    "name": "Casanare",
    "latitude": 5.167,
    "dead": 4,
    "lastUpdated": "2020-07-25T07:21:46.911Z",
    "recovered": 96,
    "infected": 202,
    "id": "R3IHMWqIUhOJJTlrmbUZ",
    "pop": 344027,
    "country": "CO",
    "sick": 102,
    "invisible": false
  },
  {
    "recovered": 32704,
    "infected": 57993,
    "id": "R8YCgephnxTufvcPWMgx",
    "pop": 4099000,
    "country": "PA",
    "longitude": -80.7821,
    "name": "Panama",
    "latitude": 8.538,
    "dead": 1250,
    "lastUpdated": "2020-07-25T07:16:03.618Z",
    "sick": 24039,
    "invisible": false
  },
  {
    "recovered": 4607,
    "infected": 37559,
    "id": "RA2SE0p2bVhqo0P2hzGY",
    "pop": 9265000,
    "country": "HN",
    "longitude": -86.2419,
    "name": "Honduras",
    "latitude": 15.2,
    "dead": 1061,
    "lastUpdated": "2020-07-25T07:16:03.620Z",
    "sick": 31891,
    "invisible": false
  },
  {
    "longitude": -70.2979202,
    "name": "Arica y Parinacota",
    "latitude": -18.4745998,
    "dead": 43,
    "lastUpdated": "2020-07-25T07:20:03.882Z",
    "recovered": 0,
    "infected": 3627,
    "id": "RBt9RiwP7WUbMnJfD0lo",
    "pop": 224500,
    "country": "CL",
    "sick": 3584,
    "invisible": false
  },
  {
    "latitude": 45.633331,
    "dead": 345,
    "lastUpdated": "2020-07-25T07:01:09.439Z",
    "recovered": 2925,
    "infected": 3368,
    "state": "36",
    "id": "RCrDBCdBNYzgLNr0aB2H",
    "pop": 1216000,
    "country": "IT",
    "longitude": 13.8,
    "name": "Friuli Venezia Giulia",
    "sick": 98,
    "invisible": false
  },
  {
    "country": "US",
    "longitude": -93.0977,
    "name": "Iowa",
    "latitude": 41.878,
    "dead": 826,
    "lastUpdated": "2020-07-25T07:17:02.178Z",
    "recovered": 0,
    "infected": 41432,
    "state": "IA",
    "id": "RX0KDu1AFrlCsrRso0nb",
    "pop": 3156000,
    "sick": 40606,
    "invisible": false
  },
  {
    "longitude": -74.063644,
    "name": "Bogotá D.C.",
    "latitude": 4.624335,
    "dead": 2000,
    "lastUpdated": "2020-07-25T07:21:46.908Z",
    "recovered": 32222,
    "infected": 77889,
    "id": "RZ6PCe5TZsO15JjDObwO",
    "pop": 7413000,
    "country": "CO",
    "sick": 43667,
    "invisible": false
  },
  {
    "lastUpdated": "2020-07-25T07:16:03.630Z",
    "recovered": 504,
    "infected": 2424,
    "id": "RaJxbzlnRFTuj4B8IbpC",
    "pop": 6846000,
    "country": "LY",
    "longitude": 17.2283306,
    "name": "Libya",
    "latitude": 26.3351002,
    "dead": 57,
    "sick": 1863,
    "invisible": false
  },
  {
    "latitude": 39.0119,
    "dead": 328,
    "lastUpdated": "2020-07-25T07:17:02.179Z",
    "recovered": 0,
    "infected": 25348,
    "state": "KS",
    "id": "Rf4uvBfP3GRDSHdZElRd",
    "pop": 2912000,
    "country": "US",
    "longitude": -98.4842,
    "name": "Kansas",
    "sick": 25020,
    "invisible": false
  },
  {
    "longitude": 6.1878,
    "name": "Grand Est",
    "latitude": 48.6998,
    "dead": 3608,
    "lastUpdated": "2020-07-24T23:52:23.353Z",
    "recovered": 12652,
    "infected": 27530,
    "id": "RmEgf1xeclWt7XCF9oiR",
    "pop": 5518000,
    "country": "FR",
    "sick": 11270,
    "invisible": false
  },
  {
    "lastUpdated": "2020-07-25T07:07:12.618Z",
    "recovered": 4971,
    "infected": 20064,
    "state": "WAL",
    "id": "RryHraSohKQLAsdr1dHO",
    "pop": 3644000,
    "country": "BE",
    "longitude": 4.451,
    "name": "Wallonia",
    "latitude": 50.4176,
    "dead": 3399,
    "sick": 11694,
    "invisible": false
  },
  {
    "latitude": 51.2538,
    "dead": 2758,
    "lastUpdated": "2020-07-25T07:07:02.147Z",
    "recovered": 34100,
    "infected": 38405,
    "state": "ON",
    "id": "Rx4TuyMpfGb3S8wYJX0x",
    "pop": 14570000,
    "country": "CA",
    "longitude": -85.3232,
    "name": "Ontario",
    "sick": 1547,
    "invisible": false
  },
  {
    "longitude": -4.723611,
    "name": "Castilla y León",
    "latitude": 41.652779,
    "dead": 2796,
    "lastUpdated": "2020-07-24T23:39:31.001Z",
    "recovered": 8716,
    "infected": 26308,
    "state": "CL",
    "id": "S8ewN4zaYp8mjtuqqOTw",
    "pop": 2408000,
    "country": "ES",
    "sick": 14796,
    "invisible": false
  },
  {
    "name": "Martinique",
    "alwaysShow": true,
    "latitude": 14.652027,
    "dead": 15,
    "lastUpdated": "2020-07-25T07:16:03.636Z",
    "recovered": 98,
    "infected": 269,
    "id": "SDdefnq1bc3ZNr7SpEsW",
    "pop": 376480,
    "country": "FR",
    "longitude": -61.011715,
    "sick": 156,
    "invisible": false
  },
  {
    "country": "GH",
    "longitude": -1.0232,
    "name": "Ghana",
    "latitude": 7.9465,
    "dead": 161,
    "lastUpdated": "2020-07-25T07:16:03.621Z",
    "recovered": 27801,
    "infected": 31057,
    "id": "SG9VWLOV3x2JsTkXmVSz",
    "pop": 28830000,
    "sick": 3095,
    "invisible": false
  },
  {
    "id": "SGe9sCPayMqh6RsGFaBA",
    "pop": 8570000,
    "country": "CH",
    "longitude": 8.227512,
    "name": "Switzerland",
    "latitude": 46.818188,
    "dead": 1977,
    "lastUpdated": "2020-07-25T07:16:03.621Z",
    "recovered": 30500,
    "infected": 34154,
    "sick": 1677,
    "invisible": false
  },
  {
    "recovered": 5105,
    "infected": 5424,
    "id": "SGhKBmmh5hss7hrNR8hK",
    "pop": 964000,
    "country": "RU",
    "longitude": 124.1238,
    "name": "Yakutia",
    "latitude": 66.7613,
    "dead": 47,
    "lastUpdated": "2020-07-25T07:00:07.830Z",
    "sick": 272,
    "invisible": false
  },
  {
    "lastUpdated": "2020-07-25T07:07:02.147Z",
    "recovered": 50615,
    "infected": 58243,
    "state": "QC",
    "id": "SHoOE3NiJgWAlDVBzwYH",
    "pop": 8485000,
    "country": "CA",
    "longitude": -71.208,
    "name": "Quebec",
    "latitude": 46.8139,
    "dead": 5663,
    "sick": 1965,
    "invisible": false
  },
  {
    "longitude": 20.903,
    "name": "Kosovo",
    "latitude": 42.6026,
    "dead": 164,
    "lastUpdated": "2020-07-25T06:55:01.376Z",
    "recovered": 3614,
    "infected": 6680,
    "id": "SMWvuMMuKp2QK7O2tNia",
    "pop": 1831000,
    "country": "XK",
    "sick": 2902,
    "invisible": false
  },
  {
    "longitude": 135,
    "name": "Primorsky Krai",
    "latitude": 45.0526,
    "dead": 67,
    "lastUpdated": "2020-07-25T07:00:07.829Z",
    "recovered": 4525,
    "infected": 6060,
    "id": "SNWCQwRwqYfxX8HZndTA",
    "pop": 1913000,
    "country": "RU",
    "sick": 1468,
    "invisible": false
  },
  {
    "id": "SPcujsH2YlUaoAr8AiWF",
    "pop": 1817000,
    "country": "IN",
    "longitude": 74.124,
    "name": "Goa",
    "latitude": 15.2993,
    "dead": 29,
    "lastUpdated": "2020-07-25T07:11:06.986Z",
    "recovered": 2865,
    "infected": 4540,
    "sick": 1646,
    "invisible": false
  },
  {
    "state": "GO",
    "id": "SV5AMF59J61Vt4cXWLgy",
    "pop": 6921161,
    "country": "BR",
    "longitude": -48.953403,
    "name": "Goiás",
    "latitude": -16.328547,
    "dead": 1332,
    "lastUpdated": "2020-07-25T06:57:02.264Z",
    "recovered": 0,
    "infected": 52847,
    "sick": 51515,
    "invisible": false
  },
  {
    "latitude": 6.181,
    "dead": 0,
    "lastUpdated": "2020-07-25T07:21:46.912Z",
    "recovered": 1,
    "infected": 2,
    "id": "SYFarIS62W0EW9bOaJmN",
    "pop": 75500,
    "country": "CO",
    "longitude": -68.436,
    "name": "Vichada",
    "sick": 1,
    "invisible": false
  },
  {
    "recovered": 1071,
    "infected": 1246,
    "state": "78",
    "id": "SZdF624x0v1LlyzZjKFu",
    "pop": 1957000,
    "country": "IT",
    "longitude": 16.5,
    "name": "Calabria",
    "latitude": 39,
    "dead": 97,
    "lastUpdated": "2020-07-25T07:01:09.439Z",
    "sick": 78,
    "invisible": false
  },
  {
    "recovered": 0,
    "infected": 24174,
    "state": "NE",
    "id": "SakhKQzKu1LRI8laqdQq",
    "pop": 1929000,
    "country": "US",
    "longitude": -99.9018,
    "name": "Nebraska",
    "latitude": 41.4925,
    "dead": 316,
    "lastUpdated": "2020-07-25T07:17:02.179Z",
    "sick": 23858,
    "invisible": false
  },
  {
    "longitude": 55.5364,
    "name": "La Réunion",
    "alwaysShow": true,
    "latitude": -21.1151,
    "dead": 3,
    "lastUpdated": "2020-07-25T07:16:03.635Z",
    "recovered": 558,
    "infected": 654,
    "id": "SgHzWAAYK1j2sipovxM6",
    "pop": 859959,
    "country": "FR",
    "sick": 93,
    "invisible": false
  },
  {
    "latitude": 12.565679,
    "dead": 0,
    "lastUpdated": "2020-07-25T07:16:03.637Z",
    "recovered": 142,
    "infected": 202,
    "id": "SioMALgUbo7peXmbco2f",
    "pop": 16010000,
    "country": "KH",
    "longitude": 104.990967,
    "name": "Cambodia",
    "sick": 60,
    "invisible": false
  },
  {
    "lastUpdated": "2020-07-25T07:17:02.182Z",
    "state": "GU",
    "id": "SsWhuEElU7dCTTuH5fdQ",
    "longitude": 144.7937,
    "name": "Guam",
    "alwaysShow": true,
    "dead": 5,
    "latitude": 13.4443,
    "infected": 337,
    "recovered": 0,
    "pop": 164229,
    "country": "US",
    "sick": 332,
    "invisible": false
  },
  {
    "recovered": 31997,
    "infected": 0,
    "id": "SuCr5emUaJ9RHTll1P1p",
    "country": "PL",
    "longitude": 19.1344,
    "invisible": true,
    "name": "Unknown Poland region",
    "latitude": 51.9189,
    "dead": 0,
    "lastUpdated": "2020-07-25T07:16:03.619Z",
    "sick": 0
  },
  {
    "latitude": 57.067,
    "dead": 23,
    "lastUpdated": "2020-07-25T07:00:07.854Z",
    "recovered": 1662,
    "infected": 2202,
    "id": "Sx03z01BJCAbrYkWhEaD",
    "pop": 1513000,
    "country": "RU",
    "longitude": 53.0278,
    "name": "Udmurtia",
    "sick": 517,
    "invisible": false
  },
  {
    "recovered": 5109,
    "infected": 8767,
    "id": "T3iRf8mTUTAzbKrORTap",
    "pop": 84070000,
    "country": "CD",
    "longitude": 21.7587,
    "name": "DR Congo",
    "latitude": -4.0383,
    "dead": 201,
    "lastUpdated": "2020-07-25T07:16:03.626Z",
    "sick": 3457,
    "invisible": false
  },
  {
    "recovered": 215731,
    "infected": 262772,
    "id": "T7NffoeCgTUpAbOHvYwP",
    "pop": 32940000,
    "country": "SA",
    "longitude": 44.344334,
    "name": "Saudi Arabia",
    "latitude": 23.635796,
    "dead": 2672,
    "lastUpdated": "2020-07-25T07:16:03.615Z",
    "sick": 44369,
    "invisible": false
  },
  {
    "longitude": -2.5396,
    "name": "La Rioja",
    "latitude": 42.2871,
    "dead": 366,
    "lastUpdated": "2020-07-24T23:40:44.406Z",
    "recovered": 3107,
    "infected": 5564,
    "state": "RI",
    "id": "TNDTapyb0k3l7Mds9q9R",
    "pop": 315700,
    "country": "ES",
    "sick": 2091,
    "invisible": false
  },
  {
    "name": "Yucatán",
    "latitude": 20.400417,
    "dead": 952,
    "lastUpdated": "2020-07-25T07:02:01.611Z",
    "recovered": 0,
    "infected": 8322,
    "id": "TQCWbhIpJQBQxBjhCGVJ",
    "pop": 2207200,
    "country": "MX",
    "longitude": -89.134857,
    "sick": 7370,
    "invisible": false
  },
  {
    "longitude": 114.650692,
    "name": "Brunei",
    "latitude": 4.506106,
    "dead": 3,
    "lastUpdated": "2020-07-25T07:16:03.637Z",
    "recovered": 138,
    "infected": 141,
    "id": "TQZmzsLhJqjtCSExAkCP",
    "pop": 428697,
    "country": "BN",
    "sick": 0,
    "invisible": false
  },
  {
    "longitude": 4.3853,
    "name": "Auvergne-Rhône-Alpes",
    "latitude": 45.4471,
    "dead": 1756,
    "lastUpdated": "2020-07-24T23:51:12.454Z",
    "recovered": 7960,
    "infected": 16373,
    "state": "",
    "id": "TT0MKODSjrxHvG19xZCa",
    "pop": 8027000,
    "country": "FR",
    "sick": 6657,
    "invisible": false
  },