[
  {
    "latitude": 20.9517,
    "longitude": 85.0985,
    "name": "Odisha",
    "country": "IN",
    "dead": 0,
    "lastUpdated": "2020-03-22T17:11:02.278Z",
    "id": "0VG7S6aaK4eSo59fL9JO",
    "infected": 2,
    "recovered": 0,
    "sick": 2
  },
  {
    "latitude": 25.315058,
    "longitude": 51.145517,
    "name": "Qatar",
    "country": "QA",
    "dead": 0,
    "lastUpdated": "2020-03-22T17:13:02.959Z",
    "id": "0m4aECS0Z2DGFEr8ldgI",
    "infected": 481,
    "recovered": 27,
    "sick": 454
  },
  {
    "longitude": 87.855,
    "name": "West Bengal",
    "country": "IN",
    "dead": 0,
    "lastUpdated": "2020-03-22T17:11:02.276Z",
    "id": "0n54EMSDJcRoT1QEvw80",
    "infected": 4,
    "recovered": 0,
    "latitude": 22.9868,
    "sick": 4
  },
  {
    "latitude": 22.9734,
    "longitude": 78.6569,
    "name": "Madhya Pradesh",
    "country": "IN",
    "dead": 0,
    "lastUpdated": "2020-03-22T17:11:02.165Z",
    "id": "0s18o5DrDAHjbu5MFcrj",
    "infected": 4,
    "recovered": 0,
    "sick": 4
  },
  {
    "infected": 0,
    "recovered": 182,
    "latitude": 37.0902,
    "longitude": -95.7129,
    "name": "Unknown US state",
    "country": "US",
    "dead": 0,
    "lastUpdated": "2020-03-22T05:28:03.084Z",
    "id": "0tFoopNTs6e4tOoaltu2",
    "sick": 0
  },
  {
    "infected": 248,
    "recovered": 239,
    "latitude": 35.64249,
    "longitude": 108.472214,
    "name": "Shaanxi",
    "country": "CN",
    "dead": 3,
    "lastUpdated": "2020-03-22T07:55:06.268Z",
    "id": "0x2HLhr5z5xAtEdO4iZm",
    "sick": 6
  },
  {
    "dead": 1,
    "lastUpdated": "2020-03-22T17:13:02.626Z",
    "id": "19MvIhipqTyYv1H37Upw",
    "infected": 115,
    "recovered": 1,
    "latitude": 41.643351,
    "longitude": 21.668393,
    "name": "North Macedonia",
    "country": "MK",
    "sick": 113
  },
  {
    "recovered": 0,
    "latitude": 53.1355,
    "longitude": -57.6604,
    "name": "Newfoundland and Labrador",
    "country": "CA",
    "dead": 0,
    "lastUpdated": "2020-03-22T17:12:02.198Z",
    "id": "1DOMOmCWDtva46OVSZLv",
    "infected": 6,
    "sick": 6
  },
  {
    "latitude": 35.801933,
    "longitude": 96.779286,
    "name": "Qinghai",
    "country": "CN",
    "dead": 0,
    "lastUpdated": "2020-03-22T07:55:54.500Z",
    "id": "1Fap7rZu9SIRqf5TG9Dg",
    "infected": 18,
    "recovered": 18,
    "sick": 0
  },
  {
    "recovered": 2,
    "latitude": -14.235004,
    "longitude": -51.925282,
    "name": "Brazil",
    "country": "BR",
    "dead": 18,
    "lastUpdated": "2020-03-22T17:13:02.684Z",
    "id": "1f0YoV0vAcexEhpESyZc",
    "infected": 1209,
    "sick": 1189
  },
  {
    "latitude": 47.4116,
    "longitude": 28.3699,
    "name": "Moldova",
    "country": "MD",
    "dead": 1,
    "lastUpdated": "2020-03-22T17:13:02.646Z",
    "id": "1qTPB8X3tyLyIdsb5TN3",
    "infected": 94,
    "recovered": 1,
    "sick": 92
  },
  {
    "recovered": 1,
    "latitude": 30.15336,
    "longitude": 88.787865,
    "name": "Tibet",
    "country": "CN",
    "dead": 0,
    "lastUpdated": "2020-03-22T07:54:28.319Z",
    "id": "25qIBtsW2nfQj3pwBKg9",
    "infected": 1,
    "sick": 0
  },
  {
    "id": "2KHYUb5t3lwzVVmDjwNX",
    "infected": 514,
    "recovered": 29,
    "latitude": -1.572184,
    "longitude": 115.66779,
    "name": "Indonesia",
    "country": "ID",
    "dead": 48,
    "lastUpdated": "2020-03-22T17:13:03.048Z",
    "sick": 437
  },
  {
    "latitude": 43.807191,
    "longitude": -120.585594,
    "name": "Oregon",
    "country": "US",
    "dead": 5,
    "lastUpdated": "2020-03-22T15:12:02.097Z",
    "id": "2OrsssmGUs4XCzaZzvTv",
    "infected": 137,
    "recovered": 0,
    "sick": 132
  },
  {
    "latitude": 43.851921,
    "longitude": 126.548103,
    "name": "Jilin",
    "country": "CN",
    "dead": 1,
    "lastUpdated": "2020-03-22T07:55:59.938Z",
    "id": "2jxHvSsxdnom0nPNvOT8",
    "infected": 93,
    "recovered": 92,
    "sick": 0
  },
  {
    "latitude": 36.1408,
    "longitude": -5.3536,
    "name": "Gibraltar",
    "country": "GI",
    "dead": 0,
    "lastUpdated": "2020-03-22T17:13:02.722Z",
    "id": "2p11BjSAs3wVyymgqBOe",
    "infected": 15,
    "recovered": 2,
    "sick": 13
  },
  {
    "longitude": 1.6751,
    "name": "Centre-Val de Loire",
    "country": "FR",
    "dead": 0,
    "lastUpdated": "2020-03-22T17:19:05.887Z",
    "id": "2sLNkkHpyaHx7dD3aMDO",
    "infected": 254,
    "recovered": 0,
    "latitude": 47.7516,
    "sick": 254
  },
  {
    "latitude": -13.133896,
    "longitude": 27.849332,
    "name": "Zambia",
    "country": "ZM",
    "dead": 0,
    "lastUpdated": "2020-03-22T17:13:02.797Z",
    "id": "3IlPjAbP5qVMn1nlgLTJ",
    "infected": 3,
    "recovered": 0,
    "sick": 3
  },
  {
    "latitude": 42.7044,
    "longitude": 19.3958,
    "name": "Montenegro",
    "country": "ME",
    "dead": 0,
    "lastUpdated": "2020-03-22T17:13:02.728Z",
    "id": "3LstMSN5XMYBkxbe5HN7",
    "infected": 16,
    "recovered": 0,
    "sick": 16
  },
  {
    "infected": 9,
    "recovered": 0,
    "latitude": -35.4735,
    "longitude": 149.0124,
    "name": "Australian Capital Territory",
    "country": "AU",
    "dead": 0,
    "lastUpdated": "2020-03-22T17:10:01.944Z",
    "id": "3OZoQsKrzxZ18EKyfGE6",
    "sick": 9
  },
  {
    "infected": 250,
    "recovered": 0,
    "latitude": 40.4173,
    "longitude": -82.9071,
    "name": "Ohio",
    "country": "US",
    "dead": 3,
    "lastUpdated": "2020-03-22T17:12:02.171Z",
    "id": "3fC3bAyIRUquOQOEnQNe",
    "sick": 247
  },
  {
    "id": "4NnFMekRK2m14IlnZZoj",
    "infected": 2,
    "recovered": 0,
    "latitude": 21.0079,
    "longitude": -10.9408,
    "name": "Mauritania",
    "country": "MR",
    "dead": 0,
    "lastUpdated": "2020-03-22T17:13:02.730Z",
    "sick": 2
  },
  {
    "id": "4hfZRUoUgI4a3vrG0GBk",
    "infected": 424,
    "recovered": 4,
    "latitude": 53.7267,
    "longitude": -127.6476,
    "name": "British Columbia",
    "country": "CA",
    "dead": 10,
    "lastUpdated": "2020-03-22T17:12:02.176Z",
    "sick": 410
  },
  {
    "dead": 14,
    "lastUpdated": "2020-03-22T17:13:02.924Z",
    "id": "4rQLxUCMmQLpbi6E9tbH",
    "infected": 1600,
    "recovered": 5,
    "latitude": 41.065877,
    "longitude": -7.920053,
    "name": "Portugal",
    "country": "PT",
    "sick": 1581
  },
  {
    "id": "4zqzRm2xHn0CDVOUQJ8p",
    "infected": 65,
    "recovered": 11,
    "latitude": 40.3426,
    "longitude": 47.93802,
    "name": "Azerbaijan",
    "country": "AZ",
    "dead": 1,
    "lastUpdated": "2020-03-22T17:13:02.686Z",
    "sick": 53
  },
  {
    "infected": 4,
    "recovered": 0,
    "latitude": 25.025885,
    "longitude": -78.035889,
    "name": "Bahamas",
    "country": "BS",
    "dead": 0,
    "lastUpdated": "2020-03-22T17:13:02.693Z",
    "id": "5MHegCUO9L3LiAU7DDey",
    "sick": 4
  },
  {
    "longitude": 146.921097,
    "name": "New South Wales",
    "country": "AU",
    "dead": 6,
    "lastUpdated": "2020-03-22T17:10:01.945Z",
    "id": "5N16a2OXXRpsEFanw0TC",
    "infected": 469,
    "recovered": 4,
    "latitude": -31.253218,
    "sick": 459
  },
  {
    "infected": 4,
    "recovered": 0,
    "latitude": -20.9043045,
    "longitude": 165.618042,
    "name": "New Caledonia",
    "country": "NC",
    "dead": 0,
    "lastUpdated": "2020-03-22T17:13:02.761Z",
    "id": "5fg04eyDwFw3kEXnrxez",
    "sick": 4
  },
  {
    "longitude": 84.124008,
    "name": "Nepal",
    "country": "NP",
    "dead": 0,
    "lastUpdated": "2020-03-22T15:13:03.343Z",
    "id": "5gXZIjRgAvd6xWN1LOv8",
    "infected": 2,
    "recovered": 1,
    "latitude": 28.394857,
    "sick": 1
  },
  {
    "recovered": 15,
    "latitude": 12.879721,
    "longitude": 121.774017,
    "name": "Philippines",
    "country": "PH",
    "dead": 25,
    "lastUpdated": "2020-03-22T17:13:02.624Z",
    "id": "5pwmh7aSdGRKqRbnuyc0",
    "infected": 380,
    "sick": 340
  },
  {
    "longitude": 23.804991,
    "name": "Lithuania",
    "country": "LT",
    "dead": 1,
    "lastUpdated": "2020-03-22T15:28:03.146Z",
    "id": "694ON7d0mRJDeM1gHBTR",
    "infected": 131,
    "recovered": 1,
    "latitude": 55.621011,
    "sick": 129
  },
  {
    "dead": 4,
    "lastUpdated": "2020-03-22T17:13:02.622Z",
    "id": "6IcHIIH0zXpY0POmBZTv",
    "infected": 317,
    "recovered": 100,
    "latitude": 22.396427,
    "longitude": 114.109497,
    "name": "Hong Kong",
    "country": "HK",
    "sick": 213
  },
  {
    "latitude": 9.3077,
    "longitude": 2.3158,
    "name": "Benin",
    "country": "BJ",
    "dead": 0,
    "lastUpdated": "2020-03-22T17:13:02.753Z",
    "id": "6SlpghTyB6lpMFvx3g9U",
    "infected": 2,
    "recovered": 0,
    "sick": 2
  },
  {
    "longitude": 14.5058,
    "name": "Slovenia",
    "country": "SI",
    "dead": 2,
    "lastUpdated": "2020-03-22T17:13:03.038Z",
    "id": "6ahNiyKDSDAftCctgLH3",
    "infected": 414,
    "recovered": 0,
    "latitude": 46.0569,
    "sick": 412
  },
  {
    "longitude": 11.6094,
    "name": "Gabon",
    "country": "GA",
    "dead": 1,
    "lastUpdated": "2020-03-22T17:13:02.716Z",
    "id": "6pBi38TUgYfFm0bry2uh",
    "infected": 5,
    "recovered": 0,
    "latitude": -0.8037,
    "sick": 4
  },
  {
    "infected": 3,
    "recovered": 0,
    "latitude": 17.901672,
    "longitude": -62.818544,
    "name": "Saint-Barthélemy",
    "country": "FR",
    "dead": 0,
    "lastUpdated": "2020-03-22T01:22:50.675Z",
    "id": "78Ox26bNHDA2Pk2b3Uwn",
    "sick": 3
  },
  {
    "longitude": -61.7964,
    "name": "Antigua and Barbuda",
    "country": "AG",
    "dead": 0,
    "lastUpdated": "2020-03-22T17:13:02.723Z",
    "id": "7hVFcEV7nV0MrQr3LHrl",
    "infected": 1,
    "recovered": 0,
    "latitude": 17.0608,
    "sick": 1
  },
  {
    "id": "7kCrrlOBE3jN6FtOVNUB",
    "infected": 4457,
    "recovered": 21,
    "latitude": 48.7904,
    "longitude": 11.4979,
    "name": "Bayern",
    "country": "DE",
    "dead": 21,
    "lastUpdated": "2020-03-22T17:12:03.542Z",
    "sick": 4415
  },
  {
    "longitude": 19.0402,
    "name": "Hungary",
    "country": "HU",
    "dead": 6,
    "lastUpdated": "2020-03-22T17:13:02.979Z",
    "id": "7rYC2iFB50c55Ihgbs4Q",
    "infected": 131,
    "recovered": 16,
    "latitude": 47.4979,
    "sick": 109
  },
  {
    "infected": 40,
    "recovered": 2,
    "latitude": 7.3697,
    "longitude": 12.3547,
    "name": "Cameroon",
    "country": "CM",
    "dead": 0,
    "lastUpdated": "2020-03-22T17:13:02.737Z",
    "id": "8C0d7WVCjyUGtnc2gUAR",
    "sick": 38
  },
  {
    "recovered": 0,
    "latitude": -16.2902,
    "longitude": -63.5887,
    "name": "Bolivia",
    "country": "BO",
    "dead": 0,
    "lastUpdated": "2020-03-22T17:13:02.709Z",
    "id": "8RihJrXw4NQXPxaRxr1u",
    "infected": 24,
    "sick": 24
  },
  {
    "latitude": 12.9843,
    "longitude": -61.2872,
    "name": "St. Vincent Grenadines",
    "country": "VC",
    "dead": 0,
    "lastUpdated": "2020-03-22T17:13:02.779Z",
    "id": "8ZTySQROQejkDAad0qxQ",
    "infected": 1,
    "recovered": 0,
    "sick": 1
  },
  {
    "infected": 455,
    "recovered": 144,
    "latitude": 1.352083,
    "longitude": 103.819839,
    "name": "Singapore",
    "country": "SG",
    "dead": 2,
    "lastUpdated": "2020-03-22T17:13:03.042Z",
    "id": "8pA3fM4xC2c2wv1b4TnE",
    "sick": 309
  },
  {
    "dead": 1,
    "lastUpdated": "2020-03-22T17:19:06.079Z",
    "id": "98hwAoohgWEOQVa3NlM5",
    "infected": 234,
    "recovered": 4,
    "latitude": 47.2184,
    "longitude": -1.5536,
    "name": "Pays de la Loire",
    "country": "FR",
    "sick": 229
  },
  {
    "dead": 1,
    "lastUpdated": "2020-03-22T17:13:02.701Z",
    "id": "9DPOkpIqrFy9mR4e9fuv",
    "infected": 2,
    "recovered": 0,
    "latitude": 12.8628,
    "longitude": 30.2176,
    "name": "Sudan",
    "country": "SD",
    "sick": 1
  },
  {
    "latitude": 45.943161,
    "longitude": 24.966761,
    "name": "Romania",
    "country": "RO",
    "dead": 2,
    "lastUpdated": "2020-03-22T17:13:03.011Z",
    "id": "9QcETqEcM2fTv9zRvx5T",
    "infected": 433,
    "recovered": 64,
    "sick": 367
  },
  {
    "dead": 0,
    "lastUpdated": "2020-03-22T17:13:02.803Z",
    "id": "9Y5wmCqNCC6ZrenM31uA",
    "infected": 2,
    "recovered": 0,
    "latitude": 12.136389,
    "longitude": -86.251389,
    "name": "Nicaragua",
    "country": "NI",
    "sick": 2
  },
  {
    "latitude": 61.92411,
    "longitude": 25.748152,
    "name": "Finland",
    "country": "FI",
    "dead": 1,
    "lastUpdated": "2020-03-22T17:13:02.931Z",
    "id": "9p6OCdZbUUwBLA60Gk3W",
    "infected": 626,
    "recovered": 10,
    "sick": 615
  },
  {
    "infected": 65,
    "recovered": 0,
    "latitude": 43.311643,
    "longitude": -71.590315,
    "name": "New Hampshire",
    "country": "US",
    "dead": 0,
    "lastUpdated": "2020-03-22T17:12:02.272Z",
    "id": "A84CwQ52kA46Hr7pn6Bm",
    "sick": 65
  },
  {
    "longitude": -71.412257,
    "name": "Rhode Island",
    "country": "US",
    "dead": 0,
    "lastUpdated": "2020-03-22T17:12:02.274Z",
    "id": "AEUWUHS65qvjEslew11c",
    "infected": 66,
    "recovered": 0,
    "latitude": 41.823261,
    "sick": 66
  },
  {
    "infected": 318,
    "recovered": 0,
    "latitude": 49.3964,
    "longitude": 7.023,
    "name": "Saarland",
    "country": "DE",
    "dead": 1,
    "lastUpdated": "2020-03-22T17:12:03.533Z",
    "id": "AKjFRQGnzuuZQhv5Qwx7",
    "sick": 317
  },
  {
    "latitude": 71.7069,
    "longitude": -42.6043,
    "name": "Greenland",
    "country": "GL",
    "dead": 0,
    "lastUpdated": "2020-03-22T17:13:02.757Z",
    "id": "APaZzlGCEeuoLBtzTJMe",
    "infected": 2,
    "recovered": 0,
    "sick": 2
  },
  {
    "latitude": 45.65107,
    "longitude": -63.582687,
    "name": "Nova Scotia",
    "country": "CA",
    "dead": 0,
    "lastUpdated": "2020-03-22T17:12:02.266Z",
    "id": "AVCpxeh0fuH2WrHWNDYH",
    "infected": 21,
    "recovered": 0,
    "sick": 21
  },
  {
    "longitude": -109.128641,
    "name": "Montana",
    "country": "US",
    "dead": 0,
    "lastUpdated": "2020-03-22T17:12:02.201Z",
    "id": "AcULcZBozObOhwuRKMjJ",
    "infected": 30,
    "recovered": 0,
    "latitude": 47.012918,
    "sick": 30
  },
  {
    "recovered": 934,
    "latitude": 27.285971,
    "longitude": 116.01609,
    "name": "Jiangxi",
    "country": "CN",
    "dead": 1,
    "lastUpdated": "2020-03-22T07:58:31.720Z",
    "id": "AmBYm5J6E9Cuez1FQjiN",
    "infected": 936,
    "sick": 1
  },
  {
    "dead": 17,
    "lastUpdated": "2020-03-22T17:13:02.954Z",
    "id": "AwN0CScPDApcLFgz6e3z",
    "infected": 201,
    "recovered": 65,
    "latitude": 28.033886,
    "longitude": 1.659626,
    "name": "Algeria",
    "country": "DZ",
    "sick": 119
  },
  {
    "dead": 1,
    "lastUpdated": "2020-03-22T17:13:03.033Z",
    "id": "B82Ef45M8cDu4q7VsSHF",
    "infected": 254,
    "recovered": 5,
    "latitude": 45.099998,
    "longitude": 15.2,
    "name": "Croatia",
    "country": "HR",
    "sick": 248
  },
  {
    "dead": 3,
    "lastUpdated": "2020-03-22T17:12:02.250Z",
    "id": "BF51mWl51fgEcyBpCSzb",
    "infected": 244,
    "recovered": 0,
    "latitude": 39.509109,
    "longitude": -76.98432,
    "name": "Maryland",
    "country": "US",
    "sick": 241
  },
  {
    "dead": 0,
    "lastUpdated": "2020-03-22T17:13:02.675Z",
    "id": "BGg6yVU5VP71B8NXU0oh",
    "infected": 76,
    "recovered": 15,
    "latitude": 53.709808,
    "longitude": 27.953388,
    "name": "Belarus",
    "country": "BY",
    "sick": 61
  },
  {
    "latitude": 48.8799,
    "longitude": 0.1713,
    "name": "Normandie",
    "country": "FR",
    "dead": 1,
    "lastUpdated": "2020-03-22T17:19:05.894Z",
    "id": "BGtoyzb7y54LVlJ91rbf",
    "infected": 345,
    "recovered": 0,
    "sick": 344
  },
  {
    "dead": 1,
    "lastUpdated": "2020-03-22T07:53:55.938Z",
    "id": "BTEESCuD2ZbS1afunR2A",
    "infected": 118,
    "recovered": 0,
    "latitude": 34.048927,
    "longitude": -111.093735,
    "name": "Arizona",
    "country": "US",
    "sick": 117
  },
  {
    "id": "C3BCUzV80z9GfiuByIcr",
    "infected": 12323,
    "recovered": 0,
    "latitude": 40.719042,
    "longitude": -73.982597,
    "name": "New York",
    "country": "US",
    "dead": 76,
    "lastUpdated": "2020-03-22T17:12:02.268Z",
    "sick": 12247
  },
  {
    "longitude": 15.359413,
    "name": "Czechia",
    "country": "CZ",
    "dead": 0,
    "lastUpdated": "2020-03-22T17:13:02.969Z",
    "id": "C6S76AggdWVU8G22jFHQ",
    "infected": 1047,
    "recovered": 6,
    "latitude": 49.731626,
    "sick": 1041
  },
  {
    "id": "C7cj4nwRITs13KnaJrQ2",
    "infected": 332,
    "recovered": 149,
    "latitude": 26.0667,
    "longitude": 50.557701,
    "name": "Bahrain",
    "country": "BH",
    "dead": 2,
    "lastUpdated": "2020-03-22T17:13:03.035Z",
    "sick": 181
  },
  {
    "dead": 0,
    "lastUpdated": "2020-03-22T17:11:02.267Z",
    "id": "CKZCZTPlrcq5fbfUPA9k",
    "infected": 24,
    "recovered": 3,
    "latitude": 27.0238,
    "longitude": 74.2179,
    "name": "Rajasthan",
    "country": "IN",
    "sick": 21
  },
  {
    "longitude": -88.9053,
    "name": "El Salvador",
    "country": "SV",
    "dead": 0,
    "lastUpdated": "2020-03-22T17:13:02.944Z",
    "id": "Cgvmtle61ehMvCzRzYx7",
    "infected": 3,
    "recovered": 0,
    "latitude": 13.803,
    "sick": 3
  },
  {
    "dead": 281,
    "lastUpdated": "2020-03-22T17:13:03.052Z",
    "id": "CrXu6i5Sqx11iwdfHfBs",
    "infected": 5683,
    "recovered": 93,
    "latitude": 52.355518,
    "longitude": -1.17432,
    "name": "United Kingdom",
    "country": "GB",
    "sick": 5309
  },
  {
    "infected": 190,
    "recovered": 2,
    "latitude": 40.259003,
    "longitude": 44.818474,
    "name": "Armenia",
    "country": "AM",
    "dead": 0,
    "lastUpdated": "2020-03-22T17:13:03.019Z",
    "id": "DCJCtZoBTWQ4mzdDNljD",
    "sick": 188
  },
  {
    "id": "DdBt8qsG6A3g92oOR3ow",
    "infected": 22,
    "recovered": 10,
    "latitude": 22.192039,
    "longitude": 113.551262,
    "name": "Macao",
    "country": "MO",
    "dead": 0,
    "lastUpdated": "2020-03-22T17:13:02.719Z",
    "sick": 12
  },
  {
    "latitude": 42.962334,
    "longitude": -107.534868,
    "name": "Wyoming",
    "country": "US",
    "dead": 0,
    "lastUpdated": "2020-03-22T17:12:02.219Z",
    "id": "DrGzziUglmBognCGY7R2",
    "infected": 23,
    "recovered": 0,
    "sick": 23
  },
  {
    "longitude": 22.9444,
    "name": "Greece",
    "country": "GR",
    "dead": 15,
    "lastUpdated": "2020-03-22T17:13:02.980Z",
    "id": "Dtr1lap1RpJpXJdXGJiW",
    "infected": 624,
    "recovered": 19,
    "latitude": 40.6401,
    "sick": 590
  },
  {
    "latitude": 25.03841,
    "longitude": 121.563698,
    "name": "Taiwan",
    "country": "TW",
    "dead": 2,
    "lastUpdated": "2020-03-22T17:13:02.679Z",
    "id": "EKTfs8e7M6DXzI1HqyyX",
    "infected": 169,
    "recovered": 28,
    "sick": 139
  },
  {
    "latitude": 10.327273,
    "longitude": -84.387618,
    "name": "Costa Rica",
    "country": "CR",
    "dead": 2,
    "lastUpdated": "2020-03-22T17:13:02.995Z",
    "id": "EQzJvzVHKjs8kLmK7BMu",
    "infected": 117,
    "recovered": 2,
    "sick": 113
  },
  {
    "infected": 18,
    "recovered": 0,
    "latitude": 22.2587,
    "longitude": 71.1924,
    "name": "Gujarat",
    "country": "IN",
    "dead": 1,
    "lastUpdated": "2020-03-22T17:11:02.185Z",
    "id": "ERwk9R9en4m9WbdoMbIg",
    "sick": 17
  },
  {
    "recovered": 0,
    "latitude": 30.7333,
    "longitude": 76.7794,
    "name": "Chandigarh",
    "country": "IN",
    "dead": 0,
    "lastUpdated": "2020-03-22T17:11:02.189Z",
    "id": "Esl5UlCVB9s8pmGB5Ofr",
    "infected": 5,
    "sick": 5
  },
  {
    "longitude": -66.664513,
    "name": "Puerto Rico",
    "country": "PR",
    "dead": 1,
    "lastUpdated": "2020-03-22T17:13:03.010Z",
    "id": "F4rPrEVGAIMM5rfPEMv4",
    "infected": 23,
    "recovered": 0,
    "latitude": 18.200178,
    "sick": 22
  },
  {
    "latitude": 33.93911,
    "longitude": 67.709953,
    "name": "Afghanistan",
    "country": "AF",
    "dead": 1,
    "lastUpdated": "2020-03-22T17:13:03.046Z",
    "id": "FCDmlmnIIswd8bQiUjfN",
    "infected": 34,
    "recovered": 1,
    "sick": 32
  },
  {
    "longitude": 106.912254,
    "name": "Chongqing",
    "country": "CN",
    "dead": 6,
    "lastUpdated": "2020-03-22T07:59:06.070Z",
    "id": "FErOU1m4Tj7jIkRam3vF",
    "infected": 576,
    "recovered": 570,
    "latitude": 29.431585,
    "sick": 0
  },
  {
    "longitude": 47.481766,
    "name": "Kuwait",
    "country": "KW",
    "dead": 0,
    "lastUpdated": "2020-03-22T17:13:02.928Z",
    "id": "FZsUkhxBEgqsPb4eO0PN",
    "infected": 188,
    "recovered": 27,
    "latitude": 29.311661,
    "sick": 161
  },
  {
    "recovered": 1,
    "latitude": 11.1271,
    "longitude": 78.6569,
    "name": "Tamil Nadu",
    "country": "IN",
    "dead": 0,
    "lastUpdated": "2020-03-22T17:11:02.193Z",
    "id": "FeS45oMNC27pI17F0xEV",
    "infected": 7,
    "sick": 6
  },
  {
    "id": "FuiVEJvWb0QMCpxJ3563",
    "infected": 202,
    "recovered": 0,
    "latitude": 18.947829,
    "longitude": -70.430399,
    "name": "Dominican Republic",
    "country": "DO",
    "dead": 3,
    "lastUpdated": "2020-03-22T17:13:02.637Z",
    "sick": 199
  },
  {
    "longitude": 79.0193,
    "name": "Telangana",
    "country": "IN",
    "dead": 0,
    "lastUpdated": "2020-03-22T06:04:02.866Z",
    "id": "FyC551oNwmENxbr9Yght",
    "infected": 21,
    "recovered": 1,
    "latitude": 18.1124,
    "sick": 20
  },
  {
    "id": "FzIDXoqWnTI3nUfhPyT2",
    "infected": 178,
    "recovered": 7,
    "latitude": 48.669,
    "longitude": 19.699,
    "name": "Slovakia",
    "country": "SK",
    "dead": 0,
    "lastUpdated": "2020-03-22T17:13:03.005Z",
    "sick": 171
  },
  {
    "longitude": 69.345116,
    "name": "Pakistan",
    "country": "PK",
    "dead": 3,
    "lastUpdated": "2020-03-22T15:43:03.324Z",
    "id": "GAp7Wb6IMhdgbvEtMza9",
    "infected": 730,
    "recovered": 13,
    "latitude": 30.37532,
    "sick": 714
  },
  {
    "infected": 21,
    "recovered": 0,
    "latitude": 31.1471,
    "longitude": 75.3412,
    "name": "Punjab",
    "country": "IN",
    "dead": 1,
    "lastUpdated": "2020-03-22T17:11:02.151Z",
    "id": "GGru8cG08mANO8XDDUtZ",
    "sick": 20
  },
  {
    "recovered": 38,
    "latitude": 23.424076,
    "longitude": 53.847816,
    "name": "United Arab Emirates",
    "country": "AE",
    "dead": 2,
    "lastUpdated": "2020-03-22T17:13:02.964Z",
    "id": "GHzBIsHy2GiBc5JV2HMs",
    "infected": 153,
    "sick": 113
  },
  {
    "longitude": -119.339046,
    "name": "California",
    "country": "US",
    "dead": 28,
    "lastUpdated": "2020-03-22T17:12:02.193Z",
    "id": "Gh46r6vuaY7fbGt3IboN",
    "infected": 1518,
    "recovered": 0,
    "latitude": 36.621981,
    "sick": 1490
  },
  {
    "id": "GpF8ULuKOQiFDCUHN44h",
    "infected": 53,
    "recovered": 0,
    "latitude": 35.87189,
    "longitude": -97.145514,
    "name": "Oklahoma",
    "country": "US",
    "dead": 1,
    "lastUpdated": "2020-03-22T17:12:02.220Z",
    "sick": 52
  },
  {
    "dead": 1,
    "lastUpdated": "2020-03-22T07:54:52.713Z",
    "id": "H3JeVigVbo5CSYfZG4WI",
    "infected": 75,
    "recovered": 74,
    "latitude": 42.83263,
    "longitude": 113.750972,
    "name": "Inner Mongolia",
    "country": "CN",
    "sick": 0
  },
  {
    "longitude": -116.724977,
    "name": "Nevada",
    "country": "US",
    "dead": 2,
    "lastUpdated": "2020-03-22T07:53:45.435Z",
    "id": "H3bDg4eV30up4WWrIDAS",
    "infected": 161,
    "recovered": 0,
    "latitude": 39.74536,
    "sick": 159
  },
  {
    "longitude": 75.7139,
    "name": "Karnataka",
    "country": "IN",
    "dead": 1,
    "lastUpdated": "2020-03-22T17:11:02.149Z",
    "id": "HN5mGmxlqlSeFSNeu1K5",
    "infected": 26,
    "recovered": 2,
    "latitude": 15.3173,
    "sick": 23
  },
  {
    "infected": 2,
    "recovered": 0,
    "latitude": 27.5142,
    "longitude": 90.4336,
    "name": "Bhutan",
    "country": "BT",
    "dead": 0,
    "lastUpdated": "2020-03-22T17:13:02.764Z",
    "id": "HRDpwyxpqW9RN0xLFyNu",
    "sick": 2
  },
  {
    "latitude": 41.3775,
    "longitude": 64.5853,
    "name": "Uzbekistan",
    "country": "UZ",
    "dead": 0,
    "lastUpdated": "2020-03-22T17:13:02.732Z",
    "id": "HRTA10dtrruDEwjJEGMp",
    "infected": 43,
    "recovered": 0,
    "sick": 43
  },
  {
    "id": "HSSFomRju0doHhWgW8On",
    "infected": 57,
    "recovered": 0,
    "latitude": 34.138916,
    "longitude": -105.576255,
    "name": "New Mexico",
    "country": "US",
    "dead": 0,
    "lastUpdated": "2020-03-22T17:12:02.169Z",
    "sick": 57
  },
  {
    "dead": 0,
    "lastUpdated": "2020-03-22T17:12:03.548Z",
    "id": "He1gSS1v50t06i3YrqvB",
    "infected": 187,
    "recovered": 0,
    "latitude": 53.6127,
    "longitude": 12.4296,
    "name": "Mecklenburg-Vorpommern",
    "country": "DE",
    "sick": 187
  },
  {
    "dead": 2,
    "lastUpdated": "2020-03-22T17:13:03.028Z",
    "id": "I4OJ6z9Vjs1byOcbsJrd",
    "infected": 251,
    "recovered": 4,
    "latitude": 23.634501,
    "longitude": -102.552788,
    "name": "Mexico",
    "country": "MX",
    "sick": 245
  },
  {
    "longitude": 113.373448,
    "name": "Guangdong",
    "country": "CN",
    "dead": 8,
    "lastUpdated": "2020-03-22T07:58:25.154Z",
    "id": "IAX0OQLVnUwU7FX0ENF1",
    "infected": 1407,
    "recovered": 1329,
    "latitude": 23.363855,
    "sick": 70
  },
  {
    "id": "IFuMrMvSjoiX5agYvllh",
    "infected": 1273,
    "recovered": 1250,
    "latitude": 33.875408,
    "longitude": 113.484016,
    "name": "Henan",
    "country": "CN",
    "dead": 22,
    "lastUpdated": "2020-03-22T07:58:59.534Z",
    "sick": 1
  },
  {
    "infected": 2,
    "recovered": 0,
    "latitude": 19.0558,
    "longitude": -73.0513,
    "name": "Haiti",
    "country": "HT",
    "dead": 0,
    "lastUpdated": "2020-03-22T17:13:02.743Z",
    "id": "InZ38sIqyK7FN7XAOZoX",
    "sick": 2
  },
  {
    "infected": 555,
    "recovered": 0,
    "latitude": 32.528564,
    "longitude": -83.280125,
    "name": "Georgia (US)",
    "country": "US",
    "dead": 20,
    "lastUpdated": "2020-03-22T17:12:02.224Z",
    "id": "IvQkDJkTAsoIqPRAU25n",
    "sick": 535
  },
  {
    "infected": 66,
    "recovered": 0,
    "latitude": -42.8285,
    "longitude": 172.488081,
    "name": "New Zealand",
    "country": "NZ",
    "dead": 0,
    "lastUpdated": "2020-03-22T17:13:03.034Z",
    "id": "IvVhpOoGpH6JVkGyUhXN",
    "sick": 66
  },
  {
    "id": "J3mZXlfEnnJx4CDZLvRG",
    "infected": 70,
    "recovered": 15,
    "latitude": 6.4238,
    "longitude": -66.5897,
    "name": "Venezuela",
    "country": "VE",
    "dead": 0,
    "lastUpdated": "2020-03-22T17:13:03.021Z",
    "sick": 55
  },
  {
    "infected": 95,
    "recovered": 3,
    "latitude": 35.1264,
    "longitude": 33.4299,
    "name": "Cyprus",
    "country": "CY",
    "dead": 1,
    "lastUpdated": "2020-03-22T17:13:02.641Z",
    "id": "JQByE4l2OA6sGOqIcWrM",
    "sick": 91
  },
  {
    "longitude": -90.522713,
    "name": "Guatemala",
    "country": "GT",
    "dead": 1,
    "lastUpdated": "2020-03-22T17:13:02.756Z",
    "id": "JUWE6bG3b5oL7fKQMSvv",
    "infected": 17,
    "recovered": 0,
    "latitude": 14.628434,
    "sick": 16
  },
  {
    "longitude": 6.1296,
    "name": "Luxembourg",
    "country": "LU",
    "dead": 8,
    "lastUpdated": "2020-03-22T17:13:02.614Z",
    "id": "JcFsHSn2WvZ5LJW42ovG",
    "infected": 798,
    "recovered": 6,
    "latitude": 49.8153,
    "sick": 784
  },
  {
    "recovered": 0,
    "latitude": 8.6195,
    "longitude": 0.8248,
    "name": "Togo",
    "country": "TG",
    "dead": 0,
    "lastUpdated": "2020-03-22T17:13:02.790Z",
    "id": "JrBbirlBKGdWSdcDt7PF",
    "infected": 16,
    "sick": 16
  },
  {
    "dead": 3,
    "lastUpdated": "2020-03-22T17:13:02.660Z",
    "id": "JzZ8sbqzjutThVjkPKPL",
    "infected": 185,
    "recovered": 3,
    "latitude": 42.7339,
    "longitude": 25.4858,
    "name": "Bulgaria",
    "country": "BG",
    "sick": 179
  },
  {
    "infected": 82,
    "recovered": 3,
    "latitude": 7.873054,
    "longitude": 80.771797,
    "name": "Sri Lanka",
    "country": "LK",
    "dead": 0,
    "lastUpdated": "2020-03-22T17:13:02.978Z",
    "id": "KsWzJO06cf0d6LJ4ZNh9",
    "sick": 79
  },
  {
    "longitude": 79.74,
    "name": "Andhra Pradesh",
    "country": "IN",
    "dead": 0,
    "lastUpdated": "2020-03-22T17:11:02.198Z",
    "id": "KtQIo2DoqjELtPAlyDVO",
    "infected": 5,
    "recovered": 0,
    "latitude": 15.9129,
    "sick": 5
  },
  {
    "latitude": 61.52401,
    "longitude": 105.318756,
    "name": "Russia",
    "country": "RU",
    "dead": 1,
    "lastUpdated": "2020-03-22T17:13:02.974Z",
    "id": "KwOuGBKSMRlmwftxAvLX",
    "infected": 367,
    "recovered": 16,
    "sick": 350
  },
  {
    "recovered": 0,
    "latitude": 18.0708,
    "longitude": -63.0501,
    "name": "Saint-Martin",
    "country": "FR",
    "dead": 0,
    "lastUpdated": "2020-03-22T17:19:05.977Z",
    "id": "LBUtrLDKJiupXjlUNTUe",
    "infected": 5,
    "sick": 5
  },
  {
    "id": "LTGEU2E9MFkrCcFhZYVk",
    "infected": 37,
    "recovered": 0,
    "latitude": 47.166,
    "longitude": 9.5554,
    "name": "Liechtenstein",
    "country": "LI",
    "dead": 0,
    "lastUpdated": "2020-03-22T17:13:02.962Z",
    "sick": 37
  },
  {
    "infected": 2,
    "recovered": 0,
    "latitude": 9.9456,
    "longitude": -9.6966,
    "name": "Guinea",
    "country": "GN",
    "dead": 0,
    "lastUpdated": "2020-03-22T17:13:02.718Z",
    "id": "LU2QWt5ao8IJa8evNYVV",
    "sick": 2
  },
  {
    "longitude": -56.0277824,
    "name": "Suriname",
    "country": "SR",
    "dead": 0,
    "lastUpdated": "2020-03-22T17:13:02.726Z",
    "id": "LglKINHyQpYpFxjckbQ6",
    "infected": 5,
    "recovered": 0,
    "latitude": 3.9193051,
    "sick": 5
  },
  {
    "longitude": -106.4509,
    "name": "Saskatchewan",
    "country": "CA",
    "dead": 0,
    "lastUpdated": "2020-03-22T17:12:02.246Z",
    "id": "LkIDKY0CMAqzbwBHyYCP",
    "infected": 44,
    "recovered": 0,
    "latitude": 52.9399,
    "sick": 44
  },
  {
    "latitude": 37.8393,
    "longitude": -84.27,
    "name": "Kentucky",
    "country": "US",
    "dead": 3,
    "lastUpdated": "2020-03-22T17:12:02.142Z",
    "id": "MC8MXFw9iXYybnF8v7e6",
    "infected": 87,
    "recovered": 0,
    "sick": 84
  },
  {
    "infected": 201,
    "recovered": 0,
    "latitude": 40.2672,
    "longitude": -86.1349,
    "name": "Indiana",
    "country": "US",
    "dead": 4,
    "lastUpdated": "2020-03-22T17:12:02.206Z",
    "id": "MOxDkmQ4wBi1CuAdVxDE",
    "sick": 197
  },
  {
    "longitude": -5.5471,
    "name": "Ivory Coast",
    "country": "CI",
    "dead": 0,
    "lastUpdated": "2020-03-22T17:13:02.781Z",
    "id": "MdQOfc1gNh2DOqwSP6UV",
    "infected": 14,
    "recovered": 1,
    "latitude": 7.54,
    "sick": 13
  },
  {
    "latitude": 51.4332,
    "longitude": 7.6616,
    "name": "Nordrhein-Westfalen",
    "country": "DE",
    "dead": 33,
    "lastUpdated": "2020-03-22T17:12:03.540Z",
    "id": "MjpYq3zQyAvSQlVVYjD2",
    "infected": 7361,
    "recovered": 163,
    "sick": 7165
  },
  {
    "infected": 75,
    "recovered": 75,
    "latitude": 37.330509,
    "longitude": 105.977203,
    "name": "Ningxia",
    "country": "CN",
    "dead": 0,
    "lastUpdated": "2020-03-22T07:54:40.876Z",
    "id": "MntmjjuHljarCdt6aIeE",
    "sick": 0
  },
  {
    "infected": 4300,
    "recovered": 29,
    "latitude": 48.6616,
    "longitude": 9.3501,
    "name": "Baden-Württemberg",
    "country": "DE",
    "dead": 23,
    "lastUpdated": "2020-03-22T17:12:03.246Z",
    "id": "N3XsRBwJSsNclkEf7Zz5",
    "sick": 4248
  },
  {
    "id": "N7c13sCQF0G789XAVazJ",
    "infected": 94,
    "recovered": 2,
    "latitude": 44.696652,
    "longitude": 17.824332,
    "name": "Bosnia and Herzegovina",
    "country": "BA",
    "dead": 1,
    "lastUpdated": "2020-03-22T17:13:02.939Z",
    "sick": 91
  },
  {
    "infected": 133,
    "recovered": 133,
    "latitude": 37.242565,
    "longitude": 111.856857,
    "name": "Shanxi",
    "country": "CN",
    "dead": 0,
    "lastUpdated": "2020-03-22T07:54:58.260Z",
    "id": "NBRIGIRrJB1Ry8prDNAC",
    "sick": 0
  },
  {
    "latitude": 35.7596,
    "longitude": -79.0193,
    "name": "North Carolina",
    "country": "US",
    "dead": 0,
    "lastUpdated": "2020-03-22T17:12:02.256Z",
    "id": "NC64Qp5kTqAfiTuR27k8",
    "infected": 283,
    "recovered": 0,
    "sick": 283
  },
  {
    "infected": 353,
    "recovered": 1,
    "latitude": 52.4125,
    "longitude": 12.5316,
    "name": "Brandenburg",
    "country": "DE",
    "dead": 1,
    "lastUpdated": "2020-03-22T17:12:03.646Z",
    "id": "NJjo2gfBvnbK4xatrsUz",
    "sick": 351
  },
  {
    "id": "NMeZEcGToxXfpi16PfFV",
    "infected": 3,
    "recovered": 0,
    "latitude": 30.0668,
    "longitude": 79.0193,
    "name": "Uttarakhand",
    "country": "IN",
    "dead": 0,
    "lastUpdated": "2020-03-22T17:11:02.206Z",
    "sick": 3
  },
  {
    "infected": 1267,
    "recovered": 6,
    "latitude": 50.6521,
    "longitude": 9.1624,
    "name": "Hessen",
    "country": "DE",
    "dead": 3,
    "lastUpdated": "2020-03-22T17:12:03.653Z",
    "id": "Nk5vPgUIXsWVfbWZf15O",
    "sick": 1258
  },
  {
    "id": "NmmMKy0YqA8StHdGzB5N",
    "infected": 139,
    "recovered": 1,
    "latitude": 56.96776,
    "longitude": 25.837107,
    "name": "Latvia",
    "country": "LV",
    "dead": 0,
    "lastUpdated": "2020-03-22T17:13:02.976Z",
    "sick": 138
  },
  {
    "recovered": 0,
    "latitude": 6.4281,
    "longitude": -9.4295,
    "name": "Liberia",
    "country": "LR",
    "dead": 0,
    "lastUpdated": "2020-03-22T17:13:02.698Z",
    "id": "O4g88K49HKEZLFXm5gxb",
    "infected": 3,
    "sick": 3
  },
  {
    "latitude": 34.003307,
    "longitude": -80.525613,
    "name": "South Carolina",
    "country": "US",
    "dead": 3,
    "lastUpdated": "2020-03-22T17:12:02.182Z",
    "id": "ONU4CK8QjViFHKg2w5if",
    "infected": 174,
    "recovered": 0,
    "sick": 171
  },
  {
    "id": "OYa0jFzdbAgo8zUsRv6q",
    "infected": 140,
    "recovered": 0,
    "latitude": 33.51822,
    "longitude": -89.582775,
    "name": "Mississippi",
    "country": "US",
    "dead": 1,
    "lastUpdated": "2020-03-22T17:12:02.191Z",
    "sick": 139
  },
  {
    "longitude": -69.4455,
    "name": "Maine",
    "country": "US",
    "dead": 0,
    "lastUpdated": "2020-03-22T17:12:02.208Z",
    "id": "OcXNp9kNVSwrRlG3bNVN",
    "infected": 70,
    "recovered": 0,
    "latitude": 45.2538,
    "sick": 70
  },
  {
    "infected": 16,
    "recovered": 3,
    "latitude": -41.915264,
    "longitude": 146.725256,
    "name": "Tasmania",
    "country": "AU",
    "dead": 0,
    "lastUpdated": "2020-03-22T07:59:59.778Z",
    "id": "OnOseaqWdnuP18oruABW",
    "sick": 13
  },
  {
    "infected": 3,
    "recovered": 0,
    "latitude": 19.3133,
    "longitude": -81.2546,
    "name": "Cayman Islands",
    "country": "KY",
    "dead": 1,
    "lastUpdated": "2020-03-22T17:13:02.750Z",
    "id": "P4mwRFLbrvT0t75uD8Wo",
    "sick": 2
  },
  {
    "longitude": -62.1873665,
    "name": "Montserrat",
    "country": "MS",
    "dead": 0,
    "lastUpdated": "2020-03-22T17:13:02.768Z",
    "id": "PEDkeFMTOZpvHiSVxBk7",
    "infected": 1,
    "recovered": 0,
    "latitude": 16.7424984,
    "sick": 1
  },
  {
    "latitude": -1.9403,
    "longitude": 29.8739,
    "name": "Rwanda",
    "country": "RW",
    "dead": 0,
    "lastUpdated": "2020-03-22T17:13:02.787Z",
    "id": "PEcgZGEkyhABztt1Ufgc",
    "infected": 17,
    "recovered": 0,
    "sick": 17
  },
  {
    "infected": 138,
    "recovered": 0,
    "latitude": 46.7296,
    "longitude": -94.6859,
    "name": "Minnesota",
    "country": "US",
    "dead": 1,
    "lastUpdated": "2020-03-22T07:53:38.503Z",
    "id": "PJvVYosLIhbcRZYnKX1R",
    "sick": 137
  },
  {
    "latitude": 40.6331,
    "longitude": -89.3985,
    "name": "Illinois",
    "country": "US",
    "dead": 6,
    "lastUpdated": "2020-03-22T17:12:02.174Z",
    "id": "PTwQr9ijo0TBBsPH2sdJ",
    "infected": 753,
    "recovered": 0,
    "sick": 747
  },
  {
    "infected": 2,
    "recovered": 0,
    "latitude": 13.909444,
    "longitude": -60.978893,
    "name": "Saint Lucia",
    "country": "LC",
    "dead": 0,
    "lastUpdated": "2020-03-22T17:13:02.772Z",
    "id": "PjLqCeFdyzdZNcZxMkK1",
    "sick": 2
  },
  {
    "recovered": 1,
    "latitude": 34.201507,
    "longitude": 9.460554,
    "name": "Tunisia",
    "country": "TN",
    "dead": 3,
    "lastUpdated": "2020-03-22T17:13:03.039Z",
    "id": "Pr76V4raf108uSRoEXac",
    "infected": 75,
    "sick": 71
  },
  {
    "infected": 4,
    "recovered": 0,
    "latitude": -26.5225,
    "longitude": 31.4659,
    "name": "Eswatini",
    "country": "SZ",
    "dead": 0,
    "lastUpdated": "2020-03-22T17:13:02.788Z",
    "id": "PuQgOd9KWiMzGZXm11sR",
    "sick": 4
  },
  {
    "recovered": 8,
    "latitude": -37.009609,
    "longitude": 143.94853,
    "name": "Victoria",
    "country": "AU",
    "dead": 0,
    "lastUpdated": "2020-03-22T17:10:01.935Z",
    "id": "Q18mrGvFWTLX2BU9SqhQ",
    "infected": 229,
    "sick": 221
  },
  {
    "latitude": 54.2194,
    "longitude": 9.6961,
    "name": "Schleswig-Holstein",
    "country": "DE",
    "dead": 1,
    "lastUpdated": "2020-03-22T17:12:03.550Z",
    "id": "Q39XkabIYxt15mHINzTa",
    "infected": 436,
    "recovered": 0,
    "sick": 435
  },
  {
    "dead": 0,
    "lastUpdated": "2020-03-22T17:13:02.966Z",
    "id": "QR9go2hQKXjty7JHUYe4",
    "infected": 326,
    "recovered": 4,
    "latitude": 58.595272,
    "longitude": 25.013607,
    "name": "Estonia",
    "country": "EE",
    "sick": 322
  },
  {
    "latitude": -6.315,
    "longitude": 143.9555,
    "name": "Papua New Guinea",
    "country": "PG",
    "dead": 0,
    "lastUpdated": "2020-03-22T17:13:02.720Z",
    "id": "QlZrE4nosm5WfdA2aCDg",
    "infected": 1,
    "recovered": 0,
    "sick": 1
  },
  {
    "recovered": 0,
    "latitude": 18.3358,
    "longitude": -64.8963,
    "name": "U.S. Virgin Islands",
    "country": "VI",
    "dead": 0,
    "lastUpdated": "2020-03-22T17:13:02.741Z",
    "id": "QqhD3YDMKXojvQY3Yu41",
    "infected": 6,
    "sick": 6
  },
  {
    "infected": 245,
    "recovered": 1,
    "latitude": 8.538,
    "longitude": -80.7821,
    "name": "Panama",
    "country": "PA",
    "dead": 3,
    "lastUpdated": "2020-03-22T17:13:03.055Z",
    "id": "R8YCgephnxTufvcPWMgx",
    "sick": 241
  },
  {
    "longitude": -86.2419,
    "name": "Honduras",
    "country": "HN",
    "dead": 0,
    "lastUpdated": "2020-03-22T17:13:02.798Z",
    "id": "RA2SE0p2bVhqo0P2hzGY",
    "infected": 26,
    "recovered": 0,
    "latitude": 15.2,
    "sick": 26
  },
  {
    "dead": 0,
    "lastUpdated": "2020-03-22T17:12:02.270Z",
    "id": "RX0KDu1AFrlCsrRso0nb",
    "infected": 69,
    "recovered": 0,
    "latitude": 41.878,
    "longitude": -93.0977,
    "name": "Iowa",
    "country": "US",
    "sick": 69
  },
  {
    "infected": 58,
    "recovered": 0,
    "latitude": 39.0119,
    "longitude": -98.4842,
    "name": "Kansas",
    "country": "US",
    "dead": 2,
    "lastUpdated": "2020-03-22T17:12:02.239Z",
    "id": "Rf4uvBfP3GRDSHdZElRd",
    "sick": 56
  },
  {
    "id": "RmEgf1xeclWt7XCF9oiR",
    "infected": 3089,
    "recovered": 0,
    "latitude": 48.6998,
    "longitude": 6.1878,
    "name": "Grand Est",
    "country": "FR",
    "dead": 61,
    "lastUpdated": "2020-03-22T17:19:05.990Z",
    "sick": 3028
  },
  {
    "infected": 424,
    "recovered": 6,
    "latitude": 51.2538,
    "longitude": -85.3232,
    "name": "Ontario",
    "country": "CA",
    "dead": 3,
    "lastUpdated": "2020-03-22T17:12:02.276Z",
    "id": "Rx4TuyMpfGb3S8wYJX0x",
    "sick": 415
  },
  {
    "latitude": 14.652027,
    "longitude": -61.011715,
    "name": "Martinique",
    "country": "FR",
    "dead": 1,
    "lastUpdated": "2020-03-22T17:19:06.084Z",
    "id": "SDdefnq1bc3ZNr7SpEsW",
    "infected": 37,
    "recovered": 0,
    "sick": 36
  },
  {
    "dead": 1,
    "lastUpdated": "2020-03-22T17:13:02.705Z",
    "id": "SG9VWLOV3x2JsTkXmVSz",
    "infected": 21,
    "recovered": 0,
    "latitude": 7.9465,
    "longitude": -1.0232,
    "name": "Ghana",
    "country": "GH",
    "sick": 20
  },
  {
    "infected": 7230,
    "recovered": 131,
    "latitude": 46.818188,
    "longitude": 8.227512,
    "name": "Switzerland",
    "country": "CH",
    "dead": 85,
    "lastUpdated": "2020-03-22T17:13:02.647Z",
    "id": "SGe9sCPayMqh6RsGFaBA",
    "sick": 7014
  },
  {
    "longitude": -71.208,
    "name": "Quebec",
    "country": "CA",
    "dead": 5,
    "lastUpdated": "2020-03-22T17:12:02.179Z",
    "id": "SHoOE3NiJgWAlDVBzwYH",
    "infected": 181,
    "recovered": 0,
    "latitude": 46.8139,
    "sick": 176
  },
  {
    "latitude": 42.6026,
    "longitude": 20.903,
    "name": "Kosovo",
    "country": "XK",
    "dead": 1,
    "lastUpdated": "2020-03-22T17:14:01.247Z",
    "id": "SMWvuMMuKp2QK7O2tNia",
    "infected": 31,
    "recovered": 0,
    "sick": 30
  },
  {
    "infected": 38,
    "recovered": 0,
    "latitude": 41.4925,
    "longitude": -99.9018,
    "name": "Nebraska",
    "country": "US",
    "dead": 0,
    "lastUpdated": "2020-03-22T17:12:02.211Z",
    "id": "SakhKQzKu1LRI8laqdQq",
    "sick": 38
  },
  {
    "latitude": -21.1151,
    "longitude": 55.5364,
    "name": "La Réunion",
    "country": "FR",
    "dead": 0,
    "lastUpdated": "2020-03-22T17:19:06.089Z",
    "id": "SgHzWAAYK1j2sipovxM6",
    "infected": 47,
    "recovered": 0,
    "sick": 47
  },
  {
    "id": "SioMALgUbo7peXmbco2f",
    "infected": 84,
    "recovered": 2,
    "latitude": 12.565679,
    "longitude": 104.990967,
    "name": "Cambodia",
    "country": "KH",
    "dead": 0,
    "lastUpdated": "2020-03-22T17:13:02.662Z",
    "sick": 82
  },
  {
    "longitude": 144.7937,
    "name": "Guam",
    "country": "GU",
    "dead": 1,
    "lastUpdated": "2020-03-22T17:13:02.802Z",
    "id": "SsWhuEElU7dCTTuH5fdQ",
    "infected": 27,
    "recovered": 0,
    "latitude": 13.4443,
    "sick": 26
  },
  {
    "longitude": 21.7587,
    "name": "DR Congo",
    "country": "CD",
    "dead": 1,
    "lastUpdated": "2020-03-22T17:13:02.785Z",
    "id": "T3iRf8mTUTAzbKrORTap",
    "infected": 30,
    "recovered": 0,
    "latitude": -4.0383,
    "sick": 29
  },
  {
    "dead": 0,
    "lastUpdated": "2020-03-22T17:13:02.948Z",
    "id": "T7NffoeCgTUpAbOHvYwP",
    "infected": 511,
    "recovered": 17,
    "latitude": 23.635796,
    "longitude": 44.344334,
    "name": "Saudi Arabia",
    "country": "SA",
    "sick": 494
  },
  {
    "longitude": 114.650692,
    "name": "Brunei",
    "country": "BN",
    "dead": 0,
    "lastUpdated": "2020-03-22T17:13:02.993Z",
    "id": "TQZmzsLhJqjtCSExAkCP",
    "infected": 88,
    "recovered": 2,
    "latitude": 4.506106,
    "sick": 86
  },
  {
    "infected": 1266,
    "recovered": 27,
    "latitude": 45.4471,
    "longitude": 4.3853,
    "name": "Auvergne-Rhône-Alpes",
    "country": "FR",
    "dead": 7,
    "lastUpdated": "2020-03-22T17:19:05.982Z",
    "id": "TT0MKODSjrxHvG19xZCa",
    "sick": 1232
  },
  {
    "infected": 475,
    "recovered": 0,
    "latitude": 39.318928,
    "longitude": -105.461392,
    "name": "Colorado",
    "country": "US",
    "dead": 6,
    "lastUpdated": "2020-03-22T17:12:02.209Z",
    "id": "Th4dlpXXmSDgi1OHs36P",
    "sick": 469
  },
  {
    "infected": 75,
    "recovered": 5,
    "latitude": 12.2383,
    "longitude": -1.5616,
    "name": "Burkina Faso",
    "country": "BF",
    "dead": 4,
    "lastUpdated": "2020-03-22T17:13:02.627Z",
    "id": "Tup6oDCHj6DgqZR3nQ3x",
    "sick": 66
  },
  {
    "longitude": 12.56902,
    "name": "Denmark",
    "country": "DK",
    "dead": 13,
    "lastUpdated": "2020-03-22T17:13:03.020Z",
    "id": "Ty1AY3VLPJcRZgdBIERx",
    "infected": 1395,
    "recovered": 1,
    "latitude": 55.675758,
    "sick": 1381
  },
  {
    "id": "U0tkTJ9CGsBuFJ2Gdoum",
    "infected": 765,
    "recovered": 750,
    "latitude": 36.395859,
    "longitude": 118.769882,
    "name": "Shandong",
    "country": "CN",
    "dead": 7,
    "lastUpdated": "2020-03-22T07:55:48.185Z",
    "sick": 8
  },
  {
    "latitude": 43.94236,
    "longitude": 12.457777,
    "name": "San Marino",
    "country": "SM",
    "dead": 20,
    "lastUpdated": "2020-03-22T17:13:02.645Z",
    "id": "U12rMD5GDW58Q0lIwrB1",
    "infected": 175,
    "recovered": 4,
    "sick": 151
  },
  {
    "latitude": 36.204823,
    "longitude": 138.25293,
    "name": "Japan",
    "country": "JP",
    "dead": 36,
    "lastUpdated": "2020-03-22T17:13:02.654Z",
    "id": "U13Gy4BpRLAZ95bPmBXd",
    "infected": 1086,
    "recovered": 235,
    "sick": 815
  },
  {
    "infected": 2,
    "recovered": 0,
    "latitude": -11.2027,
    "longitude": 17.8739,
    "name": "Angola",
    "country": "AO",
    "dead": 0,
    "lastUpdated": "2020-03-22T17:13:02.782Z",
    "id": "UIbrFy6kiTTF0D37Kqmp",
    "sick": 2
  },
  {
    "latitude": 48.202,
    "longitude": -2.9326,
    "name": "Bretagne",
    "country": "FR",
    "dead": 3,
    "lastUpdated": "2020-03-22T17:19:06.076Z",
    "id": "URKMlJ7OTNldjpaxFbjE",
    "infected": 359,
    "recovered": 0,
    "sick": 356
  },
  {
    "infected": 887,
    "recovered": 1,
    "latitude": 53.5511,
    "longitude": 9.9937,
    "name": "Hamburg",
    "country": "DE",
    "dead": 1,
    "lastUpdated": "2020-03-22T17:12:03.449Z",
    "id": "UfFaUECHINUutv1M9tzq",
    "sick": 885
  },
  {
    "id": "UsxgpiuFCtlR2CW1UUFm",
    "infected": 1,
    "recovered": 0,
    "latitude": 18.0424805,
    "longitude": -63.0548286,
    "name": "Sint Maarten",
    "country": "SX",
    "dead": 0,
    "lastUpdated": "2020-03-22T17:13:02.762Z",
    "sick": 1
  },
  {
    "latitude": 11.943179,
    "longitude": 79.808206,
    "name": "Puducherry",
    "country": "IN",
    "dead": 0,
    "lastUpdated": "2020-03-22T17:11:02.146Z",
    "id": "V1qE740s3EUGyKGr6SVv",
    "infected": 1,
    "recovered": 0,
    "sick": 1
  },
  {
    "latitude": 3.527606,
    "longitude": -72.998674,
    "name": "Colombia",
    "country": "CO",
    "dead": 2,
    "lastUpdated": "2020-03-22T17:13:02.967Z",
    "id": "VAAmtxtDuCY0o55zRsOh",
    "infected": 231,
    "recovered": 3,
    "sick": 226
  },
  {
    "dead": 1,
    "lastUpdated": "2020-03-22T17:13:02.988Z",
    "id": "VAG9AcMABTf8oIAfELPh",
    "infected": 21,
    "recovered": 0,
    "latitude": 21.5218,
    "longitude": -77.7812,
    "name": "Cuba",
    "country": "CU",
    "sick": 20
  },
  {
    "infected": 176,
    "recovered": 172,
    "latitude": 25.181129,
    "longitude": 101.864143,
    "name": "Yunnan",
    "country": "CN",
    "dead": 2,
    "lastUpdated": "2020-03-22T07:57:41.149Z",
    "id": "VIf8T8PD3ZzlzAm5eBCX",
    "sick": 2
  },
  {
    "id": "VcKcLdCkC6YpPfIDnRVD",
    "infected": 27,
    "recovered": 9,
    "latitude": 26.8467,
    "longitude": 80.9462,
    "name": "Uttar Pradesh",
    "country": "IN",
    "dead": 0,
    "lastUpdated": "2020-03-22T17:11:02.196Z",
    "sick": 18
  },
  {
    "longitude": 3.2828,
    "name": "Occitanie",
    "country": "FR",
    "dead": 10,
    "lastUpdated": "2020-03-22T17:19:05.892Z",
    "id": "WAnbFrEjtZDTCIYBt8rz",
    "infected": 611,
    "recovered": 0,
    "latitude": 43.8927,
    "sick": 601
  },
  {
    "dead": 0,
    "lastUpdated": "2020-03-22T17:13:02.952Z",
    "id": "Whrue10NtwIObLvFFyBr",
    "infected": 240,
    "recovered": 2,
    "latitude": -30.5595,
    "longitude": 22.9375,
    "name": "South Africa",
    "country": "ZA",
    "sick": 238
  },
  {
    "infected": 1,
    "recovered": 0,
    "latitude": 13.443182,
    "longitude": -15.3101387,
    "name": "Gambia",
    "country": "GM",
    "dead": 0,
    "lastUpdated": "2020-03-22T17:13:02.786Z",
    "id": "Wk811YwpQxsOCfz8As86",
    "sick": 1
  },
  {
    "longitude": 90.3563,
    "name": "Bangladesh",
    "country": "BD",
    "dead": 2,
    "lastUpdated": "2020-03-22T17:13:02.766Z",
    "id": "WpLayPPLIJ7VcHZdQaoM",
    "infected": 27,
    "recovered": 3,
    "latitude": 23.685,
    "sick": 22
  },
  {
    "latitude": 34.152588,
    "longitude": 77.577049,
    "name": "Ladakh",
    "country": "IN",
    "dead": 0,
    "lastUpdated": "2020-03-22T17:11:02.162Z",
    "id": "X3PZqaJxtnlxcgP4tzya",
    "infected": 13,
    "recovered": 0,
    "sick": 13
  },
  {
    "recovered": 295,
    "latitude": 25.92448,
    "longitude": 118.278992,
    "name": "Fujian",
    "country": "CN",
    "dead": 1,
    "lastUpdated": "2020-03-22T07:58:16.037Z",
    "id": "XBBw0iMPrmiEu3qogkbi",
    "infected": 307,
    "sick": 11
  },
  {
    "id": "XdekMZcw1lJK2MWpBlNK",
    "infected": 59138,
    "recovered": 7024,
    "latitude": 41.871941,
    "longitude": 12.56738,
    "name": "Italy",
    "country": "IT",
    "dead": 5476,
    "lastUpdated": "2020-03-22T17:13:02.677Z",
    "sick": 46638
  },
  {
    "infected": 135,
    "recovered": 0,
    "latitude": -32.5228,
    "longitude": -55.7658,
    "name": "Uruguay",
    "country": "UY",
    "dead": 0,
    "lastUpdated": "2020-03-22T17:13:03.013Z",
    "id": "XrsuLstdybIqIvv0E0aJ",
    "sick": 135
  },
  {
    "longitude": 9.0129,
    "name": "Corse",
    "country": "FR",
    "dead": 7,
    "lastUpdated": "2020-03-22T17:19:06.086Z",
    "id": "YGXgIObKVabP2CYEdcb9",
    "infected": 173,
    "recovered": 0,
    "latitude": 42.0396,
    "sick": 166
  },
  {
    "recovered": 17,
    "latitude": 31.9522,
    "longitude": 35.2332,
    "name": "Palestine",
    "country": "PS",
    "dead": 0,
    "lastUpdated": "2020-03-22T17:13:02.981Z",
    "id": "YMzKw0SnXG71VT7H1jff",
    "infected": 59,
    "sick": 42
  },
  {
    "latitude": 64.2008,
    "longitude": -149.4937,
    "name": "Alaska",
    "country": "US",
    "dead": 0,
    "lastUpdated": "2020-03-22T17:12:02.263Z",
    "id": "YaCODTMD1KKRnrAlkg2u",
    "infected": 21,
    "recovered": 0,
    "sick": 21
  },
  {
    "dead": 104,
    "lastUpdated": "2020-03-22T17:13:02.634Z",
    "id": "Yw9uBekNlefXBcOCNMfP",
    "infected": 8897,
    "recovered": 2909,
    "latitude": 37.568291,
    "longitude": 126.99778,
    "name": "South Korea",
    "country": "KR",
    "sick": 5884
  },
  {
    "dead": 0,
    "lastUpdated": "2020-03-22T17:13:02.791Z",
    "id": "YzZqZMJGvG6joQCdiuXC",
    "infected": 14,
    "recovered": 0,
    "latitude": 13.193887,
    "longitude": -59.543198,
    "name": "Barbados",
    "country": "BB",
    "sick": 14
  },
  {
    "latitude": 52.2297,
    "longitude": 21.0122,
    "name": "Poland",
    "country": "PL",
    "dead": 7,
    "lastUpdated": "2020-03-22T17:13:03.022Z",
    "id": "ZAZNuCK1VweBaTLCFzCk",
    "infected": 563,
    "recovered": 13,
    "sick": 543
  },
  {
    "id": "ZmzOT0sJgfWXEpRImItC",
    "infected": 2,
    "recovered": 0,
    "latitude": -17.713371,
    "longitude": 178.065033,
    "name": "Fiji",
    "country": "FJ",
    "dead": 0,
    "lastUpdated": "2020-03-22T17:13:02.707Z",
    "sick": 2
  },
  {
    "infected": 223,
    "recovered": 0,
    "latitude": 41.6032,
    "longitude": -73.0877,
    "name": "Connecticut",
    "country": "US",
    "dead": 5,
    "lastUpdated": "2020-03-22T17:12:02.260Z",
    "id": "Zqy0gftQzocR49jEJNMl",
    "sick": 218
  },
  {
    "latitude": 51.011,
    "longitude": 10.8453,
    "name": "Thüringen",
    "country": "DE",
    "dead": 1,
    "lastUpdated": "2020-03-22T17:12:03.439Z",
    "id": "a9OgUWo6ZSWA3HyF0xnj",
    "infected": 307,
    "recovered": 27,
    "sick": 279
  },
  {
    "latitude": -30.000233,
    "longitude": 136.209152,
    "name": "South Australia",
    "country": "AU",
    "dead": 0,
    "lastUpdated": "2020-03-22T17:10:01.939Z",
    "id": "a9p9pAOsjg1WAjPGc2a6",
    "infected": 67,
    "recovered": 3,
    "sick": 64
  },
  {
    "latitude": 37.9643,
    "longitude": -91.8318,
    "name": "Missouri",
    "country": "US",
    "dead": 3,
    "lastUpdated": "2020-03-22T17:12:02.173Z",
    "id": "aPubGfQ8ToSEuKJldKRT",
    "infected": 86,
    "recovered": 0,
    "sick": 83
  },
  {
    "latitude": 23.64407,
    "longitude": 108.26651,
    "name": "Guangxi",
    "country": "CN",
    "dead": 2,
    "lastUpdated": "2020-03-22T07:58:09.554Z",
    "id": "aTa8MiBjtH3iY0SRs2HQ",
    "infected": 254,
    "recovered": 250,
    "sick": 2
  },
  {
    "latitude": 6.6111,
    "longitude": 20.9394,
    "name": "CAR",
    "country": "CF",
    "dead": 0,
    "lastUpdated": "2020-03-22T17:13:02.734Z",
    "id": "adcBUeAYp6ey0ZXCzKNs",
    "infected": 3,
    "recovered": 0,
    "sick": 3
  },
  {
    "recovered": 0,
    "latitude": 37.4316,
    "longitude": -78.6569,
    "name": "Virginia",
    "country": "US",
    "dead": 3,
    "lastUpdated": "2020-03-22T17:12:02.227Z",
    "id": "afeZTVC1J1SMMNFxkrcc",
    "infected": 159,
    "sick": 156
  },
  {
    "infected": 514,
    "recovered": 400,
    "latitude": 39.904202,
    "longitude": 116.407394,
    "name": "Beijing",
    "country": "CN",
    "dead": 8,
    "lastUpdated": "2020-03-22T07:57:28.186Z",
    "id": "alj4hkxg9cjrTxOzwFKt",
    "sick": 106
  },
  {
    "infected": 233,
    "recovered": 57,
    "latitude": 33.22319,
    "longitude": 43.679291,
    "name": "Iraq",
    "country": "IQ",
    "dead": 20,
    "lastUpdated": "2020-03-22T17:13:02.663Z",
    "id": "b7TwXX46FA0EmH1CjHET",
    "sick": 156
  },
  {
    "infected": 56,
    "recovered": 5,
    "latitude": 14.457474,
    "longitude": -14.358636,
    "name": "Senegal",
    "country": "SN",
    "dead": 0,
    "lastUpdated": "2020-03-22T17:13:02.989Z",
    "id": "b9p1JhVml3GGC7iiPmKv",
    "sick": 51
  },
  {
    "infected": 15,
    "recovered": 0,
    "latitude": -0.0236,
    "longitude": 37.9062,
    "name": "Kenya",
    "country": "KE",
    "dead": 0,
    "lastUpdated": "2020-03-22T17:13:02.800Z",
    "id": "bVHiTolbUJGHIeVht3eG",
    "sick": 15
  },
  {
    "latitude": 39.561889,
    "longitude": -74.672169,
    "name": "New Jersey",
    "country": "US",
    "dead": 16,
    "lastUpdated": "2020-03-22T17:12:02.222Z",
    "id": "bYp4RRHv19M7lYtSzQeV",
    "infected": 1327,
    "recovered": 0,
    "sick": 1311
  },
  {
    "infected": 1306,
    "recovered": 139,
    "latitude": 3.139,
    "longitude": 101.6869,
    "name": "Malaysia",
    "country": "MY",
    "dead": 10,
    "lastUpdated": "2020-03-22T17:13:03.029Z",
    "id": "bdqD4kpdqGgUaX70Tm2Q",
    "sick": 1157
  },
  {
    "recovered": 16,
    "latitude": 60.128162,
    "longitude": 18.643501,
    "name": "Sweden",
    "country": "SE",
    "dead": 21,
    "lastUpdated": "2020-03-22T17:13:02.665Z",
    "id": "bignnyt2A8BBx8VNo32p",
    "infected": 1931,
    "sick": 1894
  },
  {
    "infected": 89,
    "recovered": 2,
    "latitude": 40.973765,
    "longitude": 20.010162,
    "name": "Albania",
    "country": "AL",
    "dead": 2,
    "lastUpdated": "2020-03-22T17:13:02.639Z",
    "id": "cCGmFmwHOoBrEpvG3qBP",
    "sick": 85
  },
  {
    "recovered": 0,
    "latitude": 46.8625,
    "longitude": 103.8467,
    "name": "Mongolia",
    "country": "MN",
    "dead": 0,
    "lastUpdated": "2020-03-22T17:13:02.773Z",
    "id": "cPxONYsVo6BgvCW9HUeQ",
    "infected": 10,
    "sick": 10
  },
  {
    "latitude": 64.963051,
    "longitude": -19.020836,
    "name": "Iceland",
    "country": "IS",
    "dead": 1,
    "lastUpdated": "2020-03-22T17:13:02.652Z",
    "id": "cPxe7nsRnOf6aOPqHElJ",
    "infected": 568,
    "recovered": 5,
    "sick": 562
  },
  {
    "dead": 1,
    "lastUpdated": "2020-03-22T17:13:02.642Z",
    "id": "cX891t0ONLNFj0MYq6La",
    "infected": 945,
    "recovered": 37,
    "latitude": 31.046051,
    "longitude": 34.851612,
    "name": "Israel",
    "country": "IL",
    "sick": 907
  },
  {
    "dead": 0,
    "lastUpdated": "2020-03-22T17:19:05.884Z",
    "id": "cc7s6hYGQ2MovBBBgkKb",
    "infected": 18,
    "recovered": 5,
    "latitude": 4.749531,
    "longitude": -53.112909,
    "name": "Guyane",
    "country": "FR",
    "sick": 13
  },
  {
    "id": "cgzd5EM8PZv5ziJtTz1w",
    "infected": 115,
    "recovered": 3,
    "latitude": 61.8926,
    "longitude": -6.9118,
    "name": "Faeroe Islands",
    "country": "FO",
    "dead": 0,
    "lastUpdated": "2020-03-22T17:13:02.999Z",
    "sick": 112
  },
  {
    "infected": 405,
    "recovered": 0,
    "latitude": 41.2033,
    "longitude": -77.1945,
    "name": "Pennsylvania",
    "country": "US",
    "dead": 2,
    "lastUpdated": "2020-03-22T17:12:02.243Z",
    "id": "chj2FF3zb4Xxcop9RHre",
    "sick": 403
  },
  {
    "latitude": 45.7087,
    "longitude": 0.6269,
    "name": "Nouvelle-Aquitaine",
    "country": "FR",
    "dead": 2,
    "lastUpdated": "2020-03-22T17:19:05.890Z",
    "id": "cpf3Y5PQTYywIm3PrpIQ",
    "infected": 521,
    "recovered": 2,
    "sick": 517
  },
  {
    "latitude": 40.463669,
    "longitude": -3.74922,
    "name": "Spain",
    "country": "ES",
    "dead": 1756,
    "lastUpdated": "2020-03-22T17:13:02.941Z",
    "id": "d0ExINgPaWUBm3l4ioJL",
    "infected": 28603,
    "recovered": 2125,
    "sick": 24722
  },
  {
    "id": "dedMXSYR2k92wkSXNZqn",
    "infected": 113,
    "recovered": 1,
    "latitude": 42.50837,
    "longitude": 1.517155,
    "name": "Andorra",
    "country": "AD",
    "dead": 1,
    "lastUpdated": "2020-03-22T17:13:02.632Z",
    "sick": 111
  },
  {
    "recovered": 0,
    "latitude": 38.831163,
    "longitude": -75.375673,
    "name": "Delaware",
    "country": "US",
    "dead": 0,
    "lastUpdated": "2020-03-22T17:12:02.207Z",
    "id": "dzCgqYduzyncjNKU9z6G",
    "infected": 45,
    "sick": 45
  },
  {
    "longitude": 35.2433,
    "name": "Turkey",
    "country": "TR",
    "dead": 21,
    "lastUpdated": "2020-03-22T17:13:03.017Z",
    "id": "dzIcCaUZlbIXuRw0SyDE",
    "infected": 947,
    "recovered": 0,
    "latitude": 38.9637,
    "sick": 926
  },
  {
    "longitude": 14.550072,
    "name": "Austria",
    "country": "AT",
    "dead": 16,
    "lastUpdated": "2020-03-22T17:13:02.957Z",
    "id": "e3BtI12qbqhE8jypOoZu",
    "infected": 3302,
    "recovered": 9,
    "latitude": 47.516232,
    "sick": 3277
  },
  {
    "infected": 1586,
    "recovered": 6,
    "latitude": 52.6367,
    "longitude": 9.8451,
    "name": "Niedersachsen",
    "country": "DE",
    "dead": 4,
    "lastUpdated": "2020-03-22T17:12:03.637Z",
    "id": "e3CJgTO8wVbBQZaxqNze",
    "sick": 1576
  },
  {
    "latitude": 41.097481,
    "longitude": 122.310669,
    "name": "Liaoning",
    "country": "CN",
    "dead": 2,
    "lastUpdated": "2020-03-22T07:56:31.620Z",
    "id": "e7P83iImanpd9r36oXK3",
    "infected": 126,
    "recovered": 124,
    "sick": 0
  },
  {
    "infected": 394,
    "recovered": 328,
    "latitude": 31.230391,
    "longitude": 121.473701,
    "name": "Shanghai",
    "country": "CN",
    "dead": 4,
    "lastUpdated": "2020-03-22T07:58:03.378Z",
    "id": "e9pQqQa7CEblCYoDtfKo",
    "sick": 62
  },
  {
    "id": "eCKDGssww4pF7NrxOySu",
    "infected": 529,
    "recovered": 0,
    "latitude": 42.407211,
    "longitude": -71.382439,
    "name": "Massachusetts",
    "country": "US",
    "dead": 2,
    "lastUpdated": "2020-03-22T17:12:02.262Z",
    "sick": 527
  },
  {
    "latitude": 43.740451,
    "longitude": 7.432032,
    "name": "Monaco",
    "country": "MC",
    "dead": 0,
    "lastUpdated": "2020-03-22T17:13:02.747Z",
    "id": "eLgKPNUwYM5MNDAtF6ql",
    "infected": 18,
    "recovered": 1,
    "sick": 17
  },
  {
    "recovered": 8,
    "latitude": 47.2805,
    "longitude": 4.9994,
    "name": "Bourgogne-Franche-Comté",
    "country": "FR",
    "dead": 20,
    "lastUpdated": "2020-03-22T17:19:05.889Z",
    "id": "ejrjMKfHexGnK52FS9Aa",
    "infected": 903,
    "sick": 875
  },
  {
    "latitude": 48.0196,
    "longitude": 66.9237,
    "name": "Kazakhstan",
    "country": "KZ",
    "dead": 0,
    "lastUpdated": "2020-03-22T17:13:03.031Z",
    "id": "etrmrftkQg6Kbd9seAga",
    "infected": 59,
    "recovered": 0,
    "sick": 59
  },
  {
    "latitude": 30.14208,
    "longitude": 102.960701,
    "name": "Sichuan",
    "country": "CN",
    "dead": 3,
    "lastUpdated": "2020-03-22T07:57:56.190Z",
    "id": "eyK5bxFkwdoAouIBvLFM",
    "infected": 543,
    "recovered": 536,
    "sick": 4
  },
  {
    "id": "f9kmlhYtc3WA3kjbWszW",
    "infected": 55,
    "recovered": 17,
    "latitude": 21.473534,
    "longitude": 55.975414,
    "name": "Oman",
    "country": "OM",
    "dead": 0,
    "lastUpdated": "2020-03-22T17:13:02.970Z",
    "sick": 38
  },
  {
    "latitude": 51.1045,
    "longitude": 13.2017,
    "name": "Sachsen",
    "country": "DE",
    "dead": 1,
    "lastUpdated": "2020-03-22T17:12:03.538Z",
    "id": "fGqVm2khm3IBRs709S1f",
    "infected": 731,
    "recovered": 2,
    "sick": 728
  },
  {
    "longitude": 2,
    "name": "Région non communiquée",
    "country": "FR",
    "dead": 384,
    "lastUpdated": "2020-03-21T21:47:19.088Z",
    "id": "fIp76gl05LhZ0aOxUbhz",
    "infected": 0,
    "recovered": 0,
    "latitude": 47,
    "sick": 0
  },
  {
    "longitude": 36.691952,
    "name": "Jordan",
    "country": "JO",
    "dead": 0,
    "lastUpdated": "2020-03-22T17:13:02.950Z",
    "id": "fK06AziL8wyrcoz7rsmJ",
    "infected": 100,
    "recovered": 1,
    "latitude": 31.295929,
    "sick": 99
  },
  {
    "latitude": 27.716933,
    "longitude": -81.555239,
    "name": "Florida",
    "country": "US",
    "dead": 13,
    "lastUpdated": "2020-03-22T17:12:02.247Z",
    "id": "fNganaGVPifA4QahEQPS",
    "infected": 763,
    "recovered": 0,
    "sick": 750
  },
  {
    "latitude": 35.452016,
    "longitude": 139.664285,
    "name": "Diamond Princess (Cruise)",
    "country": "ZZ",
    "dead": 8,
    "lastUpdated": "2020-03-22T01:11:39.488Z",
    "id": "fNnE9CD0SttEVrCUo1Ym",
    "infected": 712,
    "recovered": 567,
    "sick": 137
  },
  {
    "longitude": 13.405,
    "name": "Berlin",
    "country": "DE",
    "dead": 1,
    "lastUpdated": "2020-03-22T17:12:03.350Z",
    "id": "ffKhENYKy3bwsyBLiYtE",
    "infected": 1025,
    "recovered": 6,
    "latitude": 52.52,
    "sick": 1018
  },
  {
    "id": "fiJ14DCxw15e3SMemh8R",
    "infected": 67800,
    "recovered": 59432,
    "latitude": 31.160629,
    "longitude": 112.255402,
    "name": "Hubei",
    "country": "CN",
    "dead": 3144,
    "lastUpdated": "2020-03-22T07:58:53.679Z",
    "sick": 5224
  },
  {
    "infected": 47,
    "recovered": 8,
    "latitude": 50.4501,
    "longitude": 30.5234,
    "name": "Ukraine",
    "country": "UA",
    "dead": 3,
    "lastUpdated": "2020-03-22T14:28:03.656Z",
    "id": "flbZ2kaR5kBuV8XZ2Nsu",
    "sick": 36
  },
  {
    "latitude": 41.2044,
    "longitude": 74.7661,
    "name": "Kyrgyzstan",
    "country": "KG",
    "dead": 0,
    "lastUpdated": "2020-03-22T17:13:02.795Z",
    "id": "fst48lrFxiMJbQPf4nur",
    "infected": 14,
    "recovered": 0,
    "sick": 14
  },
  {
    "recovered": 2,
    "latitude": 52.132633,
    "longitude": 5.291266,
    "name": "Netherlands",
    "country": "NL",
    "dead": 179,
    "lastUpdated": "2020-03-22T17:13:03.015Z",
    "id": "g0lRMtEJbucWIGqSPn0I",
    "infected": 4204,
    "sick": 4023
  },
  {
    "latitude": 34.69522,
    "longitude": -92.288012,
    "name": "Arkansas",
    "country": "US",
    "dead": 0,
    "lastUpdated": "2020-03-22T17:12:02.200Z",
    "id": "gIdgxJZfTl2QOSYEwMAz",
    "infected": 122,
    "recovered": 0,
    "sick": 122
  },
  {
    "infected": 18,
    "recovered": 0,
    "latitude": 4.8604159,
    "longitude": -58.9301796,
    "name": "Guyana",
    "country": "GY",
    "dead": 1,
    "lastUpdated": "2020-03-22T17:13:02.702Z",
    "id": "gXd2X2PjmGP0XVwxpWqT",
    "sick": 17
  },
  {
    "latitude": 43.9695,
    "longitude": -99.9018,
    "name": "South Dakota",
    "country": "US",
    "dead": 1,
    "lastUpdated": "2020-03-22T17:12:02.249Z",
    "id": "gYDsNgvuvtbg8t77w6FS",
    "infected": 14,
    "recovered": 0,
    "sick": 13
  },
  {
    "latitude": 35.894231,
    "longitude": 14.432846,
    "name": "Malta",
    "country": "MT",
    "dead": 0,
    "lastUpdated": "2020-03-22T17:13:03.001Z",
    "id": "h9UqxYZ5xC4JZrmdDz0q",
    "infected": 90,
    "recovered": 2,
    "sick": 88
  },
  {
    "latitude": 28.7041,
    "longitude": 77.1025,
    "name": "Delhi",
    "country": "IN",
    "dead": 1,
    "lastUpdated": "2020-03-22T17:11:02.177Z",
    "id": "hqwsh1rmvkWI3LFUVuMk",
    "infected": 29,
    "recovered": 5,
    "sick": 23
  },
  {
    "latitude": 35.751835,
    "longitude": 104.28611,
    "name": "Gansu",
    "country": "CN",
    "dead": 2,
    "lastUpdated": "2020-03-22T07:57:35.194Z",
    "id": "iGkTscdD0XyHFSP23Qrp",
    "infected": 134,
    "recovered": 113,
    "sick": 19
  },
  {
    "recovered": 3,
    "latitude": 10.8505,
    "longitude": 76.2711,
    "name": "Kerala",
    "country": "IN",
    "dead": 0,
    "lastUpdated": "2020-03-22T17:11:02.137Z",
    "id": "idymmgoqLHImnBdyC7r7",
    "infected": 52,
    "sick": 49
  },
  {
    "infected": 0,
    "recovered": 23,
    "latitude": -25.2744,
    "longitude": 133.7751,
    "name": "Unknown state",
    "country": "AU",
    "dead": 0,
    "lastUpdated": "2020-03-19T02:03:51.485Z",
    "id": "iwcBlwhnL6MDiXogzf8g",
    "sick": 0
  },
  {
    "recovered": 0,
    "latitude": 16.265,
    "longitude": -61.551,
    "name": "Guadeloupe",
    "country": "FR",
    "dead": 1,
    "lastUpdated": "2020-03-22T17:19:05.984Z",
    "id": "j8eMjjqNAqHAJhAKdBYN",
    "infected": 56,
    "sick": 55
  },
  {
    "infected": 1149,
    "recovered": 1,
    "latitude": 50.1183,
    "longitude": 7.309,
    "name": "Rheinland-Pfalz",
    "country": "DE",
    "dead": 2,
    "lastUpdated": "2020-03-22T17:12:03.643Z",
    "id": "jKn2pIFlIBScjb47GjRX",
    "sick": 1146
  },
  {
    "id": "jMlHjIOb7eMPSxFBrmG1",
    "infected": 137,
    "recovered": 133,
    "latitude": 39.343357,
    "longitude": 117.361649,
    "name": "Tianjin",
    "country": "CN",
    "dead": 3,
    "lastUpdated": "2020-03-22T07:56:12.058Z",
    "sick": 1
  },
  {
    "latitude": 44.5588,
    "longitude": -72.5778,
    "name": "Vermont",
    "country": "US",
    "dead": 2,
    "lastUpdated": "2020-03-22T17:12:02.213Z",
    "id": "jPC0eOG50FWknCDe3K6P",
    "infected": 49,
    "recovered": 0,
    "sick": 47
  },
  {
    "dead": 3,
    "lastUpdated": "2020-03-22T17:13:03.006Z",
    "id": "jpVXEDCyfyq26gPoCtHL",
    "infected": 785,
    "recovered": 5,
    "latitude": 53.3498,
    "longitude": -6.2603,
    "name": "Ireland",
    "country": "IE",
    "sick": 777
  },
  {
    "dead": 0,
    "lastUpdated": "2020-03-22T17:13:02.708Z",
    "id": "l4nYeaqwy2yrEVqnijFj",
    "infected": 1,
    "recovered": 0,
    "latitude": 11.572076,
    "longitude": 43.145645,
    "name": "Djibouti",
    "country": "DJ",
    "sick": 1
  },
  {
    "dead": 0,
    "lastUpdated": "2020-03-22T17:12:02.223Z",
    "id": "l7fHSKOmcaRX3tq9FCT6",
    "infected": 42,
    "recovered": 0,
    "latitude": 44.0682,
    "longitude": -114.742,
    "name": "Idaho",
    "country": "US",
    "sick": 42
  },
  {
    "longitude": -61.2225,
    "name": "Trinidad and Tobago",
    "country": "TT",
    "dead": 0,
    "lastUpdated": "2020-03-22T17:13:03.040Z",
    "id": "lfLdfRP7hyiA6MVnQqqn",
    "infected": 50,
    "recovered": 0,
    "latitude": 10.6918,
    "sick": 50
  },
  {
    "recovered": 0,
    "latitude": 16.5388,
    "longitude": -23.0418,
    "name": "Cape Verde",
    "country": "CV",
    "dead": 0,
    "lastUpdated": "2020-03-22T17:13:02.799Z",
    "id": "lgqPuia1S3ApA5Lsl2la",
    "infected": 3,
    "sick": 3
  },
  {
    "infected": 76,
    "recovered": 73,
    "latitude": 42.524635,
    "longitude": 87.539589,
    "name": "Xinjiang",
    "country": "CN",
    "dead": 3,
    "lastUpdated": "2020-03-22T07:54:35.058Z",
    "id": "lhPjpn6CzqTRDN0RW8uE",
    "sick": 0
  },
  {
    "recovered": 3,
    "latitude": 3.2028,
    "longitude": 73.2207,
    "name": "Maldives",
    "country": "MV",
    "dead": 0,
    "lastUpdated": "2020-03-22T17:13:02.775Z",
    "id": "m45gI2UbWMuTrOnTtp9k",
    "infected": 13,
    "sick": 10
  },
  {
    "id": "mF7rVMdVnazAuw8G22xs",
    "infected": 1,
    "recovered": 0,
    "latitude": 41.9029,
    "longitude": 12.4534,
    "name": "Vatican City",
    "country": "VA",
    "dead": 0,
    "lastUpdated": "2020-03-22T17:13:02.699Z",
    "sick": 1
  },
  {
    "dead": 2,
    "lastUpdated": "2020-03-22T17:11:02.176Z",
    "id": "mJtdLs4ub6CkcAOeMWUm",
    "infected": 67,
    "recovered": 0,
    "latitude": 19.7515,
    "longitude": 75.7139,
    "name": "Maharashtra",
    "country": "IN",
    "sick": 65
  },
  {
    "latitude": -33.4489,
    "longitude": -70.6693,
    "name": "Chile",
    "country": "CL",
    "dead": 1,
    "lastUpdated": "2020-03-22T17:13:02.644Z",
    "id": "mSACWVbCy5QE7ciLA93J",
    "infected": 632,
    "recovered": 8,
    "sick": 623
  },
  {
    "longitude": 34.8888,
    "name": "Tanzania",
    "country": "TZ",
    "dead": 0,
    "lastUpdated": "2020-03-22T17:13:02.745Z",
    "id": "mnew3ojzmWV0dWSPfCQ9",
    "infected": 12,
    "recovered": 0,
    "latitude": -6.369,
    "sick": 12
  },
  {
    "recovered": 1,
    "latitude": 35.693323,
    "longitude": -86.605748,
    "name": "Tennessee",
    "country": "US",
    "dead": 1,
    "lastUpdated": "2020-03-22T07:53:41.810Z",
    "id": "nLhJXE2apq8yNNj363ai",
    "infected": 265,
    "sick": 263
  },
  {
    "latitude": -4.6796,
    "longitude": 55.492,
    "name": "Seychelles",
    "country": "SC",
    "dead": 0,
    "lastUpdated": "2020-03-22T17:13:02.712Z",
    "id": "oB5fSyjWJ0FbNAkssuci",
    "infected": 7,
    "recovered": 0,
    "sick": 7
  },
  {
    "dead": 3,
    "lastUpdated": "2020-03-22T17:13:02.678Z",
    "id": "oJ5vSDE9vgXC2PG8LElp",
    "infected": 109,
    "recovered": 3,
    "latitude": 31.893778,
    "longitude": -6.196132,
    "name": "Morocco",
    "country": "MA",
    "sick": 103
  },
  {
    "recovered": 0,
    "latitude": 50.4801,
    "longitude": 2.7937,
    "name": "Hauts-de-France",
    "country": "FR",
    "dead": 46,
    "lastUpdated": "2020-03-22T17:19:05.986Z",
    "id": "ofWLu9EuQoK2nHjwU1mA",
    "infected": 791,
    "sick": 745
  },
  {
    "id": "oqLEd2Z9P3FJeQsfIk8e",
    "infected": 2,
    "recovered": 0,
    "latitude": 31.1048,
    "longitude": 77.1734,
    "name": "Himachal Pradesh",
    "country": "IN",
    "dead": 0,
    "lastUpdated": "2020-03-22T17:11:02.156Z",
    "sick": 2
  },
  {
    "dead": 0,
    "lastUpdated": "2020-03-22T17:10:01.948Z",
    "id": "oxz2l1rJipCsfMfy8Mmk",
    "infected": 221,
    "recovered": 8,
    "latitude": -20.917574,
    "longitude": 142.702789,
    "name": "Queensland",
    "country": "AU",
    "sick": 213
  },
  {
    "recovered": 466,
    "latitude": 47.121647,
    "longitude": 128.738235,
    "name": "Heilongjiang",
    "country": "CN",
    "dead": 13,
    "lastUpdated": "2020-03-22T07:56:20.914Z",
    "id": "p1aZboN4BtRJe7hPl8cw",
    "infected": 484,
    "sick": 5
  },
  {
    "infected": 990,
    "recovered": 984,
    "latitude": 32.026379,
    "longitude": 117.252747,
    "name": "Anhui",
    "country": "CN",
    "dead": 6,
    "lastUpdated": "2020-03-22T07:58:44.024Z",
    "id": "pFhBwPnGGpQ6DLppJ6YS",
    "sick": 0
  },
  {
    "longitude": 45.318161,
    "name": "Somalia",
    "country": "SO",
    "dead": 0,
    "lastUpdated": "2020-03-22T17:13:02.793Z",
    "id": "pHrUAOBW5WDdMsVWpEEi",
    "infected": 1,
    "recovered": 0,
    "latitude": 2.046934,
    "sick": 1
  },
  {
    "infected": 1,
    "recovered": 0,
    "latitude": 21.2787,
    "longitude": 81.8661,
    "name": "Chhattisgarh",
    "country": "IN",
    "dead": 0,
    "lastUpdated": "2020-03-22T17:11:02.148Z",
    "id": "pu6AXEsDnpmmqnhajobN",
    "sick": 1
  },
  {
    "latitude": 38.9072,
    "longitude": -77.0369,
    "name": "Washington, D.C.",
    "country": "US",
    "dead": 1,
    "lastUpdated": "2020-03-22T17:12:02.205Z",
    "id": "q5cfvHprVTraL1yXnhDx",
    "infected": 98,
    "recovered": 0,
    "sick": 97
  },
  {
    "longitude": 123.325947,
    "name": "Western Australia",
    "country": "AU",
    "dead": 1,
    "lastUpdated": "2020-03-22T17:10:01.853Z",
    "id": "qnQ0dkxAxnDP01YpdZgk",
    "infected": 90,
    "recovered": 0,
    "latitude": -26.190439,
    "sick": 89
  },
  {
    "dead": 75,
    "lastUpdated": "2020-03-22T17:13:03.023Z",
    "id": "qpAxVz0garcS0gNZxtOw",
    "infected": 3401,
    "recovered": 263,
    "latitude": 50.503887,
    "longitude": 4.469936,
    "name": "Belgium",
    "country": "BE",
    "sick": 3063
  },
  {
    "infected": 12,
    "recovered": 0,
    "latitude": 39,
    "longitude": -80.5,
    "name": "West Virginia",
    "country": "US",
    "dead": 0,
    "lastUpdated": "2020-03-22T17:12:02.258Z",
    "id": "qrYN2o4c4gAK3ffF5JIw",
    "sick": 12
  },
  {
    "infected": 581,
    "recovered": 0,
    "latitude": 31,
    "longitude": -100,
    "name": "Texas",
    "country": "US",
    "dead": 5,
    "lastUpdated": "2020-03-22T07:53:51.565Z",
    "id": "qsrWiq0qCmIG66hpWojP",
    "sick": 576
  },
  {
    "id": "qyX9xXEuKg3co8yKe3Fl",
    "infected": 1041,
    "recovered": 1,
    "latitude": 43.9352,
    "longitude": 6.0679,
    "name": "Provence-Alpes-Côte d’Azur",
    "country": "FR",
    "dead": 7,
    "lastUpdated": "2020-03-22T17:19:05.988Z",
    "sick": 1033
  },
  {
    "latitude": 30.9843,
    "longitude": -91.9623,
    "name": "Louisiana",
    "country": "US",
    "dead": 20,
    "lastUpdated": "2020-03-22T17:12:02.183Z",
    "id": "qzuktS0qQVU4PEookjss",
    "infected": 763,
    "recovered": 0,
    "sick": 743
  },
  {
    "longitude": -69.9683,
    "name": "Aruba",
    "country": "AW",
    "dead": 0,
    "lastUpdated": "2020-03-22T17:13:02.742Z",
    "id": "rKbrli0DkAmp1UpbrqHQ",
    "infected": 8,
    "recovered": 1,
    "latitude": 12.5211,
    "sick": 7
  },
  {
    "infected": 113,
    "recovered": 17,
    "latitude": 14.058324,
    "longitude": 108.277199,
    "name": "Vietnam",
    "country": "VN",
    "dead": 0,
    "lastUpdated": "2020-03-22T17:13:03.044Z",
    "id": "rKnSEyG03ak4YmGzonlg",
    "sick": 96
  },
  {
    "dead": 0,
    "lastUpdated": "2020-03-22T17:13:02.691Z",
    "id": "rS04qvFoAknfeZsL2w5f",
    "infected": 6,
    "recovered": 0,
    "latitude": 1.6508009,
    "longitude": 10.2678947,
    "name": "Equatorial Guinea",
    "country": "GQ",
    "sick": 6
  },
  {
    "infected": 11,
    "recovered": 0,
    "latitude": -12.8275,
    "longitude": 45.1662,
    "name": "Mayotte",
    "country": "FR",
    "dead": 0,
    "lastUpdated": "2020-03-22T17:19:05.980Z",
    "id": "rUQ6Z3pmWTPVlqEUSmN7",
    "sick": 11
  },
  {
    "latitude": 29.159849,
    "longitude": 120.326447,
    "name": "Zhejiang",
    "country": "CN",
    "dead": 1,
    "lastUpdated": "2020-03-22T07:57:48.281Z",
    "id": "rgBVJ4hPofqjjchnroiY",
    "infected": 1237,
    "recovered": 1219,
    "sick": 17
  },
  {
    "infected": 2263,
    "recovered": 6,
    "latitude": 60.472023,
    "longitude": 8.468946,
    "name": "Norway",
    "country": "NO",
    "dead": 7,
    "lastUpdated": "2020-03-22T17:13:02.655Z",
    "id": "rxSafpWsyKhfkV0HTtb4",
    "sick": 2250
  },
  {
    "dead": 1,
    "lastUpdated": "2020-03-22T17:12:02.267Z",
    "id": "sBFMOzZJdrdXdyLZpweO",
    "infected": 226,
    "recovered": 0,
    "latitude": 53.9333,
    "longitude": -116.5765,
    "name": "Alberta",
    "country": "CA",
    "sick": 225
  },
  {
    "infected": 168,
    "recovered": 161,
    "latitude": 19.566395,
    "longitude": 109.949684,
    "name": "Hainan",
    "country": "CN",
    "dead": 6,
    "lastUpdated": "2020-03-22T07:57:16.404Z",
    "id": "sKNhMvgXeyivpNFg02RA",
    "sick": 1
  },
  {
    "id": "sLL1jETcJYjT6g5bfcEG",
    "infected": 318,
    "recovered": 1,
    "latitude": -10.33755,
    "longitude": -75.630295,
    "name": "Peru",
    "country": "PE",
    "dead": 5,
    "lastUpdated": "2020-03-22T17:13:02.991Z",
    "sick": 312
  },
  {
    "latitude": 37.89566,
    "longitude": 114.904221,
    "name": "Hebei",
    "country": "CN",
    "dead": 6,
    "lastUpdated": "2020-03-22T07:56:06.714Z",
    "id": "sgsBhTwHxF1VVnqXbXXp",
    "infected": 319,
    "recovered": 310,
    "sick": 3
  },
  {
    "infected": 54,
    "recovered": 1,
    "latitude": 42.3154,
    "longitude": 43.3569,
    "name": "Georgia",
    "country": "GE",
    "dead": 0,
    "lastUpdated": "2020-03-22T17:13:03.008Z",
    "id": "sjW9OwjFqrOvjVHRXWoR",
    "sick": 53
  },
  {
    "longitude": -58.4438,
    "name": "Paraguay",
    "country": "PY",
    "dead": 1,
    "lastUpdated": "2020-03-22T17:13:02.951Z",
    "id": "t2fq7L9UcXfhuXfQNVRj",
    "infected": 22,
    "recovered": 0,
    "latitude": -23.4425,
    "sick": 21
  },
  {
    "recovered": 0,
    "latitude": 39.147061,
    "longitude": -111.596466,
    "name": "Utah",
    "country": "US",
    "dead": 0,
    "lastUpdated": "2020-03-22T17:12:02.190Z",
    "id": "tSmr8vNsiDhhpXMSBsms",
    "infected": 136,
    "sick": 136
  },
  {
    "id": "tdNRDDrgvBQqqwzdFGh4",
    "infected": 1018,
    "recovered": 1014,
    "latitude": 27.3818,
    "longitude": 111.510681,
    "name": "Hunan",
    "country": "CN",
    "dead": 4,
    "lastUpdated": "2020-03-22T07:58:37.102Z",
    "sick": 0
  },
  {
    "longitude": 107.290283,
    "name": "Guizhou",
    "country": "CN",
    "dead": 2,
    "lastUpdated": "2020-03-22T07:54:47.196Z",
    "id": "tyY4QSHWG9sXqSO9jm0Y",
    "infected": 146,
    "recovered": 144,
    "latitude": 26.842964,
    "sick": 0
  },
  {
    "infected": 24,
    "recovered": 0,
    "latitude": -20.2067,
    "longitude": 57.6755,
    "name": "Mauritius",
    "country": "MU",
    "dead": 2,
    "lastUpdated": "2020-03-22T17:13:02.774Z",
    "id": "uZg9Xtu4zR5tp12TMpOQ",
    "sick": 22
  },
  {
    "infected": 21,
    "recovered": 0,
    "latitude": 29.0588,
    "longitude": 76.0856,
    "name": "Haryana",
    "country": "IN",
    "dead": 0,
    "lastUpdated": "2020-03-22T17:11:02.187Z",
    "id": "ubUuY89n0cXVgahI4Ytp",
    "sick": 21
  },
  {
    "dead": 0,
    "lastUpdated": "2020-03-22T07:55:42.584Z",
    "id": "uvxN28EpGmRq3K9REtBP",
    "infected": 633,
    "recovered": 631,
    "latitude": 32.93708,
    "longitude": 119.151932,
    "name": "Jiangsu",
    "country": "CN",
    "sick": 2
  },
  {
    "latitude": 51.9503,
    "longitude": 11.6923,
    "name": "Sachsen-Anhalt",
    "country": "DE",
    "dead": 1,
    "lastUpdated": "2020-03-22T12:42:02.144Z",
    "id": "uxAceZxiizwmo60pyyGn",
    "infected": 253,
    "recovered": 0,
    "sick": 252
  },
  {
    "id": "v5wfBhxjYTpTMaKko6AW",
    "infected": 4,
    "recovered": 0,
    "latitude": 33.7782,
    "longitude": 76.5762,
    "name": "Jammu and Kashmir",
    "country": "IN",
    "dead": 0,
    "lastUpdated": "2020-03-22T17:11:02.199Z",
    "sick": 4
  },
  {
    "latitude": 26.820553,
    "longitude": 30.802498,
    "name": "Egypt",
    "country": "EG",
    "dead": 10,
    "lastUpdated": "2020-03-22T17:13:02.956Z",
    "id": "v8JcH4FHH7BDpJlNNHjv",
    "infected": 294,
    "recovered": 42,
    "sick": 242
  },
  {
    "infected": 1793,
    "recovered": 0,
    "latitude": 47.288374,
    "longitude": -119.928431,
    "name": "Washington",
    "country": "US",
    "dead": 94,
    "lastUpdated": "2020-03-22T17:12:02.120Z",
    "id": "vCUVQn7RK8pkw5y2rvYN",
    "sick": 1699
  },
  {
    "infected": 19,
    "recovered": 2,
    "latitude": 18.1096,
    "longitude": -77.2975,
    "name": "Jamaica",
    "country": "JM",
    "dead": 1,
    "lastUpdated": "2020-03-22T17:13:02.765Z",
    "id": "vMGALmMJbagxGIbLyFfS",
    "sick": 16
  },
  {
    "latitude": 32.3182,
    "longitude": -86.9023,
    "name": "Alabama",
    "country": "US",
    "dead": 0,
    "lastUpdated": "2020-03-22T17:12:02.180Z",
    "id": "vSMJR4m49MZM15umlC9B",
    "infected": 131,
    "recovered": 0,
    "sick": 131
  },
  {
    "latitude": 48.8499,
    "longitude": 2.637,
    "name": "Ile-de-France",
    "country": "FR",
    "dead": 11,
    "lastUpdated": "2020-03-22T17:19:06.081Z",
    "id": "vSwFXxTSLgzsG25zOJUy",
    "infected": 4695,
    "recovered": 5,
    "sick": 4679
  },
  {
    "infected": 2,
    "recovered": 0,
    "latitude": 46.5107,
    "longitude": -63.4168,
    "name": "Prince Edward Island",
    "country": "CA",
    "dead": 0,
    "lastUpdated": "2020-03-22T01:17:58.107Z",
    "id": "vjK6292ALJl5wq8XHw3P",
    "sick": 2
  },
  {
    "dead": 1685,
    "lastUpdated": "2020-03-22T17:13:02.629Z",
    "id": "vkkXVaqUswO5JsMZx0mX",
    "infected": 21638,
    "recovered": 7635,
    "latitude": 32.42791,
    "longitude": 53.688046,
    "name": "Iran",
    "country": "IR",
    "sick": 12318
  },
  {
    "recovered": 0,
    "latitude": 53.7609,
    "longitude": -98.8139,
    "name": "Manitoba",
    "country": "CA",
    "dead": 0,
    "lastUpdated": "2020-03-22T17:12:02.264Z",
    "id": "wCnlOr8oX3DlF0otQrFc",
    "infected": 19,
    "sick": 19
  },
  {
    "id": "wEl0cjiA6OcZiI9kaSsF",
    "infected": 225,
    "recovered": 27,
    "latitude": -34.6037,
    "longitude": -58.3816,
    "name": "Argentina",
    "country": "AR",
    "dead": 4,
    "lastUpdated": "2020-03-22T17:13:02.998Z",
    "sick": 194
  },
  {
    "infected": 809,
    "recovered": 0,
    "latitude": 44.3148,
    "longitude": -85.6024,
    "name": "Michigan",
    "country": "US",
    "dead": 8,
    "lastUpdated": "2020-03-22T17:12:02.237Z",
    "id": "wgRwpPMGBaKLAl1xo1C7",
    "sick": 801
  },
  {
    "latitude": 21.287261,
    "longitude": -157.838954,
    "name": "Hawaii",
    "country": "US",
    "dead": 0,
    "lastUpdated": "2020-03-22T17:12:02.197Z",
    "id": "wi47s9vKxiMqxfgurj3B",
    "infected": 48,
    "recovered": 0,
    "sick": 48
  },
  {
    "dead": 4,
    "lastUpdated": "2020-03-22T17:13:02.946Z",
    "id": "xFgM48q8JxVPfvQLQDNb",
    "infected": 248,
    "recovered": 8,
    "latitude": 34.08267,
    "longitude": 35.918113,
    "name": "Lebanon",
    "country": "LB",
    "sick": 236
  },
  {
    "longitude": 8.675277,
    "name": "Nigeria",
    "country": "NG",
    "dead": 0,
    "lastUpdated": "2020-03-22T17:13:02.760Z",
    "id": "xHWPTTpNHEwWv6MqfxP5",
    "infected": 27,
    "recovered": 2,
    "latitude": 9.081999,
    "sick": 25
  },
  {
    "infected": 28,
    "recovered": 0,
    "latitude": 47.5515,
    "longitude": -101.002,
    "name": "North Dakota",
    "country": "US",
    "dead": 0,
    "lastUpdated": "2020-03-22T17:12:02.217Z",
    "id": "xQpNodSQfHNHAtG9Onnj",
    "sick": 28
  },
  {
    "infected": 282,
    "recovered": 0,
    "latitude": 44.5,
    "longitude": -89.5,
    "name": "Wisconsin",
    "country": "US",
    "dead": 4,
    "lastUpdated": "2020-03-22T17:12:02.228Z",
    "id": "xSHgaJlyPxHFWB6hhyng",
    "sick": 278
  },
  {
    "infected": 11,
    "recovered": 0,
    "latitude": 9.145,
    "longitude": 40.4897,
    "name": "Ethiopia",
    "country": "ET",
    "dead": 0,
    "lastUpdated": "2020-03-22T17:13:02.777Z",
    "id": "xY69Nr3VSiZCwD2Qp0SD",
    "sick": 11
  },
  {
    "latitude": -22.95763,
    "longitude": 18.4904,
    "name": "Namibia",
    "country": "NA",
    "dead": 0,
    "lastUpdated": "2020-03-22T17:13:02.759Z",
    "id": "xtX46kxBlEapOMdD1Emh",
    "infected": 3,
    "recovered": 0,
    "sick": 3
  },
  {
    "recovered": 3,
    "latitude": 53.0793,
    "longitude": 8.8017,
    "name": "Bremen",
    "country": "DE",
    "dead": 0,
    "lastUpdated": "2020-03-22T17:12:03.440Z",
    "id": "y0d3PQgXJXdKsxweTIWv",
    "infected": 173,
    "sick": 170
  },
  {
    "recovered": 0,
    "latitude": -17.6797,
    "longitude": -149.4068,
    "name": "Polynésie française",
    "country": "PF",
    "dead": 0,
    "lastUpdated": "2020-03-22T17:13:02.729Z",
    "id": "yOfFKDRrscqcZ85WMRqF",
    "infected": 15,
    "sick": 15
  },
  {
    "infected": 3,
    "recovered": 0,
    "latitude": 12.1696,
    "longitude": -68.99,
    "name": "Curaçao",
    "country": "CW",
    "dead": 1,
    "lastUpdated": "2020-03-22T17:13:02.783Z",
    "id": "z0KDu61I2qPILneW2Lih",
    "sick": 2
  },
  {
    "latitude": 46.5653,
    "longitude": -66.4619,
    "name": "New Brunswick",
    "country": "CA",
    "dead": 0,
    "lastUpdated": "2020-03-22T17:12:02.188Z",
    "id": "z1Vx0y33oMGoeJSuS8Ui",
    "infected": 17,
    "recovered": 0,
    "sick": 17
  },
  {
    "dead": 14,
    "lastUpdated": "2020-03-22T17:13:03.000Z",
    "id": "zC03Urt1iJJb2Tf6p0jd",
    "infected": 789,
    "recovered": 3,
    "latitude": -1.831239,
    "longitude": -78.183403,
    "name": "Ecuador",
    "country": "EC",
    "sick": 772
  },
  {
    "infected": 599,
    "recovered": 44,
    "latitude": 15.870032,
    "longitude": 100.992538,
    "name": "Thailand",
    "country": "TH",
    "dead": 1,
    "lastUpdated": "2020-03-22T17:13:02.681Z",
    "id": "zvdC0u72Bk5YKNaazZFZ",
    "sick": 554
  },
  {
    "infected": 222,
    "recovered": 2,
    "latitude": 44.0165,
    "longitude": 21.0059,
    "name": "Serbia",
    "country": "RS",
    "dead": 2,
    "lastUpdated": "2020-03-22T17:13:03.009Z",
    "id": "zyxFwuiyCJHhRyNEg60C",
    "sick": 218
  }
]