[
  {
    "infected": 2960,
    "recovered": 150,
    "latitude": 41.066666,
    "pop": 5827000,
    "longitude": 14.333333,
    "name": "Campania",
    "country": "IT",
    "lastUpdated": "2020-04-05T18:34:02.831Z",
    "dead": 189,
    "id": "0GJcws44NSPsDHAuxJhW",
    "sick": 2621
  },
  {
    "latitude": 20.9517,
    "pop": 45990000,
    "longitude": 85.0985,
    "name": "Odisha",
    "country": "IN",
    "lastUpdated": "2020-04-05T18:40:01.667Z",
    "dead": 0,
    "id": "0VG7S6aaK4eSo59fL9JO",
    "infected": 39,
    "recovered": 2,
    "sick": 37
  },
  {
    "infected": 10,
    "recovered": 0,
    "latitude": 11.7401,
    "pop": 427246,
    "longitude": 92.6586,
    "name": "Andaman and Nicobar Islands",
    "country": "IN",
    "lastUpdated": "2020-04-05T18:40:01.741Z",
    "dead": 0,
    "id": "0jStOpTUNRaQYJqgmRoK",
    "sick": 10
  },
  {
    "lastUpdated": "2020-04-05T18:45:09.325Z",
    "dead": 4,
    "id": "0m4aECS0Z2DGFEr8ldgI",
    "infected": 1604,
    "recovered": 123,
    "latitude": 25.315058,
    "pop": 2639000,
    "longitude": 51.145517,
    "name": "Qatar",
    "country": "QA",
    "sick": 1477
  },
  {
    "infected": 80,
    "recovered": 10,
    "latitude": 22.9868,
    "pop": 90320000,
    "longitude": 87.855,
    "name": "West Bengal",
    "country": "IN",
    "lastUpdated": "2020-04-05T18:40:01.684Z",
    "dead": 3,
    "id": "0n54EMSDJcRoT1QEvw80",
    "sick": 67
  },
  {
    "infected": 193,
    "recovered": 3,
    "latitude": 22.9734,
    "pop": 73340000,
    "longitude": 78.6569,
    "name": "Madhya Pradesh",
    "country": "IN",
    "lastUpdated": "2020-04-05T18:40:01.692Z",
    "dead": 13,
    "id": "0s18o5DrDAHjbu5MFcrj",
    "sick": 177
  },
  {
    "longitude": -95.7129,
    "name": "Unknown US state",
    "country": "US",
    "dead": 0,
    "lastUpdated": "2020-04-05T18:45:09.276Z",
    "id": "0tFoopNTs6e4tOoaltu2",
    "infected": 0,
    "recovered": 16700,
    "latitude": 37.0902,
    "sick": 0
  },
  {
    "lastUpdated": "2020-04-05T18:14:10.842Z",
    "dead": 3,
    "id": "0x2HLhr5z5xAtEdO4iZm",
    "infected": 256,
    "recovered": 245,
    "latitude": 35.64249,
    "pop": 37330000,
    "longitude": 108.472214,
    "name": "Shaanxi",
    "country": "CN",
    "sick": 8
  },
  {
    "infected": 555,
    "recovered": 23,
    "latitude": 41.643351,
    "pop": 2077000,
    "longitude": 21.668393,
    "name": "North Macedonia",
    "country": "MK",
    "lastUpdated": "2020-04-05T18:45:09.211Z",
    "dead": 18,
    "id": "19MvIhipqTyYv1H37Upw",
    "sick": 514
  },
  {
    "infected": 203,
    "recovered": 0,
    "latitude": 53.1355,
    "pop": 521542,
    "longitude": -57.6604,
    "name": "Newfoundland and Labrador",
    "country": "CA",
    "lastUpdated": "2020-04-05T18:45:02.069Z",
    "dead": 1,
    "id": "1DOMOmCWDtva46OVSZLv",
    "sick": 202
  },
  {
    "id": "1Fap7rZu9SIRqf5TG9Dg",
    "infected": 18,
    "recovered": 18,
    "latitude": 35.801933,
    "pop": 5627000,
    "longitude": 96.779286,
    "name": "Qinghai",
    "country": "CN",
    "lastUpdated": "2020-04-05T18:14:10.678Z",
    "dead": 0,
    "sick": 0
  },
  {
    "longitude": 8.206944,
    "name": "Piemonte",
    "country": "IT",
    "lastUpdated": "2020-04-05T18:34:02.729Z",
    "dead": 1168,
    "id": "1eTSQyfp8RoDPeFrIwun",
    "infected": 12362,
    "recovered": 1017,
    "latitude": 44.9,
    "pop": 4376000,
    "sick": 10177
  },
  {
    "infected": 10568,
    "recovered": 127,
    "latitude": -14.235004,
    "pop": 209300000,
    "longitude": -51.925282,
    "name": "Brazil",
    "country": "BR",
    "lastUpdated": "2020-04-05T18:45:09.350Z",
    "dead": 455,
    "id": "1f0YoV0vAcexEhpESyZc",
    "sick": 9986
  },
  {
    "latitude": 47.4116,
    "pop": 3550000,
    "longitude": 28.3699,
    "name": "Moldova",
    "country": "MD",
    "lastUpdated": "2020-04-05T18:45:09.405Z",
    "dead": 15,
    "id": "1qTPB8X3tyLyIdsb5TN3",
    "infected": 864,
    "recovered": 30,
    "sick": 819
  },
  {
    "lastUpdated": "2020-04-05T18:14:10.584Z",
    "dead": 0,
    "id": "25qIBtsW2nfQj3pwBKg9",
    "infected": 1,
    "recovered": 1,
    "latitude": 30.15336,
    "pop": 3180000,
    "longitude": 88.787865,
    "name": "Tibet",
    "country": "CN",
    "sick": 0
  },
  {
    "recovered": 164,
    "latitude": -1.572184,
    "pop": 264000000,
    "longitude": 115.66779,
    "name": "Indonesia",
    "country": "ID",
    "lastUpdated": "2020-04-05T18:45:09.346Z",
    "dead": 198,
    "id": "2KHYUb5t3lwzVVmDjwNX",
    "infected": 2273,
    "sick": 1911
  },
  {
    "latitude": 43.807191,
    "pop": 4191000,
    "longitude": -120.585594,
    "name": "Oregon",
    "country": "US",
    "lastUpdated": "2020-04-05T18:33:16.754Z",
    "dead": 26,
    "id": "2OrsssmGUs4XCzaZzvTv",
    "infected": 999,
    "recovered": 0,
    "sick": 973
  },
  {
    "longitude": 126.548103,
    "name": "Jilin",
    "country": "CN",
    "lastUpdated": "2020-04-05T18:14:10.643Z",
    "dead": 1,
    "id": "2jxHvSsxdnom0nPNvOT8",
    "infected": 98,
    "recovered": 92,
    "latitude": 43.851921,
    "pop": 27460000,
    "sick": 5
  },
  {
    "longitude": -5.3536,
    "name": "Gibraltar",
    "country": "GI",
    "lastUpdated": "2020-04-05T18:45:08.550Z",
    "dead": 0,
    "id": "2p11BjSAs3wVyymgqBOe",
    "infected": 103,
    "recovered": 52,
    "latitude": 36.1408,
    "pop": 34571,
    "sick": 51
  },
  {
    "infected": 1604,
    "recovered": 298,
    "latitude": 47.7516,
    "pop": 2567000,
    "longitude": 1.6751,
    "name": "Centre-Val de Loire",
    "country": "FR",
    "lastUpdated": "2020-04-05T18:27:23.414Z",
    "dead": 115,
    "id": "2sLNkkHpyaHx7dD3aMDO",
    "sick": 1191
  },
  {
    "latitude": 42.565044,
    "pop": 884640,
    "longitude": 12.643751,
    "name": "Umbria",
    "country": "IT",
    "lastUpdated": "2020-04-05T18:34:02.629Z",
    "dead": 43,
    "id": "319tiZOMczx1y0DfvOib",
    "infected": 1239,
    "recovered": 298,
    "sick": 898
  },
  {
    "longitude": 27.849332,
    "name": "Zambia",
    "country": "ZM",
    "lastUpdated": "2020-04-05T18:45:08.558Z",
    "dead": 1,
    "id": "3IlPjAbP5qVMn1nlgLTJ",
    "infected": 39,
    "recovered": 3,
    "latitude": -13.133896,
    "pop": 17090000,
    "sick": 35
  },
  {
    "recovered": 1,
    "latitude": 42.7044,
    "pop": 631219,
    "longitude": 19.3958,
    "name": "Montenegro",
    "country": "ME",
    "lastUpdated": "2020-04-05T18:45:08.537Z",
    "dead": 2,
    "id": "3LstMSN5XMYBkxbe5HN7",
    "infected": 214,
    "sick": 211
  },
  {
    "infected": 96,
    "recovered": 1,
    "latitude": -35.4735,
    "pop": 418440,
    "longitude": 149.0124,
    "name": "Australian Capital Territory",
    "country": "AU",
    "lastUpdated": "2020-04-05T18:42:03.821Z",
    "dead": 0,
    "id": "3OZoQsKrzxZ18EKyfGE6",
    "sick": 95
  },
  {
    "infected": 26,
    "recovered": 0,
    "latitude": 26.2006,
    "pop": 30940000,
    "longitude": 92.9376,
    "name": "Assam",
    "country": "IN",
    "lastUpdated": "2020-04-05T18:40:01.707Z",
    "dead": 0,
    "id": "3cCbnJCsK7mKlTO08K1o",
    "sick": 26
  },
  {
    "id": "3fC3bAyIRUquOQOEnQNe",
    "infected": 3739,
    "recovered": 0,
    "latitude": 40.4173,
    "pop": 11690000,
    "longitude": -82.9071,
    "name": "Ohio",
    "country": "US",
    "lastUpdated": "2020-04-05T18:33:16.749Z",
    "dead": 102,
    "sick": 3637
  },
  {
    "latitude": 21.0079,
    "pop": 4420000,
    "longitude": -10.9408,
    "name": "Mauritania",
    "country": "MR",
    "lastUpdated": "2020-04-05T18:45:08.956Z",
    "dead": 1,
    "id": "4NnFMekRK2m14IlnZZoj",
    "infected": 6,
    "recovered": 2,
    "sick": 3
  },
  {
    "latitude": 53.7267,
    "pop": 5071000,
    "longitude": -127.6476,
    "name": "British Columbia",
    "country": "CA",
    "lastUpdated": "2020-04-05T18:45:02.156Z",
    "dead": 38,
    "id": "4hfZRUoUgI4a3vrG0GBk",
    "infected": 1203,
    "recovered": 0,
    "sick": 1165
  },
  {
    "recovered": 75,
    "latitude": 41.065877,
    "pop": 10290000,
    "longitude": -7.920053,
    "name": "Portugal",
    "country": "PT",
    "lastUpdated": "2020-04-05T18:45:09.235Z",
    "dead": 295,
    "id": "4rQLxUCMmQLpbi6E9tbH",
    "infected": 11278,
    "sick": 10908
  },
  {
    "latitude": 40.3426,
    "pop": 9898000,
    "longitude": 47.93802,
    "name": "Azerbaijan",
    "country": "AZ",
    "lastUpdated": "2020-04-05T18:45:09.238Z",
    "dead": 7,
    "id": "4zqzRm2xHn0CDVOUQJ8p",
    "infected": 584,
    "recovered": 32,
    "sick": 545
  },
  {
    "id": "5MHegCUO9L3LiAU7DDey",
    "infected": 28,
    "recovered": 0,
    "latitude": 25.025885,
    "pop": 395361,
    "longitude": -78.035889,
    "name": "Bahamas",
    "country": "BS",
    "lastUpdated": "2020-04-05T18:45:08.540Z",
    "dead": 4,
    "sick": 24
  },
  {
    "latitude": -31.253218,
    "pop": 7544000,
    "longitude": 146.921097,
    "name": "New South Wales",
    "country": "AU",
    "lastUpdated": "2020-04-05T18:42:03.920Z",
    "dead": 8,
    "id": "5N16a2OXXRpsEFanw0TC",
    "infected": 2580,
    "recovered": 4,
    "sick": 2568
  },
  {
    "id": "5fg04eyDwFw3kEXnrxez",
    "infected": 17,
    "recovered": 1,
    "latitude": -20.9043045,
    "pop": 280460,
    "longitude": 165.618042,
    "name": "New Caledonia",
    "country": "NC",
    "lastUpdated": "2020-04-05T18:45:08.935Z",
    "dead": 0,
    "sick": 16
  },
  {
    "latitude": 28.394857,
    "pop": 29300000,
    "longitude": 84.124008,
    "name": "Nepal",
    "country": "NP",
    "lastUpdated": "2020-04-05T18:45:08.979Z",
    "dead": 0,
    "id": "5gXZIjRgAvd6xWN1LOv8",
    "infected": 9,
    "recovered": 1,
    "sick": 8
  },
  {
    "longitude": 121.774017,
    "name": "Philippines",
    "country": "PH",
    "lastUpdated": "2020-04-05T18:45:09.310Z",
    "dead": 152,
    "id": "5pwmh7aSdGRKqRbnuyc0",
    "infected": 3246,
    "recovered": 64,
    "latitude": 12.879721,
    "pop": 104900000,
    "sick": 3030
  },
  {
    "infected": 9,
    "recovered": 0,
    "latitude": -17.824858,
    "pop": 14802190,
    "longitude": 31.053028,
    "name": "Zimbabwe",
    "country": "ZW",
    "lastUpdated": "2020-04-05T18:45:08.969Z",
    "dead": 1,
    "id": "5qtR9nx4BLwu1ODTniaY",
    "sick": 8
  },
  {
    "recovered": 7,
    "latitude": 55.621011,
    "pop": 2794000,
    "longitude": 23.804991,
    "name": "Lithuania",
    "country": "LT",
    "lastUpdated": "2020-04-05T18:45:09.368Z",
    "dead": 13,
    "id": "694ON7d0mRJDeM1gHBTR",
    "infected": 811,
    "sick": 791
  },
  {
    "infected": 890,
    "recovered": 206,
    "latitude": 22.396427,
    "pop": 7392000,
    "longitude": 114.109497,
    "name": "Hong Kong",
    "country": "HK",
    "lastUpdated": "2020-04-05T18:45:09.205Z",
    "dead": 4,
    "id": "6IcHIIH0zXpY0POmBZTv",
    "sick": 680
  },
  {
    "id": "6SlpghTyB6lpMFvx3g9U",
    "infected": 22,
    "recovered": 5,
    "latitude": 9.3077,
    "pop": 11180000,
    "longitude": 2.3158,
    "name": "Benin",
    "country": "BJ",
    "lastUpdated": "2020-04-05T18:45:08.562Z",
    "dead": 0,
    "sick": 17
  },
  {
    "lastUpdated": "2020-04-05T18:34:02.742Z",
    "dead": 8905,
    "id": "6ZHcvMIzVWIaRnc4R3Qp",
    "infected": 50455,
    "recovered": 13426,
    "latitude": 45.6667,
    "pop": 10040000,
    "longitude": 9.5,
    "name": "Lombardia",
    "country": "IT",
    "sick": 28124
  },
  {
    "latitude": 46.0569,
    "pop": 2067000,
    "longitude": 14.5058,
    "name": "Slovenia",
    "country": "SI",
    "lastUpdated": "2020-04-05T18:45:09.383Z",
    "dead": 28,
    "id": "6ahNiyKDSDAftCctgLH3",
    "infected": 997,
    "recovered": 79,
    "sick": 890
  },
  {
    "id": "6pBi38TUgYfFm0bry2uh",
    "infected": 21,
    "recovered": 1,
    "latitude": -0.8037,
    "pop": 2025000,
    "longitude": 11.6094,
    "name": "Gabon",
    "country": "GA",
    "lastUpdated": "2020-04-05T18:45:08.926Z",
    "dead": 1,
    "sick": 19
  },
  {
    "lastUpdated": "2020-04-05T18:45:08.994Z",
    "dead": 0,
    "id": "78Ox26bNHDA2Pk2b3Uwn",
    "infected": 6,
    "recovered": 1,
    "latitude": 17.901672,
    "pop": 9131,
    "longitude": -62.818544,
    "name": "Saint-Barthélémy",
    "country": "FR",
    "sick": 5
  },
  {
    "latitude": 17.0608,
    "pop": 102012,
    "longitude": -61.7964,
    "name": "Antigua and Barbuda",
    "country": "AG",
    "lastUpdated": "2020-04-05T18:45:08.972Z",
    "dead": 0,
    "id": "7hVFcEV7nV0MrQr3LHrl",
    "infected": 15,
    "recovered": 0,
    "sick": 15
  },
  {
    "latitude": 48.7904,
    "pop": 13000000,
    "longitude": 11.4979,
    "name": "Bayern",
    "country": "DE",
    "lastUpdated": "2020-04-05T18:46:03.457Z",
    "dead": 431,
    "id": "7kCrrlOBE3jN6FtOVNUB",
    "infected": 25155,
    "recovered": 3596,
    "sick": 21128
  },
  {
    "id": "7rYC2iFB50c55Ihgbs4Q",
    "infected": 733,
    "recovered": 66,
    "latitude": 47.4979,
    "pop": 9773000,
    "longitude": 19.0402,
    "name": "Hungary",
    "country": "HU",
    "lastUpdated": "2020-04-05T18:45:09.316Z",
    "dead": 34,
    "sick": 633
  },
  {
    "infected": 555,
    "recovered": 17,
    "latitude": 7.3697,
    "pop": 24050000,
    "longitude": 12.3547,
    "name": "Cameroon",
    "country": "CM",
    "lastUpdated": "2020-04-05T18:45:09.331Z",
    "dead": 9,
    "id": "8C0d7WVCjyUGtnc2gUAR",
    "sick": 529
  },
  {
    "lastUpdated": "2020-04-05T18:45:08.567Z",
    "dead": 10,
    "id": "8RihJrXw4NQXPxaRxr1u",
    "infected": 157,
    "recovered": 2,
    "latitude": -16.2902,
    "pop": 11050000,
    "longitude": -63.5887,
    "name": "Bolivia",
    "country": "BO",
    "sick": 145
  },
  {
    "infected": 7,
    "recovered": 1,
    "latitude": 12.9843,
    "pop": 109897,
    "longitude": -61.2872,
    "name": "St. Vincent Grenadines",
    "country": "VC",
    "lastUpdated": "2020-04-05T18:45:08.538Z",
    "dead": 0,
    "id": "8ZTySQROQejkDAad0qxQ",
    "sick": 6
  },
  {
    "recovered": 320,
    "latitude": 1.352083,
    "pop": 5621000,
    "longitude": 103.819839,
    "name": "Singapore",
    "country": "SG",
    "lastUpdated": "2020-04-05T18:45:09.298Z",
    "dead": 6,
    "id": "8pA3fM4xC2c2wv1b4TnE",
    "infected": 1309,
    "sick": 983
  },
  {
    "infected": 1696,
    "recovered": 441,
    "latitude": 47.2184,
    "pop": 3787000,
    "longitude": -1.5536,
    "name": "Pays de la Loire",
    "country": "FR",
    "lastUpdated": "2020-04-05T18:26:11.616Z",
    "dead": 123,
    "id": "98hwAoohgWEOQVa3NlM5",
    "sick": 1132
  },
  {
    "infected": 12,
    "recovered": 2,
    "latitude": 12.8628,
    "pop": 40530000,
    "longitude": 30.2176,
    "name": "Sudan",
    "country": "SD",
    "lastUpdated": "2020-04-05T18:45:08.955Z",
    "dead": 2,
    "id": "9DPOkpIqrFy9mR4e9fuv",
    "sick": 8
  },
  {
    "infected": 3864,
    "recovered": 374,
    "latitude": 45.943161,
    "pop": 19530000,
    "longitude": 24.966761,
    "name": "Romania",
    "country": "RO",
    "lastUpdated": "2020-04-05T18:45:09.286Z",
    "dead": 151,
    "id": "9QcETqEcM2fTv9zRvx5T",
    "sick": 3339
  },
  {
    "latitude": 12.136389,
    "pop": 6218000,
    "longitude": -86.251389,
    "name": "Nicaragua",
    "country": "NI",
    "lastUpdated": "2020-04-05T18:45:08.996Z",
    "dead": 1,
    "id": "9Y5wmCqNCC6ZrenM31uA",
    "infected": 6,
    "recovered": 0,
    "sick": 5
  },
  {
    "latitude": 17.5706921,
    "pop": 18540000,
    "longitude": -3.996166,
    "name": "Mali",
    "country": "ML",
    "lastUpdated": "2020-04-05T18:45:08.952Z",
    "dead": 5,
    "id": "9dIzxqDSVqPyINkHqwGv",
    "infected": 45,
    "recovered": 1,
    "sick": 39
  },
  {
    "recovered": 300,
    "latitude": 61.92411,
    "pop": 5513000,
    "longitude": 25.748152,
    "name": "Finland",
    "country": "FI",
    "lastUpdated": "2020-04-05T18:45:09.302Z",
    "dead": 28,
    "id": "9p6OCdZbUUwBLA60Gk3W",
    "infected": 1927,
    "sick": 1599
  },
  {
    "infected": 621,
    "recovered": 0,
    "latitude": 43.311643,
    "pop": 1356000,
    "longitude": -71.590315,
    "name": "New Hampshire",
    "country": "US",
    "lastUpdated": "2020-04-05T18:33:16.860Z",
    "dead": 9,
    "id": "A84CwQ52kA46Hr7pn6Bm",
    "sick": 612
  },
  {
    "lastUpdated": "2020-04-05T18:33:16.772Z",
    "dead": 17,
    "id": "AEUWUHS65qvjEslew11c",
    "infected": 806,
    "recovered": 0,
    "latitude": 41.823261,
    "pop": 1057000,
    "longitude": -71.412257,
    "name": "Rhode Island",
    "country": "US",
    "sick": 789
  },
  {
    "longitude": 11.327591,
    "name": "Emilia-Romagna",
    "country": "IT",
    "lastUpdated": "2020-04-05T18:34:02.829Z",
    "dead": 2051,
    "id": "AJ9jQ0iyKsafsmf5yHAR",
    "infected": 17089,
    "recovered": 2201,
    "latitude": 44.498955,
    "pop": 4453000,
    "sick": 12837
  },
  {
    "id": "AKjFRQGnzuuZQhv5Qwx7",
    "infected": 1410,
    "recovered": 216,
    "latitude": 49.3964,
    "pop": 990509,
    "longitude": 7.023,
    "name": "Saarland",
    "country": "DE",
    "lastUpdated": "2020-04-05T18:46:03.629Z",
    "dead": 21,
    "sick": 1173
  },
  {
    "latitude": 71.7069,
    "pop": 56171,
    "longitude": -42.6043,
    "name": "Greenland",
    "country": "GL",
    "lastUpdated": "2020-04-05T18:45:08.945Z",
    "dead": 0,
    "id": "APaZzlGCEeuoLBtzTJMe",
    "infected": 11,
    "recovered": 3,
    "sick": 8
  },
  {
    "longitude": -63.582687,
    "name": "Nova Scotia",
    "country": "CA",
    "lastUpdated": "2020-04-05T18:45:02.165Z",
    "dead": 0,
    "id": "AVCpxeh0fuH2WrHWNDYH",
    "infected": 236,
    "recovered": 0,
    "latitude": 45.65107,
    "pop": 971395,
    "sick": 236
  },
  {
    "infected": 286,
    "recovered": 0,
    "latitude": 47.012918,
    "pop": 1062000,
    "longitude": -109.128641,
    "name": "Montana",
    "country": "US",
    "lastUpdated": "2020-04-05T18:33:16.798Z",
    "dead": 6,
    "id": "AcULcZBozObOhwuRKMjJ",
    "sick": 280
  },
  {
    "lastUpdated": "2020-04-05T18:14:10.602Z",
    "dead": 1,
    "id": "AmBYm5J6E9Cuez1FQjiN",
    "infected": 937,
    "recovered": 935,
    "latitude": 27.285971,
    "pop": 45200000,
    "longitude": 116.01609,
    "name": "Jiangxi",
    "country": "CN",
    "sick": 1
  },
  {
    "latitude": 28.033886,
    "pop": 41320000,
    "longitude": 1.659626,
    "name": "Algeria",
    "country": "DZ",
    "lastUpdated": "2020-04-05T18:45:09.376Z",
    "dead": 152,
    "id": "AwN0CScPDApcLFgz6e3z",
    "infected": 1320,
    "recovered": 90,
    "sick": 1078
  },
  {
    "infected": 1182,
    "recovered": 125,
    "latitude": 45.099998,
    "pop": 4076000,
    "longitude": 15.2,
    "name": "Croatia",
    "country": "HR",
    "lastUpdated": "2020-04-05T18:45:09.378Z",
    "dead": 15,
    "id": "B82Ef45M8cDu4q7VsSHF",
    "sick": 1042
  },
  {
    "latitude": 17.6077881,
    "pop": 23716000,
    "longitude": 8.081666,
    "name": "Niger",
    "country": "NE",
    "lastUpdated": "2020-04-05T18:45:08.960Z",
    "dead": 8,
    "id": "BENubqQInFUJzhpZTsLT",
    "infected": 144,
    "recovered": 0,
    "sick": 136
  },
  {
    "longitude": -76.98432,
    "name": "Maryland",
    "country": "US",
    "lastUpdated": "2020-04-05T18:33:16.857Z",
    "dead": 67,
    "id": "BF51mWl51fgEcyBpCSzb",
    "infected": 3617,
    "recovered": 0,
    "latitude": 39.509109,
    "pop": 6043000,
    "sick": 3550
  },
  {
    "latitude": 53.709808,
    "pop": 9508000,
    "longitude": 27.953388,
    "name": "Belarus",
    "country": "BY",
    "lastUpdated": "2020-04-05T18:45:09.280Z",
    "dead": 8,
    "id": "BGg6yVU5VP71B8NXU0oh",
    "infected": 562,
    "recovered": 52,
    "sick": 502
  },
  {
    "latitude": 48.8799,
    "pop": 3319000,
    "longitude": 0.1713,
    "name": "Normandie",
    "country": "FR",
    "lastUpdated": "2020-04-05T18:26:29.646Z",
    "dead": 111,
    "id": "BGtoyzb7y54LVlJ91rbf",
    "infected": 1555,
    "recovered": 308,
    "sick": 1136
  },
  {
    "infected": 2269,
    "recovered": 0,
    "latitude": 34.048927,
    "pop": 7172000,
    "longitude": -111.093735,
    "name": "Arizona",
    "country": "US",
    "lastUpdated": "2020-04-05T18:33:16.833Z",
    "dead": 64,
    "id": "BTEESCuD2ZbS1afunR2A",
    "sick": 2205
  },
  {
    "infected": 3,
    "recovered": 0,
    "latitude": -3.3730559,
    "pop": 10860000,
    "longitude": 29.9188862,
    "name": "Burundi",
    "country": "BI",
    "lastUpdated": "2020-04-05T18:45:08.961Z",
    "dead": 0,
    "id": "BnpMamidC5yYzeK8tPUL",
    "sick": 3
  },
  {
    "longitude": -73.982597,
    "name": "New York",
    "country": "US",
    "lastUpdated": "2020-04-05T18:33:16.702Z",
    "dead": 4159,
    "id": "C3BCUzV80z9GfiuByIcr",
    "infected": 122056,
    "recovered": 0,
    "latitude": 40.719042,
    "pop": 19540000,
    "sick": 117897
  },
  {
    "latitude": 49.731626,
    "pop": 10650000,
    "longitude": 15.359413,
    "name": "Czechia",
    "country": "CZ",
    "lastUpdated": "2020-04-05T18:45:09.215Z",
    "dead": 67,
    "id": "C6S76AggdWVU8G22jFHQ",
    "infected": 4543,
    "recovered": 96,
    "sick": 4380
  },
  {
    "id": "C7cj4nwRITs13KnaJrQ2",
    "infected": 698,
    "recovered": 427,
    "latitude": 26.0667,
    "pop": 1493000,
    "longitude": 50.557701,
    "name": "Bahrain",
    "country": "BH",
    "lastUpdated": "2020-04-05T18:45:09.334Z",
    "dead": 4,
    "sick": 267
  },
  {
    "longitude": 74.2179,
    "name": "Rajasthan",
    "country": "IN",
    "lastUpdated": "2020-04-05T18:40:01.653Z",
    "dead": 1,
    "id": "CKZCZTPlrcq5fbfUPA9k",
    "infected": 266,
    "recovered": 25,
    "latitude": 27.0238,
    "pop": 68890000,
    "sick": 240
  },
  {
    "infected": 62,
    "recovered": 2,
    "latitude": 13.803,
    "pop": 6378000,
    "longitude": -88.9053,
    "name": "El Salvador",
    "country": "SV",
    "lastUpdated": "2020-04-05T18:45:08.944Z",
    "dead": 3,
    "id": "Cgvmtle61ehMvCzRzYx7",
    "sick": 57
  },
  {
    "infected": 47806,
    "recovered": 135,
    "latitude": 52.355518,
    "pop": 66440000,
    "longitude": -1.17432,
    "name": "United Kingdom",
    "country": "GB",
    "lastUpdated": "2020-04-05T18:45:09.288Z",
    "dead": 4934,
    "id": "CrXu6i5Sqx11iwdfHfBs",
    "sick": 42737
  },
  {
    "latitude": 40.259003,
    "pop": 2973000,
    "longitude": 44.818474,
    "name": "Armenia",
    "country": "AM",
    "lastUpdated": "2020-04-05T18:45:09.410Z",
    "dead": 7,
    "id": "DCJCtZoBTWQ4mzdDNljD",
    "infected": 822,
    "recovered": 57,
    "sick": 758
  },
  {
    "lastUpdated": "2020-04-05T18:45:08.967Z",
    "dead": 0,
    "id": "DZyTD0Mu5WIcK6yTcJ91",
    "infected": 37,
    "recovered": 14,
    "latitude": 32.3213844,
    "pop": 65440,
    "longitude": -64.75737,
    "name": "Bermuda",
    "country": "BM",
    "sick": 23
  },
  {
    "infected": 44,
    "recovered": 10,
    "latitude": 22.192039,
    "pop": 622567,
    "longitude": 113.551262,
    "name": "Macao",
    "country": "MO",
    "lastUpdated": "2020-04-05T18:45:08.993Z",
    "dead": 0,
    "id": "DdBt8qsG6A3g92oOR3ow",
    "sick": 34
  },
  {
    "infected": 197,
    "recovered": 0,
    "latitude": 42.962334,
    "pop": 577737,
    "longitude": -107.534868,
    "name": "Wyoming",
    "country": "US",
    "lastUpdated": "2020-04-05T18:33:16.820Z",
    "dead": 0,
    "id": "DrGzziUglmBognCGY7R2",
    "sick": 197
  },
  {
    "infected": 1735,
    "recovered": 78,
    "latitude": 40.6401,
    "pop": 10740000,
    "longitude": 22.9444,
    "name": "Greece",
    "country": "GR",
    "lastUpdated": "2020-04-05T18:45:09.264Z",
    "dead": 73,
    "id": "Dtr1lap1RpJpXJdXGJiW",
    "sick": 1584
  },
  {
    "longitude": 121.563698,
    "name": "Taiwan",
    "country": "TW",
    "lastUpdated": "2020-04-05T18:45:09.394Z",
    "dead": 5,
    "id": "EKTfs8e7M6DXzI1HqyyX",
    "infected": 363,
    "recovered": 54,
    "latitude": 25.03841,
    "pop": 23780000,
    "sick": 304
  },
  {
    "longitude": -84.387618,
    "name": "Costa Rica",
    "country": "CR",
    "lastUpdated": "2020-04-05T18:45:09.254Z",
    "dead": 2,
    "id": "EQzJvzVHKjs8kLmK7BMu",
    "infected": 435,
    "recovered": 13,
    "latitude": 10.327273,
    "pop": 4906000,
    "sick": 420
  },
  {
    "infected": 128,
    "recovered": 21,
    "latitude": 22.2587,
    "pop": 62700000,
    "longitude": 71.1924,
    "name": "Gujarat",
    "country": "IN",
    "lastUpdated": "2020-04-05T17:40:02.695Z",
    "dead": 11,
    "id": "ERwk9R9en4m9WbdoMbIg",
    "sick": 96
  },
  {
    "longitude": 76.7794,
    "name": "Chandigarh",
    "country": "IN",
    "lastUpdated": "2020-04-05T18:40:01.682Z",
    "dead": 0,
    "id": "Esl5UlCVB9s8pmGB5Ofr",
    "infected": 18,
    "recovered": 5,
    "latitude": 30.7333,
    "pop": 1055000,
    "sick": 13
  },
  {
    "infected": 475,
    "recovered": 0,
    "latitude": 18.200178,
    "pop": 3195000,
    "longitude": -66.664513,
    "name": "Puerto Rico",
    "country": "PR",
    "lastUpdated": "2020-04-05T18:33:16.801Z",
    "dead": 20,
    "id": "F4rPrEVGAIMM5rfPEMv4",
    "sick": 455
  },
  {
    "id": "FCDmlmnIIswd8bQiUjfN",
    "infected": 349,
    "recovered": 15,
    "latitude": 33.93911,
    "pop": 35530000,
    "longitude": 67.709953,
    "name": "Afghanistan",
    "country": "AF",
    "lastUpdated": "2020-04-05T18:45:09.396Z",
    "dead": 7,
    "sick": 327
  },
  {
    "longitude": 106.912254,
    "name": "Chongqing",
    "country": "CN",
    "lastUpdated": "2020-04-05T18:14:10.667Z",
    "dead": 6,
    "id": "FErOU1m4Tj7jIkRam3vF",
    "infected": 579,
    "recovered": 570,
    "latitude": 29.431585,
    "pop": 30480000,
    "sick": 3
  },
  {
    "recovered": 99,
    "latitude": 29.311661,
    "pop": 4137000,
    "longitude": 47.481766,
    "name": "Kuwait",
    "country": "KW",
    "lastUpdated": "2020-04-05T18:45:09.260Z",
    "dead": 1,
    "id": "FZsUkhxBEgqsPb4eO0PN",
    "infected": 556,
    "sick": 456
  },
  {
    "latitude": 11.1271,
    "pop": 67860000,
    "longitude": 78.6569,
    "name": "Tamil Nadu",
    "country": "IN",
    "lastUpdated": "2020-04-05T18:40:01.675Z",
    "dead": 5,
    "id": "FeS45oMNC27pI17F0xEV",
    "infected": 571,
    "recovered": 8,
    "sick": 558
  },
  {
    "infected": 1745,
    "recovered": 17,
    "latitude": 18.947829,
    "pop": 10770000,
    "longitude": -70.430399,
    "name": "Dominican Republic",
    "country": "DO",
    "lastUpdated": "2020-04-05T18:45:09.300Z",
    "dead": 82,
    "id": "FuiVEJvWb0QMCpxJ3563",
    "sick": 1646
  },
  {
    "id": "FyC551oNwmENxbr9Yght",
    "infected": 334,
    "recovered": 33,
    "latitude": 18.1124,
    "pop": 35190000,
    "longitude": 79.0193,
    "name": "Telengana",
    "country": "IN",
    "lastUpdated": "2020-04-05T18:40:01.680Z",
    "dead": 11,
    "sick": 290
  },
  {
    "recovered": 10,
    "latitude": 48.669,
    "pop": 5450000,
    "longitude": 19.699,
    "name": "Slovakia",
    "country": "SK",
    "lastUpdated": "2020-04-05T18:45:09.303Z",
    "dead": 1,
    "id": "FzIDXoqWnTI3nUfhPyT2",
    "infected": 485,
    "sick": 474
  },
  {
    "id": "GAp7Wb6IMhdgbvEtMza9",
    "infected": 3123,
    "recovered": 208,
    "latitude": 30.37532,
    "pop": 197000000,
    "longitude": 69.345116,
    "name": "Pakistan",
    "country": "PK",
    "lastUpdated": "2020-04-05T18:45:09.271Z",
    "dead": 45,
    "sick": 2870
  },
  {
    "longitude": 75.3412,
    "name": "Punjab",
    "country": "IN",
    "lastUpdated": "2020-04-05T18:40:01.728Z",
    "dead": 7,
    "id": "GGru8cG08mANO8XDDUtZ",
    "infected": 68,
    "recovered": 4,
    "latitude": 31.1471,
    "pop": 27980000,
    "sick": 57
  },
  {
    "recovered": 144,
    "latitude": 23.424076,
    "pop": 9400000,
    "longitude": 53.847816,
    "name": "United Arab Emirates",
    "country": "AE",
    "lastUpdated": "2020-04-05T18:45:09.292Z",
    "dead": 10,
    "id": "GHzBIsHy2GiBc5JV2HMs",
    "infected": 1798,
    "sick": 1644
  },
  {
    "latitude": 36.621981,
    "pop": 39560000,
    "longitude": -119.339046,
    "name": "California",
    "country": "US",
    "lastUpdated": "2020-04-05T18:33:16.823Z",
    "dead": 325,
    "id": "Gh46r6vuaY7fbGt3IboN",
    "infected": 14036,
    "recovered": 0,
    "sick": 13711
  },
  {
    "longitude": -97.145514,
    "name": "Oklahoma",
    "country": "US",
    "lastUpdated": "2020-04-05T18:33:16.751Z",
    "dead": 42,
    "id": "GpF8ULuKOQiFDCUHN44h",
    "infected": 1254,
    "recovered": 0,
    "latitude": 35.87189,
    "pop": 3943000,
    "sick": 1212
  },
  {
    "lastUpdated": "2020-04-05T18:34:02.834Z",
    "dead": 158,
    "id": "Gzx6GX1qhBm714BkEC6l",
    "infected": 1644,
    "recovered": 260,
    "latitude": 46.5,
    "pop": 520891,
    "longitude": 11.35,
    "name": "P.A. Bolzano",
    "country": "IT",
    "sick": 1226
  },
  {
    "infected": 117,
    "recovered": 74,
    "latitude": 42.83263,
    "pop": 24710000,
    "longitude": 113.750972,
    "name": "Inner Mongolia",
    "country": "CN",
    "lastUpdated": "2020-04-05T18:14:10.733Z",
    "dead": 1,
    "id": "H3JeVigVbo5CSYfZG4WI",
    "sick": 42
  },
  {
    "recovered": 0,
    "latitude": 39.74536,
    "pop": 3034000,
    "longitude": -116.724977,
    "name": "Nevada",
    "country": "US",
    "lastUpdated": "2020-04-05T18:33:16.853Z",
    "dead": 46,
    "id": "H3bDg4eV30up4WWrIDAS",
    "infected": 1836,
    "sick": 1790
  },
  {
    "id": "HN5mGmxlqlSeFSNeu1K5",
    "infected": 144,
    "recovered": 12,
    "latitude": 15.3173,
    "pop": 64060000,
    "longitude": 75.7139,
    "name": "Karnataka",
    "country": "IN",
    "lastUpdated": "2020-04-05T18:37:04.852Z",
    "dead": 4,
    "sick": 128
  },
  {
    "longitude": 90.4336,
    "name": "Bhutan",
    "country": "BT",
    "lastUpdated": "2020-04-05T18:45:08.964Z",
    "dead": 0,
    "id": "HRDpwyxpqW9RN0xLFyNu",
    "infected": 5,
    "recovered": 2,
    "latitude": 27.5142,
    "pop": 807610,
    "sick": 3
  },
  {
    "latitude": 41.3775,
    "pop": 32390000,
    "longitude": 64.5853,
    "name": "Uzbekistan",
    "country": "UZ",
    "lastUpdated": "2020-04-05T18:45:09.307Z",
    "dead": 2,
    "id": "HRTA10dtrruDEwjJEGMp",
    "infected": 310,
    "recovered": 30,
    "sick": 278
  },
  {
    "latitude": 34.138916,
    "pop": 2095000,
    "longitude": -105.576255,
    "name": "New Mexico",
    "country": "US",
    "lastUpdated": "2020-04-05T18:33:16.830Z",
    "dead": 11,
    "id": "HSSFomRju0doHhWgW8On",
    "infected": 543,
    "recovered": 0,
    "sick": 532
  },
  {
    "longitude": 12.4296,
    "name": "Mecklenburg-Vorpommern",
    "country": "DE",
    "lastUpdated": "2020-04-05T18:46:03.533Z",
    "dead": 6,
    "id": "He1gSS1v50t06i3YrqvB",
    "infected": 523,
    "recovered": 143,
    "latitude": 53.6127,
    "pop": 1635000,
    "sick": 374
  },
  {
    "id": "I4OJ6z9Vjs1byOcbsJrd",
    "infected": 1890,
    "recovered": 633,
    "latitude": 23.634501,
    "pop": 129200000,
    "longitude": -102.552788,
    "name": "Mexico",
    "country": "MX",
    "lastUpdated": "2020-04-05T18:45:09.296Z",
    "dead": 79,
    "sick": 1178
  },
  {
    "id": "I9EqrZfbPnkioNU4wZGz",
    "infected": 1703,
    "recovered": 125,
    "latitude": 42.25,
    "pop": 1315000,
    "longitude": 13.75,
    "name": "Abruzzo",
    "country": "IT",
    "lastUpdated": "2020-04-05T18:34:02.630Z",
    "dead": 158,
    "sick": 1420
  },
  {
    "latitude": 23.363855,
    "pop": 113460000,
    "longitude": 113.373448,
    "name": "Guangdong",
    "country": "CN",
    "lastUpdated": "2020-04-05T18:14:10.766Z",
    "dead": 8,
    "id": "IAX0OQLVnUwU7FX0ENF1",
    "infected": 1524,
    "recovered": 1387,
    "sick": 129
  },
  {
    "recovered": 1251,
    "latitude": 33.875408,
    "pop": 94000000,
    "longitude": 113.484016,
    "name": "Henan",
    "country": "CN",
    "lastUpdated": "2020-04-05T18:14:10.654Z",
    "dead": 22,
    "id": "IFuMrMvSjoiX5agYvllh",
    "infected": 1276,
    "sick": 3
  },
  {
    "id": "InZ38sIqyK7FN7XAOZoX",
    "infected": 21,
    "recovered": 1,
    "latitude": 19.0558,
    "pop": 10980000,
    "longitude": -73.0513,
    "name": "Haiti",
    "country": "HT",
    "lastUpdated": "2020-04-05T18:45:08.980Z",
    "dead": 1,
    "sick": 19
  },
  {
    "longitude": -83.280125,
    "name": "Georgia (US)",
    "country": "US",
    "lastUpdated": "2020-04-05T18:33:16.705Z",
    "dead": 211,
    "id": "IvQkDJkTAsoIqPRAU25n",
    "infected": 6647,
    "recovered": 0,
    "latitude": 32.528564,
    "pop": 10520000,
    "sick": 6436
  },
  {
    "latitude": -42.8285,
    "pop": 4794000,
    "longitude": 172.488081,
    "name": "New Zealand",
    "country": "NZ",
    "lastUpdated": "2020-04-05T18:45:09.201Z",
    "dead": 1,
    "id": "IvVhpOoGpH6JVkGyUhXN",
    "infected": 1039,
    "recovered": 156,
    "sick": 882
  },
  {
    "infected": 1,
    "recovered": 0,
    "latitude": 28.218,
    "pop": 1255000,
    "longitude": 94.7278,
    "name": "Arunachal Pradesh",
    "country": "IN",
    "lastUpdated": "2020-04-05T18:40:01.732Z",
    "dead": 0,
    "id": "IwYKiIVY18NGwdGQFGWW",
    "sick": 1
  },
  {
    "latitude": 6.4238,
    "pop": 31980000,
    "longitude": -66.5897,
    "name": "Venezuela",
    "country": "VE",
    "lastUpdated": "2020-04-05T18:45:08.940Z",
    "dead": 7,
    "id": "J3mZXlfEnnJx4CDZLvRG",
    "infected": 155,
    "recovered": 52,
    "sick": 96
  },
  {
    "id": "JQByE4l2OA6sGOqIcWrM",
    "infected": 446,
    "recovered": 37,
    "latitude": 35.1264,
    "pop": 1170000,
    "longitude": 33.4299,
    "name": "Cyprus",
    "country": "CY",
    "lastUpdated": "2020-04-05T18:45:09.366Z",
    "dead": 9,
    "sick": 400
  },
  {
    "infected": 32,
    "recovered": 3,
    "latitude": 25.0961,
    "pop": 99020000,
    "longitude": 85.3131,
    "name": "Bihar",
    "country": "IN",
    "lastUpdated": "2020-04-05T18:40:01.686Z",
    "dead": 1,
    "id": "JR7hOGked7CZtIs2nCV5",
    "sick": 28
  },
  {
    "id": "JUWE6bG3b5oL7fKQMSvv",
    "infected": 61,
    "recovered": 15,
    "latitude": 14.628434,
    "pop": 16910000,
    "longitude": -90.522713,
    "name": "Guatemala",
    "country": "GT",
    "lastUpdated": "2020-04-05T18:45:08.520Z",
    "dead": 2,
    "sick": 44
  },
  {
    "longitude": 6.1296,
    "name": "Luxembourg",
    "country": "LU",
    "lastUpdated": "2020-04-05T18:45:09.363Z",
    "dead": 36,
    "id": "JcFsHSn2WvZ5LJW42ovG",
    "infected": 2804,
    "recovered": 500,
    "latitude": 49.8153,
    "pop": 602005,
    "sick": 2268
  },
  {
    "id": "JrBbirlBKGdWSdcDt7PF",
    "infected": 44,
    "recovered": 20,
    "latitude": 8.6195,
    "pop": 7798000,
    "longitude": 0.8248,
    "name": "Togo",
    "country": "TG",
    "lastUpdated": "2020-04-05T18:45:08.530Z",
    "dead": 3,
    "sick": 21
  },
  {
    "infected": 531,
    "recovered": 37,
    "latitude": 42.7339,
    "pop": 7050000,
    "longitude": 25.4858,
    "name": "Bulgaria",
    "country": "BG",
    "lastUpdated": "2020-04-05T18:45:09.230Z",
    "dead": 20,
    "id": "JzZ8sbqzjutThVjkPKPL",
    "sick": 474
  },
  {
    "infected": 4449,
    "recovered": 800,
    "latitude": 44.5,
    "pop": 1557000,
    "longitude": 8.833,
    "name": "Liguria",
    "country": "IT",
    "lastUpdated": "2020-04-05T18:34:02.638Z",
    "dead": 556,
    "id": "KLXicxFogWnu0dLp4bNK",
    "sick": 3093
  },
  {
    "infected": 5847,
    "recovered": 337,
    "latitude": 43.4167,
    "pop": 3737000,
    "longitude": 11,
    "name": "Toscana",
    "country": "IT",
    "lastUpdated": "2020-04-05T18:34:02.732Z",
    "dead": 325,
    "id": "KrLrJbpDqqiXgUPGCCW9",
    "sick": 5185
  },
  {
    "id": "KsWzJO06cf0d6LJ4ZNh9",
    "infected": 176,
    "recovered": 33,
    "latitude": 7.873054,
    "pop": 21440000,
    "longitude": 80.771797,
    "name": "Sri Lanka",
    "country": "LK",
    "lastUpdated": "2020-04-05T18:45:08.938Z",
    "dead": 5,
    "sick": 138
  },
  {
    "longitude": 79.74,
    "name": "Andhra Pradesh",
    "country": "IN",
    "lastUpdated": "2020-04-05T18:40:01.701Z",
    "dead": 1,
    "id": "KtQIo2DoqjELtPAlyDVO",
    "infected": 252,
    "recovered": 5,
    "latitude": 15.9129,
    "pop": 49670000,
    "sick": 246
  },
  {
    "infected": 5389,
    "recovered": 355,
    "latitude": 61.52401,
    "pop": 144500000,
    "longitude": 105.318756,
    "name": "Russia",
    "country": "RU",
    "lastUpdated": "2020-04-05T18:45:09.245Z",
    "dead": 45,
    "id": "KwOuGBKSMRlmwftxAvLX",
    "sick": 4989
  },
  {
    "id": "LBUtrLDKJiupXjlUNTUe",
    "infected": 29,
    "recovered": 7,
    "latitude": 18.0708,
    "pop": 32125,
    "longitude": -63.0501,
    "name": "Saint-Martin",
    "country": "FR",
    "lastUpdated": "2020-04-05T18:45:08.950Z",
    "dead": 2,
    "sick": 20
  },
  {
    "recovered": 0,
    "latitude": 47.166,
    "pop": 38557,
    "longitude": 9.5554,
    "name": "Liechtenstein",
    "country": "LI",
    "lastUpdated": "2020-04-05T18:45:08.513Z",
    "dead": 1,
    "id": "LTGEU2E9MFkrCcFhZYVk",
    "infected": 77,
    "sick": 76
  },
  {
    "recovered": 5,
    "latitude": 9.9456,
    "pop": 12720000,
    "longitude": -9.6966,
    "name": "Guinea",
    "country": "GN",
    "lastUpdated": "2020-04-05T18:45:08.548Z",
    "dead": 0,
    "id": "LU2QWt5ao8IJa8evNYVV",
    "infected": 121,
    "sick": 116
  },
  {
    "recovered": 0,
    "latitude": 3.9193051,
    "pop": 563402,
    "longitude": -56.0277824,
    "name": "Suriname",
    "country": "SR",
    "lastUpdated": "2020-04-05T18:45:08.941Z",
    "dead": 1,
    "id": "LglKINHyQpYpFxjckbQ6",
    "infected": 10,
    "sick": 9
  },
  {
    "latitude": 52.9399,
    "pop": 1174000,
    "longitude": -106.4509,
    "name": "Saskatchewan",
    "country": "CA",
    "lastUpdated": "2020-04-05T18:45:02.076Z",
    "dead": 3,
    "id": "LkIDKY0CMAqzbwBHyYCP",
    "infected": 231,
    "recovered": 0,
    "sick": 228
  },
  {
    "latitude": 37.8393,
    "pop": 4468000,
    "longitude": -84.27,
    "name": "Kentucky",
    "country": "US",
    "lastUpdated": "2020-04-05T18:33:16.760Z",
    "dead": 40,
    "id": "MC8MXFw9iXYybnF8v7e6",
    "infected": 917,
    "recovered": 0,
    "sick": 877
  },
  {
    "lastUpdated": "2020-04-05T18:33:16.780Z",
    "dead": 128,
    "id": "MOxDkmQ4wBi1CuAdVxDE",
    "infected": 4411,
    "recovered": 0,
    "latitude": 40.2672,
    "pop": 6692000,
    "longitude": -86.1349,
    "name": "Indiana",
    "country": "US",
    "sick": 4283
  },
  {
    "recovered": 25,
    "latitude": 7.54,
    "pop": 24290000,
    "longitude": -5.5471,
    "name": "Ivory Coast",
    "country": "CI",
    "lastUpdated": "2020-04-05T18:45:09.225Z",
    "dead": 1,
    "id": "MdQOfc1gNh2DOqwSP6UV",
    "infected": 245,
    "sick": 219
  },
  {
    "recovered": 7256,
    "latitude": 51.4332,
    "pop": 17910000,
    "longitude": 7.6616,
    "name": "Nordrhein-Westfalen",
    "country": "DE",
    "lastUpdated": "2020-04-05T18:46:03.645Z",
    "dead": 302,
    "id": "MjpYq3zQyAvSQlVVYjD2",
    "infected": 20961,
    "sick": 13403
  },
  {
    "recovered": 75,
    "latitude": 37.330509,
    "pop": 6301000,
    "longitude": 105.977203,
    "name": "Ningxia",
    "country": "CN",
    "lastUpdated": "2020-04-05T18:14:10.671Z",
    "dead": 0,
    "id": "MntmjjuHljarCdt6aIeE",
    "infected": 75,
    "sick": 0
  },
  {
    "recovered": 4004,
    "latitude": 48.6616,
    "pop": 11020000,
    "longitude": 9.3501,
    "name": "Baden-Württemberg",
    "country": "DE",
    "lastUpdated": "2020-04-05T18:46:03.446Z",
    "dead": 402,
    "id": "N3XsRBwJSsNclkEf7Zz5",
    "infected": 20421,
    "sick": 16015
  },
  {
    "recovered": 30,
    "latitude": 44.696652,
    "pop": 3507000,
    "longitude": 17.824332,
    "name": "Bosnia and Herzegovina",
    "country": "BA",
    "lastUpdated": "2020-04-05T18:45:09.385Z",
    "dead": 23,
    "id": "N7c13sCQF0G789XAVazJ",
    "infected": 654,
    "sick": 601
  },
  {
    "id": "NBRIGIRrJB1Ry8prDNAC",
    "infected": 138,
    "recovered": 133,
    "latitude": 37.242565,
    "pop": 36500000,
    "longitude": 111.856857,
    "name": "Shanxi",
    "country": "CN",
    "lastUpdated": "2020-04-05T18:14:10.676Z",
    "dead": 0,
    "sick": 5
  },
  {
    "latitude": 35.7596,
    "pop": 10380000,
    "longitude": -79.0193,
    "name": "North Carolina",
    "country": "US",
    "lastUpdated": "2020-04-05T18:33:16.785Z",
    "dead": 37,
    "id": "NC64Qp5kTqAfiTuR27k8",
    "infected": 2646,
    "recovered": 0,
    "sick": 2609
  },
  {
    "longitude": 12.5316,
    "name": "Brandenburg",
    "country": "DE",
    "lastUpdated": "2020-04-05T18:46:03.835Z",
    "dead": 27,
    "id": "NJjo2gfBvnbK4xatrsUz",
    "infected": 1436,
    "recovered": 203,
    "latitude": 52.4125,
    "pop": 2504000,
    "sick": 1206
  },
  {
    "lastUpdated": "2020-04-05T18:40:01.698Z",
    "dead": 0,
    "id": "NMeZEcGToxXfpi16PfFV",
    "infected": 26,
    "recovered": 4,
    "latitude": 30.0668,
    "pop": 10080000,
    "longitude": 79.0193,
    "name": "Uttarakhand",
    "country": "IN",
    "sick": 22
  },
  {
    "infected": 4653,
    "recovered": 988,
    "latitude": 50.6521,
    "pop": 6243000,
    "longitude": 9.1624,
    "name": "Hessen",
    "country": "DE",
    "lastUpdated": "2020-04-05T18:46:03.739Z",
    "dead": 66,
    "id": "Nk5vPgUIXsWVfbWZf15O",
    "sick": 3599
  },
  {
    "longitude": 25.837107,
    "name": "Latvia",
    "country": "LV",
    "lastUpdated": "2020-04-05T18:45:09.269Z",
    "dead": 1,
    "id": "NmmMKy0YqA8StHdGzB5N",
    "infected": 533,
    "recovered": 1,
    "latitude": 56.96776,
    "pop": 1920000,
    "sick": 531
  },
  {
    "infected": 13,
    "recovered": 3,
    "latitude": 6.4281,
    "pop": 4732000,
    "longitude": -9.4295,
    "name": "Liberia",
    "country": "LR",
    "lastUpdated": "2020-04-05T18:45:08.522Z",
    "dead": 3,
    "id": "O4g88K49HKEZLFXm5gxb",
    "sick": 7
  },
  {
    "longitude": -80.525613,
    "name": "South Carolina",
    "country": "US",
    "lastUpdated": "2020-04-05T18:33:16.742Z",
    "dead": 40,
    "id": "ONU4CK8QjViFHKg2w5if",
    "infected": 1917,
    "recovered": 0,
    "latitude": 34.003307,
    "pop": 5084000,
    "sick": 1877
  },
  {
    "lastUpdated": "2020-04-05T18:33:16.843Z",
    "dead": 43,
    "id": "OYa0jFzdbAgo8zUsRv6q",
    "infected": 1638,
    "recovered": 0,
    "latitude": 33.51822,
    "pop": 2987000,
    "longitude": -89.582775,
    "name": "Mississippi",
    "country": "US",
    "sick": 1595
  },
  {
    "lastUpdated": "2020-04-05T18:33:16.768Z",
    "dead": 10,
    "id": "OcXNp9kNVSwrRlG3bNVN",
    "infected": 470,
    "recovered": 0,
    "latitude": 45.2538,
    "pop": 1338000,
    "longitude": -69.4455,
    "name": "Maine",
    "country": "US",
    "sick": 460
  },
  {
    "id": "OnOseaqWdnuP18oruABW",
    "infected": 81,
    "recovered": 3,
    "latitude": -41.915264,
    "pop": 515000,
    "longitude": 146.725256,
    "name": "Tasmania",
    "country": "AU",
    "lastUpdated": "2020-04-05T18:42:03.937Z",
    "dead": 0,
    "sick": 78
  },
  {
    "recovered": 1,
    "latitude": 19.3133,
    "pop": 61559,
    "longitude": -81.2546,
    "name": "Cayman Islands",
    "country": "KY",
    "lastUpdated": "2020-04-05T18:45:08.555Z",
    "dead": 1,
    "id": "P4mwRFLbrvT0t75uD8Wo",
    "infected": 35,
    "sick": 33
  },
  {
    "recovered": 0,
    "latitude": 16.7424984,
    "pop": 5900,
    "longitude": -62.1873665,
    "name": "Montserrat",
    "country": "MS",
    "lastUpdated": "2020-04-05T18:45:08.973Z",
    "dead": 0,
    "id": "PEDkeFMTOZpvHiSVxBk7",
    "infected": 6,
    "sick": 6
  },
  {
    "latitude": -1.9403,
    "pop": 12210000,
    "longitude": 29.8739,
    "name": "Rwanda",
    "country": "RW",
    "lastUpdated": "2020-04-05T18:45:08.977Z",
    "dead": 0,
    "id": "PEcgZGEkyhABztt1Ufgc",
    "infected": 104,
    "recovered": 4,
    "sick": 100
  },
  {
    "recovered": 0,
    "latitude": 46.7296,
    "pop": 5611000,
    "longitude": -94.6859,
    "name": "Minnesota",
    "country": "US",
    "lastUpdated": "2020-04-05T18:33:16.758Z",
    "dead": 29,
    "id": "PJvVYosLIhbcRZYnKX1R",
    "infected": 935,
    "sick": 906
  },
  {
    "lastUpdated": "2020-04-05T18:33:16.724Z",
    "dead": 245,
    "id": "PTwQr9ijo0TBBsPH2sdJ",
    "infected": 10360,
    "recovered": 2,
    "latitude": 40.6331,
    "pop": 12740000,
    "longitude": -89.3985,
    "name": "Illinois",
    "country": "US",
    "sick": 10113
  },
  {
    "recovered": 1,
    "latitude": 13.909444,
    "pop": 178844,
    "longitude": -60.978893,
    "name": "Saint Lucia",
    "country": "LC",
    "lastUpdated": "2020-04-05T18:45:08.524Z",
    "dead": 0,
    "id": "PjLqCeFdyzdZNcZxMkK1",
    "infected": 14,
    "sick": 13
  },
  {
    "latitude": 34.201507,
    "pop": 11530000,
    "longitude": 9.460554,
    "name": "Tunisia",
    "country": "TN",
    "lastUpdated": "2020-04-05T18:45:09.192Z",
    "dead": 22,
    "id": "Pr76V4raf108uSRoEXac",
    "infected": 574,
    "recovered": 5,
    "sick": 547
  },
  {
    "latitude": -26.5225,
    "pop": 1367000,
    "longitude": 31.4659,
    "name": "Eswatini",
    "country": "SZ",
    "lastUpdated": "2020-04-05T18:45:09.003Z",
    "dead": 0,
    "id": "PuQgOd9KWiMzGZXm11sR",
    "infected": 9,
    "recovered": 0,
    "sick": 9
  },
  {
    "infected": 1135,
    "recovered": 171,
    "latitude": -37.009609,
    "pop": 6359000,
    "longitude": 143.94853,
    "name": "Victoria",
    "country": "AU",
    "lastUpdated": "2020-04-05T18:42:03.940Z",
    "dead": 4,
    "id": "Q18mrGvFWTLX2BU9SqhQ",
    "sick": 960
  },
  {
    "longitude": 9.6961,
    "name": "Schleswig-Holstein",
    "country": "DE",
    "lastUpdated": "2020-04-05T18:46:03.636Z",
    "dead": 17,
    "id": "Q39XkabIYxt15mHINzTa",
    "infected": 1660,
    "recovered": 152,
    "latitude": 54.2194,
    "pop": 2890000,
    "sick": 1491
  },
  {
    "infected": 1097,
    "recovered": 62,
    "latitude": 58.595272,
    "pop": 1328000,
    "longitude": 25.013607,
    "name": "Estonia",
    "country": "EE",
    "lastUpdated": "2020-04-05T18:45:09.262Z",
    "dead": 15,
    "id": "QR9go2hQKXjty7JHUYe4",
    "sick": 1020
  },
  {
    "longitude": 143.9555,
    "name": "Papua New Guinea",
    "country": "PG",
    "lastUpdated": "2020-04-05T18:45:08.937Z",
    "dead": 0,
    "id": "QlZrE4nosm5WfdA2aCDg",
    "infected": 1,
    "recovered": 0,
    "latitude": -6.315,
    "pop": 8251000,
    "sick": 1
  },
  {
    "recovered": 0,
    "latitude": 18.3358,
    "pop": 107268,
    "longitude": -64.8963,
    "name": "U.S. Virgin Islands",
    "country": "US",
    "lastUpdated": "2020-04-05T18:33:16.763Z",
    "dead": 1,
    "id": "QqhD3YDMKXojvQY3Yu41",
    "infected": 42,
    "sick": 41
  },
  {
    "longitude": -61.3709755,
    "name": "Dominica",
    "country": "DM",
    "lastUpdated": "2020-04-05T18:45:08.986Z",
    "dead": 0,
    "id": "Qy2qW2ep5wltnYjPJBxh",
    "infected": 14,
    "recovered": 0,
    "latitude": 15.414999,
    "pop": 71937,
    "sick": 14
  },
  {
    "infected": 1801,
    "recovered": 13,
    "latitude": 8.538,
    "pop": 4099000,
    "longitude": -80.7821,
    "name": "Panama",
    "country": "PA",
    "lastUpdated": "2020-04-05T18:45:09.305Z",
    "dead": 46,
    "id": "R8YCgephnxTufvcPWMgx",
    "sick": 1742
  },
  {
    "latitude": 15.2,
    "pop": 9265000,
    "longitude": -86.2419,
    "name": "Honduras",
    "country": "HN",
    "lastUpdated": "2020-04-05T18:45:09.294Z",
    "dead": 22,
    "id": "RA2SE0p2bVhqo0P2hzGY",
    "infected": 268,
    "recovered": 6,
    "sick": 240
  },
  {
    "infected": 2048,
    "recovered": 531,
    "latitude": 45.633331,
    "pop": 1216000,
    "longitude": 13.8,
    "name": "Friuli Venezia Giulia",
    "country": "IT",
    "lastUpdated": "2020-04-05T18:34:02.527Z",
    "dead": 154,
    "id": "RCrDBCdBNYzgLNr0aB2H",
    "sick": 1363
  },
  {
    "lastUpdated": "2020-04-05T18:33:16.756Z",
    "dead": 14,
    "id": "RX0KDu1AFrlCsrRso0nb",
    "infected": 787,
    "recovered": 0,
    "latitude": 41.878,
    "pop": 3156000,
    "longitude": -93.0977,
    "name": "Iowa",
    "country": "US",
    "sick": 773
  },
  {
    "infected": 18,
    "recovered": 0,
    "latitude": 26.3351002,
    "pop": 6846000,
    "longitude": 17.2283306,
    "name": "Libya",
    "country": "LY",
    "lastUpdated": "2020-04-05T18:45:08.990Z",
    "dead": 1,
    "id": "RaJxbzlnRFTuj4B8IbpC",
    "sick": 17
  },
  {
    "infected": 751,
    "recovered": 0,
    "latitude": 39.0119,
    "pop": 2912000,
    "longitude": -98.4842,
    "name": "Kansas",
    "country": "US",
    "lastUpdated": "2020-04-05T18:33:16.776Z",
    "dead": 22,
    "id": "Rf4uvBfP3GRDSHdZElRd",
    "sick": 729
  },
  {
    "lastUpdated": "2020-04-05T18:21:23.284Z",
    "dead": 1471,
    "id": "RmEgf1xeclWt7XCF9oiR",
    "infected": 12624,
    "recovered": 2953,
    "latitude": 48.6998,
    "pop": 5518000,
    "longitude": 6.1878,
    "name": "Grand Est",
    "country": "FR",
    "sick": 8200
  },
  {
    "infected": 4105,
    "recovered": 0,
    "latitude": 51.2538,
    "pop": 14570000,
    "longitude": -85.3232,
    "name": "Ontario",
    "country": "CA",
    "lastUpdated": "2020-04-05T18:45:02.163Z",
    "dead": 119,
    "id": "Rx4TuyMpfGb3S8wYJX0x",
    "sick": 3986
  },
  {
    "latitude": 14.652027,
    "pop": 376480,
    "longitude": -61.011715,
    "name": "Martinique",
    "country": "FR",
    "lastUpdated": "2020-04-05T18:45:08.552Z",
    "dead": 4,
    "id": "SDdefnq1bc3ZNr7SpEsW",
    "infected": 149,
    "recovered": 50,
    "sick": 95
  },
  {
    "lastUpdated": "2020-04-05T18:45:08.932Z",
    "dead": 5,
    "id": "SG9VWLOV3x2JsTkXmVSz",
    "infected": 214,
    "recovered": 31,
    "latitude": 7.9465,
    "pop": 28830000,
    "longitude": -1.0232,
    "name": "Ghana",
    "country": "GH",
    "sick": 178
  },
  {
    "infected": 21100,
    "recovered": 6415,
    "latitude": 46.818188,
    "pop": 8570000,
    "longitude": 8.227512,
    "name": "Switzerland",
    "country": "CH",
    "lastUpdated": "2020-04-05T18:45:09.176Z",
    "dead": 685,
    "id": "SGe9sCPayMqh6RsGFaBA",
    "sick": 14000
  },
  {
    "infected": 6997,
    "recovered": 0,
    "latitude": 46.8139,
    "pop": 8485000,
    "longitude": -71.208,
    "name": "Quebec",
    "country": "CA",
    "lastUpdated": "2020-04-05T18:45:02.056Z",
    "dead": 75,
    "id": "SHoOE3NiJgWAlDVBzwYH",
    "sick": 6922
  },
  {
    "latitude": 42.6026,
    "pop": 1831000,
    "longitude": 20.903,
    "name": "Kosovo",
    "country": "XK",
    "lastUpdated": "2020-04-05T18:44:01.978Z",
    "dead": 1,
    "id": "SMWvuMMuKp2QK7O2tNia",
    "infected": 145,
    "recovered": 23,
    "sick": 121
  },
  {
    "latitude": 15.2993,
    "pop": 1817000,
    "longitude": 74.124,
    "name": "Goa",
    "country": "IN",
    "lastUpdated": "2020-04-05T18:40:01.755Z",
    "dead": 0,
    "id": "SPcujsH2YlUaoAr8AiWF",
    "infected": 7,
    "recovered": 0,
    "sick": 7
  },
  {
    "latitude": 39,
    "pop": 1957000,
    "longitude": 16.5,
    "name": "Calabria",
    "country": "IT",
    "lastUpdated": "2020-04-05T18:34:02.536Z",
    "dead": 56,
    "id": "SZdF624x0v1LlyzZjKFu",
    "infected": 795,
    "recovered": 33,
    "sick": 706
  },
  {
    "longitude": -99.9018,
    "name": "Nebraska",
    "country": "US",
    "lastUpdated": "2020-04-05T18:33:16.807Z",
    "dead": 8,
    "id": "SakhKQzKu1LRI8laqdQq",
    "infected": 364,
    "recovered": 0,
    "latitude": 41.4925,
    "pop": 1929000,
    "sick": 356
  },
  {
    "lastUpdated": "2020-04-05T18:45:09.348Z",
    "dead": 0,
    "id": "SgHzWAAYK1j2sipovxM6",
    "infected": 344,
    "recovered": 40,
    "latitude": -21.1151,
    "pop": 859959,
    "longitude": 55.5364,
    "name": "La Réunion",
    "country": "FR",
    "sick": 304
  },
  {
    "latitude": 12.565679,
    "pop": 16010000,
    "longitude": 104.990967,
    "name": "Cambodia",
    "country": "KH",
    "lastUpdated": "2020-04-05T18:45:08.965Z",
    "dead": 0,
    "id": "SioMALgUbo7peXmbco2f",
    "infected": 114,
    "recovered": 50,
    "sick": 64
  },
  {
    "lastUpdated": "2020-04-05T18:33:16.831Z",
    "dead": 4,
    "id": "SsWhuEElU7dCTTuH5fdQ",
    "infected": 112,
    "recovered": 0,
    "latitude": 13.4443,
    "pop": 164229,
    "longitude": 144.7937,
    "name": "Guam",
    "country": "GU",
    "sick": 108
  },
  {
    "longitude": 21.7587,
    "name": "DR Congo",
    "country": "CD",
    "lastUpdated": "2020-04-05T18:45:08.943Z",
    "dead": 18,
    "id": "T3iRf8mTUTAzbKrORTap",
    "infected": 154,
    "recovered": 3,
    "latitude": -4.0383,
    "pop": 81340000,
    "sick": 133
  },
  {
    "recovered": 488,
    "latitude": 23.635796,
    "pop": 32940000,
    "longitude": 44.344334,
    "name": "Saudi Arabia",
    "country": "SA",
    "lastUpdated": "2020-04-05T18:45:09.321Z",
    "dead": 34,
    "id": "T7NffoeCgTUpAbOHvYwP",
    "infected": 2385,
    "sick": 1863
  },
  {
    "lastUpdated": "2020-04-05T18:45:08.566Z",
    "dead": 1,
    "id": "TQZmzsLhJqjtCSExAkCP",
    "infected": 135,
    "recovered": 73,
    "latitude": 4.506106,
    "pop": 428697,
    "longitude": 114.650692,
    "name": "Brunei",
    "country": "BN",
    "sick": 61
  },
  {
    "longitude": 4.3853,
    "name": "Auvergne-Rhône-Alpes",
    "country": "FR",
    "lastUpdated": "2020-04-05T18:22:50.151Z",
    "dead": 508,
    "id": "TT0MKODSjrxHvG19xZCa",
    "infected": 7229,
    "recovered": 1756,
    "latitude": 45.4471,
    "pop": 8027000,
    "sick": 4965
  },
  {
    "infected": 4569,
    "recovered": 0,
    "latitude": 39.318928,
    "pop": 5696000,
    "longitude": -105.461392,
    "name": "Colorado",
    "country": "US",
    "lastUpdated": "2020-04-05T18:33:16.804Z",
    "dead": 126,
    "id": "Th4dlpXXmSDgi1OHs36P",
    "sick": 4443
  },
  {
    "latitude": 12.2383,
    "pop": 19190000,
    "longitude": -1.5616,
    "name": "Burkina Faso",
    "country": "BF",
    "lastUpdated": "2020-04-05T18:45:09.283Z",
    "dead": 17,
    "id": "Tup6oDCHj6DgqZR3nQ3x",
    "infected": 345,
    "recovered": 90,
    "sick": 238
  },
  {
    "lastUpdated": "2020-04-05T18:45:08.512Z",
    "dead": 0,
    "id": "TvqURPN5xzVBXsmGP46N",
    "infected": 12,
    "recovered": 0,
    "latitude": 12.104818,
    "pop": 112381,
    "longitude": -61.670761,
    "name": "Grenada",
    "country": "GD",
    "sick": 12
  },
  {
    "lastUpdated": "2020-04-05T18:45:09.281Z",
    "dead": 179,
    "id": "Ty1AY3VLPJcRZgdBIERx",
    "infected": 4369,
    "recovered": 1327,
    "latitude": 55.675758,
    "pop": 5603000,
    "longitude": 12.56902,
    "name": "Denmark",
    "country": "DK",
    "sick": 2863
  },
  {
    "longitude": 118.769882,
    "name": "Shandong",
    "country": "CN",
    "lastUpdated": "2020-04-05T18:14:10.670Z",
    "dead": 7,
    "id": "U0tkTJ9CGsBuFJ2Gdoum",
    "infected": 779,
    "recovered": 755,
    "latitude": 36.395859,
    "pop": 100472400,
    "sick": 17
  },
  {
    "longitude": 12.457777,
    "name": "San Marino",
    "country": "SM",
    "lastUpdated": "2020-04-05T18:45:09.344Z",
    "dead": 32,
    "id": "U12rMD5GDW58Q0lIwrB1",
    "infected": 266,
    "recovered": 35,
    "latitude": 43.94236,
    "pop": 33400,
    "sick": 199
  },
  {
    "longitude": 138.25293,
    "name": "Japan",
    "country": "JP",
    "lastUpdated": "2020-04-05T18:45:09.373Z",
    "dead": 77,
    "id": "U13Gy4BpRLAZ95bPmBXd",
    "infected": 3139,
    "recovered": 514,
    "latitude": 36.204823,
    "pop": 126800000,
    "sick": 2548
  },
  {
    "latitude": 1.3733,
    "pop": 42860000,
    "longitude": 32.2903,
    "name": "Uganda",
    "country": "UG",
    "lastUpdated": "2020-04-05T18:45:08.516Z",
    "dead": 0,
    "id": "UCZXEgnHtxUoChWLR6fQ",
    "infected": 48,
    "recovered": 0,
    "sick": 48
  },
  {
    "infected": 10,
    "recovered": 2,
    "latitude": -11.2027,
    "pop": 29780000,
    "longitude": 17.8739,
    "name": "Angola",
    "country": "AO",
    "lastUpdated": "2020-04-05T18:45:08.563Z",
    "dead": 2,
    "id": "UIbrFy6kiTTF0D37Kqmp",
    "sick": 6
  },
  {
    "lastUpdated": "2020-04-05T18:23:42.564Z",
    "dead": 81,
    "id": "URKMlJ7OTNldjpaxFbjE",
    "infected": 1080,
    "recovered": 280,
    "latitude": 48.202,
    "pop": 3329000,
    "longitude": -2.9326,
    "name": "Bretagne",
    "country": "FR",
    "sick": 719
  },
  {
    "lastUpdated": "2020-04-05T18:46:03.734Z",
    "dead": 19,
    "id": "UfFaUECHINUutv1M9tzq",
    "infected": 3019,
    "recovered": 1400,
    "latitude": 53.5511,
    "pop": 1822000,
    "longitude": 9.9937,
    "name": "Hamburg",
    "country": "DE",
    "sick": 1600
  },
  {
    "infected": 26,
    "recovered": 0,
    "latitude": -19.4914,
    "pop": 211945,
    "longitude": 132.551,
    "name": "Northern Territory",
    "country": "AU",
    "lastUpdated": "2020-04-05T18:42:03.833Z",
    "dead": 0,
    "id": "UrF45V1VqMo6YBib2KlL",
    "sick": 26
  },
  {
    "lastUpdated": "2020-04-05T18:45:08.518Z",
    "dead": 4,
    "id": "UsxgpiuFCtlR2CW1UUFm",
    "infected": 25,
    "recovered": 6,
    "latitude": 18.0424805,
    "pop": 41109,
    "longitude": -63.0548286,
    "name": "Sint Maarten",
    "country": "SX",
    "sick": 15
  },
  {
    "latitude": 11.943179,
    "pop": 241773,
    "longitude": 79.808206,
    "name": "Puducherry",
    "country": "IN",
    "lastUpdated": "2020-04-05T18:37:04.472Z",
    "dead": 0,
    "id": "V1qE740s3EUGyKGr6SVv",
    "infected": 5,
    "recovered": 1,
    "sick": 4
  },
  {
    "infected": 1485,
    "recovered": 85,
    "latitude": 3.527606,
    "pop": 49070000,
    "longitude": -72.998674,
    "name": "Colombia",
    "country": "CO",
    "lastUpdated": "2020-04-05T18:45:09.314Z",
    "dead": 35,
    "id": "VAAmtxtDuCY0o55zRsOh",
    "sick": 1365
  },
  {
    "id": "VAG9AcMABTf8oIAfELPh",
    "infected": 320,
    "recovered": 15,
    "latitude": 21.5218,
    "pop": 11480000,
    "longitude": -77.7812,
    "name": "Cuba",
    "country": "CU",
    "lastUpdated": "2020-04-05T18:45:09.398Z",
    "dead": 8,
    "sick": 297
  },
  {
    "recovered": 172,
    "latitude": 25.181129,
    "pop": 45970000,
    "longitude": 101.864143,
    "name": "Yunnan",
    "country": "CN",
    "lastUpdated": "2020-04-05T18:14:10.763Z",
    "dead": 2,
    "id": "VIf8T8PD3ZzlzAm5eBCX",
    "infected": 184,
    "sick": 10
  },
  {
    "id": "VcKcLdCkC6YpPfIDnRVD",
    "infected": 278,
    "recovered": 21,
    "latitude": 26.8467,
    "pop": 204200000,
    "longitude": 80.9462,
    "name": "Uttar Pradesh",
    "country": "IN",
    "lastUpdated": "2020-04-05T18:40:01.704Z",
    "dead": 3,
    "sick": 254
  },
  {
    "infected": 4,
    "recovered": 0,
    "latitude": 64.8255,
    "pop": 44826,
    "longitude": -124.8457,
    "name": "Northwest Territories",
    "country": "CA",
    "lastUpdated": "2020-04-05T18:45:02.075Z",
    "dead": 0,
    "id": "Vd3lLgrNsr81plzTgZkz",
    "sick": 4
  },
  {
    "infected": 2671,
    "recovered": 757,
    "latitude": 43.8927,
    "pop": 5893000,
    "longitude": 3.2828,
    "name": "Occitanie",
    "country": "FR",
    "lastUpdated": "2020-04-05T18:24:29.741Z",
    "dead": 158,
    "id": "WAnbFrEjtZDTCIYBt8rz",
    "sick": 1756
  },
  {
    "recovered": 11,
    "latitude": 40.5,
    "pop": 567118,
    "longitude": 16.5,
    "name": "Basilicata",
    "country": "IT",
    "lastUpdated": "2020-04-05T18:34:02.842Z",
    "dead": 13,
    "id": "WD502XimGXnWzqYg7zxL",
    "infected": 278,
    "sick": 254
  },
  {
    "latitude": 24.6637,
    "pop": 2722000,
    "longitude": 93.9063,
    "name": "Manipur",
    "country": "IN",
    "lastUpdated": "2020-04-05T18:40:01.700Z",
    "dead": 0,
    "id": "WKsJQmcpWKxnp0nCwN77",
    "infected": 2,
    "recovered": 0,
    "sick": 2
  },
  {
    "infected": 1585,
    "recovered": 95,
    "latitude": -30.5595,
    "pop": 56720000,
    "longitude": 22.9375,
    "name": "South Africa",
    "country": "ZA",
    "lastUpdated": "2020-04-05T18:45:09.220Z",
    "dead": 9,
    "id": "Whrue10NtwIObLvFFyBr",
    "sick": 1481
  },
  {
    "infected": 4,
    "recovered": 2,
    "latitude": 13.443182,
    "pop": 2101000,
    "longitude": -15.3101387,
    "name": "Gambia",
    "country": "GM",
    "lastUpdated": "2020-04-05T18:45:08.509Z",
    "dead": 1,
    "id": "Wk811YwpQxsOCfz8As86",
    "sick": 1
  },
  {
    "infected": 88,
    "recovered": 33,
    "latitude": 23.685,
    "pop": 164700000,
    "longitude": 90.3563,
    "name": "Bangladesh",
    "country": "BD",
    "lastUpdated": "2020-04-05T18:45:08.545Z",
    "dead": 9,
    "id": "WpLayPPLIJ7VcHZdQaoM",
    "sick": 46
  },
  {
    "longitude": 11.75,
    "name": "Veneto",
    "country": "IT",
    "lastUpdated": "2020-04-05T18:34:02.645Z",
    "dead": 631,
    "id": "X2iRhHF6f9pUnJcxPc3J",
    "infected": 11226,
    "recovered": 1186,
    "latitude": 45.5,
    "pop": 4905000,
    "sick": 9409
  },
  {
    "lastUpdated": "2020-04-05T18:45:08.949Z",
    "dead": 0,
    "id": "X3GMAVINj2GDzIRVfo7n",
    "infected": 1,
    "recovered": 0,
    "latitude": -8.556856,
    "pop": 1311000,
    "longitude": 125.56031,
    "name": "Timor-Leste",
    "country": "TL",
    "sick": 1
  },
  {
    "lastUpdated": "2020-04-05T18:37:04.849Z",
    "dead": 0,
    "id": "X3PZqaJxtnlxcgP4tzya",
    "infected": 14,
    "recovered": 10,
    "latitude": 34.152588,
    "pop": 274289,
    "longitude": 77.577049,
    "name": "Ladakh",
    "country": "IN",
    "sick": 4
  },
  {
    "infected": 350,
    "recovered": 303,
    "latitude": 25.92448,
    "pop": 38560000,
    "longitude": 118.278992,
    "name": "Fujian",
    "country": "CN",
    "lastUpdated": "2020-04-05T18:14:10.659Z",
    "dead": 1,
    "id": "XBBw0iMPrmiEu3qogkbi",
    "sick": 46
  },
  {
    "latitude": -32.5228,
    "pop": 3457000,
    "longitude": -55.7658,
    "name": "Uruguay",
    "country": "UY",
    "lastUpdated": "2020-04-05T18:45:09.338Z",
    "dead": 5,
    "id": "XrsuLstdybIqIvv0E0aJ",
    "infected": 400,
    "recovered": 93,
    "sick": 302
  },
  {
    "id": "YGXgIObKVabP2CYEdcb9",
    "infected": 335,
    "recovered": 116,
    "latitude": 42.0396,
    "pop": 339178,
    "longitude": 9.0129,
    "name": "Corse",
    "country": "FR",
    "lastUpdated": "2020-04-05T18:25:26.019Z",
    "dead": 26,
    "sick": 193
  },
  {
    "infected": 234,
    "recovered": 23,
    "latitude": 31.9522,
    "pop": 5052000,
    "longitude": 35.2332,
    "name": "Palestine",
    "country": "PS",
    "lastUpdated": "2020-04-05T18:45:09.257Z",
    "dead": 1,
    "id": "YMzKw0SnXG71VT7H1jff",
    "sick": 210
  },
  {
    "id": "YZoy8ReFucvC3IFnWZHn",
    "infected": 18,
    "recovered": 0,
    "latitude": 11.8037491,
    "pop": 1955000,
    "longitude": -15.1804132,
    "name": "Guinea-Bissau",
    "country": "GW",
    "lastUpdated": "2020-04-05T18:45:08.529Z",
    "dead": 0,
    "sick": 18
  },
  {
    "infected": 171,
    "recovered": 0,
    "latitude": 64.2008,
    "pop": 737438,
    "longitude": -149.4937,
    "name": "Alaska",
    "country": "US",
    "lastUpdated": "2020-04-05T18:33:16.828Z",
    "dead": 5,
    "id": "YaCODTMD1KKRnrAlkg2u",
    "sick": 166
  },
  {
    "infected": 10237,
    "recovered": 6463,
    "latitude": 37.568291,
    "pop": 51470000,
    "longitude": 126.99778,
    "name": "South Korea",
    "country": "KR",
    "lastUpdated": "2020-04-05T18:45:09.184Z",
    "dead": 183,
    "id": "Yw9uBekNlefXBcOCNMfP",
    "sick": 3591
  },
  {
    "infected": 56,
    "recovered": 6,
    "latitude": 13.193887,
    "pop": 285719,
    "longitude": -59.543198,
    "name": "Barbados",
    "country": "BB",
    "lastUpdated": "2020-04-05T18:45:08.984Z",
    "dead": 1,
    "id": "YzZqZMJGvG6joQCdiuXC",
    "sick": 49
  },
  {
    "infected": 4102,
    "recovered": 134,
    "latitude": 52.2297,
    "pop": 37980000,
    "longitude": 21.0122,
    "name": "Poland",
    "country": "PL",
    "lastUpdated": "2020-04-05T18:45:09.392Z",
    "dead": 94,
    "id": "ZAZNuCK1VweBaTLCFzCk",
    "sick": 3874
  },
  {
    "lastUpdated": "2020-04-05T18:45:08.959Z",
    "dead": 0,
    "id": "ZmzOT0sJgfWXEpRImItC",
    "infected": 12,
    "recovered": 0,
    "latitude": -17.713371,
    "pop": 905502,
    "longitude": 178.065033,
    "name": "Fiji",
    "country": "FJ",
    "sick": 12
  },
  {
    "infected": 5276,
    "recovered": 0,
    "latitude": 41.6032,
    "pop": 3573000,
    "longitude": -73.0877,
    "name": "Connecticut",
    "country": "US",
    "lastUpdated": "2020-04-05T18:33:16.783Z",
    "dead": 165,
    "id": "Zqy0gftQzocR49jEJNMl",
    "sick": 5111
  },
  {
    "longitude": 13.516667,
    "name": "Marche",
    "country": "IT",
    "lastUpdated": "2020-04-05T18:34:02.744Z",
    "dead": 599,
    "id": "Zwbjs4XN7P9s849Q3zFj",
    "infected": 4464,
    "recovered": 287,
    "latitude": 43.616943,
    "pop": 1532000,
    "sick": 3578
  },
  {
    "recovered": 221,
    "latitude": 51.011,
    "pop": 2137000,
    "longitude": 10.8453,
    "name": "Thüringen",
    "country": "DE",
    "lastUpdated": "2020-04-05T18:46:03.642Z",
    "dead": 11,
    "id": "a9OgUWo6ZSWA3HyF0xnj",
    "infected": 1164,
    "sick": 932
  },
  {
    "recovered": 6,
    "latitude": -30.000233,
    "pop": 1677000,
    "longitude": 136.209152,
    "name": "South Australia",
    "country": "AU",
    "lastUpdated": "2020-04-05T18:42:03.933Z",
    "dead": 0,
    "id": "a9p9pAOsjg1WAjPGc2a6",
    "infected": 409,
    "sick": 403
  },
  {
    "lastUpdated": "2020-04-05T18:33:16.765Z",
    "dead": 44,
    "id": "aPubGfQ8ToSEuKJldKRT",
    "infected": 2346,
    "recovered": 0,
    "latitude": 37.9643,
    "pop": 6126000,
    "longitude": -91.8318,
    "name": "Missouri",
    "country": "US",
    "sick": 2302
  },
  {
    "latitude": 23.64407,
    "pop": 48380000,
    "longitude": 108.26651,
    "name": "Guangxi",
    "country": "CN",
    "lastUpdated": "2020-04-05T18:14:10.764Z",
    "dead": 2,
    "id": "aTa8MiBjtH3iY0SRs2HQ",
    "infected": 254,
    "recovered": 252,
    "sick": 0
  },
  {
    "longitude": 20.9394,
    "name": "CAR",
    "country": "CF",
    "lastUpdated": "2020-04-05T18:45:09.000Z",
    "dead": 0,
    "id": "adcBUeAYp6ey0ZXCzKNs",
    "infected": 8,
    "recovered": 0,
    "latitude": 6.6111,
    "pop": 4659000,
    "sick": 8
  },
  {
    "latitude": 37.4316,
    "pop": 8518000,
    "longitude": -78.6569,
    "name": "Virginia",
    "country": "US",
    "lastUpdated": "2020-04-05T18:33:16.767Z",
    "dead": 52,
    "id": "afeZTVC1J1SMMNFxkrcc",
    "infected": 2637,
    "recovered": 0,
    "sick": 2585
  },
  {
    "longitude": 116.407394,
    "name": "Beijing",
    "country": "CN",
    "lastUpdated": "2020-04-05T18:14:10.757Z",
    "dead": 8,
    "id": "alj4hkxg9cjrTxOzwFKt",
    "infected": 586,
    "recovered": 441,
    "latitude": 39.904202,
    "pop": 21540000,
    "sick": 137
  },
  {
    "longitude": 43.679291,
    "name": "Iraq",
    "country": "IQ",
    "lastUpdated": "2020-04-05T18:45:09.322Z",
    "dead": 61,
    "id": "b7TwXX46FA0EmH1CjHET",
    "infected": 961,
    "recovered": 279,
    "latitude": 33.22319,
    "pop": 38270000,
    "sick": 621
  },
  {
    "latitude": 14.457474,
    "pop": 15850000,
    "longitude": -14.358636,
    "name": "Senegal",
    "country": "SN",
    "lastUpdated": "2020-04-05T18:45:08.532Z",
    "dead": 2,
    "id": "b9p1JhVml3GGC7iiPmKv",
    "infected": 222,
    "recovered": 82,
    "sick": 138
  },
  {
    "latitude": -0.0236,
    "pop": 49700000,
    "longitude": 37.9062,
    "name": "Kenya",
    "country": "KE",
    "lastUpdated": "2020-04-05T18:45:08.556Z",
    "dead": 4,
    "id": "bVHiTolbUJGHIeVht3eG",
    "infected": 142,
    "recovered": 4,
    "sick": 134
  },
  {
    "latitude": 39.561889,
    "pop": 8909000,
    "longitude": -74.672169,
    "name": "New Jersey",
    "country": "US",
    "lastUpdated": "2020-04-05T18:33:16.773Z",
    "dead": 917,
    "id": "bYp4RRHv19M7lYtSzQeV",
    "infected": 37505,
    "recovered": 0,
    "sick": 36588
  },
  {
    "recovered": 1005,
    "latitude": 3.139,
    "pop": 31620000,
    "longitude": 101.6869,
    "name": "Malaysia",
    "country": "MY",
    "lastUpdated": "2020-04-05T18:45:09.218Z",
    "dead": 61,
    "id": "bdqD4kpdqGgUaX70Tm2Q",
    "infected": 3662,
    "sick": 2596
  },
  {
    "longitude": 18.643501,
    "name": "Sweden",
    "country": "SE",
    "lastUpdated": "2020-04-05T18:45:09.242Z",
    "dead": 401,
    "id": "bignnyt2A8BBx8VNo32p",
    "infected": 6830,
    "recovered": 205,
    "latitude": 60.128162,
    "pop": 10120000,
    "sick": 6224
  },
  {
    "id": "bo2XnTYrVRoaktD5uF93",
    "infected": 3,
    "recovered": 0,
    "latitude": 23.6102,
    "pop": 31900000,
    "longitude": 85.2799,
    "name": "Jharkhand",
    "country": "IN",
    "lastUpdated": "2020-04-05T18:40:01.726Z",
    "dead": 0,
    "sick": 3
  },
  {
    "infected": 10,
    "recovered": 0,
    "latitude": 17.363747,
    "pop": 53100,
    "longitude": -62.754593,
    "name": "Saint Kitts and Nevis",
    "country": "KN",
    "lastUpdated": "2020-04-05T18:45:08.992Z",
    "dead": 0,
    "id": "bor36ktvkrB3iSxlsegc",
    "sick": 10
  },
  {
    "recovered": 104,
    "latitude": 40.973765,
    "pop": 2877000,
    "longitude": 20.010162,
    "name": "Albania",
    "country": "AL",
    "lastUpdated": "2020-04-05T18:45:09.371Z",
    "dead": 20,
    "id": "cCGmFmwHOoBrEpvG3qBP",
    "infected": 361,
    "sick": 237
  },
  {
    "latitude": 16.871311,
    "pop": 55901000,
    "longitude": 96.199379,
    "name": "Myanmar",
    "country": "MM",
    "lastUpdated": "2020-04-05T18:45:08.541Z",
    "dead": 1,
    "id": "cIbchhSBTuxXmXYgpkdB",
    "infected": 21,
    "recovered": 0,
    "sick": 20
  },
  {
    "recovered": 1,
    "latitude": -25.953724,
    "pop": 29670000,
    "longitude": 32.588711,
    "name": "Mozambique",
    "country": "MZ",
    "lastUpdated": "2020-04-05T18:45:08.953Z",
    "dead": 0,
    "id": "cO8TChMvQvAtoZMNurTQ",
    "infected": 10,
    "sick": 9
  },
  {
    "id": "cPxONYsVo6BgvCW9HUeQ",
    "infected": 14,
    "recovered": 2,
    "latitude": 46.8625,
    "pop": 3076000,
    "longitude": 103.8467,
    "name": "Mongolia",
    "country": "MN",
    "lastUpdated": "2020-04-05T18:45:08.507Z",
    "dead": 0,
    "sick": 12
  },
  {
    "latitude": 64.963051,
    "pop": 364260,
    "longitude": -19.020836,
    "name": "Iceland",
    "country": "IS",
    "lastUpdated": "2020-04-05T18:45:09.273Z",
    "dead": 4,
    "id": "cPxe7nsRnOf6aOPqHElJ",
    "infected": 1486,
    "recovered": 428,
    "sick": 1054
  },
  {
    "id": "cX891t0ONLNFj0MYq6La",
    "infected": 8430,
    "recovered": 477,
    "latitude": 31.046051,
    "pop": 8712000,
    "longitude": 34.851612,
    "name": "Israel",
    "country": "IL",
    "lastUpdated": "2020-04-05T18:45:09.408Z",
    "dead": 49,
    "sick": 7904
  },
  {
    "lastUpdated": "2020-04-05T18:20:07.107Z",
    "dead": 0,
    "id": "cc7s6hYGQ2MovBBBgkKb",
    "infected": 66,
    "recovered": 27,
    "latitude": 4.749531,
    "pop": 290691,
    "longitude": -53.112909,
    "name": "Guyane",
    "country": "FR",
    "sick": 39
  },
  {
    "latitude": 61.8926,
    "pop": 49290,
    "longitude": -6.9118,
    "name": "Faeroe Islands",
    "country": "FO",
    "lastUpdated": "2020-04-05T18:45:08.569Z",
    "dead": 0,
    "id": "cgzd5EM8PZv5ziJtTz1w",
    "infected": 181,
    "recovered": 99,
    "sick": 82
  },
  {
    "latitude": 41.2033,
    "pop": 12810000,
    "longitude": -77.1945,
    "name": "Pennsylvania",
    "country": "US",
    "lastUpdated": "2020-04-05T18:33:16.770Z",
    "dead": 151,
    "id": "chj2FF3zb4Xxcop9RHre",
    "infected": 11535,
    "recovered": 0,
    "sick": 11384
  },
  {
    "infected": 2009,
    "recovered": 579,
    "latitude": 45.7087,
    "pop": 5987000,
    "longitude": 0.6269,
    "name": "Nouvelle-Aquitaine",
    "country": "FR",
    "lastUpdated": "2020-04-05T18:25:45.809Z",
    "dead": 120,
    "id": "cpf3Y5PQTYywIm3PrpIQ",
    "sick": 1310
  },
  {
    "latitude": 40.463669,
    "pop": 46660000,
    "longitude": -3.74922,
    "name": "Spain",
    "country": "ES",
    "lastUpdated": "2020-04-05T18:45:09.042Z",
    "dead": 12418,
    "id": "d0ExINgPaWUBm3l4ioJL",
    "infected": 130759,
    "recovered": 38080,
    "sick": 80261
  },
  {
    "recovered": 26,
    "latitude": 42.50837,
    "pop": 76965,
    "longitude": 1.517155,
    "name": "Andorra",
    "country": "AD",
    "lastUpdated": "2020-04-05T18:45:09.278Z",
    "dead": 18,
    "id": "dedMXSYR2k92wkSXNZqn",
    "infected": 501,
    "sick": 457
  },
  {
    "id": "dzCgqYduzyncjNKU9z6G",
    "infected": 593,
    "recovered": 0,
    "latitude": 38.831163,
    "pop": 967171,
    "longitude": -75.375673,
    "name": "Delaware",
    "country": "US",
    "lastUpdated": "2020-04-05T18:33:16.841Z",
    "dead": 14,
    "sick": 579
  },
  {
    "recovered": 1042,
    "latitude": 38.9637,
    "pop": 80810000,
    "longitude": 35.2433,
    "name": "Turkey",
    "country": "TR",
    "lastUpdated": "2020-04-05T18:45:09.037Z",
    "dead": 574,
    "id": "dzIcCaUZlbIXuRw0SyDE",
    "infected": 27069,
    "sick": 25453
  },
  {
    "longitude": 14.550072,
    "name": "Austria",
    "country": "AT",
    "lastUpdated": "2020-04-05T18:45:09.233Z",
    "dead": 204,
    "id": "e3BtI12qbqhE8jypOoZu",
    "infected": 12051,
    "recovered": 2998,
    "latitude": 47.516232,
    "pop": 8822000,
    "sick": 8849
  },
  {
    "infected": 6208,
    "recovered": 1835,
    "latitude": 52.6367,
    "pop": 7963000,
    "longitude": 9.8451,
    "name": "Niedersachsen",
    "country": "DE",
    "lastUpdated": "2020-04-05T18:46:03.648Z",
    "dead": 97,
    "id": "e3CJgTO8wVbBQZaxqNze",
    "sick": 4276
  },
  {
    "longitude": 122.310669,
    "name": "Liaoning",
    "country": "CN",
    "lastUpdated": "2020-04-05T18:14:10.685Z",
    "dead": 2,
    "id": "e7P83iImanpd9r36oXK3",
    "infected": 142,
    "recovered": 126,
    "latitude": 41.097481,
    "pop": 43900000,
    "sick": 14
  },
  {
    "infected": 531,
    "recovered": 383,
    "latitude": 31.230391,
    "pop": 24240000,
    "longitude": 121.473701,
    "name": "Shanghai",
    "country": "CN",
    "lastUpdated": "2020-04-05T18:14:10.768Z",
    "dead": 6,
    "id": "e9pQqQa7CEblCYoDtfKo",
    "sick": 142
  },
  {
    "infected": 11736,
    "recovered": 0,
    "latitude": 42.407211,
    "pop": 6902000,
    "longitude": -71.382439,
    "name": "Massachusetts",
    "country": "US",
    "lastUpdated": "2020-04-05T18:33:16.746Z",
    "dead": 216,
    "id": "eCKDGssww4pF7NrxOySu",
    "sick": 11520
  },
  {
    "lastUpdated": "2020-04-05T18:45:08.546Z",
    "dead": 1,
    "id": "eLgKPNUwYM5MNDAtF6ql",
    "infected": 73,
    "recovered": 3,
    "latitude": 43.740451,
    "pop": 38695,
    "longitude": 7.432032,
    "name": "Monaco",
    "country": "MC",
    "sick": 69
  },
  {
    "infected": 3311,
    "recovered": 942,
    "latitude": 47.2805,
    "pop": 2686000,
    "longitude": 4.9994,
    "name": "Bourgogne-Franche-Comté",
    "country": "FR",
    "lastUpdated": "2020-04-05T18:23:13.347Z",
    "dead": 341,
    "id": "ejrjMKfHexGnK52FS9Aa",
    "sick": 2028
  },
  {
    "lastUpdated": "2020-04-05T18:45:09.390Z",
    "dead": 6,
    "id": "etrmrftkQg6Kbd9seAga",
    "infected": 584,
    "recovered": 42,
    "latitude": 48.0196,
    "pop": 18040000,
    "longitude": 66.9237,
    "name": "Kazakhstan",
    "country": "KZ",
    "sick": 536
  },
  {
    "longitude": 102.960701,
    "name": "Sichuan",
    "country": "CN",
    "lastUpdated": "2020-04-05T18:14:10.608Z",
    "dead": 3,
    "id": "eyK5bxFkwdoAouIBvLFM",
    "infected": 558,
    "recovered": 539,
    "latitude": 30.14208,
    "pop": 81100000,
    "sick": 16
  },
  {
    "lastUpdated": "2020-04-05T18:45:09.342Z",
    "dead": 2,
    "id": "f9kmlhYtc3WA3kjbWszW",
    "infected": 298,
    "recovered": 61,
    "latitude": 21.473534,
    "pop": 4636000,
    "longitude": 55.975414,
    "name": "Oman",
    "country": "OM",
    "sick": 235
  },
  {
    "recovered": 2,
    "latitude": -0.228021,
    "pop": 81340000,
    "longitude": 15.8276587,
    "name": "Congo",
    "country": "CG",
    "lastUpdated": "2020-04-05T18:45:08.515Z",
    "dead": 5,
    "id": "fEyJ83bQtvcaes8KLhVx",
    "infected": 45,
    "sick": 38
  },
  {
    "recovered": 196,
    "latitude": 51.1045,
    "pop": 4081000,
    "longitude": 13.2017,
    "name": "Sachsen",
    "country": "DE",
    "lastUpdated": "2020-04-05T18:46:03.542Z",
    "dead": 40,
    "id": "fGqVm2khm3IBRs709S1f",
    "infected": 3039,
    "sick": 2803
  },
  {
    "latitude": 47,
    "longitude": 2,
    "name": "Région non communiquée",
    "country": "FR",
    "dead": 2187,
    "lastUpdated": "2020-04-05T18:19:26.231Z",
    "id": "fIp76gl05LhZ0aOxUbhz",
    "infected": 0,
    "recovered": 0,
    "sick": 0
  },
  {
    "latitude": 15.4542,
    "pop": 14900000,
    "longitude": 18.7322,
    "name": "Chad",
    "country": "TD",
    "lastUpdated": "2020-04-05T18:45:08.983Z",
    "dead": 0,
    "id": "fJc9CaZGR1OCHaW8Tn4V",
    "infected": 9,
    "recovered": 0,
    "sick": 9
  },
  {
    "id": "fK06AziL8wyrcoz7rsmJ",
    "infected": 345,
    "recovered": 110,
    "latitude": 31.295929,
    "pop": 9702000,
    "longitude": 36.691952,
    "name": "Jordan",
    "country": "JO",
    "lastUpdated": "2020-04-05T18:45:09.327Z",
    "dead": 5,
    "sick": 230
  },
  {
    "longitude": -81.555239,
    "name": "Florida",
    "country": "US",
    "lastUpdated": "2020-04-05T18:33:16.810Z",
    "dead": 218,
    "id": "fNganaGVPifA4QahEQPS",
    "infected": 12151,
    "recovered": 0,
    "latitude": 27.716933,
    "pop": 21300000,
    "sick": 11933
  },
  {
    "latitude": 35.452016,
    "longitude": 139.664285,
    "name": "Diamond Princess (Cruise)",
    "country": "ZZ",
    "dead": 10,
    "lastUpdated": "2020-04-05T00:59:23.083Z",
    "id": "fNnE9CD0SttEVrCUo1Ym",
    "infected": 712,
    "recovered": 587,
    "sick": 115
  },
  {
    "infected": 2285,
    "recovered": 273,
    "latitude": 46.0679,
    "pop": 538223,
    "longitude": 11.1211,
    "name": "P.A. Trento",
    "country": "IT",
    "lastUpdated": "2020-04-05T18:34:02.727Z",
    "dead": 217,
    "id": "fOlU5JggPKOO8jbHh5GD",
    "sick": 1795
  },
  {
    "latitude": 52.52,
    "pop": 3748000,
    "longitude": 13.405,
    "name": "Berlin",
    "country": "DE",
    "lastUpdated": "2020-04-05T18:46:03.632Z",
    "dead": 26,
    "id": "ffKhENYKy3bwsyBLiYtE",
    "infected": 3687,
    "recovered": 1857,
    "sick": 1804
  },
  {
    "latitude": 31.160629,
    "pop": 58500000,
    "longitude": 112.255402,
    "name": "Hubei",
    "country": "CN",
    "lastUpdated": "2020-04-05T18:14:10.638Z",
    "dead": 3210,
    "id": "fiJ14DCxw15e3SMemh8R",
    "infected": 67803,
    "recovered": 63945,
    "sick": 648
  },
  {
    "recovered": 25,
    "latitude": 50.4501,
    "pop": 42220000,
    "longitude": 30.5234,
    "name": "Ukraine",
    "country": "UA",
    "lastUpdated": "2020-04-05T18:45:09.406Z",
    "dead": 32,
    "id": "flbZ2kaR5kBuV8XZ2Nsu",
    "infected": 1251,
    "sick": 1194
  },
  {
    "longitude": 74.7661,
    "name": "Kyrgyzstan",
    "country": "KG",
    "lastUpdated": "2020-04-05T18:45:08.534Z",
    "dead": 1,
    "id": "fst48lrFxiMJbQPf4nur",
    "infected": 147,
    "recovered": 9,
    "latitude": 41.2044,
    "pop": 6202000,
    "sick": 137
  },
  {
    "infected": 17851,
    "recovered": 250,
    "latitude": 52.132633,
    "pop": 17180000,
    "longitude": 5.291266,
    "name": "Netherlands",
    "country": "NL",
    "lastUpdated": "2020-04-05T18:45:09.196Z",
    "dead": 1766,
    "id": "g0lRMtEJbucWIGqSPn0I",
    "sick": 15835
  },
  {
    "latitude": 34.69522,
    "pop": 3014000,
    "longitude": -92.288012,
    "name": "Arkansas",
    "country": "US",
    "lastUpdated": "2020-04-05T18:33:16.846Z",
    "dead": 14,
    "id": "gIdgxJZfTl2QOSYEwMAz",
    "infected": 819,
    "recovered": 0,
    "sick": 805
  },
  {
    "infected": 24,
    "recovered": 0,
    "latitude": 4.8604159,
    "pop": 777859,
    "longitude": -58.9301796,
    "name": "Guyana",
    "country": "GY",
    "lastUpdated": "2020-04-05T18:45:08.963Z",
    "dead": 4,
    "id": "gXd2X2PjmGP0XVwxpWqT",
    "sick": 20
  },
  {
    "lastUpdated": "2020-04-05T18:33:16.795Z",
    "dead": 2,
    "id": "gYDsNgvuvtbg8t77w6FS",
    "infected": 240,
    "recovered": 0,
    "latitude": 43.9695,
    "pop": 882235,
    "longitude": -99.9018,
    "name": "South Dakota",
    "country": "US",
    "sick": 238
  },
  {
    "longitude": 14.432846,
    "name": "Malta",
    "country": "MT",
    "lastUpdated": "2020-04-05T18:45:08.533Z",
    "dead": 0,
    "id": "h9UqxYZ5xC4JZrmdDz0q",
    "infected": 227,
    "recovered": 5,
    "latitude": 35.894231,
    "pop": 493559,
    "sick": 222
  },
  {
    "infected": 503,
    "recovered": 18,
    "latitude": 28.7041,
    "pop": 18980000,
    "longitude": 77.1025,
    "name": "Delhi",
    "country": "IN",
    "lastUpdated": "2020-04-05T18:37:04.463Z",
    "dead": 7,
    "id": "hqwsh1rmvkWI3LFUVuMk",
    "sick": 478
  },
  {
    "infected": 138,
    "recovered": 131,
    "latitude": 35.751835,
    "pop": 25580000,
    "longitude": 104.28611,
    "name": "Gansu",
    "country": "CN",
    "lastUpdated": "2020-04-05T18:14:10.635Z",
    "dead": 2,
    "id": "iGkTscdD0XyHFSP23Qrp",
    "sick": 5
  },
  {
    "longitude": 38.9968,
    "name": "Syria",
    "country": "SY",
    "lastUpdated": "2020-04-05T18:45:08.527Z",
    "dead": 2,
    "id": "iHf1IZQP3CA3sT2erzyh",
    "infected": 19,
    "recovered": 2,
    "latitude": 34.8021,
    "pop": 18270000,
    "sick": 15
  },
  {
    "infected": 314,
    "recovered": 56,
    "latitude": 10.8505,
    "pop": 34800000,
    "longitude": 76.2711,
    "name": "Kerala",
    "country": "IN",
    "lastUpdated": "2020-04-05T18:40:01.753Z",
    "dead": 2,
    "id": "idymmgoqLHImnBdyC7r7",
    "sick": 256
  },
  {
    "latitude": 16.265,
    "pop": 395700,
    "longitude": -61.551,
    "name": "Guadeloupe",
    "country": "FR",
    "lastUpdated": "2020-04-05T18:28:05.835Z",
    "dead": 7,
    "id": "j8eMjjqNAqHAJhAKdBYN",
    "infected": 135,
    "recovered": 31,
    "sick": 97
  },
  {
    "longitude": 7.309,
    "name": "Rheinland-Pfalz",
    "country": "DE",
    "lastUpdated": "2020-04-05T18:46:03.737Z",
    "dead": 36,
    "id": "jKn2pIFlIBScjb47GjRX",
    "infected": 3988,
    "recovered": 849,
    "latitude": 50.1183,
    "pop": 4074000,
    "sick": 3103
  },
  {
    "longitude": 117.361649,
    "name": "Tianjin",
    "country": "CN",
    "lastUpdated": "2020-04-05T18:14:10.598Z",
    "dead": 3,
    "id": "jMlHjIOb7eMPSxFBrmG1",
    "infected": 180,
    "recovered": 144,
    "latitude": 39.343357,
    "pop": 15000000,
    "sick": 33
  },
  {
    "latitude": 17.1898766,
    "pop": 397000,
    "longitude": -88.4976501,
    "name": "Belize",
    "country": "BZ",
    "lastUpdated": "2020-04-05T18:45:08.970Z",
    "dead": 0,
    "id": "jOc8JUDWxCmquh49oZxV",
    "infected": 5,
    "recovered": 0,
    "sick": 5
  },
  {
    "longitude": -72.5778,
    "name": "Vermont",
    "country": "US",
    "lastUpdated": "2020-04-05T18:33:16.850Z",
    "dead": 22,
    "id": "jPC0eOG50FWknCDe3K6P",
    "infected": 512,
    "recovered": 0,
    "latitude": 44.5588,
    "pop": 629299,
    "sick": 490
  },
  {
    "infected": 4994,
    "recovered": 25,
    "latitude": 53.3498,
    "pop": 4830000,
    "longitude": -6.2603,
    "name": "Ireland",
    "country": "IE",
    "lastUpdated": "2020-04-05T18:45:09.250Z",
    "dead": 158,
    "id": "jpVXEDCyfyq26gPoCtHL",
    "sick": 4811
  },
  {
    "lastUpdated": "2020-04-05T18:45:02.169Z",
    "dead": 0,
    "id": "k73gNv36u1SmziUF6mUw",
    "infected": 6,
    "recovered": 0,
    "latitude": 64.2823,
    "pop": 35874,
    "longitude": -135,
    "name": "Yukon",
    "country": "CA",
    "sick": 6
  },
  {
    "longitude": 9.283447,
    "name": "Sardegna",
    "country": "IT",
    "lastUpdated": "2020-04-05T18:34:02.736Z",
    "dead": 43,
    "id": "kF99avagXvBfZTHv9ETi",
    "infected": 907,
    "recovered": 49,
    "latitude": 40.078072,
    "pop": 1648000,
    "sick": 815
  },
  {
    "lastUpdated": "2020-04-05T18:45:08.988Z",
    "dead": 0,
    "id": "l4nYeaqwy2yrEVqnijFj",
    "infected": 59,
    "recovered": 9,
    "latitude": 11.572076,
    "pop": 956985,
    "longitude": 43.145645,
    "name": "Djibouti",
    "country": "DJ",
    "sick": 50
  },
  {
    "latitude": 44.0682,
    "pop": 1754000,
    "longitude": -114.742,
    "name": "Idaho",
    "country": "US",
    "lastUpdated": "2020-04-05T18:33:16.793Z",
    "dead": 10,
    "id": "l7fHSKOmcaRX3tq9FCT6",
    "infected": 1078,
    "recovered": 0,
    "sick": 1068
  },
  {
    "latitude": 40.816666,
    "pop": 4048000,
    "longitude": 16.549999,
    "name": "Puglia",
    "country": "IT",
    "lastUpdated": "2020-04-05T18:34:02.534Z",
    "dead": 182,
    "id": "lAKH5Wfg4GhaM54VElFN",
    "infected": 2317,
    "recovered": 113,
    "sick": 2022
  },
  {
    "infected": 104,
    "recovered": 1,
    "latitude": 10.6918,
    "pop": 1369000,
    "longitude": -61.2225,
    "name": "Trinidad and Tobago",
    "country": "TT",
    "lastUpdated": "2020-04-05T18:45:08.488Z",
    "dead": 7,
    "id": "lfLdfRP7hyiA6MVnQqqn",
    "sick": 96
  },
  {
    "infected": 7,
    "recovered": 0,
    "latitude": 16.5388,
    "pop": 546388,
    "longitude": -23.0418,
    "name": "Cape Verde",
    "country": "CV",
    "lastUpdated": "2020-04-05T18:45:08.989Z",
    "dead": 1,
    "id": "lgqPuia1S3ApA5Lsl2la",
    "sick": 6
  },
  {
    "longitude": 87.539589,
    "name": "Xinjiang",
    "country": "CN",
    "lastUpdated": "2020-04-05T18:14:10.754Z",
    "dead": 3,
    "id": "lhPjpn6CzqTRDN0RW8uE",
    "infected": 76,
    "recovered": 73,
    "latitude": 42.524635,
    "pop": 21810000,
    "sick": 0
  },
  {
    "recovered": 13,
    "latitude": 3.2028,
    "pop": 436330,
    "longitude": 73.2207,
    "name": "Maldives",
    "country": "MV",
    "lastUpdated": "2020-04-05T18:45:08.930Z",
    "dead": 0,
    "id": "m45gI2UbWMuTrOnTtp9k",
    "infected": 19,
    "sick": 6
  },
  {
    "infected": 7,
    "recovered": 0,
    "latitude": 41.9029,
    "pop": 1000,
    "longitude": 12.4534,
    "name": "Vatican City",
    "country": "VA",
    "lastUpdated": "2020-04-05T18:45:08.985Z",
    "dead": 0,
    "id": "mF7rVMdVnazAuw8G22xs",
    "sick": 7
  },
  {
    "infected": 748,
    "recovered": 56,
    "latitude": 19.7515,
    "pop": 114200000,
    "longitude": 75.7139,
    "name": "Maharashtra",
    "country": "IN",
    "lastUpdated": "2020-04-05T18:40:01.738Z",
    "dead": 45,
    "id": "mJtdLs4ub6CkcAOeMWUm",
    "sick": 647
  },
  {
    "lastUpdated": "2020-04-05T18:45:09.185Z",
    "dead": 34,
    "id": "mSACWVbCy5QE7ciLA93J",
    "infected": 4471,
    "recovered": 618,
    "latitude": -33.4489,
    "pop": 18050000,
    "longitude": -70.6693,
    "name": "Chile",
    "country": "CL",
    "sick": 3819
  },
  {
    "latitude": -6.369,
    "pop": 57310000,
    "longitude": 34.8888,
    "name": "Tanzania",
    "country": "TZ",
    "lastUpdated": "2020-04-05T18:45:08.565Z",
    "dead": 1,
    "id": "mnew3ojzmWV0dWSPfCQ9",
    "infected": 20,
    "recovered": 3,
    "sick": 16
  },
  {
    "recovered": 0,
    "latitude": 15.1794,
    "pop": 4475000,
    "longitude": 39.7823,
    "name": "Eritrea",
    "country": "ER",
    "lastUpdated": "2020-04-05T18:45:08.553Z",
    "dead": 0,
    "id": "n6OSwOVBdUie3xeZJmOf",
    "infected": 29,
    "sick": 29
  },
  {
    "infected": 3387,
    "recovered": 0,
    "latitude": 35.693323,
    "pop": 6770000,
    "longitude": -86.605748,
    "name": "Tennessee",
    "country": "US",
    "lastUpdated": "2020-04-05T18:33:16.753Z",
    "dead": 53,
    "id": "nLhJXE2apq8yNNj363ai",
    "sick": 3334
  },
  {
    "recovered": 0,
    "latitude": 19.8562698,
    "pop": 7247000,
    "longitude": 102.4954987,
    "name": "Laos",
    "country": "LA",
    "lastUpdated": "2020-04-05T18:45:09.005Z",
    "dead": 0,
    "id": "nZzFt6liil98URpNfQyX",
    "infected": 11,
    "sick": 11
  },
  {
    "infected": 10,
    "recovered": 0,
    "latitude": -4.6796,
    "pop": 95843,
    "longitude": 55.492,
    "name": "Seychelles",
    "country": "SC",
    "lastUpdated": "2020-04-05T18:45:08.505Z",
    "dead": 0,
    "id": "oB5fSyjWJ0FbNAkssuci",
    "sick": 10
  },
  {
    "recovered": 71,
    "latitude": 31.893778,
    "pop": 35740000,
    "longitude": -6.196132,
    "name": "Morocco",
    "country": "MA",
    "lastUpdated": "2020-04-05T18:45:09.290Z",
    "dead": 69,
    "id": "oJ5vSDE9vgXC2PG8LElp",
    "infected": 990,
    "sick": 850
  },
  {
    "recovered": 1153,
    "latitude": 50.4801,
    "pop": 5978000,
    "longitude": 2.7937,
    "name": "Hauts-de-France",
    "country": "FR",
    "lastUpdated": "2020-04-05T18:22:24.313Z",
    "dead": 520,
    "id": "ofWLu9EuQoK2nHjwU1mA",
    "infected": 5224,
    "sick": 3551
  },
  {
    "recovered": 1,
    "latitude": 31.1048,
    "pop": 6856000,
    "longitude": 77.1734,
    "name": "Himachal Pradesh",
    "country": "IN",
    "lastUpdated": "2020-04-05T18:40:01.691Z",
    "dead": 2,
    "id": "oqLEd2Z9P3FJeQsfIk8e",
    "infected": 13,
    "sick": 10
  },
  {
    "id": "oxz2l1rJipCsfMfy8Mmk",
    "infected": 907,
    "recovered": 8,
    "latitude": -20.917574,
    "pop": 5071000,
    "longitude": 142.702789,
    "name": "Queensland",
    "country": "AU",
    "lastUpdated": "2020-04-05T18:42:03.925Z",
    "dead": 2,
    "sick": 897
  },
  {
    "infected": 504,
    "recovered": 469,
    "latitude": 47.121647,
    "pop": 38310000,
    "longitude": 128.738235,
    "name": "Heilongjiang",
    "country": "CN",
    "lastUpdated": "2020-04-05T18:14:10.628Z",
    "dead": 13,
    "id": "p1aZboN4BtRJe7hPl8cw",
    "sick": 22
  },
  {
    "longitude": 117.252747,
    "name": "Anhui",
    "country": "CN",
    "lastUpdated": "2020-04-05T18:14:10.606Z",
    "dead": 6,
    "id": "pFhBwPnGGpQ6DLppJ6YS",
    "infected": 990,
    "recovered": 984,
    "latitude": 32.026379,
    "pop": 62000000,
    "sick": 0
  },
  {
    "recovered": 1,
    "latitude": 2.046934,
    "pop": 14740000,
    "longitude": 45.318161,
    "name": "Somalia",
    "country": "SO",
    "lastUpdated": "2020-04-05T18:45:08.981Z",
    "dead": 0,
    "id": "pHrUAOBW5WDdMsVWpEEi",
    "infected": 7,
    "sick": 6
  },
  {
    "infected": 10,
    "recovered": 8,
    "latitude": 21.2787,
    "pop": 25550000,
    "longitude": 81.8661,
    "name": "Chhattisgarh",
    "country": "IN",
    "lastUpdated": "2020-04-05T18:40:01.658Z",
    "dead": 0,
    "id": "pu6AXEsDnpmmqnhajobN",
    "sick": 2
  },
  {
    "longitude": -77.0369,
    "name": "Washington, D.C.",
    "country": "US",
    "lastUpdated": "2020-04-05T18:33:16.837Z",
    "dead": 22,
    "id": "q5cfvHprVTraL1yXnhDx",
    "infected": 998,
    "recovered": 0,
    "latitude": 38.9072,
    "pop": 633427,
    "sick": 976
  },
  {
    "dead": 0,
    "lastUpdated": "2020-03-30T14:58:07.823Z",
    "id": "qAbgEfrtA8NbQkzMFkEk",
    "infected": 0,
    "recovered": 573,
    "latitude": 56.1304,
    "longitude": -106.3468,
    "name": "Unknown Canadian province",
    "country": "CA",
    "sick": 0
  },
  {
    "id": "qnQ0dkxAxnDP01YpdZgk",
    "infected": 453,
    "recovered": 1,
    "latitude": -26.190439,
    "pop": 2589000,
    "longitude": 123.325947,
    "name": "Western Australia",
    "country": "AU",
    "lastUpdated": "2020-04-05T18:42:03.917Z",
    "dead": 2,
    "sick": 450
  },
  {
    "infected": 19691,
    "recovered": 3751,
    "latitude": 50.503887,
    "pop": 11400000,
    "longitude": 4.469936,
    "name": "Belgium",
    "country": "BE",
    "lastUpdated": "2020-04-05T18:45:09.194Z",
    "dead": 1447,
    "id": "qpAxVz0garcS0gNZxtOw",
    "sick": 14493
  },
  {
    "latitude": 39,
    "pop": 1806000,
    "longitude": -80.5,
    "name": "West Virginia",
    "country": "US",
    "lastUpdated": "2020-04-05T18:33:16.803Z",
    "dead": 3,
    "id": "qrYN2o4c4gAK3ffF5JIw",
    "infected": 324,
    "recovered": 0,
    "sick": 321
  },
  {
    "latitude": 31,
    "pop": 28700000,
    "longitude": -100,
    "name": "Texas",
    "country": "US",
    "lastUpdated": "2020-04-05T17:18:15.525Z",
    "dead": 123,
    "id": "qsrWiq0qCmIG66hpWojP",
    "infected": 6872,
    "recovered": 0,
    "sick": 6749
  },
  {
    "longitude": 6.0679,
    "name": "Provence-Alpes-Côte d'Azur",
    "country": "FR",
    "lastUpdated": "2020-04-05T18:24:00.874Z",
    "dead": 195,
    "id": "qyX9xXEuKg3co8yKe3Fl",
    "infected": 4437,
    "recovered": 1304,
    "latitude": 43.9352,
    "pop": 5059000,
    "sick": 2938
  },
  {
    "latitude": 30.9843,
    "pop": 4660000,
    "longitude": -91.9623,
    "name": "Louisiana",
    "country": "US",
    "lastUpdated": "2020-04-05T18:33:16.863Z",
    "dead": 477,
    "id": "qzuktS0qQVU4PEookjss",
    "infected": 13010,
    "recovered": 0,
    "sick": 12533
  },
  {
    "lastUpdated": "2020-04-05T18:40:01.747Z",
    "dead": 0,
    "id": "r54PtV0VHsIOc0YPTyhd",
    "infected": 1,
    "recovered": 0,
    "latitude": 23.1645,
    "pop": 1116000,
    "longitude": 92.9376,
    "name": "Mizoram",
    "country": "IN",
    "sick": 1
  },
  {
    "longitude": -69.9683,
    "name": "Aruba",
    "country": "AW",
    "lastUpdated": "2020-04-05T18:45:09.002Z",
    "dead": 0,
    "id": "rKbrli0DkAmp1UpbrqHQ",
    "infected": 64,
    "recovered": 1,
    "latitude": 12.5211,
    "pop": 105264,
    "sick": 63
  },
  {
    "infected": 241,
    "recovered": 90,
    "latitude": 14.058324,
    "pop": 95540000,
    "longitude": 108.277199,
    "name": "Vietnam",
    "country": "VN",
    "lastUpdated": "2020-04-05T18:45:09.284Z",
    "dead": 0,
    "id": "rKnSEyG03ak4YmGzonlg",
    "sick": 151
  },
  {
    "latitude": 1.6508009,
    "pop": 1268000,
    "longitude": 10.2678947,
    "name": "Equatorial Guinea",
    "country": "GQ",
    "lastUpdated": "2020-04-05T18:45:08.934Z",
    "dead": 0,
    "id": "rS04qvFoAknfeZsL2w5f",
    "infected": 16,
    "recovered": 1,
    "sick": 15
  },
  {
    "infected": 147,
    "recovered": 14,
    "latitude": -12.8275,
    "pop": 270372,
    "longitude": 45.1662,
    "name": "Mayotte",
    "country": "FR",
    "lastUpdated": "2020-04-05T18:28:19.804Z",
    "dead": 2,
    "id": "rUQ6Z3pmWTPVlqEUSmN7",
    "sick": 131
  },
  {
    "latitude": 29.159849,
    "pop": 57370000,
    "longitude": 120.326447,
    "name": "Zhejiang",
    "country": "CN",
    "lastUpdated": "2020-04-05T18:14:10.680Z",
    "dead": 1,
    "id": "rgBVJ4hPofqjjchnroiY",
    "infected": 1263,
    "recovered": 1230,
    "sick": 32
  },
  {
    "recovered": 115,
    "latitude": 45.734955,
    "pop": 126202,
    "longitude": 7.313076,
    "name": "Valle d'Aosta",
    "country": "IT",
    "lastUpdated": "2020-04-05T18:34:02.635Z",
    "dead": 91,
    "id": "rqbHQdev461heM0vyE9L",
    "infected": 782,
    "sick": 576
  },
  {
    "id": "rxSafpWsyKhfkV0HTtb4",
    "infected": 5687,
    "recovered": 32,
    "latitude": 60.472023,
    "pop": 5368000,
    "longitude": 8.468946,
    "name": "Norway",
    "country": "NO",
    "lastUpdated": "2020-04-05T18:45:09.266Z",
    "dead": 71,
    "sick": 5584
  },
  {
    "id": "sBFMOzZJdrdXdyLZpweO",
    "infected": 1181,
    "recovered": 0,
    "latitude": 53.9333,
    "pop": 4371000,
    "longitude": -116.5765,
    "name": "Alberta",
    "country": "CA",
    "lastUpdated": "2020-04-05T18:45:02.171Z",
    "dead": 20,
    "sick": 1161
  },
  {
    "infected": 168,
    "recovered": 162,
    "latitude": 19.566395,
    "pop": 9258000,
    "longitude": 109.949684,
    "name": "Hainan",
    "country": "CN",
    "lastUpdated": "2020-04-05T18:14:10.646Z",
    "dead": 6,
    "id": "sKNhMvgXeyivpNFg02RA",
    "sick": 0
  },
  {
    "recovered": 989,
    "latitude": -10.33755,
    "pop": 32170000,
    "longitude": -75.630295,
    "name": "Peru",
    "country": "PE",
    "lastUpdated": "2020-04-05T18:45:09.214Z",
    "dead": 83,
    "id": "sLL1jETcJYjT6g5bfcEG",
    "infected": 2281,
    "sick": 1209
  },
  {
    "latitude": 37.89566,
    "pop": 74700000,
    "longitude": 114.904221,
    "name": "Hebei",
    "country": "CN",
    "lastUpdated": "2020-04-05T18:14:10.743Z",
    "dead": 6,
    "id": "sgsBhTwHxF1VVnqXbXXp",
    "infected": 327,
    "recovered": 310,
    "sick": 11
  },
  {
    "infected": 174,
    "recovered": 36,
    "latitude": 42.3154,
    "pop": 3717000,
    "longitude": 43.3569,
    "name": "Georgia",
    "country": "GE",
    "lastUpdated": "2020-04-05T18:45:08.525Z",
    "dead": 2,
    "id": "sjW9OwjFqrOvjVHRXWoR",
    "sick": 136
  },
  {
    "id": "t2fq7L9UcXfhuXfQNVRj",
    "infected": 104,
    "recovered": 12,
    "latitude": -23.4425,
    "pop": 6811000,
    "longitude": -58.4438,
    "name": "Paraguay",
    "country": "PY",
    "lastUpdated": "2020-04-05T18:45:08.998Z",
    "dead": 3,
    "sick": 89
  },
  {
    "lastUpdated": "2020-04-05T18:33:16.848Z",
    "dead": 8,
    "id": "tSmr8vNsiDhhpXMSBsms",
    "infected": 1429,
    "recovered": 0,
    "latitude": 39.147061,
    "pop": 3161000,
    "longitude": -111.596466,
    "name": "Utah",
    "country": "US",
    "sick": 1421
  },
  {
    "latitude": 27.3818,
    "pop": 67370000,
    "longitude": 111.510681,
    "name": "Hunan",
    "country": "CN",
    "lastUpdated": "2020-04-05T18:14:10.748Z",
    "dead": 4,
    "id": "tdNRDDrgvBQqqwzdFGh4",
    "infected": 1019,
    "recovered": 1014,
    "sick": 1
  },
  {
    "infected": 147,
    "recovered": 144,
    "latitude": 26.842964,
    "pop": 34750000,
    "longitude": 107.290283,
    "name": "Guizhou",
    "country": "CN",
    "lastUpdated": "2020-04-05T18:14:10.657Z",
    "dead": 2,
    "id": "tyY4QSHWG9sXqSO9jm0Y",
    "sick": 1
  },
  {
    "lastUpdated": "2020-04-05T18:45:09.360Z",
    "dead": 7,
    "id": "uZg9Xtu4zR5tp12TMpOQ",
    "infected": 227,
    "recovered": 7,
    "latitude": -20.2067,
    "pop": 1265000,
    "longitude": 57.6755,
    "name": "Mauritius",
    "country": "MU",
    "sick": 213
  },
  {
    "latitude": 29.0588,
    "pop": 25350000,
    "longitude": 76.0856,
    "name": "Haryana",
    "country": "IN",
    "lastUpdated": "2020-04-05T18:40:01.669Z",
    "dead": 0,
    "id": "ubUuY89n0cXVgahI4Ytp",
    "infected": 90,
    "recovered": 29,
    "sick": 61
  },
  {
    "infected": 224,
    "recovered": 24,
    "latitude": 41.6667,
    "pop": 308493,
    "longitude": 14.5,
    "name": "Molise",
    "country": "IT",
    "lastUpdated": "2020-04-05T18:34:02.927Z",
    "dead": 13,
    "id": "ueDdQxnY3NvbnoCcPaDH",
    "sick": 187
  },
  {
    "latitude": 32.93708,
    "pop": 80400000,
    "longitude": 119.151932,
    "name": "Jiangsu",
    "country": "CN",
    "lastUpdated": "2020-04-05T18:14:10.746Z",
    "dead": 0,
    "id": "uvxN28EpGmRq3K9REtBP",
    "infected": 651,
    "recovered": 633,
    "sick": 18
  },
  {
    "latitude": 51.9503,
    "pop": 2277000,
    "longitude": 11.6923,
    "name": "Sachsen-Anhalt",
    "country": "DE",
    "lastUpdated": "2020-04-05T18:46:03.837Z",
    "dead": 12,
    "id": "uxAceZxiizwmo60pyyGn",
    "infected": 975,
    "recovered": 141,
    "sick": 822
  },
  {
    "id": "v5wfBhxjYTpTMaKko6AW",
    "infected": 106,
    "recovered": 4,
    "latitude": 33.7782,
    "pop": 12550000,
    "longitude": 76.5762,
    "name": "Jammu and Kashmir",
    "country": "IN",
    "lastUpdated": "2020-04-05T18:40:01.694Z",
    "dead": 2,
    "sick": 100
  },
  {
    "lastUpdated": "2020-04-05T18:45:09.228Z",
    "dead": 78,
    "id": "v8JcH4FHH7BDpJlNNHjv",
    "infected": 1173,
    "recovered": 247,
    "latitude": 26.820553,
    "pop": 97550000,
    "longitude": 30.802498,
    "name": "Egypt",
    "country": "EG",
    "sick": 848
  },
  {
    "infected": 7641,
    "recovered": 0,
    "latitude": 47.288374,
    "pop": 7536000,
    "longitude": -119.928431,
    "name": "Washington",
    "country": "US",
    "lastUpdated": "2020-04-05T18:33:16.788Z",
    "dead": 318,
    "id": "vCUVQn7RK8pkw5y2rvYN",
    "sick": 7323
  },
  {
    "latitude": 18.1096,
    "pop": 2890000,
    "longitude": -77.2975,
    "name": "Jamaica",
    "country": "JM",
    "lastUpdated": "2020-04-05T18:45:08.559Z",
    "dead": 3,
    "id": "vMGALmMJbagxGIbLyFfS",
    "infected": 55,
    "recovered": 7,
    "sick": 45
  },