[
  {
    "infected": 6,
    "recovered": 3,
    "latitude": 12.5847,
    "pop": 72600,
    "longitude": -81.7006,
    "name": "San Andrés",
    "country": "CO",
    "lastUpdated": "2020-05-02T16:18:09.654Z",
    "dead": 0,
    "id": "01b09TY4vmuZwzVuiRFK",
    "sick": 3,
    "invisible": false
  },
  {
    "latitude": 49.4482,
    "pop": 67052,
    "longitude": -2.5895,
    "name": "Guernsey",
    "country": "GG",
    "lastUpdated": "2020-05-02T16:10:13.454Z",
    "dead": 13,
    "id": "0FOJefeLxQYXQ1CnJm9o",
    "infected": 252,
    "recovered": 217,
    "sick": 22,
    "invisible": false
  },
  {
    "recovered": 1332,
    "latitude": 41.066666,
    "pop": 5827000,
    "longitude": 14.333333,
    "name": "Campania",
    "country": "IT",
    "lastUpdated": "2020-05-02T16:01:01.703Z",
    "dead": 359,
    "id": "0GJcws44NSPsDHAuxJhW",
    "infected": 4444,
    "sick": 2753,
    "invisible": false
  },
  {
    "recovered": 0,
    "latitude": -20.2167,
    "pop": 383870,
    "longitude": -70.14222,
    "name": "Tarapacá",
    "country": "CL",
    "lastUpdated": "2020-05-02T16:11:10.842Z",
    "dead": 1,
    "id": "0HDQbiHe462xMCUV5HiI",
    "infected": 200,
    "sick": 199,
    "invisible": false
  },
  {
    "latitude": 20.9517,
    "pop": 45990000,
    "longitude": 85.0985,
    "name": "Odisha",
    "country": "IN",
    "lastUpdated": "2020-05-02T16:11:01.076Z",
    "dead": 1,
    "id": "0VG7S6aaK4eSo59fL9JO",
    "infected": 157,
    "recovered": 56,
    "sick": 100,
    "invisible": false
  },
  {
    "id": "0XmCRqiK2ZaehoEJvfer",
    "infected": 282,
    "recovered": 0,
    "latitude": 20.4737,
    "pop": 2990300,
    "longitude": -98.8582,
    "name": "Hidalgo",
    "country": "MX",
    "lastUpdated": "2020-05-02T16:01:10.648Z",
    "dead": 30,
    "sick": 252,
    "invisible": false
  },
  {
    "latitude": 11.7401,
    "pop": 427246,
    "longitude": 92.6586,
    "name": "Andaman and Nicobar Islands",
    "country": "IN",
    "lastUpdated": "2020-05-02T16:11:01.079Z",
    "dead": 0,
    "id": "0jStOpTUNRaQYJqgmRoK",
    "infected": 33,
    "recovered": 17,
    "sick": 16,
    "invisible": false
  },
  {
    "recovered": 1534,
    "latitude": 25.315058,
    "pop": 2639000,
    "longitude": 51.145517,
    "name": "Qatar",
    "country": "QA",
    "lastUpdated": "2020-05-02T16:25:03.031Z",
    "dead": 12,
    "id": "0m4aECS0Z2DGFEr8ldgI",
    "infected": 14872,
    "sick": 13326,
    "invisible": false
  },
  {
    "infected": 795,
    "recovered": 139,
    "latitude": 22.9868,
    "pop": 90320000,
    "longitude": 87.855,
    "name": "West Bengal",
    "country": "IN",
    "lastUpdated": "2020-05-02T16:11:01.075Z",
    "dead": 48,
    "id": "0n54EMSDJcRoT1QEvw80",
    "sick": 608,
    "invisible": false
  },
  {
    "infected": 2788,
    "recovered": 624,
    "latitude": 22.9734,
    "pop": 73340000,
    "longitude": 78.6569,
    "name": "Madhya Pradesh",
    "country": "IN",
    "lastUpdated": "2020-05-02T16:11:01.074Z",
    "dead": 151,
    "id": "0s18o5DrDAHjbu5MFcrj",
    "sick": 2013,
    "invisible": false
  },
  {
    "invisible": true,
    "infected": 0,
    "recovered": 161957,
    "latitude": 37.0902,
    "longitude": -95.7129,
    "name": "Unknown US state",
    "country": "US",
    "lastUpdated": "2020-05-02T16:25:03.028Z",
    "dead": 0,
    "id": "0tFoopNTs6e4tOoaltu2",
    "sick": 0
  },
  {
    "latitude": 35.64249,
    "pop": 37330000,
    "longitude": 108.472214,
    "name": "Shaanxi",
    "country": "CN",
    "lastUpdated": "2020-05-02T16:23:10.939Z",
    "dead": 3,
    "id": "0x2HLhr5z5xAtEdO4iZm",
    "infected": 306,
    "recovered": 255,
    "sick": 48,
    "invisible": false
  },
  {
    "id": "19MvIhipqTyYv1H37Upw",
    "infected": 1506,
    "recovered": 852,
    "latitude": 41.643351,
    "pop": 2077000,
    "longitude": 21.668393,
    "name": "North Macedonia",
    "country": "MK",
    "lastUpdated": "2020-05-02T16:25:03.039Z",
    "dead": 82,
    "sick": 572,
    "invisible": false
  },
  {
    "latitude": 53.1355,
    "pop": 521542,
    "longitude": -57.6604,
    "name": "Newfoundland and Labrador",
    "country": "CA",
    "lastUpdated": "2020-05-02T16:06:08.384Z",
    "dead": 3,
    "id": "1DOMOmCWDtva46OVSZLv",
    "infected": 259,
    "recovered": 0,
    "sick": 256,
    "invisible": false
  },
  {
    "id": "1Fap7rZu9SIRqf5TG9Dg",
    "infected": 18,
    "recovered": 18,
    "latitude": 35.801933,
    "pop": 5627000,
    "longitude": 96.779286,
    "name": "Qinghai",
    "country": "CN",
    "lastUpdated": "2020-05-02T16:23:10.942Z",
    "dead": 0,
    "sick": 0,
    "invisible": false
  },
  {
    "latitude": 23.6345,
    "pop": 126200000,
    "longitude": -102.5528,
    "name": "Unknown Mexico state",
    "country": "MX",
    "lastUpdated": "2020-05-02T16:25:03.030Z",
    "dead": 0,
    "id": "1YXQMlVL3fUeDZmcVfJw",
    "invisible": true,
    "infected": 0,
    "recovered": 12377,
    "sick": 0
  },
  {
    "id": "1eTSQyfp8RoDPeFrIwun",
    "infected": 26684,
    "recovered": 8025,
    "latitude": 44.9,
    "pop": 4376000,
    "longitude": 8.206944,
    "name": "Piemonte",
    "country": "IT",
    "lastUpdated": "2020-05-02T16:01:01.705Z",
    "dead": 3097,
    "sick": 15562,
    "invisible": false
  },
  {
    "recovered": 0,
    "latitude": 51.993,
    "pop": 1003000,
    "longitude": 15.461,
    "name": "Lubuskie",
    "country": "PL",
    "lastUpdated": "2020-05-02T16:03:01.542Z",
    "dead": 0,
    "id": "1j1OurxLTpZYuWIWwQ9F",
    "infected": 87,
    "sick": 87,
    "invisible": false
  },
  {
    "recovered": 1334,
    "latitude": 47.4116,
    "pop": 3550000,
    "longitude": 28.3699,
    "name": "Moldova",
    "country": "MD",
    "lastUpdated": "2020-05-02T16:25:03.037Z",
    "dead": 124,
    "id": "1qTPB8X3tyLyIdsb5TN3",
    "infected": 4052,
    "sick": 2594,
    "invisible": false
  },
  {
    "longitude": -95.7129,
    "name": "Federal Bureau of Prisons",
    "country": "US",
    "lastUpdated": "2020-05-02T16:09:06.244Z",
    "dead": 36,
    "id": "22PJOAThcDFKgSbyQIkD",
    "invisible": true,
    "infected": 2185,
    "recovered": 0,
    "latitude": 37.0902,
    "sick": 2149
  },
  {
    "longitude": 88.787865,
    "name": "Tibet",
    "country": "CN",
    "lastUpdated": "2020-05-02T16:23:10.942Z",
    "dead": 0,
    "id": "25qIBtsW2nfQj3pwBKg9",
    "infected": 1,
    "recovered": 1,
    "latitude": 30.15336,
    "pop": 3180000,
    "sick": 0,
    "invisible": false
  },
  {
    "longitude": 115.66779,
    "name": "Indonesia",
    "country": "ID",
    "lastUpdated": "2020-05-02T16:25:03.032Z",
    "dead": 831,
    "id": "2KHYUb5t3lwzVVmDjwNX",
    "infected": 10843,
    "recovered": 1665,
    "latitude": -1.572184,
    "pop": 264000000,
    "sick": 8347,
    "invisible": false
  },
  {
    "infected": 2579,
    "recovered": 0,
    "latitude": 43.807191,
    "pop": 4191000,
    "longitude": -120.585594,
    "name": "Oregon",
    "country": "US",
    "lastUpdated": "2020-05-02T16:09:06.242Z",
    "dead": 104,
    "id": "2OrsssmGUs4XCzaZzvTv",
    "sick": 2475,
    "invisible": false
  },
  {
    "recovered": 0,
    "latitude": -23.65,
    "pop": 425000,
    "longitude": -70.400002,
    "name": "Antofagasta",
    "country": "CL",
    "lastUpdated": "2020-05-02T16:11:10.842Z",
    "dead": 7,
    "id": "2c5HBZ1ffkCVXnMYUWnY",
    "infected": 589,
    "sick": 582,
    "invisible": false
  },
  {
    "recovered": 0,
    "latitude": 0.035574,
    "pop": 9029000,
    "longitude": -51.070534,
    "name": "Amapá",
    "country": "BR",
    "lastUpdated": "2020-05-02T16:11:09.025Z",
    "dead": 37,
    "id": "2dzhyWsBSPpENWlNew0b",
    "infected": 1121,
    "sick": 1084,
    "invisible": false
  },
  {
    "lastUpdated": "2020-05-02T16:23:10.940Z",
    "dead": 1,
    "id": "2jxHvSsxdnom0nPNvOT8",
    "infected": 112,
    "recovered": 102,
    "latitude": 43.851921,
    "pop": 27460000,
    "longitude": 126.548103,
    "name": "Jilin",
    "country": "CN",
    "sick": 9,
    "invisible": false
  },
  {
    "id": "2p11BjSAs3wVyymgqBOe",
    "infected": 144,
    "recovered": 131,
    "latitude": 36.1408,
    "pop": 34571,
    "longitude": -5.3536,
    "name": "Gibraltar",
    "country": "GI",
    "lastUpdated": "2020-05-02T16:25:03.050Z",
    "dead": 0,
    "sick": 13,
    "invisible": false
  },
  {
    "id": "2sLNkkHpyaHx7dD3aMDO",
    "infected": 3671,
    "recovered": 1221,
    "latitude": 47.7516,
    "pop": 2567000,
    "longitude": 1.6751,
    "name": "Centre-Val de Loire",
    "country": "FR",
    "lastUpdated": "2020-05-01T22:55:40.856Z",
    "dead": 395,
    "sick": 2055,
    "invisible": false
  },
  {
    "lastUpdated": "2020-05-02T16:01:01.707Z",
    "dead": 68,
    "id": "319tiZOMczx1y0DfvOib",
    "infected": 1393,
    "recovered": 1121,
    "latitude": 42.565044,
    "pop": 884640,
    "longitude": 12.643751,
    "name": "Umbria",
    "country": "IT",
    "sick": 204,
    "invisible": false
  },
  {
    "recovered": 12,
    "latitude": 2.43823,
    "pop": 1355000,
    "longitude": -76.6131592,
    "name": "Cauca",
    "country": "CO",
    "lastUpdated": "2020-05-02T16:18:09.654Z",
    "dead": 4,
    "id": "38T96Q3XNjt5FSJygPed",
    "infected": 35,
    "sick": 19,
    "invisible": false
  },
  {
    "lastUpdated": "2020-05-02T16:25:03.051Z",
    "dead": 3,
    "id": "3IlPjAbP5qVMn1nlgLTJ",
    "infected": 119,
    "recovered": 75,
    "latitude": -13.133896,
    "pop": 17090000,
    "longitude": 27.849332,
    "name": "Zambia",
    "country": "ZM",
    "sick": 41,
    "invisible": false
  },
  {
    "latitude": 42.7044,
    "pop": 631219,
    "longitude": 19.3958,
    "name": "Montenegro",
    "country": "ME",
    "lastUpdated": "2020-05-02T16:25:03.048Z",
    "dead": 7,
    "id": "3LstMSN5XMYBkxbe5HN7",
    "infected": 322,
    "recovered": 240,
    "sick": 75,
    "invisible": false
  },
  {
    "infected": 106,
    "recovered": 103,
    "latitude": -35.4735,
    "pop": 418440,
    "longitude": 149.0124,
    "name": "Australian Capital Territory",
    "country": "AU",
    "lastUpdated": "2020-05-02T16:06:08.384Z",
    "dead": 3,
    "id": "3OZoQsKrzxZ18EKyfGE6",
    "sick": 0,
    "invisible": false
  },
  {
    "longitude": 92.9376,
    "name": "Assam",
    "country": "IN",
    "lastUpdated": "2020-05-02T16:11:01.079Z",
    "dead": 1,
    "id": "3cCbnJCsK7mKlTO08K1o",
    "infected": 43,
    "recovered": 33,
    "latitude": 26.2006,
    "pop": 30940000,
    "sick": 9,
    "invisible": false
  },
  {
    "recovered": 0,
    "latitude": 40.4173,
    "pop": 11690000,
    "longitude": -82.9071,
    "name": "Ohio",
    "country": "US",
    "lastUpdated": "2020-05-02T16:09:06.240Z",
    "dead": 1002,
    "id": "3fC3bAyIRUquOQOEnQNe",
    "infected": 18743,
    "sick": 17741,
    "invisible": false
  },
  {
    "infected": 1008,
    "recovered": 0,
    "latitude": 25,
    "pop": 3066400,
    "longitude": -107.5,
    "name": "Sinaloa",
    "country": "MX",
    "lastUpdated": "2020-05-02T16:01:10.646Z",
    "dead": 159,
    "id": "3kFCzJguabtBvXaHxgiu",
    "sick": 849,
    "invisible": false
  },
  {
    "recovered": 211,
    "latitude": 3.420556,
    "pop": 4708300,
    "longitude": -76.522224,
    "name": "Valle del Cauca",
    "country": "CO",
    "lastUpdated": "2020-05-02T16:18:09.650Z",
    "dead": 58,
    "id": "3mC2LveOpXV8P1PmQGUj",
    "infected": 979,
    "sick": 710,
    "invisible": false
  },
  {
    "latitude": 21.0079,
    "pop": 4420000,
    "longitude": -10.9408,
    "name": "Mauritania",
    "country": "MR",
    "lastUpdated": "2020-05-02T16:25:03.056Z",
    "dead": 1,
    "id": "4NnFMekRK2m14IlnZZoj",
    "infected": 8,
    "recovered": 6,
    "sick": 1,
    "invisible": false
  },
  {
    "latitude": 53.7267,
    "pop": 5071000,
    "longitude": -127.6476,
    "name": "British Columbia",
    "country": "CA",
    "lastUpdated": "2020-05-02T16:06:08.382Z",
    "dead": 112,
    "id": "4hfZRUoUgI4a3vrG0GBk",
    "infected": 2145,
    "recovered": 0,
    "sick": 2033,
    "invisible": false
  },
  {
    "longitude": -43.196388,
    "name": "Rio de Janeiro",
    "country": "BR",
    "lastUpdated": "2020-05-02T16:11:09.032Z",
    "dead": 921,
    "id": "4kq0z3kh5zt3YAUWxvtE",
    "infected": 10166,
    "recovered": 0,
    "latitude": -22.908333,
    "pop": 17159960,
    "sick": 9245,
    "invisible": false
  },
  {
    "recovered": 0,
    "latitude": -11.409874,
    "pop": 14812617,
    "longitude": -41.280857,
    "name": "Bahia",
    "country": "BR",
    "lastUpdated": "2020-05-02T16:11:09.026Z",
    "dead": 117,
    "id": "4yDbkEyqsNzZJjfrciYV",
    "infected": 3085,
    "sick": 2968,
    "invisible": false
  },
  {
    "infected": 1894,
    "recovered": 1411,
    "latitude": 40.3426,
    "pop": 9898000,
    "longitude": 47.93802,
    "name": "Azerbaijan",
    "country": "AZ",
    "lastUpdated": "2020-05-02T16:25:03.038Z",
    "dead": 25,
    "id": "4zqzRm2xHn0CDVOUQJ8p",
    "sick": 458,
    "invisible": false
  },
  {
    "infected": 545,
    "recovered": 0,
    "latitude": 22.233105,
    "pop": 3672300,
    "longitude": -97.861099,
    "name": "Tamaulipas",
    "country": "MX",
    "lastUpdated": "2020-05-02T16:01:10.647Z",
    "dead": 25,
    "id": "54cfsdsRF76XVHWtZs19",
    "sick": 520,
    "invisible": false
  },
  {
    "id": "57ydD48mLRD2YoyteJZj",
    "infected": 27331,
    "recovered": 6846,
    "latitude": 51.0109,
    "pop": 6596000,
    "longitude": 3.7265,
    "name": "Flanders",
    "country": "BE",
    "lastUpdated": "2020-05-02T16:26:05.113Z",
    "dead": 3858,
    "sick": 16627,
    "invisible": false
  },
  {
    "longitude": -78.035889,
    "name": "Bahamas",
    "country": "BS",
    "lastUpdated": "2020-05-02T16:25:03.053Z",
    "dead": 11,
    "id": "5MHegCUO9L3LiAU7DDey",
    "infected": 82,
    "recovered": 24,
    "latitude": 25.025885,
    "pop": 395361,
    "sick": 47,
    "invisible": false
  },
  {
    "infected": 3025,
    "recovered": 2300,
    "latitude": -31.253218,
    "pop": 7544000,
    "longitude": 146.921097,
    "name": "New South Wales",
    "country": "AU",
    "lastUpdated": "2020-05-02T16:06:08.382Z",
    "dead": 41,
    "id": "5N16a2OXXRpsEFanw0TC",
    "sick": 684,
    "invisible": false
  },
  {
    "infected": 45,
    "recovered": 0,
    "latitude": 6.8769908,
    "pop": 12580000,
    "longitude": 31.3069782,
    "name": "South Sudan",
    "country": "SS",
    "lastUpdated": "2020-05-02T16:25:03.054Z",
    "dead": 0,
    "id": "5N4PRxsCDzzwk7R200V1",
    "sick": 45,
    "invisible": false
  },
  {
    "latitude": 39.484,
    "pop": 4975000,
    "longitude": -0.7533,
    "name": "C. Valenciana",
    "country": "ES",
    "lastUpdated": "2020-05-02T16:09:04.665Z",
    "dead": 1258,
    "id": "5Va9A7CXR8AXdUz4HTJj",
    "infected": 12514,
    "recovered": 7287,
    "sick": 3969,
    "invisible": false
  },
  {
    "longitude": 165.618042,
    "name": "New Caledonia",
    "country": "NC",
    "lastUpdated": "2020-05-02T16:25:03.055Z",
    "dead": 0,
    "id": "5fg04eyDwFw3kEXnrxez",
    "infected": 18,
    "recovered": 17,
    "latitude": -20.9043045,
    "pop": 280460,
    "sick": 1,
    "invisible": false
  },
  {
    "lastUpdated": "2020-05-02T16:25:03.054Z",
    "dead": 0,
    "id": "5gXZIjRgAvd6xWN1LOv8",
    "infected": 59,
    "recovered": 16,
    "latitude": 28.394857,
    "pop": 29300000,
    "longitude": 84.124008,
    "name": "Nepal",
    "country": "NP",
    "sick": 43,
    "invisible": false
  },
  {
    "infected": 8928,
    "recovered": 1124,
    "latitude": 12.879721,
    "pop": 104900000,
    "longitude": 121.774017,
    "name": "Philippines",
    "country": "PH",
    "lastUpdated": "2020-05-02T16:25:03.033Z",
    "dead": 603,
    "id": "5pwmh7aSdGRKqRbnuyc0",
    "sick": 7201,
    "invisible": false
  },
  {
    "recovered": 5,
    "latitude": -17.824858,
    "pop": 14802190,
    "longitude": 31.053028,
    "name": "Zimbabwe",
    "country": "ZW",
    "lastUpdated": "2020-05-02T16:25:03.054Z",
    "dead": 4,
    "id": "5qtR9nx4BLwu1ODTniaY",
    "infected": 34,
    "sick": 25,
    "invisible": false
  },
  {
    "infected": 2141,
    "recovered": 0,
    "latitude": 36.0672,
    "pop": 356890,
    "longitude": -109.188,
    "name": "Navajo Nation",
    "country": "US",
    "lastUpdated": "2020-05-02T16:09:06.244Z",
    "dead": 71,
    "id": "5vkKgxTaKq1IH0Go357L",
    "invisible": true,
    "sick": 2070
  },
  {
    "infected": 5548,
    "recovered": 0,
    "latitude": 19.432241,
    "pop": 8781300,
    "longitude": -99.177254,
    "name": "Ciudad de México",
    "country": "MX",
    "lastUpdated": "2020-05-02T16:01:10.647Z",
    "dead": 418,
    "id": "61E7TGjUwAo9xu6Y6gAH",
    "sick": 5130,
    "invisible": false
  },
  {
    "recovered": 632,
    "latitude": 55.621011,
    "pop": 2794000,
    "longitude": 23.804991,
    "name": "Lithuania",
    "country": "LT",
    "lastUpdated": "2020-05-02T16:25:03.039Z",
    "dead": 46,
    "id": "694ON7d0mRJDeM1gHBTR",
    "infected": 1406,
    "sick": 728,
    "invisible": false
  },
  {
    "latitude": 51.1781,
    "pop": 9175000,
    "longitude": -0.5596,
    "name": "South East",
    "country": "GB",
    "lastUpdated": "2020-05-02T16:10:29.578Z",
    "dead": 0,
    "id": "6IQAsvrmBv0HPdeTnh4x",
    "infected": 17095,
    "recovered": 0,
    "sick": 17095,
    "invisible": false
  },
  {
    "infected": 1040,
    "recovered": 864,
    "latitude": 22.396427,
    "pop": 7392000,
    "longitude": 114.109497,
    "name": "Hong Kong",
    "country": "HK",
    "lastUpdated": "2020-05-02T16:25:03.039Z",
    "dead": 4,
    "id": "6IcHIIH0zXpY0POmBZTv",
    "sick": 172,
    "invisible": false
  },
  {
    "infected": 486,
    "recovered": 0,
    "latitude": -8.65,
    "pop": 869265,
    "longitude": -72.4,
    "name": "Acre",
    "country": "BR",
    "lastUpdated": "2020-05-02T16:11:09.017Z",
    "dead": 19,
    "id": "6LQesrx5bHJsVUi1TXBp",
    "sick": 467,
    "invisible": false
  },
  {
    "infected": 90,
    "recovered": 42,
    "latitude": 9.3077,
    "pop": 11180000,
    "longitude": 2.3158,
    "name": "Benin",
    "country": "BJ",
    "lastUpdated": "2020-05-02T16:25:03.052Z",
    "dead": 2,
    "id": "6SlpghTyB6lpMFvx3g9U",
    "sick": 46,
    "invisible": false
  },
  {
    "infected": 76469,
    "recovered": 26136,
    "latitude": 45.6667,
    "pop": 10040000,
    "longitude": 9.5,
    "name": "Lombardia",
    "country": "IT",
    "lastUpdated": "2020-05-02T16:01:01.704Z",
    "dead": 13860,
    "id": "6ZHcvMIzVWIaRnc4R3Qp",
    "sick": 36473,
    "invisible": false
  },
  {
    "lastUpdated": "2020-05-02T16:25:03.039Z",
    "dead": 94,
    "id": "6ahNiyKDSDAftCctgLH3",
    "infected": 1439,
    "recovered": 239,
    "latitude": 46.0569,
    "pop": 2067000,
    "longitude": 14.5058,
    "name": "Slovenia",
    "country": "SI",
    "sick": 1106,
    "invisible": false
  },
  {
    "latitude": -27.3667908,
    "pop": 300000,
    "longitude": -70.331398,
    "name": "Atacama",
    "country": "CL",
    "lastUpdated": "2020-05-02T16:11:10.842Z",
    "dead": 0,
    "id": "6nyns7UGGgkU7pxrHf8i",
    "infected": 43,
    "recovered": 0,
    "sick": 43,
    "invisible": false
  },
  {
    "infected": 276,
    "recovered": 67,
    "latitude": -0.8037,
    "pop": 2025000,
    "longitude": 11.6094,
    "name": "Gabon",
    "country": "GA",
    "lastUpdated": "2020-05-02T16:25:03.049Z",
    "dead": 3,
    "id": "6pBi38TUgYfFm0bry2uh",
    "sick": 206,
    "invisible": false
  },
  {
    "id": "6vjIVg1gSANFZghV7xtS",
    "infected": 124,
    "recovered": 0,
    "latitude": 22.1498,
    "pop": 2831900,
    "longitude": -100.9792,
    "name": "San Luis Potosí",
    "country": "MX",
    "lastUpdated": "2020-05-02T16:01:10.647Z",
    "dead": 9,
    "sick": 115,
    "invisible": false
  },
  {
    "infected": 6,
    "recovered": 6,
    "latitude": 17.901672,
    "pop": 9131,
    "longitude": -62.818544,
    "name": "Saint-Barthélémy",
    "country": "FR",
    "lastUpdated": "2020-05-02T16:25:03.057Z",
    "dead": 0,
    "id": "78Ox26bNHDA2Pk2b3Uwn",
    "sick": 0,
    "invisible": false
  },
  {
    "longitude": 18.633,
    "name": "Pomorskie",
    "country": "PL",
    "lastUpdated": "2020-05-02T16:03:01.541Z",
    "dead": 14,
    "id": "7JDx6UJiwGSJyL1fChaJ",
    "infected": 440,
    "recovered": 0,
    "latitude": 54.367,
    "pop": 2305000,
    "sick": 426,
    "invisible": false
  },
  {
    "longitude": -2.9381,
    "name": "Melilla",
    "country": "ES",
    "lastUpdated": "2020-05-02T16:09:04.666Z",
    "dead": 2,
    "id": "7UASdZTZ1nPzzBwSTEA9",
    "infected": 126,
    "recovered": 96,
    "latitude": 35.2923,
    "pop": 84690,
    "sick": 28,
    "invisible": false
  },
  {
    "infected": 25,
    "recovered": 15,
    "latitude": 17.0608,
    "pop": 102012,
    "longitude": -61.7964,
    "name": "Antigua and Barbuda",
    "country": "AG",
    "lastUpdated": "2020-05-02T16:25:03.054Z",
    "dead": 3,
    "id": "7hVFcEV7nV0MrQr3LHrl",
    "sick": 7,
    "invisible": false
  },
  {
    "latitude": 48.7904,
    "pop": 13000000,
    "longitude": 11.4979,
    "name": "Bayern",
    "country": "DE",
    "lastUpdated": "2020-05-02T16:00:03.819Z",
    "dead": 2034,
    "id": "7kCrrlOBE3jN6FtOVNUB",
    "infected": 43701,
    "recovered": 32580,
    "sick": 9087,
    "invisible": false
  },
  {
    "infected": 2942,
    "recovered": 625,
    "latitude": 47.4979,
    "pop": 9773000,
    "longitude": 19.0402,
    "name": "Hungary",
    "country": "HU",
    "lastUpdated": "2020-05-02T16:25:03.037Z",
    "dead": 335,
    "id": "7rYC2iFB50c55Ihgbs4Q",
    "sick": 1982,
    "invisible": false
  },
  {
    "latitude": 10.9685,
    "pop": 2400000,
    "longitude": -74.7813,
    "name": "Barranquilla D.E.",
    "country": "CO",
    "lastUpdated": "2020-05-02T16:18:09.653Z",
    "dead": 7,
    "id": "7tqLvLyXcBDK808nJv0m",
    "infected": 168,
    "recovered": 41,
    "sick": 120,
    "invisible": false
  },
  {
    "lastUpdated": "2020-05-02T16:25:03.038Z",
    "dead": 64,
    "id": "8C0d7WVCjyUGtnc2gUAR",
    "infected": 2077,
    "recovered": 953,
    "latitude": 7.3697,
    "pop": 24050000,
    "longitude": 12.3547,
    "name": "Cameroon",
    "country": "CM",
    "sick": 1060,
    "invisible": false
  },
  {
    "latitude": 50.8503,
    "pop": 1209000,
    "longitude": 4.3517,
    "name": "Brussels",
    "country": "BE",
    "lastUpdated": "2020-05-02T16:26:05.112Z",
    "dead": 1211,
    "id": "8DOZWbN6bDdgaLXVlUEu",
    "infected": 5055,
    "recovered": 1926,
    "sick": 1918,
    "invisible": false
  },
  {
    "recovered": 134,
    "latitude": -16.2902,
    "pop": 11050000,
    "longitude": -63.5887,
    "name": "Bolivia",
    "country": "BO",
    "lastUpdated": "2020-05-02T16:25:03.039Z",
    "dead": 66,
    "id": "8RihJrXw4NQXPxaRxr1u",
    "infected": 1229,
    "sick": 1029,
    "invisible": false
  },
  {
    "infected": 16,
    "recovered": 8,
    "latitude": 12.9843,
    "pop": 109897,
    "longitude": -61.2872,
    "name": "St. Vincent Grenadines",
    "country": "VC",
    "lastUpdated": "2020-05-02T16:25:03.055Z",
    "dead": 0,
    "id": "8ZTySQROQejkDAad0qxQ",
    "sick": 8,
    "invisible": false
  },
  {
    "lastUpdated": "2020-05-02T16:25:03.030Z",
    "dead": 17,
    "id": "8pA3fM4xC2c2wv1b4TnE",
    "infected": 17548,
    "recovered": 1347,
    "latitude": 1.352083,
    "pop": 5621000,
    "longitude": 103.819839,
    "name": "Singapore",
    "country": "SG",
    "sick": 16184,
    "invisible": false
  },
  {
    "id": "98hwAoohgWEOQVa3NlM5",
    "infected": 3182,
    "recovered": 1283,
    "latitude": 47.2184,
    "pop": 3787000,
    "longitude": -1.5536,
    "name": "Pays de la Loire",
    "country": "FR",
    "lastUpdated": "2020-05-01T22:55:13.096Z",
    "dead": 343,
    "sick": 1556,
    "invisible": false
  },
  {
    "id": "9DAvxOObTqIvMOU93nlY",
    "infected": 140,
    "recovered": 0,
    "latitude": 19.30754,
    "pop": 952300,
    "longitude": -90.19885,
    "name": "Campeche",
    "country": "MX",
    "lastUpdated": "2020-05-02T16:01:10.647Z",
    "dead": 19,
    "sick": 121,
    "invisible": false
  },
  {
    "infected": 533,
    "recovered": 46,
    "latitude": 12.8628,
    "pop": 40530000,
    "longitude": 30.2176,
    "name": "Sudan",
    "country": "SD",
    "lastUpdated": "2020-05-02T16:25:03.046Z",
    "dead": 36,
    "id": "9DPOkpIqrFy9mR4e9fuv",
    "sick": 451,
    "invisible": false
  },
  {
    "recovered": 4547,
    "latitude": 45.943161,
    "pop": 19530000,
    "longitude": 24.966761,
    "name": "Romania",
    "country": "RO",
    "lastUpdated": "2020-05-02T16:25:03.032Z",
    "dead": 771,
    "id": "9QcETqEcM2fTv9zRvx5T",
    "infected": 12732,
    "sick": 7414,
    "invisible": false
  },
  {
    "recovered": 7,
    "latitude": 12.136389,
    "pop": 6218000,
    "longitude": -86.251389,
    "name": "Nicaragua",
    "country": "NI",
    "lastUpdated": "2020-05-02T16:25:03.055Z",
    "dead": 3,
    "id": "9Y5wmCqNCC6ZrenM31uA",
    "infected": 14,
    "sick": 4,
    "invisible": false
  },
  {
    "recovered": 196,
    "latitude": 17.5706921,
    "pop": 18540000,
    "longitude": -3.996166,
    "name": "Mali",
    "country": "ML",
    "lastUpdated": "2020-05-02T16:25:03.047Z",
    "dead": 26,
    "id": "9dIzxqDSVqPyINkHqwGv",
    "infected": 508,
    "sick": 286,
    "invisible": false
  },
  {
    "infected": 5176,
    "recovered": 3000,
    "latitude": 61.92411,
    "pop": 5513000,
    "longitude": 25.748152,
    "name": "Finland",
    "country": "FI",
    "lastUpdated": "2020-05-02T16:25:03.036Z",
    "dead": 220,
    "id": "9p6OCdZbUUwBLA60Gk3W",
    "sick": 1956,
    "invisible": false
  },
  {
    "infected": 2310,
    "recovered": 0,
    "latitude": 43.311643,
    "pop": 1356000,
    "longitude": -71.590315,
    "name": "New Hampshire",
    "country": "US",
    "lastUpdated": "2020-05-02T16:09:06.243Z",
    "dead": 81,
    "id": "A84CwQ52kA46Hr7pn6Bm",
    "sick": 2229,
    "invisible": false
  },
  {
    "latitude": 41.823261,
    "pop": 1057000,
    "longitude": -71.412257,
    "name": "Rhode Island",
    "country": "US",
    "lastUpdated": "2020-05-02T16:09:06.240Z",
    "dead": 296,
    "id": "AEUWUHS65qvjEslew11c",
    "infected": 9289,
    "recovered": 0,
    "sick": 8993,
    "invisible": false
  },
  {
    "infected": 25644,
    "recovered": 12581,
    "latitude": 44.498955,
    "pop": 4453000,
    "longitude": 11.327591,
    "name": "Emilia-Romagna",
    "country": "IT",
    "lastUpdated": "2020-05-02T16:01:01.703Z",
    "dead": 3579,
    "id": "AJ9jQ0iyKsafsmf5yHAR",
    "sick": 9484,
    "invisible": false
  },
  {
    "lastUpdated": "2020-05-02T16:00:03.843Z",
    "dead": 138,
    "id": "AKjFRQGnzuuZQhv5Qwx7",
    "infected": 2642,
    "recovered": 1971,
    "latitude": 49.3964,
    "pop": 990509,
    "longitude": 7.023,
    "name": "Saarland",
    "country": "DE",
    "sick": 533,
    "invisible": false
  },
  {
    "latitude": -35.717,
    "pop": 1125002,
    "longitude": -71.167,
    "name": "Maule",
    "country": "CL",
    "lastUpdated": "2020-05-02T16:11:10.843Z",
    "dead": 13,
    "id": "APTPgjAsjFi0nsGyJV7M",
    "infected": 394,
    "recovered": 0,
    "sick": 381,
    "invisible": false
  },
  {
    "longitude": -42.6043,
    "name": "Greenland",
    "country": "GL",
    "lastUpdated": "2020-05-02T16:25:03.056Z",
    "dead": 0,
    "id": "APaZzlGCEeuoLBtzTJMe",
    "infected": 11,
    "recovered": 11,
    "latitude": 71.7069,
    "pop": 56171,
    "sick": 0,
    "invisible": false
  },
  {
    "longitude": -63.582687,
    "name": "Nova Scotia",
    "country": "CA",
    "lastUpdated": "2020-05-02T16:06:08.383Z",
    "dead": 29,
    "id": "AVCpxeh0fuH2WrHWNDYH",
    "infected": 959,
    "recovered": 0,
    "latitude": 45.65107,
    "pop": 971395,
    "sick": 930,
    "invisible": false
  },
  {
    "id": "AcULcZBozObOhwuRKMjJ",
    "infected": 453,
    "recovered": 0,
    "latitude": 47.012918,
    "pop": 1062000,
    "longitude": -109.128641,
    "name": "Montana",
    "country": "US",
    "lastUpdated": "2020-05-02T16:09:06.243Z",
    "dead": 16,
    "sick": 437,
    "invisible": false
  },
  {
    "infected": 937,
    "recovered": 936,
    "latitude": 27.285971,
    "pop": 45200000,
    "longitude": 116.01609,
    "name": "Jiangxi",
    "country": "CN",
    "lastUpdated": "2020-05-02T16:23:10.941Z",
    "dead": 1,
    "id": "AmBYm5J6E9Cuez1FQjiN",
    "sick": 0,
    "invisible": false
  },
  {
    "latitude": 52.1307,
    "pop": 3136000,
    "longitude": -3.7837,
    "name": "Wales",
    "country": "GB",
    "lastUpdated": "2020-05-02T16:10:29.577Z",
    "dead": 925,
    "id": "AoLhHdTydeWTfmp9koEX",
    "infected": 9972,
    "recovered": 0,
    "sick": 9047,
    "invisible": false
  },
  {
    "latitude": 28.033886,
    "pop": 41320000,
    "longitude": 1.659626,
    "name": "Algeria",
    "country": "DZ",
    "lastUpdated": "2020-05-02T16:25:03.037Z",
    "dead": 459,
    "id": "AwN0CScPDApcLFgz6e3z",
    "infected": 4295,
    "recovered": 1872,
    "sick": 1964,
    "invisible": false
  },
  {
    "lastUpdated": "2020-05-02T16:25:03.038Z",
    "dead": 77,
    "id": "B82Ef45M8cDu4q7VsSHF",
    "infected": 2088,
    "recovered": 1463,
    "latitude": 45.099998,
    "pop": 4076000,
    "longitude": 15.2,
    "name": "Croatia",
    "country": "HR",
    "sick": 548,
    "invisible": false
  },
  {
    "lastUpdated": "2020-05-02T16:25:03.041Z",
    "dead": 33,
    "id": "BENubqQInFUJzhpZTsLT",
    "infected": 728,
    "recovered": 478,
    "latitude": 17.6077881,
    "pop": 23716000,
    "longitude": 8.081666,
    "name": "Niger",
    "country": "NE",
    "sick": 217,
    "invisible": false
  },
  {
    "latitude": 39.509109,
    "pop": 6043000,
    "longitude": -76.98432,
    "name": "Maryland",
    "country": "US",
    "lastUpdated": "2020-05-02T16:09:06.240Z",
    "dead": 1251,
    "id": "BF51mWl51fgEcyBpCSzb",
    "infected": 24473,
    "recovered": 0,
    "sick": 23222,
    "invisible": false
  },
  {
    "lastUpdated": "2020-05-02T16:25:03.030Z",
    "dead": 97,
    "id": "BGg6yVU5VP71B8NXU0oh",
    "infected": 15828,
    "recovered": 3117,
    "latitude": 53.709808,
    "pop": 9508000,
    "longitude": 27.953388,
    "name": "Belarus",
    "country": "BY",
    "sick": 12614,
    "invisible": false
  },
  {
    "infected": 2847,
    "recovered": 1089,
    "latitude": 48.8799,
    "pop": 3319000,
    "longitude": 0.1713,
    "name": "Normandie",
    "country": "FR",
    "lastUpdated": "2020-05-01T22:55:24.944Z",
    "dead": 347,
    "id": "BGtoyzb7y54LVlJ91rbf",
    "sick": 1411,
    "invisible": false
  },
  {
    "latitude": 50.7772,
    "pop": 5616000,
    "longitude": -3.9995,
    "name": "South West",
    "country": "GB",
    "lastUpdated": "2020-05-02T16:10:29.578Z",
    "dead": 0,
    "id": "BQqMOlPFD36ZEDTGd3WC",
    "infected": 6304,
    "recovered": 0,
    "sick": 6304,
    "invisible": false
  },
  {
    "lastUpdated": "2020-05-02T16:09:06.241Z",
    "dead": 330,
    "id": "BTEESCuD2ZbS1afunR2A",
    "infected": 7962,
    "recovered": 0,
    "latitude": 34.048927,
    "pop": 7172000,
    "longitude": -111.093735,
    "name": "Arizona",
    "country": "US",
    "sick": 7632,
    "invisible": false
  },
  {
    "recovered": 0,
    "latitude": 53.428543,
    "pop": 1676000,
    "longitude": 14.552812,
    "name": "Zachodniopomorskie",
    "country": "PL",
    "lastUpdated": "2020-05-02T16:03:01.541Z",
    "dead": 10,
    "id": "BZwZOAlDJ8AIiaRVLyC9",
    "infected": 406,
    "sick": 396,
    "invisible": false
  },
  {
    "infected": 0,
    "recovered": 9018,
    "latitude": -33.4489,
    "longitude": -70.6693,
    "name": "Unknown Chile region",
    "country": "CL",
    "lastUpdated": "2020-05-02T16:11:10.844Z",
    "dead": 0,
    "id": "BbiuZcm8oURX7cZwaa5U",
    "invisible": true,
    "sick": 0
  },
  {
    "latitude": -13.2543,
    "pop": 18620000,
    "longitude": 34.3015,
    "name": "Malawi",
    "country": "MW",
    "lastUpdated": "2020-05-02T16:25:03.054Z",
    "dead": 3,
    "id": "BfT8o5DaEixC6JIZ28kY",
    "infected": 37,
    "recovered": 9,
    "sick": 25,
    "invisible": false
  },
  {
    "recovered": 4,
    "latitude": -3.3730559,
    "pop": 10860000,
    "longitude": 29.9188862,
    "name": "Burundi",
    "country": "BI",
    "lastUpdated": "2020-05-02T16:25:03.056Z",
    "dead": 1,
    "id": "BnpMamidC5yYzeK8tPUL",
    "infected": 11,
    "sick": 6,
    "invisible": false
  },
  {
    "recovered": 0,
    "latitude": 52.257,
    "pop": 5385000,
    "longitude": 21.002,
    "name": "Mazowieckie",
    "country": "PL",
    "lastUpdated": "2020-05-02T16:03:01.540Z",
    "dead": 207,
    "id": "BrToMzyq8y2xdwXn75kM",
    "infected": 2477,
    "sick": 2270,
    "invisible": false
  },
  {
    "latitude": -1.333845,
    "pop": 74751,
    "longitude": -71.347573,
    "name": "Amazonas (Colombia)",
    "country": "CO",
    "lastUpdated": "2020-05-02T16:18:09.655Z",
    "dead": 7,
    "id": "C25xSDm4iYibX5RYML14",
    "infected": 105,
    "recovered": 0,
    "sick": 98,
    "invisible": false
  },
  {
    "recovered": 0,
    "latitude": 40.719042,
    "pop": 19540000,
    "longitude": -73.982597,
    "name": "New York",
    "country": "US",
    "lastUpdated": "2020-05-02T16:09:06.237Z",
    "dead": 24368,
    "id": "C3BCUzV80z9GfiuByIcr",
    "infected": 315222,
    "sick": 290854,
    "invisible": false
  },
  {
    "lastUpdated": "2020-05-02T16:25:03.034Z",
    "dead": 245,
    "id": "C6S76AggdWVU8G22jFHQ",
    "infected": 7750,
    "recovered": 3446,
    "latitude": 49.731626,
    "pop": 10650000,
    "longitude": 15.359413,
    "name": "Czechia",
    "country": "CZ",
    "sick": 4059,
    "invisible": false
  },
  {
    "infected": 3273,
    "recovered": 1567,
    "latitude": 26.0667,
    "pop": 1493000,
    "longitude": 50.557701,
    "name": "Bahrain",
    "country": "BH",
    "lastUpdated": "2020-05-02T16:25:03.037Z",
    "dead": 8,
    "id": "C7cj4nwRITs13KnaJrQ2",
    "sick": 1698,
    "invisible": false
  },
  {
    "latitude": 10.4113,
    "pop": 1285400,
    "longitude": -74.4057,
    "name": "Magdalena",
    "country": "CO",
    "lastUpdated": "2020-05-02T16:18:09.654Z",
    "dead": 5,
    "id": "CA9LaAl3bNaeAqBuozn4",
    "infected": 51,
    "recovered": 2,
    "sick": 44,
    "invisible": false
  },
  {
    "latitude": 26.909979,
    "pop": 3073500,
    "longitude": -101.430756,
    "name": "Coahuila",
    "country": "MX",
    "lastUpdated": "2020-05-02T16:01:10.647Z",
    "dead": 43,
    "id": "CCUFp4urvgXPo5unfMGy",
    "infected": 454,
    "recovered": 0,
    "sick": 411,
    "invisible": false
  },
  {
    "latitude": 27.0238,
    "pop": 68890000,
    "longitude": 74.2179,
    "name": "Rajasthan",
    "country": "IN",
    "lastUpdated": "2020-05-02T16:11:01.074Z",
    "dead": 65,
    "id": "CKZCZTPlrcq5fbfUPA9k",
    "infected": 2772,
    "recovered": 1121,
    "sick": 1586,
    "invisible": false
  },
  {
    "lastUpdated": "2020-05-02T16:25:03.047Z",
    "dead": 10,
    "id": "Cgvmtle61ehMvCzRzYx7",
    "infected": 446,
    "recovered": 138,
    "latitude": 13.803,
    "pop": 6378000,
    "longitude": -88.9053,
    "name": "El Salvador",
    "country": "SV",
    "sick": 298,
    "invisible": false
  },
  {
    "id": "DCJCtZoBTWQ4mzdDNljD",
    "infected": 2273,
    "recovered": 1010,
    "latitude": 40.259003,
    "pop": 2973000,
    "longitude": 44.818474,
    "name": "Armenia",
    "country": "AM",
    "lastUpdated": "2020-05-02T16:25:03.038Z",
    "dead": 33,
    "sick": 1230,
    "invisible": false
  },
  {
    "latitude": 5.535,
    "pop": 1278000,
    "longitude": -73.368,
    "name": "Boyacá",
    "country": "CO",
    "lastUpdated": "2020-05-02T16:18:09.654Z",
    "dead": 3,
    "id": "DJJraANgQbEqz1wBBtZz",
    "infected": 46,
    "recovered": 14,
    "sick": 29,
    "invisible": false
  },
  {
    "recovered": 0,
    "latitude": 53.6221,
    "pop": 7300000,
    "longitude": -2.5945,
    "name": "North West",
    "country": "GB",
    "lastUpdated": "2020-05-02T16:10:29.578Z",
    "dead": 0,
    "id": "DPwBt2aJuwF0O71vwfM9",
    "infected": 18943,
    "sick": 18943,
    "invisible": false
  },
  {
    "infected": 114,
    "recovered": 48,
    "latitude": 32.3213844,
    "pop": 65440,
    "longitude": -64.75737,
    "name": "Bermuda",
    "country": "BM",
    "lastUpdated": "2020-05-02T16:25:03.052Z",
    "dead": 6,
    "id": "DZyTD0Mu5WIcK6yTcJ91",
    "sick": 60,
    "invisible": false
  },
  {
    "longitude": -71.7979,
    "name": "Turks and Caicos",
    "country": "TC",
    "lastUpdated": "2020-05-02T16:25:03.056Z",
    "dead": 1,
    "id": "DaMrRSIGJXIG36nW0Pnc",
    "infected": 12,
    "recovered": 5,
    "latitude": 21.694,
    "pop": 35446,
    "sick": 6,
    "invisible": false
  },
  {
    "infected": 21023,
    "recovered": 5702,
    "latitude": 39.2796,
    "pop": 2035000,
    "longitude": -3.0977,
    "name": "Castilla La Mancha",
    "country": "ES",
    "lastUpdated": "2020-05-02T16:09:04.657Z",
    "dead": 2534,
    "id": "Dbng0NBTH41EEwBxhMzE",
    "sick": 12787,
    "invisible": false
  },
  {
    "latitude": 50.023,
    "pop": 3361000,
    "longitude": 20.006,
    "name": "Malopolskie",
    "country": "PL",
    "lastUpdated": "2020-05-02T16:03:01.541Z",
    "dead": 31,
    "id": "DcQ3D0WkacXEbv6iznRB",
    "infected": 934,
    "recovered": 0,
    "sick": 903,
    "invisible": false
  },
  {
    "latitude": 22.192039,
    "pop": 622567,
    "longitude": 113.551262,
    "name": "Macao",
    "country": "MO",
    "lastUpdated": "2020-05-02T16:25:03.054Z",
    "dead": 0,
    "id": "DdBt8qsG6A3g92oOR3ow",
    "infected": 45,
    "recovered": 37,
    "sick": 8,
    "invisible": false
  },
  {
    "latitude": 25.467,
    "pop": 2651000,
    "longitude": 91.3662,
    "name": "Meghalaya",
    "country": "IN",
    "lastUpdated": "2020-05-02T16:11:01.080Z",
    "dead": 1,
    "id": "Dh0O1vmhrVfmsCsfZCUg",
    "infected": 12,
    "recovered": 10,
    "sick": 1,
    "invisible": false
  },
  {
    "recovered": 0,
    "latitude": 42.962334,
    "pop": 577737,
    "longitude": -107.534868,
    "name": "Wyoming",
    "country": "US",
    "lastUpdated": "2020-05-02T16:09:06.243Z",
    "dead": 7,
    "id": "DrGzziUglmBognCGY7R2",
    "infected": 566,
    "sick": 559,
    "invisible": false
  },
  {
    "recovered": 1374,
    "latitude": 37.9838,
    "pop": 10740000,
    "longitude": 23.7275,
    "name": "Greece",
    "country": "GR",
    "lastUpdated": "2020-05-02T16:25:03.037Z",
    "dead": 143,
    "id": "Dtr1lap1RpJpXJdXGJiW",
    "infected": 2620,
    "sick": 1103,
    "invisible": false
  },
  {
    "infected": 432,
    "recovered": 324,
    "latitude": 25.03841,
    "pop": 23780000,
    "longitude": 121.563698,
    "name": "Taiwan",
    "country": "TW",
    "lastUpdated": "2020-05-02T16:25:03.048Z",
    "dead": 6,
    "id": "EKTfs8e7M6DXzI1HqyyX",
    "sick": 102,
    "invisible": false
  },
  {
    "latitude": 10.327273,
    "pop": 4906000,
    "longitude": -84.387618,
    "name": "Costa Rica",
    "country": "CR",
    "lastUpdated": "2020-05-02T16:25:03.041Z",
    "dead": 6,
    "id": "EQzJvzVHKjs8kLmK7BMu",
    "infected": 725,
    "recovered": 355,
    "sick": 364,
    "invisible": false
  },
  {
    "infected": 5054,
    "recovered": 896,
    "latitude": 22.2587,
    "pop": 62700000,
    "longitude": 71.1924,
    "name": "Gujarat",
    "country": "IN",
    "lastUpdated": "2020-05-02T16:11:01.073Z",
    "dead": 262,
    "id": "ERwk9R9en4m9WbdoMbIg",
    "sick": 3896,
    "invisible": false
  },
  {
    "recovered": 19,
    "latitude": 30.7333,
    "pop": 1055000,
    "longitude": 76.7794,
    "name": "Chandigarh",
    "country": "IN",
    "lastUpdated": "2020-05-02T16:11:01.076Z",
    "dead": 0,
    "id": "Esl5UlCVB9s8pmGB5Ofr",
    "infected": 94,
    "sick": 75,
    "invisible": false
  },
  {
    "latitude": 51.24,
    "pop": 2148000,
    "longitude": 22.653,
    "name": "Lubelskie",
    "country": "PL",
    "lastUpdated": "2020-05-02T16:03:01.542Z",
    "dead": 13,
    "id": "Esy1La2CxwH5uB8bGVWZ",
    "infected": 367,
    "recovered": 0,
    "sick": 354,
    "invisible": false
  },
  {
    "longitude": -66.664513,
    "name": "Puerto Rico",
    "country": "PR",
    "lastUpdated": "2020-05-02T16:09:06.244Z",
    "dead": 95,
    "id": "F4rPrEVGAIMM5rfPEMv4",
    "infected": 1757,
    "recovered": 0,
    "latitude": 18.200178,
    "pop": 3195000,
    "sick": 1662,
    "invisible": false
  },
  {
    "infected": 234,
    "recovered": 90,
    "latitude": 4.862437,
    "pop": 2919000,
    "longitude": -74.058655,
    "name": "Cundinamarca",
    "country": "CO",
    "lastUpdated": "2020-05-02T16:18:09.653Z",
    "dead": 13,
    "id": "F7MED5VwEhi3JvJu6KjB",
    "sick": 131,
    "invisible": false
  },
  {
    "longitude": 43.3333,
    "name": "Comoros",
    "country": "KM",
    "lastUpdated": "2020-05-02T16:25:03.057Z",
    "dead": 0,
    "id": "F8LnLqvuWoWh8awBqiw1",
    "infected": 1,
    "recovered": 0,
    "latitude": -11.6455,
    "pop": 832322,
    "sick": 1,
    "invisible": false
  },
  {
    "recovered": 331,
    "latitude": 33.93911,
    "pop": 35530000,
    "longitude": 67.709953,
    "name": "Afghanistan",
    "country": "AF",
    "lastUpdated": "2020-05-02T16:25:03.037Z",
    "dead": 72,
    "id": "FCDmlmnIIswd8bQiUjfN",
    "infected": 2469,
    "sick": 2066,
    "invisible": false
  },
  {
    "recovered": 573,
    "latitude": 29.431585,
    "pop": 30480000,
    "longitude": 106.912254,
    "name": "Chongqing",
    "country": "CN",
    "lastUpdated": "2020-05-02T16:23:10.941Z",
    "dead": 6,
    "id": "FErOU1m4Tj7jIkRam3vF",
    "infected": 579,
    "sick": 0,
    "invisible": false
  },
  {
    "infected": 4619,
    "recovered": 1703,
    "latitude": 29.311661,
    "pop": 4137000,
    "longitude": 47.481766,
    "name": "Kuwait",
    "country": "KW",
    "lastUpdated": "2020-05-02T16:25:03.036Z",
    "dead": 33,
    "id": "FZsUkhxBEgqsPb4eO0PN",
    "sick": 2883,
    "invisible": false
  },
  {
    "latitude": -10.9111,
    "pop": 2278308,
    "longitude": -37.0717,
    "name": "Sergipe",
    "country": "BR",
    "lastUpdated": "2020-05-02T16:11:09.033Z",
    "dead": 14,
    "id": "FboWeolpM62SZCLwdilT",
    "infected": 517,
    "recovered": 0,
    "sick": 503,
    "invisible": false
  },
  {
    "id": "FeS45oMNC27pI17F0xEV",
    "infected": 2757,
    "recovered": 1341,
    "latitude": 11.1271,
    "pop": 67860000,
    "longitude": 78.6569,
    "name": "Tamil Nadu",
    "country": "IN",
    "lastUpdated": "2020-05-02T16:11:01.074Z",
    "dead": 29,
    "sick": 1387,
    "invisible": false
  },
  {
    "infected": 7578,
    "recovered": 1481,
    "latitude": 18.947829,
    "pop": 10770000,
    "longitude": -70.430399,
    "name": "Dominican Republic",
    "country": "DO",
    "lastUpdated": "2020-05-02T16:25:03.034Z",
    "dead": 326,
    "id": "FuiVEJvWb0QMCpxJ3563",
    "sick": 5771,
    "invisible": false
  },
  {
    "lastUpdated": "2020-05-02T16:11:01.075Z",
    "dead": 28,
    "id": "FyC551oNwmENxbr9Yght",
    "infected": 1044,
    "recovered": 464,
    "latitude": 18.1124,
    "pop": 35190000,
    "longitude": 79.0193,
    "name": "Telengana",
    "country": "IN",
    "sick": 552,
    "invisible": false
  },
  {
    "latitude": 48.669,
    "pop": 5450000,
    "longitude": 19.699,
    "name": "Slovakia",
    "country": "SK",
    "lastUpdated": "2020-05-02T16:25:03.039Z",
    "dead": 24,
    "id": "FzIDXoqWnTI3nUfhPyT2",
    "infected": 1407,
    "recovered": 608,
    "sick": 775,
    "invisible": false
  },
  {
    "longitude": 69.345116,
    "name": "Pakistan",
    "country": "PK",
    "lastUpdated": "2020-05-02T16:25:03.030Z",
    "dead": 432,
    "id": "GAp7Wb6IMhdgbvEtMza9",
    "infected": 18770,
    "recovered": 4753,
    "latitude": 30.37532,
    "pop": 197000000,
    "sick": 13585,
    "invisible": false
  },
  {
    "infected": 772,
    "recovered": 112,
    "latitude": 31.1471,
    "pop": 27980000,
    "longitude": 75.3412,
    "name": "Punjab",
    "country": "IN",
    "lastUpdated": "2020-05-02T16:11:01.076Z",
    "dead": 20,
    "id": "GGru8cG08mANO8XDDUtZ",
    "sick": 640,
    "invisible": false
  },
  {
    "infected": 13038,
    "recovered": 2543,
    "latitude": 23.424076,
    "pop": 9400000,
    "longitude": 53.847816,
    "name": "United Arab Emirates",
    "country": "AE",
    "lastUpdated": "2020-05-02T16:25:03.032Z",
    "dead": 111,
    "id": "GHzBIsHy2GiBc5JV2HMs",
    "sick": 10384,
    "invisible": false
  },
  {
    "invisible": true,
    "infected": 103,
    "recovered": 0,
    "latitude": 37.0902,
    "longitude": -95.7129,
    "name": "Grand Princess",
    "country": "US",
    "lastUpdated": "2020-05-02T16:09:06.244Z",
    "dead": 3,
    "id": "GLViSIjDjwvptOphedAu",
    "sick": 100
  },
  {
    "longitude": -0.1278,
    "name": "London",
    "country": "GB",
    "lastUpdated": "2020-05-02T16:10:29.578Z",
    "dead": 0,
    "id": "GPtoS0Yy2EnNafpmmTqY",
    "infected": 24477,
    "recovered": 0,
    "latitude": 51.5074,
    "pop": 10100000,
    "sick": 24477,
    "invisible": false
  },
  {
    "id": "Gh46r6vuaY7fbGt3IboN",
    "infected": 52237,
    "recovered": 0,
    "latitude": 36.621981,
    "pop": 39560000,
    "longitude": -119.339046,
    "name": "California",
    "country": "US",
    "lastUpdated": "2020-05-02T16:09:06.238Z",
    "dead": 2134,
    "sick": 50103,
    "invisible": false
  },
  {
    "recovered": 0,
    "latitude": 35.87189,
    "pop": 3943000,
    "longitude": -97.145514,
    "name": "Oklahoma",
    "country": "US",
    "lastUpdated": "2020-05-02T16:09:06.242Z",
    "dead": 230,
    "id": "GpF8ULuKOQiFDCUHN44h",
    "infected": 3748,
    "sick": 3518,
    "invisible": false
  },
  {
    "infected": 2528,
    "recovered": 1493,
    "latitude": 46.5,
    "pop": 520891,
    "longitude": 11.35,
    "name": "P.A. Bolzano",
    "country": "IT",
    "lastUpdated": "2020-05-02T16:01:01.703Z",
    "dead": 278,
    "id": "Gzx6GX1qhBm714BkEC6l",
    "sick": 757,
    "invisible": false
  },
  {
    "infected": 201,
    "recovered": 154,
    "latitude": 42.83263,
    "pop": 24710000,
    "longitude": 113.750972,
    "name": "Inner Mongolia",
    "country": "CN",
    "lastUpdated": "2020-05-02T16:23:10.939Z",
    "dead": 1,
    "id": "H3JeVigVbo5CSYfZG4WI",
    "sick": 46,
    "invisible": false
  },
  {
    "lastUpdated": "2020-05-02T16:09:06.241Z",
    "dead": 254,
    "id": "H3bDg4eV30up4WWrIDAS",
    "infected": 5227,
    "recovered": 0,
    "latitude": 39.74536,
    "pop": 3034000,
    "longitude": -116.724977,
    "name": "Nevada",
    "country": "US",
    "sick": 4973,
    "invisible": false
  },
  {
    "latitude": -3.731862,
    "pop": 9075649,
    "longitude": -38.526669,
    "name": "Ceará",
    "country": "BR",
    "lastUpdated": "2020-05-02T16:11:09.026Z",
    "dead": 505,
    "id": "HEMWNnFxeFEoeOCBOLJD",
    "infected": 7879,
    "recovered": 0,
    "sick": 7374,
    "invisible": false
  },
  {
    "id": "HN5mGmxlqlSeFSNeu1K5",
    "infected": 601,
    "recovered": 271,
    "latitude": 15.3173,
    "pop": 64060000,
    "longitude": 75.7139,
    "name": "Karnataka",
    "country": "IN",
    "lastUpdated": "2020-05-02T16:11:01.075Z",
    "dead": 25,
    "sick": 305,
    "invisible": false
  },
  {
    "infected": 7,
    "recovered": 5,
    "latitude": 27.5142,
    "pop": 807610,
    "longitude": 90.4336,
    "name": "Bhutan",
    "country": "BT",
    "lastUpdated": "2020-05-02T16:25:03.056Z",
    "dead": 0,
    "id": "HRDpwyxpqW9RN0xLFyNu",
    "sick": 2,
    "invisible": false
  },
  {
    "infected": 2113,
    "recovered": 1271,
    "latitude": 41.3775,
    "pop": 32390000,
    "longitude": 64.5853,
    "name": "Uzbekistan",
    "country": "UZ",
    "lastUpdated": "2020-05-02T16:25:03.038Z",
    "dead": 9,
    "id": "HRTA10dtrruDEwjJEGMp",
    "sick": 833,
    "invisible": false
  },
  {
    "latitude": 34.138916,
    "pop": 2095000,
    "longitude": -105.576255,
    "name": "New Mexico",
    "country": "US",
    "lastUpdated": "2020-05-02T16:09:06.242Z",
    "dead": 131,
    "id": "HSSFomRju0doHhWgW8On",
    "infected": 3513,
    "recovered": 0,
    "sick": 3382,
    "invisible": false
  },
  {
    "infected": 189,
    "recovered": 0,
    "latitude": -40.231,
    "pop": 412812,
    "longitude": -72.3311,
    "name": "Los Ríos",
    "country": "CL",
    "lastUpdated": "2020-05-02T16:11:10.843Z",
    "dead": 4,
    "id": "HZkACHjW7NlYjg8vEMj2",
    "sick": 185,
    "invisible": false
  },
  {
    "infected": 701,
    "recovered": 572,
    "latitude": 53.6127,
    "pop": 1635000,
    "longitude": 12.4296,
    "name": "Mecklenburg-Vorpommern",
    "country": "DE",
    "lastUpdated": "2020-05-02T16:00:03.835Z",
    "dead": 19,
    "id": "He1gSS1v50t06i3YrqvB",
    "sick": 110,
    "invisible": false
  },
  {
    "id": "I9EqrZfbPnkioNU4wZGz",
    "infected": 2948,
    "recovered": 713,
    "latitude": 42.25,
    "pop": 1315000,
    "longitude": 13.75,
    "name": "Abruzzo",
    "country": "IT",
    "lastUpdated": "2020-05-02T16:01:01.702Z",
    "dead": 324,
    "sick": 1911,
    "invisible": false
  },
  {
    "latitude": 23.363855,
    "pop": 113460000,
    "longitude": 113.373448,
    "name": "Guangdong",
    "country": "CN",
    "lastUpdated": "2020-05-02T16:23:10.940Z",
    "dead": 8,
    "id": "IAX0OQLVnUwU7FX0ENF1",
    "infected": 1588,
    "recovered": 1567,
    "sick": 13,
    "invisible": false
  },
  {
    "infected": 1276,
    "recovered": 1254,
    "latitude": 33.875408,
    "pop": 94000000,
    "longitude": 113.484016,
    "name": "Henan",
    "country": "CN",
    "lastUpdated": "2020-05-02T16:23:10.941Z",
    "dead": 22,
    "id": "IFuMrMvSjoiX5agYvllh",
    "sick": 0,
    "invisible": false
  },
  {
    "lastUpdated": "2020-05-02T16:04:01.886Z",
    "dead": 13,
    "id": "IHqRHC8K3OZPN8gniM7V",
    "infected": 331,
    "recovered": 0,
    "latitude": 37.2,
    "pop": 451000,
    "longitude": -8.16667,
    "name": "Algarve",
    "country": "PT",
    "sick": 318,
    "invisible": false
  },
  {
    "recovered": 2,
    "latitude": 3.883,
    "pop": 333194,
    "longitude": -77.0197,
    "name": "Buenaventura D.E.",
    "country": "CO",
    "lastUpdated": "2020-05-02T16:18:09.655Z",
    "dead": 2,
    "id": "IKWjRUo0SYgHQKdWjTvq",
    "infected": 34,
    "sick": 30,
    "invisible": false
  },
  {
    "lastUpdated": "2020-05-02T16:10:29.577Z",
    "dead": 0,
    "id": "INyu1R48Ppv8cfW4Nuz4",
    "infected": 6879,
    "recovered": 0,
    "latitude": 52.87,
    "pop": 4811000,
    "longitude": -0.995,
    "name": "East Midlands",
    "country": "GB",
    "sick": 6879,
    "invisible": false
  },
  {
    "latitude": 22.017,
    "pop": 1342600,
    "longitude": -102.317,
    "name": "Aguascalientes",
    "country": "MX",
    "lastUpdated": "2020-05-02T16:01:10.648Z",
    "dead": 8,
    "id": "ISRKMzEDojyrZ9iyWwex",
    "infected": 255,
    "recovered": 0,
    "sick": 247,
    "invisible": false
  },
  {
    "infected": 737,
    "recovered": 0,
    "latitude": 25.686613,
    "pop": 5321300,
    "longitude": -100.316116,
    "name": "Nuevo León",
    "country": "MX",
    "lastUpdated": "2020-05-02T16:01:10.648Z",
    "dead": 20,
    "id": "IdKbgzgKLpjBFh4UPOwu",
    "sick": 717,
    "invisible": false
  },
  {
    "infected": 521,
    "recovered": 0,
    "latitude": 28.632996,
    "pop": 3826900,
    "longitude": -106.069099,
    "name": "Chihuahua",
    "country": "MX",
    "lastUpdated": "2020-05-02T16:01:10.646Z",
    "dead": 92,
    "id": "IhhiYI6T0TX4CYVPcnmH",
    "sick": 429,
    "invisible": false
  },
  {
    "infected": 768,
    "recovered": 0,
    "latitude": -36.7,
    "pop": 480600,
    "longitude": -72.57,
    "name": "Ñuble",
    "country": "CL",
    "lastUpdated": "2020-05-02T16:11:10.843Z",
    "dead": 14,
    "id": "ImnOiVx9Cb8Nw7cbRcQ7",
    "sick": 754,
    "invisible": false
  },
  {
    "lastUpdated": "2020-05-02T16:25:03.052Z",
    "dead": 8,
    "id": "InZ38sIqyK7FN7XAOZoX",
    "infected": 85,
    "recovered": 10,
    "latitude": 19.0558,
    "pop": 10980000,
    "longitude": -73.0513,
    "name": "Haiti",
    "country": "HT",
    "sick": 67,
    "invisible": false
  },
  {
    "infected": 28133,
    "recovered": 0,
    "latitude": 32.528564,
    "pop": 10520000,
    "longitude": -83.280125,
    "name": "Georgia (US)",
    "country": "US",
    "lastUpdated": "2020-05-02T16:09:06.239Z",
    "dead": 1171,
    "id": "IvQkDJkTAsoIqPRAU25n",
    "sick": 26962,
    "invisible": false
  },
  {
    "longitude": 172.488081,
    "name": "New Zealand",
    "country": "NZ",
    "lastUpdated": "2020-05-02T16:25:03.039Z",
    "dead": 20,
    "id": "IvVhpOoGpH6JVkGyUhXN",
    "infected": 1485,
    "recovered": 1263,
    "latitude": -42.8285,
    "pop": 4794000,
    "sick": 202,
    "invisible": false
  },
  {
    "longitude": 94.7278,
    "name": "Arunachal Pradesh",
    "country": "IN",
    "lastUpdated": "2020-05-02T16:11:01.081Z",
    "dead": 0,
    "id": "IwYKiIVY18NGwdGQFGWW",
    "infected": 1,
    "recovered": 1,
    "latitude": 28.218,
    "pop": 1255000,
    "sick": 0,
    "invisible": false
  },
  {
    "recovered": 148,
    "latitude": 6.4238,
    "pop": 31980000,
    "longitude": -66.5897,
    "name": "Venezuela",
    "country": "VE",
    "lastUpdated": "2020-05-02T16:25:03.048Z",
    "dead": 10,
    "id": "J3mZXlfEnnJx4CDZLvRG",
    "infected": 335,
    "sick": 177,
    "invisible": false
  },
  {
    "latitude": 35.1264,
    "pop": 1170000,
    "longitude": 33.4299,
    "name": "Cyprus",
    "country": "CY",
    "lastUpdated": "2020-05-02T16:25:03.040Z",
    "dead": 15,
    "id": "JQByE4l2OA6sGOqIcWrM",
    "infected": 864,
    "recovered": 296,
    "sick": 553,
    "invisible": false
  },
  {
    "latitude": 25.0961,
    "pop": 99020000,
    "longitude": 85.3131,
    "name": "Bihar",
    "country": "IN",
    "lastUpdated": "2020-05-02T16:11:01.076Z",
    "dead": 4,
    "id": "JR7hOGked7CZtIs2nCV5",
    "infected": 481,
    "recovered": 98,
    "sick": 379,
    "invisible": false
  },
  {
    "infected": 644,
    "recovered": 72,
    "latitude": 14.628434,
    "pop": 17250000,
    "longitude": -90.522713,
    "name": "Guatemala",
    "country": "GT",
    "lastUpdated": "2020-05-02T16:25:03.042Z",
    "dead": 16,
    "id": "JUWE6bG3b5oL7fKQMSvv",
    "sick": 556,
    "invisible": false
  },
  {
    "lastUpdated": "2020-05-02T16:25:03.037Z",
    "dead": 92,
    "id": "JcFsHSn2WvZ5LJW42ovG",
    "infected": 3812,
    "recovered": 3318,
    "latitude": 49.8153,
    "pop": 602005,
    "longitude": 6.1296,
    "name": "Luxembourg",
    "country": "LU",
    "sick": 402,
    "invisible": false
  },
  {
    "recovered": 4,
    "latitude": 8.8,
    "pop": 2049000,
    "longitude": -74.167,
    "name": "Bolívar",
    "country": "CO",
    "lastUpdated": "2020-05-02T16:18:09.654Z",
    "dead": 3,
    "id": "JmOyaFe25yZCIV64JbZj",
    "infected": 24,
    "sick": 17,
    "invisible": false
  },
  {
    "longitude": -115.783,
    "name": "Baja California",
    "country": "MX",
    "lastUpdated": "2020-05-02T16:01:10.646Z",
    "dead": 244,
    "id": "Jp9ePErcc8i1aOozEAMf",
    "infected": 1646,
    "recovered": 0,
    "latitude": 31.4,
    "pop": 3648100,
    "sick": 1402,
    "invisible": false
  },
  {
    "recovered": 8,
    "latitude": 8.7479801,
    "pop": 1786500,
    "longitude": -75.8814316,
    "name": "Córdoba",
    "country": "CO",
    "lastUpdated": "2020-05-02T16:18:09.654Z",
    "dead": 3,
    "id": "Jr8syCB0lydmPDXw8Q6N",
    "infected": 29,
    "sick": 18,
    "invisible": false
  },
  {
    "infected": 123,
    "recovered": 66,
    "latitude": 8.6195,
    "pop": 7798000,
    "longitude": 0.8248,
    "name": "Togo",
    "country": "TG",
    "lastUpdated": "2020-05-02T16:25:03.051Z",
    "dead": 9,
    "id": "JrBbirlBKGdWSdcDt7PF",
    "sick": 48,
    "invisible": false
  },
  {
    "infected": 1594,
    "recovered": 287,
    "latitude": 42.7339,
    "pop": 7050000,
    "longitude": 25.4858,
    "name": "Bulgaria",
    "country": "BG",
    "lastUpdated": "2020-05-02T16:25:03.039Z",
    "dead": 72,
    "id": "JzZ8sbqzjutThVjkPKPL",
    "sick": 1235,
    "invisible": false
  },
  {
    "latitude": 50.823,
    "pop": 1263000,
    "longitude": 20.709,
    "name": "Świętokrzyskie",
    "country": "PL",
    "lastUpdated": "2020-05-02T16:03:01.542Z",
    "dead": 8,
    "id": "KGrK7gafkeWjmU6sHQd2",
    "infected": 271,
    "recovered": 0,
    "sick": 263,
    "invisible": false
  },
  {
    "latitude": 44.5,
    "pop": 1557000,
    "longitude": 8.833,
    "name": "Liguria",
    "country": "IT",
    "lastUpdated": "2020-05-02T16:01:01.704Z",
    "dead": 1184,
    "id": "KLXicxFogWnu0dLp4bNK",
    "infected": 8126,
    "recovered": 3424,
    "sick": 3518,
    "invisible": false
  },
  {
    "longitude": -73.2532,
    "name": "Cesar",
    "country": "CO",
    "lastUpdated": "2020-05-02T16:18:09.654Z",
    "dead": 6,
    "id": "KpOz3WmiZkrXUMlUJNlV",
    "infected": 55,
    "recovered": 29,
    "latitude": 10.4631,
    "pop": 1201000,
    "sick": 20,
    "invisible": false
  },
  {
    "latitude": 43.4167,
    "pop": 3737000,
    "longitude": 11,
    "name": "Toscana",
    "country": "IT",
    "lastUpdated": "2020-05-02T16:01:01.707Z",
    "dead": 854,
    "id": "KrLrJbpDqqiXgUPGCCW9",
    "infected": 9445,
    "recovered": 3218,
    "sick": 5373,
    "invisible": false
  },
  {
    "infected": 690,
    "recovered": 172,
    "latitude": 7.873054,
    "pop": 21440000,
    "longitude": 80.771797,
    "name": "Sri Lanka",
    "country": "LK",
    "lastUpdated": "2020-05-02T16:25:03.041Z",
    "dead": 7,
    "id": "KsWzJO06cf0d6LJ4ZNh9",
    "sick": 511,
    "invisible": false
  },
  {
    "lastUpdated": "2020-05-02T16:11:01.075Z",
    "dead": 33,
    "id": "KtQIo2DoqjELtPAlyDVO",
    "infected": 1525,
    "recovered": 441,
    "latitude": 15.9129,
    "pop": 49670000,
    "longitude": 79.74,
    "name": "Andhra Pradesh",
    "country": "IN",
    "sick": 1051,
    "invisible": false
  },
  {
    "lastUpdated": "2020-05-02T16:25:03.029Z",
    "dead": 1222,
    "id": "KwOuGBKSMRlmwftxAvLX",
    "infected": 124054,
    "recovered": 15013,
    "latitude": 61.52401,
    "pop": 144500000,
    "longitude": 105.318756,
    "name": "Russia",
    "country": "RU",
    "sick": 107819,
    "invisible": false
  },
  {
    "infected": 38,
    "recovered": 29,
    "latitude": 18.0708,
    "pop": 32125,
    "longitude": -63.0501,
    "name": "Saint-Martin",
    "country": "FR",
    "lastUpdated": "2020-05-01T22:55:49.760Z",
    "dead": 3,
    "id": "LBUtrLDKJiupXjlUNTUe",
    "sick": 6,
    "invisible": false
  },
  {
    "longitude": 9.5554,
    "name": "Liechtenstein",
    "country": "LI",
    "lastUpdated": "2020-05-02T16:25:03.053Z",
    "dead": 1,
    "id": "LTGEU2E9MFkrCcFhZYVk",
    "infected": 82,
    "recovered": 55,
    "latitude": 47.166,
    "pop": 38557,
    "sick": 26,
    "invisible": false
  },
  {
    "infected": 1537,
    "recovered": 342,
    "latitude": 9.9456,
    "pop": 12720000,
    "longitude": -9.6966,
    "name": "Guinea",
    "country": "GN",
    "lastUpdated": "2020-05-02T16:25:03.039Z",
    "dead": 7,
    "id": "LU2QWt5ao8IJa8evNYVV",
    "sick": 1188,
    "invisible": false
  },
  {
    "lastUpdated": "2020-05-02T16:01:10.646Z",
    "dead": 35,
    "id": "LYCBHrA9ms6GcxpLGPCT",
    "infected": 305,
    "recovered": 0,
    "latitude": 29.6667,
    "pop": 3062000,
    "longitude": -110.5,
    "name": "Sonora",
    "country": "MX",
    "sick": 270,
    "invisible": false
  },
  {
    "infected": 10,
    "recovered": 8,
    "latitude": 3.9193051,
    "pop": 563402,
    "longitude": -56.0277824,
    "name": "Suriname",
    "country": "SR",
    "lastUpdated": "2020-05-02T16:25:03.056Z",
    "dead": 1,
    "id": "LglKINHyQpYpFxjckbQ6",
    "sick": 1,
    "invisible": false
  },
  {
    "latitude": 52.9399,
    "pop": 1174000,
    "longitude": -106.4509,
    "name": "Saskatchewan",
    "country": "CA",
    "lastUpdated": "2020-05-02T16:06:08.383Z",
    "dead": 7,
    "id": "LkIDKY0CMAqzbwBHyYCP",
    "infected": 415,
    "recovered": 0,
    "sick": 408,
    "invisible": false
  },
  {
    "infected": 6,
    "recovered": 5,
    "latitude": 24.2155,
    "pop": 636442,
    "longitude": -12.8858,
    "name": "Western Sahara",
    "country": "EH",
    "lastUpdated": "2020-05-02T16:25:03.057Z",
    "dead": 0,
    "id": "LooNn6RuMiDhQnwa9svw",
    "sick": 1,
    "invisible": false
  },
  {
    "infected": 2864,
    "recovered": 890,
    "latitude": 43.363129,
    "pop": 1022000,
    "longitude": -5.951843,
    "name": "Principado de Asturias",
    "country": "ES",
    "lastUpdated": "2020-05-02T16:09:04.656Z",
    "dead": 279,
    "id": "Lsga7AvYNnY0qQ5gEfV8",
    "sick": 1695,
    "invisible": false
  },
  {
    "infected": 3690,
    "recovered": 2017,
    "latitude": 39.4937,
    "pop": 1065000,
    "longitude": -6.0679,
    "name": "Extremadura",
    "country": "ES",
    "lastUpdated": "2020-05-02T16:09:04.665Z",
    "dead": 458,
    "id": "LuEErlF7dVKI0eJsRjFm",
    "sick": 1215,
    "invisible": false
  },
  {
    "latitude": 21.0186,
    "pop": 5965000,
    "longitude": -101.2591,
    "name": "Guanajuato",
    "country": "MX",
    "lastUpdated": "2020-05-02T16:01:10.647Z",
    "dead": 29,
    "id": "M3wdiueFtwrUHiQ2rOXA",
    "infected": 354,
    "recovered": 0,
    "sick": 325,
    "invisible": false
  },
  {
    "infected": 4879,
    "recovered": 0,
    "latitude": 37.8393,
    "pop": 4468000,
    "longitude": -84.27,
    "name": "Kentucky",
    "country": "US",
    "lastUpdated": "2020-05-02T16:09:06.242Z",
    "dead": 248,
    "id": "MC8MXFw9iXYybnF8v7e6",
    "sick": 4631,
    "invisible": false
  },
  {
    "latitude": 55.3781,
    "longitude": -3.436,
    "name": "Unknown UK region or state",
    "country": "GB",
    "lastUpdated": "2020-05-02T16:10:29.579Z",
    "dead": 24763,
    "id": "MEjlm8VYdGA28TTTnQmf",
    "invisible": true,
    "infected": 36765,
    "recovered": 0,
    "sick": 12002
  },
  {
    "infected": 14951,
    "recovered": 0,
    "latitude": 41.3006,
    "pop": 3689000,
    "longitude": -7.7441,
    "name": "Norte",
    "country": "PT",
    "lastUpdated": "2020-05-02T16:04:01.885Z",
    "dead": 585,
    "id": "MG4e9tulLJ010SZJvbYN",
    "sick": 14366,
    "invisible": false
  },
  {
    "id": "MObRYyIriHG337L8FyFC",
    "infected": 11654,
    "recovered": 0,
    "latitude": 56.4907,
    "pop": 5450000,
    "longitude": -4.2026,
    "name": "Scotland",
    "country": "GB",
    "lastUpdated": "2020-05-02T16:10:29.576Z",
    "dead": 1475,
    "sick": 10179,
    "invisible": false
  },
  {
    "latitude": 40.2672,
    "pop": 6692000,
    "longitude": -86.1349,
    "name": "Indiana",
    "country": "US",
    "lastUpdated": "2020-05-02T16:09:06.240Z",
    "dead": 1175,
    "id": "MOxDkmQ4wBi1CuAdVxDE",
    "infected": 18630,
    "recovered": 0,
    "sick": 17455,
    "invisible": false
  },
  {
    "longitude": -5.5471,
    "name": "Ivory Coast",
    "country": "CI",
    "lastUpdated": "2020-05-02T16:25:03.039Z",
    "dead": 15,
    "id": "MdQOfc1gNh2DOqwSP6UV",
    "infected": 1333,
    "recovered": 597,
    "latitude": 7.54,
    "pop": 24290000,
    "sick": 721,
    "invisible": false
  },
  {
    "longitude": 7.6616,
    "name": "Nordrhein-Westfalen",
    "country": "DE",
    "lastUpdated": "2020-05-02T16:00:03.838Z",
    "dead": 1290,
    "id": "MjpYq3zQyAvSQlVVYjD2",
    "infected": 33584,
    "recovered": 24894,
    "latitude": 51.4332,
    "pop": 17910000,
    "sick": 7400,
    "invisible": false
  },
  {
    "lastUpdated": "2020-05-02T16:23:10.942Z",
    "dead": 0,
    "id": "MntmjjuHljarCdt6aIeE",
    "infected": 75,
    "recovered": 75,
    "latitude": 37.330509,
    "pop": 6301000,
    "longitude": 105.977203,
    "name": "Ningxia",
    "country": "CN",
    "sick": 0,
    "invisible": false
  },
  {
    "longitude": -52.203499186,
    "name": "Pará",
    "country": "BR",
    "lastUpdated": "2020-05-02T16:11:09.028Z",
    "dead": 235,
    "id": "MuEB2UgkId5crsxi9zQT",
    "infected": 3176,
    "recovered": 0,
    "latitude": -3.20166586,
    "pop": 8513497,
    "sick": 2941,
    "invisible": false
  },
  {
    "latitude": 48.6616,
    "pop": 11020000,
    "longitude": 9.3501,
    "name": "Baden-Württemberg",
    "country": "DE",
    "lastUpdated": "2020-05-02T16:00:03.809Z",
    "dead": 1448,
    "id": "N3XsRBwJSsNclkEf7Zz5",
    "infected": 33265,
    "recovered": 23574,
    "sick": 8243,
    "invisible": false
  },
  {
    "infected": 1839,
    "recovered": 779,
    "latitude": 44.696652,
    "pop": 3507000,
    "longitude": 17.824332,
    "name": "Bosnia and Herzegovina",
    "country": "BA",
    "lastUpdated": "2020-05-02T16:25:03.038Z",
    "dead": 72,
    "id": "N7c13sCQF0G789XAVazJ",
    "sick": 988,
    "invisible": false
  },
  {
    "recovered": 176,
    "latitude": 37.242565,
    "pop": 36500000,
    "longitude": 111.856857,
    "name": "Shanxi",
    "country": "CN",
    "lastUpdated": "2020-05-02T16:23:10.940Z",
    "dead": 0,
    "id": "NBRIGIRrJB1Ry8prDNAC",
    "infected": 197,
    "sick": 21,
    "invisible": false
  },
  {
    "lastUpdated": "2020-05-02T16:09:06.240Z",
    "dead": 420,
    "id": "NC64Qp5kTqAfiTuR27k8",
    "infected": 11509,
    "recovered": 0,
    "latitude": 35.7596,
    "pop": 10380000,
    "longitude": -79.0193,
    "name": "North Carolina",
    "country": "US",
    "sick": 11089,
    "invisible": false
  },
  {
    "infected": 2966,
    "recovered": 2210,
    "latitude": 52.4125,
    "pop": 2504000,
    "longitude": 12.5316,
    "name": "Brandenburg",
    "country": "DE",
    "lastUpdated": "2020-05-02T16:00:03.829Z",
    "dead": 152,
    "id": "NJjo2gfBvnbK4xatrsUz",
    "sick": 604,
    "invisible": false
  },
  {
    "latitude": 15.0979,
    "pop": 55144,
    "longitude": -145.6739,
    "name": "Northern Mariana Islands",
    "country": "MP",
    "lastUpdated": "2020-05-02T16:09:06.244Z",
    "dead": 2,
    "id": "NLLL6pJhJSw0lrDMD4uP",
    "infected": 14,
    "recovered": 0,
    "sick": 12,
    "invisible": false
  },
  {
    "id": "NMeZEcGToxXfpi16PfFV",
    "infected": 59,
    "recovered": 39,
    "latitude": 30.0668,
    "pop": 10080000,
    "longitude": 79.0193,
    "name": "Uttarakhand",
    "country": "IN",
    "lastUpdated": "2020-05-02T16:11:01.077Z",
    "dead": 1,
    "sick": 19,
    "invisible": false
  },
  {
    "recovered": 4812,
    "latitude": 50.6521,
    "pop": 6243000,
    "longitude": 9.1624,
    "name": "Hessen",
    "country": "DE",
    "lastUpdated": "2020-05-02T16:00:03.829Z",
    "dead": 373,
    "id": "Nk5vPgUIXsWVfbWZf15O",
    "infected": 8508,
    "sick": 3323,
    "invisible": false
  },
  {
    "longitude": 25.837107,
    "name": "Latvia",
    "country": "LV",
    "lastUpdated": "2020-05-02T16:25:03.040Z",
    "dead": 16,
    "id": "NmmMKy0YqA8StHdGzB5N",
    "infected": 871,
    "recovered": 348,
    "latitude": 56.96776,
    "pop": 1920000,
    "sick": 507,
    "invisible": false
  },
  {
    "recovered": 0,
    "latitude": -8.472372,
    "pop": 9496294,
    "longitude": -37.946777,
    "name": "Pernambuco",
    "country": "BR",
    "lastUpdated": "2020-05-02T16:11:09.028Z",
    "dead": 603,
    "id": "NyGlFL1gATK1Omv9qtcC",
    "infected": 7334,
    "sick": 6731,
    "invisible": false
  },
  {
    "lastUpdated": "2020-05-02T16:25:03.050Z",
    "dead": 18,
    "id": "O4g88K49HKEZLFXm5gxb",
    "infected": 152,
    "recovered": 45,
    "latitude": 6.4281,
    "pop": 4732000,
    "longitude": -9.4295,
    "name": "Liberia",
    "country": "LR",
    "sick": 89,
    "invisible": false
  },
  {
    "lastUpdated": "2020-05-02T16:09:06.241Z",
    "dead": 256,
    "id": "ONU4CK8QjViFHKg2w5if",
    "infected": 6258,
    "recovered": 0,
    "latitude": 34.003307,
    "pop": 5084000,
    "longitude": -80.525613,
    "name": "South Carolina",
    "country": "US",
    "sick": 6002,
    "invisible": false
  },
  {
    "recovered": 0,
    "latitude": 33.51822,
    "pop": 2987000,
    "longitude": -89.582775,
    "name": "Mississippi",
    "country": "US",
    "lastUpdated": "2020-05-02T16:09:06.241Z",
    "dead": 281,
    "id": "OYa0jFzdbAgo8zUsRv6q",
    "infected": 7212,
    "sick": 6931,
    "invisible": false
  },
  {
    "infected": 1152,
    "recovered": 0,
    "latitude": 45.2538,
    "pop": 1338000,
    "longitude": -69.4455,
    "name": "Maine",
    "country": "US",
    "lastUpdated": "2020-05-02T16:09:06.243Z",
    "dead": 56,
    "id": "OcXNp9kNVSwrRlG3bNVN",
    "sick": 1096,
    "invisible": false
  },
  {
    "lastUpdated": "2020-05-02T16:06:08.384Z",
    "dead": 13,
    "id": "OnOseaqWdnuP18oruABW",
    "infected": 221,
    "recovered": 157,
    "latitude": -41.915264,
    "pop": 515000,
    "longitude": 146.725256,
    "name": "Tasmania",
    "country": "AU",
    "sick": 51,
    "invisible": false
  },
  {
    "infected": 320,
    "recovered": 0,
    "latitude": -16.35,
    "pop": 3441998,
    "longitude": -56.666668,
    "name": "Mato Grosso",
    "country": "BR",
    "lastUpdated": "2020-05-02T16:11:09.026Z",
    "dead": 11,
    "id": "P0GHFGUt1pkKTk5PM8uz",
    "sick": 309,
    "invisible": false
  },
  {
    "recovered": 10,
    "latitude": 19.3133,
    "pop": 61559,
    "longitude": -81.2546,
    "name": "Cayman Islands",
    "country": "KY",
    "lastUpdated": "2020-05-02T16:25:03.053Z",
    "dead": 1,
    "id": "P4mwRFLbrvT0t75uD8Wo",
    "infected": 74,
    "sick": 63,
    "invisible": false
  },
  {
    "infected": 11,
    "recovered": 2,
    "latitude": 16.7424984,
    "pop": 5900,
    "longitude": -62.1873665,
    "name": "Montserrat",
    "country": "MS",
    "lastUpdated": "2020-05-02T16:25:03.056Z",
    "dead": 1,
    "id": "PEDkeFMTOZpvHiSVxBk7",
    "sick": 8,
    "invisible": false
  },
  {
    "id": "PEcgZGEkyhABztt1Ufgc",
    "infected": 249,
    "recovered": 109,
    "latitude": -1.9403,
    "pop": 12210000,
    "longitude": 29.8739,
    "name": "Rwanda",
    "country": "RW",
    "lastUpdated": "2020-05-02T16:25:03.049Z",
    "dead": 0,
    "sick": 140,
    "invisible": false
  },
  {
    "longitude": -94.6859,
    "name": "Minnesota",
    "country": "US",
    "lastUpdated": "2020-05-02T16:09:06.241Z",
    "dead": 371,
    "id": "PJvVYosLIhbcRZYnKX1R",
    "infected": 5730,
    "recovered": 0,
    "latitude": 46.7296,
    "pop": 5611000,
    "sick": 5359,
    "invisible": false
  },
  {
    "recovered": 0,
    "latitude": 40.6331,
    "pop": 12740000,
    "longitude": -89.3985,
    "name": "Illinois",
    "country": "US",
    "lastUpdated": "2020-05-02T16:09:06.238Z",
    "dead": 2457,
    "id": "PTwQr9ijo0TBBsPH2sdJ",
    "infected": 56055,
    "sick": 53598,
    "invisible": false
  },
  {
    "id": "PjLqCeFdyzdZNcZxMkK1",
    "infected": 17,
    "recovered": 15,
    "latitude": 13.909444,
    "pop": 178844,
    "longitude": -60.978893,
    "name": "Saint Lucia",
    "country": "LC",
    "lastUpdated": "2020-05-02T16:25:03.055Z",
    "dead": 0,
    "sick": 2,
    "invisible": false
  },
  {
    "recovered": 2281,
    "latitude": 42.6954,
    "pop": 649900,
    "longitude": -1.6761,
    "name": "Comunidad Foral de Navarra",
    "country": "ES",
    "lastUpdated": "2020-05-02T16:09:04.666Z",
    "dead": 460,
    "id": "PmUlsNx2uFLU797wwU39",
    "infected": 6411,
    "sick": 3670,
    "invisible": false
  },
  {
    "latitude": 34.201507,
    "pop": 11530000,
    "longitude": 9.460554,
    "name": "Tunisia",
    "country": "TN",
    "lastUpdated": "2020-05-02T16:25:03.040Z",
    "dead": 41,
    "id": "Pr76V4raf108uSRoEXac",
    "infected": 998,
    "recovered": 316,
    "sick": 641,
    "invisible": false
  },
  {
    "longitude": 31.4659,
    "name": "Eswatini",
    "country": "SZ",
    "lastUpdated": "2020-05-02T16:25:03.052Z",
    "dead": 1,
    "id": "PuQgOd9KWiMzGZXm11sR",
    "infected": 108,
    "recovered": 12,
    "latitude": -26.5225,
    "pop": 1367000,
    "sick": 95,
    "invisible": false
  },
  {
    "lastUpdated": "2020-05-02T16:06:08.382Z",
    "dead": 18,
    "id": "Q18mrGvFWTLX2BU9SqhQ",
    "infected": 1361,
    "recovered": 1300,
    "latitude": -37.009609,
    "pop": 6359000,
    "longitude": 143.94853,
    "name": "Victoria",
    "country": "AU",
    "sick": 43,
    "invisible": false
  },
  {
    "infected": 2738,
    "recovered": 2100,
    "latitude": 54.2194,
    "pop": 2890000,
    "longitude": 9.6961,
    "name": "Schleswig-Holstein",
    "country": "DE",
    "lastUpdated": "2020-05-02T16:00:03.844Z",
    "dead": 123,
    "id": "Q39XkabIYxt15mHINzTa",
    "sick": 515,
    "invisible": false
  },
  {
    "lastUpdated": "2020-05-02T16:11:09.032Z",
    "dead": 58,
    "id": "QGpQNhuoVTUPHXvS7qcu",
    "infected": 1529,
    "recovered": 0,
    "latitude": -27.953491,
    "pop": 11329605,
    "longitude": -52.031696,
    "name": "Rio Grande do Sul",
    "country": "BR",
    "sick": 1471,
    "invisible": false
  },
  {
    "lastUpdated": "2020-05-02T16:25:03.039Z",
    "dead": 53,
    "id": "QR9go2hQKXjty7JHUYe4",
    "infected": 1699,
    "recovered": 256,
    "latitude": 58.595272,
    "pop": 1328000,
    "longitude": 25.013607,
    "name": "Estonia",
    "country": "EE",
    "sick": 1390,
    "invisible": false
  },
  {
    "longitude": -40.336,
    "name": "Espírito Santo",
    "country": "BR",
    "lastUpdated": "2020-05-02T16:11:09.026Z",
    "dead": 96,
    "id": "QaWDLKH8SuwD0Qxq6c38",
    "infected": 2662,
    "recovered": 0,
    "latitude": -20.318,
    "pop": 3972388,
    "sick": 2566,
    "invisible": false
  },
  {
    "recovered": 0,
    "latitude": 20.3333,
    "pop": 8222700,
    "longitude": -103.6667,
    "name": "Jalisco",
    "country": "MX",
    "lastUpdated": "2020-05-02T16:01:10.648Z",
    "dead": 30,
    "id": "Qkho455pBwx88Gohs3hL",
    "infected": 441,
    "sick": 411,
    "invisible": false
  },
  {
    "infected": 8,
    "recovered": 0,
    "latitude": -6.315,
    "pop": 8251000,
    "longitude": 143.9555,
    "name": "Papua New Guinea",
    "country": "PG",
    "lastUpdated": "2020-05-02T16:25:03.056Z",
    "dead": 0,
    "id": "QlZrE4nosm5WfdA2aCDg",
    "sick": 8,
    "invisible": false
  },
  {
    "lastUpdated": "2020-05-02T16:09:06.244Z",
    "dead": 4,
    "id": "QqhD3YDMKXojvQY3Yu41",
    "infected": 66,
    "recovered": 0,
    "latitude": 18.3358,
    "pop": 107268,
    "longitude": -64.8963,
    "name": "U.S. Virgin Islands",
    "country": "US",
    "sick": 62,
    "invisible": false
  },
  {
    "id": "Qy2qW2ep5wltnYjPJBxh",
    "infected": 16,
    "recovered": 13,
    "latitude": 15.414999,
    "pop": 71937,
    "longitude": -61.3709755,
    "name": "Dominica",
    "country": "DM",
    "lastUpdated": "2020-05-02T16:25:03.055Z",
    "dead": 0,
    "sick": 3,
    "invisible": false
  },
  {
    "infected": 18,
    "recovered": 6,
    "latitude": 5.167,
    "pop": 344027,
    "longitude": -72.167,
    "name": "Casanare",
    "country": "CO",
    "lastUpdated": "2020-05-02T16:18:09.654Z",
    "dead": 0,
    "id": "R3IHMWqIUhOJJTlrmbUZ",
    "sick": 12,
    "invisible": false
  },
  {
    "lastUpdated": "2020-05-02T16:25:03.035Z",
    "dead": 192,
    "id": "R8YCgephnxTufvcPWMgx",
    "infected": 6720,
    "recovered": 622,
    "latitude": 8.538,
    "pop": 4099000,
    "longitude": -80.7821,
    "name": "Panama",
    "country": "PA",
    "sick": 5906,
    "invisible": false
  },
  {
    "recovered": 112,
    "latitude": 15.2,
    "pop": 9265000,
    "longitude": -86.2419,
    "name": "Honduras",
    "country": "HN",
    "lastUpdated": "2020-05-02T16:25:03.040Z",
    "dead": 75,
    "id": "RA2SE0p2bVhqo0P2hzGY",
    "infected": 899,
    "sick": 712,
    "invisible": false
  },
  {
    "longitude": -70.2979202,
    "name": "Arica y Parinacota",
    "country": "CL",
    "lastUpdated": "2020-05-02T16:11:10.835Z",
    "dead": 4,
    "id": "RBt9RiwP7WUbMnJfD0lo",
    "infected": 297,
    "recovered": 0,
    "latitude": -18.4745998,
    "pop": 224500,
    "sick": 293,
    "invisible": false
  },
  {
    "infected": 3041,
    "recovered": 1632,
    "latitude": 45.633331,
    "pop": 1216000,
    "longitude": 13.8,
    "name": "Friuli Venezia Giulia",
    "country": "IT",
    "lastUpdated": "2020-05-02T16:01:01.703Z",
    "dead": 294,
    "id": "RCrDBCdBNYzgLNr0aB2H",
    "sick": 1115,
    "invisible": false
  },
  {
    "recovered": 0,
    "latitude": 41.878,
    "pop": 3156000,
    "longitude": -93.0977,
    "name": "Iowa",
    "country": "US",
    "lastUpdated": "2020-05-02T16:09:06.241Z",
    "dead": 170,
    "id": "RX0KDu1AFrlCsrRso0nb",
    "infected": 7884,
    "sick": 7714,
    "invisible": false
  },
  {
    "infected": 2772,
    "recovered": 558,
    "latitude": 4.624335,
    "pop": 7413000,
    "longitude": -74.063644,
    "name": "Bogotá D.C.",
    "country": "CO",
    "lastUpdated": "2020-05-02T16:18:09.644Z",
    "dead": 107,
    "id": "RZ6PCe5TZsO15JjDObwO",
    "sick": 2107,
    "invisible": false
  },
  {
    "id": "RaJxbzlnRFTuj4B8IbpC",
    "infected": 63,
    "recovered": 32,
    "latitude": 26.3351002,
    "pop": 6846000,
    "longitude": 17.2283306,
    "name": "Libya",
    "country": "LY",
    "lastUpdated": "2020-05-02T16:25:03.054Z",
    "dead": 3,
    "sick": 28,
    "invisible": false
  },
  {
    "longitude": -98.4842,
    "name": "Kansas",
    "country": "US",
    "lastUpdated": "2020-05-02T16:09:06.242Z",
    "dead": 140,
    "id": "Rf4uvBfP3GRDSHdZElRd",
    "infected": 4634,
    "recovered": 0,
    "latitude": 39.0119,
    "pop": 2912000,
    "sick": 4494,
    "invisible": false
  },
  {
    "recovered": 8184,
    "latitude": 48.6998,
    "pop": 5518000,
    "longitude": 6.1878,
    "name": "Grand Est",
    "country": "FR",
    "lastUpdated": "2020-05-01T22:51:40.624Z",
    "dead": 2915,
    "id": "RmEgf1xeclWt7XCF9oiR",
    "infected": 21126,
    "sick": 10027,
    "invisible": false
  },
  {
    "infected": 16132,
    "recovered": 3439,
    "latitude": 50.4176,
    "pop": 3644000,
    "longitude": 4.451,
    "name": "Wallonia",
    "country": "BE",
    "lastUpdated": "2020-05-02T16:26:05.112Z",
    "dead": 2696,
    "id": "RryHraSohKQLAsdr1dHO",
    "sick": 9997,
    "invisible": false
  },
  {
    "id": "Rx4TuyMpfGb3S8wYJX0x",
    "infected": 17880,
    "recovered": 0,
    "latitude": 51.2538,
    "pop": 14570000,
    "longitude": -85.3232,
    "name": "Ontario",
    "country": "CA",
    "lastUpdated": "2020-05-02T16:06:08.381Z",
    "dead": 1265,
    "sick": 16615,
    "invisible": false
  },
  {
    "infected": 20999,
    "recovered": 6813,
    "latitude": 41.652779,
    "pop": 2408000,
    "longitude": -4.723611,
    "name": "Castilla y León",
    "country": "ES",
    "lastUpdated": "2020-05-02T16:09:04.663Z",
    "dead": 1788,
    "id": "S8ewN4zaYp8mjtuqqOTw",
    "sick": 12398,
    "invisible": false
  },
  {
    "longitude": -61.011715,
    "name": "Martinique",
    "country": "FR",
    "lastUpdated": "2020-05-01T22:51:12.792Z",
    "dead": 14,
    "id": "SDdefnq1bc3ZNr7SpEsW",
    "infected": 180,
    "recovered": 83,
    "latitude": 14.652027,
    "pop": 376480,
    "sick": 83,
    "invisible": false
  },
  {
    "latitude": 7.9465,
    "pop": 28830000,
    "longitude": -1.0232,
    "name": "Ghana",
    "country": "GH",
    "lastUpdated": "2020-05-02T16:25:03.038Z",
    "dead": 18,
    "id": "SG9VWLOV3x2JsTkXmVSz",
    "infected": 2169,
    "recovered": 229,
    "sick": 1922,
    "invisible": false
  },
  {
    "id": "SGe9sCPayMqh6RsGFaBA",
    "infected": 29817,
    "recovered": 23900,
    "latitude": 46.818188,
    "pop": 8570000,
    "longitude": 8.227512,
    "name": "Switzerland",
    "country": "CH",
    "lastUpdated": "2020-05-02T16:25:03.029Z",
    "dead": 1760,
    "sick": 4157,
    "invisible": false
  },
  {
    "id": "SHoOE3NiJgWAlDVBzwYH",
    "infected": 28656,
    "recovered": 0,
    "latitude": 46.8139,
    "pop": 8485000,
    "longitude": -71.208,
    "name": "Quebec",
    "country": "CA",
    "lastUpdated": "2020-05-02T16:06:08.376Z",
    "dead": 2022,
    "sick": 26634,
    "invisible": false
  },
  {
    "infected": 813,
    "recovered": 289,
    "latitude": 42.6026,
    "pop": 1831000,
    "longitude": 20.903,
    "name": "Kosovo",
    "country": "XK",
    "lastUpdated": "2020-05-02T15:55:08.953Z",
    "dead": 22,
    "id": "SMWvuMMuKp2QK7O2tNia",
    "sick": 502,
    "invisible": false
  },
  {
    "latitude": 15.2993,
    "pop": 1817000,
    "longitude": 74.124,
    "name": "Goa",
    "country": "IN",
    "lastUpdated": "2020-05-02T16:11:01.080Z",
    "dead": 0,
    "id": "SPcujsH2YlUaoAr8AiWF",
    "infected": 7,
    "recovered": 7,
    "sick": 0,
    "invisible": false
  },
  {
    "latitude": -16.328547,
    "pop": 6921161,
    "longitude": -48.953403,
    "name": "Goiás",
    "country": "BR",
    "lastUpdated": "2020-05-02T16:11:09.026Z",
    "dead": 29,
    "id": "SV5AMF59J61Vt4cXWLgy",
    "infected": 808,
    "recovered": 0,
    "sick": 779,
    "invisible": false
  },
  {
    "infected": 1112,
    "recovered": 299,
    "latitude": 39,
    "pop": 1957000,
    "longitude": 16.5,
    "name": "Calabria",
    "country": "IT",
    "lastUpdated": "2020-05-02T16:01:01.703Z",
    "dead": 86,
    "id": "SZdF624x0v1LlyzZjKFu",
    "sick": 727,
    "invisible": false
  },
  {
    "latitude": 41.4925,
    "pop": 1929000,
    "longitude": -99.9018,
    "name": "Nebraska",
    "country": "US",
    "lastUpdated": "2020-05-02T16:09:06.242Z",
    "dead": 73,
    "id": "SakhKQzKu1LRI8laqdQq",
    "infected": 4838,
    "recovered": 0,
    "sick": 4765,
    "invisible": false
  },
  {
    "longitude": 55.5364,
    "name": "La Réunion",
    "country": "FR",
    "lastUpdated": "2020-05-02T16:25:03.048Z",
    "dead": 0,
    "id": "SgHzWAAYK1j2sipovxM6",
    "infected": 422,
    "recovered": 300,
    "latitude": -21.1151,
    "pop": 859959,
    "sick": 122,
    "invisible": false
  },
  {
    "latitude": 12.565679,
    "pop": 16010000,
    "longitude": 104.990967,
    "name": "Cambodia",
    "country": "KH",
    "lastUpdated": "2020-05-02T16:25:03.051Z",
    "dead": 0,
    "id": "SioMALgUbo7peXmbco2f",
    "infected": 122,
    "recovered": 120,
    "sick": 2,
    "invisible": false
  },
  {
    "longitude": 144.7937,
    "name": "Guam",
    "country": "GU",
    "lastUpdated": "2020-05-02T16:09:06.244Z",
    "dead": 5,
    "id": "SsWhuEElU7dCTTuH5fdQ",
    "infected": 146,
    "recovered": 0,
    "latitude": 13.4443,
    "pop": 164229,
    "sick": 141,
    "invisible": false
  },
  {
    "infected": 0,
    "recovered": 3762,
    "latitude": 51.9189,
    "longitude": 19.1344,
    "name": "Unknown Poland region",
    "country": "PL",
    "lastUpdated": "2020-05-02T16:25:03.032Z",
    "dead": 0,
    "id": "SuCr5emUaJ9RHTll1P1p",
    "invisible": true,
    "sick": 0
  },
  {
    "lastUpdated": "2020-05-02T16:25:03.043Z",
    "dead": 32,
    "id": "T3iRf8mTUTAzbKrORTap",
    "infected": 604,
    "recovered": 75,
    "latitude": -4.0383,
    "pop": 81340000,
    "longitude": 21.7587,
    "name": "DR Congo",
    "country": "CD",
    "sick": 497,
    "invisible": false
  },
  {
    "recovered": 3765,
    "latitude": 23.635796,
    "pop": 32940000,
    "longitude": 44.344334,
    "name": "Saudi Arabia",
    "country": "SA",
    "lastUpdated": "2020-05-02T16:25:03.030Z",
    "dead": 176,
    "id": "T7NffoeCgTUpAbOHvYwP",
    "infected": 25459,
    "sick": 21518,
    "invisible": false
  },
  {
    "lastUpdated": "2020-05-02T16:09:04.666Z",
    "dead": 334,
    "id": "TNDTapyb0k3l7Mds9q9R",
    "infected": 5239,
    "recovered": 2279,
    "latitude": 42.2871,
    "pop": 315700,
    "longitude": -2.5396,
    "name": "La Rioja",
    "country": "ES",
    "sick": 2626,
    "invisible": false
  },
  {
    "longitude": -89.134857,
    "name": "Yucatán",
    "country": "MX",
    "lastUpdated": "2020-05-02T16:01:10.647Z",
    "dead": 39,
    "id": "TQCWbhIpJQBQxBjhCGVJ",
    "infected": 497,
    "recovered": 0,
    "latitude": 20.400417,
    "pop": 2207200,
    "sick": 458,
    "invisible": false
  },
  {
    "latitude": 4.506106,
    "pop": 428697,
    "longitude": 114.650692,
    "name": "Brunei",
    "country": "BN",
    "lastUpdated": "2020-05-02T16:25:03.050Z",
    "dead": 1,
    "id": "TQZmzsLhJqjtCSExAkCP",
    "infected": 138,
    "recovered": 126,
    "sick": 11,
    "invisible": false
  },
  {
    "longitude": 4.3853,
    "name": "Auvergne-Rhône-Alpes",
    "country": "FR",
    "lastUpdated": "2020-05-01T22:52:27.089Z",
    "dead": 1336,
    "id": "TT0MKODSjrxHvG19xZCa",
    "infected": 12649,
    "recovered": 5129,
    "latitude": 45.4471,
    "pop": 8027000,
    "sick": 6184,
    "invisible": false
  },
  {
    "recovered": 0,
    "latitude": 38.5667,
    "pop": 758700,
    "longitude": -7.9,
    "name": "Alentejo",
    "country": "PT",
    "lastUpdated": "2020-05-02T16:04:01.886Z",
    "dead": 1,
    "id": "TeoNTu4aw5riC04sTd73",
    "infected": 218,
    "sick": 217,
    "invisible": false
  },
  {
    "lastUpdated": "2020-05-02T16:09:06.240Z",
    "dead": 820,
    "id": "Th4dlpXXmSDgi1OHs36P",
    "infected": 15768,
    "recovered": 0,
    "latitude": 39.318928,
    "pop": 5696000,
    "longitude": -105.461392,
    "name": "Colorado",
    "country": "US",
    "sick": 14948,
    "invisible": false
  },
  {
    "latitude": 12.2383,
    "pop": 19190000,
    "longitude": -1.5616,
    "name": "Burkina Faso",
    "country": "BF",
    "lastUpdated": "2020-05-02T16:25:03.041Z",
    "dead": 44,
    "id": "Tup6oDCHj6DgqZR3nQ3x",
    "infected": 649,
    "recovered": 517,
    "sick": 88,
    "invisible": false
  },
  {
    "infected": 20,
    "recovered": 13,
    "latitude": 12.104818,
    "pop": 112381,
    "longitude": -61.670761,
    "name": "Grenada",
    "country": "GD",
    "lastUpdated": "2020-05-02T16:25:03.055Z",
    "dead": 0,
    "id": "TvqURPN5xzVBXsmGP46N",
    "sick": 7,
    "invisible": false
  },
  {
    "infected": 9407,
    "recovered": 6889,
    "latitude": 55.675758,
    "pop": 5603000,
    "longitude": 12.56902,
    "name": "Denmark",
    "country": "DK",
    "lastUpdated": "2020-05-02T16:25:03.033Z",
    "dead": 475,
    "id": "Ty1AY3VLPJcRZgdBIERx",
    "sick": 2043,
    "invisible": false
  },
  {
    "infected": 10254,
    "recovered": 0,
    "latitude": 53.9062,
    "pop": 5486000,
    "longitude": -1.0334,
    "name": "Yorkshire and The Humber",
    "country": "GB",
    "lastUpdated": "2020-05-02T16:10:29.578Z",
    "dead": 0,
    "id": "U0N7cIPJXAc4T6uKV60c",
    "sick": 10254,
    "invisible": false
  },
  {
    "recovered": 772,
    "latitude": 36.395859,
    "pop": 100472400,
    "longitude": 118.769882,
    "name": "Shandong",
    "country": "CN",
    "lastUpdated": "2020-05-02T16:23:10.940Z",
    "dead": 7,
    "id": "U0tkTJ9CGsBuFJ2Gdoum",
    "infected": 787,
    "sick": 8,
    "invisible": false
  },
  {
    "infected": 580,
    "recovered": 83,
    "latitude": 43.94236,
    "pop": 33400,
    "longitude": 12.457777,
    "name": "San Marino",
    "country": "SM",
    "lastUpdated": "2020-05-02T16:25:03.045Z",
    "dead": 41,
    "id": "U12rMD5GDW58Q0lIwrB1",
    "sick": 456,
    "invisible": false
  },
  {
    "longitude": 138.25293,
    "name": "Japan",
    "country": "JP",
    "lastUpdated": "2020-05-02T16:25:03.031Z",
    "dead": 455,
    "id": "U13Gy4BpRLAZ95bPmBXd",
    "infected": 14305,
    "recovered": 2975,
    "latitude": 36.204823,
    "pop": 126800000,
    "sick": 10875,
    "invisible": false
  },
  {
    "longitude": 32.2903,
    "name": "Uganda",
    "country": "UG",
    "lastUpdated": "2020-05-02T16:25:03.053Z",
    "dead": 0,
    "id": "UCZXEgnHtxUoChWLR6fQ",
    "infected": 85,
    "recovered": 52,
    "latitude": 1.3733,
    "pop": 42860000,
    "sick": 33,
    "invisible": false
  },
  {
    "id": "UIbrFy6kiTTF0D37Kqmp",
    "infected": 30,
    "recovered": 11,
    "latitude": -11.2027,
    "pop": 29780000,
    "longitude": 17.8739,
    "name": "Angola",
    "country": "AO",
    "lastUpdated": "2020-05-02T16:25:03.054Z",
    "dead": 2,
    "sick": 17,
    "invisible": false
  },
  {
    "infected": 2026,
    "recovered": 846,
    "latitude": 48.202,
    "pop": 3329000,
    "longitude": -2.9326,
    "name": "Bretagne",
    "country": "FR",
    "lastUpdated": "2020-05-01T22:52:51.569Z",
    "dead": 212,
    "id": "URKMlJ7OTNldjpaxFbjE",
    "sick": 968,
    "invisible": false
  },
  {
    "recovered": 3600,
    "latitude": 53.5511,
    "pop": 1822000,
    "longitude": 9.9937,
    "name": "Hamburg",
    "country": "DE",
    "lastUpdated": "2020-05-02T16:00:03.829Z",
    "dead": 163,
    "id": "UfFaUECHINUutv1M9tzq",
    "infected": 4831,
    "sick": 1068,
    "invisible": false
  },
  {
    "id": "UflxTAb4FnAwve7c5MbY",
    "infected": 97,
    "recovered": 0,
    "latitude": 22.774916,
    "pop": 1615000,
    "longitude": -102.586899,
    "name": "Zacatecas",
    "country": "MX",
    "lastUpdated": "2020-05-02T16:01:10.647Z",
    "dead": 11,
    "sick": 86,
    "invisible": false
  },
  {
    "infected": 261,
    "recovered": 0,
    "latitude": -20.4427795,
    "pop": 2748023,
    "longitude": -54.646389,
    "name": "Mato Grosso do Sul",
    "country": "BR",
    "lastUpdated": "2020-05-02T16:11:09.027Z",
    "dead": 9,
    "id": "UlA1ubOUhPtf9jjKxxhF",
    "sick": 252,
    "invisible": false
  },
  {
    "latitude": -19.4914,
    "pop": 211945,
    "longitude": 132.551,
    "name": "Northern Territory",
    "country": "AU",
    "lastUpdated": "2020-05-02T16:06:08.384Z",
    "dead": 0,
    "id": "UrF45V1VqMo6YBib2KlL",
    "infected": 27,
    "recovered": 25,
    "sick": 2,
    "invisible": false
  },
  {
    "infected": 76,
    "recovered": 44,
    "latitude": 18.0424805,
    "pop": 41109,
    "longitude": -63.0548286,
    "name": "Sint Maarten",
    "country": "SX",
    "lastUpdated": "2020-05-02T16:25:03.053Z",
    "dead": 13,
    "id": "UsxgpiuFCtlR2CW1UUFm",
    "sick": 19,
    "invisible": false
  },
  {
    "longitude": -1.8298,
    "name": "West Midlands",
    "country": "GB",
    "lastUpdated": "2020-05-02T16:10:29.578Z",
    "dead": 0,
    "id": "UzOGOMitJmaFTdh2FbvI",
    "infected": 13163,
    "recovered": 0,
    "latitude": 52.4751,
    "pop": 5908000,
    "sick": 13163,
    "invisible": false
  },
  {
    "infected": 8,
    "recovered": 5,
    "latitude": 11.943179,
    "pop": 241773,
    "longitude": 79.808206,
    "name": "Puducherry",
    "country": "IN",
    "lastUpdated": "2020-05-02T16:11:01.080Z",
    "dead": 0,
    "id": "V1qE740s3EUGyKGr6SVv",
    "sick": 3,
    "invisible": false
  },
  {
    "infected": 7,
    "recovered": 0,
    "latitude": -45.5687,
    "pop": 25569,
    "longitude": -72.0597,
    "name": "Aysén",
    "country": "CL",
    "lastUpdated": "2020-05-02T16:11:10.843Z",
    "dead": 0,
    "id": "V9QxUhV4DyYK7iElEhXV",
    "sick": 7,
    "invisible": false
  },
  {
    "lastUpdated": "2020-05-02T16:25:03.039Z",
    "dead": 64,
    "id": "VAG9AcMABTf8oIAfELPh",
    "infected": 1537,
    "recovered": 714,
    "latitude": 21.5218,
    "pop": 11480000,
    "longitude": -77.7812,
    "name": "Cuba",
    "country": "CU",
    "sick": 759,
    "invisible": false
  },
  {
    "infected": 185,
    "recovered": 181,
    "latitude": 25.181129,
    "pop": 45970000,
    "longitude": 101.864143,
    "name": "Yunnan",
    "country": "CN",
    "lastUpdated": "2020-05-02T16:23:10.941Z",
    "dead": 2,
    "id": "VIf8T8PD3ZzlzAm5eBCX",
    "sick": 2,
    "invisible": false
  },
  {
    "infected": 5723,
    "recovered": 0,
    "latitude": -3.4653,
    "pop": 4080611,
    "longitude": -62.2159,
    "name": "Amazonas",
    "country": "BR",
    "lastUpdated": "2020-05-02T16:11:09.025Z",
    "dead": 476,
    "id": "VZQiSdZ7cUHgUZWgpNTP",
    "sick": 5247,
    "invisible": false
  },
  {
    "latitude": 26.8467,
    "pop": 204200000,
    "longitude": 80.9462,
    "name": "Uttar Pradesh",
    "country": "IN",
    "lastUpdated": "2020-05-02T16:11:01.074Z",
    "dead": 43,
    "id": "VcKcLdCkC6YpPfIDnRVD",
    "infected": 2487,
    "recovered": 698,
    "sick": 1746,
    "invisible": false
  },
  {
    "latitude": 64.8255,
    "pop": 44826,
    "longitude": -124.8457,
    "name": "Northwest Territories",
    "country": "CA",
    "lastUpdated": "2020-05-02T16:06:08.388Z",
    "dead": 0,
    "id": "Vd3lLgrNsr81plzTgZkz",
    "infected": 5,
    "recovered": 0,
    "sick": 5,
    "invisible": false
  },
  {
    "id": "VyW0IR9vLMdgnKz1cC7j",
    "infected": 1984,
    "recovered": 1268,
    "latitude": 39.999079,
    "pop": 1188000,
    "longitude": 3.838942,
    "name": "Islas Baleares",
    "country": "ES",
    "lastUpdated": "2020-05-02T16:09:04.657Z",
    "dead": 197,
    "sick": 519,
    "invisible": false
  },
  {
    "lastUpdated": "2020-05-01T22:54:31.777Z",
    "dead": 401,
    "id": "WAnbFrEjtZDTCIYBt8rz",
    "infected": 4526,
    "recovered": 2142,
    "latitude": 43.8927,
    "pop": 5893000,
    "longitude": 3.2828,
    "name": "Occitanie",
    "country": "FR",
    "sick": 1983,
    "invisible": false
  },
  {
    "infected": 378,
    "recovered": 160,
    "latitude": 40.5,
    "pop": 567118,
    "longitude": 16.5,
    "name": "Basilicata",
    "country": "IT",
    "lastUpdated": "2020-05-02T16:01:01.703Z",
    "dead": 25,
    "id": "WD502XimGXnWzqYg7zxL",
    "sick": 193,
    "invisible": false
  },
  {
    "latitude": 24.6637,
    "pop": 2722000,
    "longitude": 93.9063,
    "name": "Manipur",
    "country": "IN",
    "lastUpdated": "2020-05-02T16:11:01.080Z",
    "dead": 0,
    "id": "WKsJQmcpWKxnp0nCwN77",
    "infected": 2,
    "recovered": 2,
    "sick": 0,
    "invisible": false
  },
  {
    "recovered": 0,
    "latitude": -9.933,
    "pop": 1757589,
    "longitude": -63.067,
    "name": "Rondônia",
    "country": "BR",
    "lastUpdated": "2020-05-02T16:11:09.032Z",
    "dead": 18,
    "id": "WRqKCfMIJFjrjXLMud70",
    "infected": 585,
    "sick": 567,
    "invisible": false
  },
  {
    "latitude": -30.5595,
    "pop": 56720000,
    "longitude": 22.9375,
    "name": "South Africa",
    "country": "ZA",
    "lastUpdated": "2020-05-02T16:25:03.036Z",
    "dead": 116,
    "id": "Whrue10NtwIObLvFFyBr",
    "infected": 5951,
    "recovered": 2382,
    "sick": 3453,
    "invisible": false
  },
  {
    "infected": 12,
    "recovered": 9,
    "latitude": 13.443182,
    "pop": 2101000,
    "longitude": -15.3101387,
    "name": "Gambia",
    "country": "GM",
    "lastUpdated": "2020-05-02T16:25:03.056Z",
    "dead": 1,
    "id": "Wk811YwpQxsOCfz8As86",
    "sick": 2,
    "invisible": false
  },
  {
    "longitude": -99.625164,
    "name": "Estado de México",
    "country": "MX",
    "lastUpdated": "2020-05-02T16:01:10.648Z",
    "dead": 257,
    "id": "WpCXuQjYFLbozSpEhbrZ",
    "infected": 3422,
    "recovered": 0,
    "latitude": 19.352498,
    "pop": 17666800,
    "sick": 3165,
    "invisible": false
  },
  {
    "infected": 8790,
    "recovered": 177,
    "latitude": 23.685,
    "pop": 164700000,
    "longitude": 90.3563,
    "name": "Bangladesh",
    "country": "BD",
    "lastUpdated": "2020-05-02T16:25:03.033Z",
    "dead": 175,
    "id": "WpLayPPLIJ7VcHZdQaoM",
    "sick": 8438,
    "invisible": false
  },
  {
    "longitude": -99.8508,
    "name": "Querétaro",
    "country": "MX",
    "lastUpdated": "2020-05-02T16:01:10.646Z",
    "dead": 15,
    "id": "Wt97UDm6jfYef6WBrS2w",
    "infected": 157,
    "recovered": 0,
    "latitude": 20.836,
    "pop": 2100000,
    "sick": 142,
    "invisible": false
  },
  {
    "latitude": 45.5,
    "pop": 4905000,
    "longitude": 11.75,
    "name": "Veneto",
    "country": "IT",
    "lastUpdated": "2020-05-02T16:01:01.707Z",
    "dead": 1479,
    "id": "X2iRhHF6f9pUnJcxPc3J",
    "infected": 18098,
    "recovered": 8840,
    "sick": 7779,
    "invisible": false
  },
  {
    "latitude": -8.556856,
    "pop": 1311000,
    "longitude": 125.56031,
    "name": "Timor-Leste",
    "country": "TL",
    "lastUpdated": "2020-05-02T16:25:03.055Z",
    "dead": 0,
    "id": "X3GMAVINj2GDzIRVfo7n",
    "infected": 24,
    "recovered": 16,
    "sick": 8,
    "invisible": false
  },
  {
    "longitude": 77.577049,
    "name": "Ladakh",
    "country": "IN",
    "lastUpdated": "2020-05-02T16:11:01.079Z",
    "dead": 0,
    "id": "X3PZqaJxtnlxcgP4tzya",
    "infected": 23,
    "recovered": 17,
    "latitude": 34.152588,
    "pop": 274289,
    "sick": 6,
    "invisible": false
  },
  {
    "longitude": 118.278992,
    "name": "Fujian",
    "country": "CN",
    "lastUpdated": "2020-05-02T16:23:10.941Z",
    "dead": 1,
    "id": "XBBw0iMPrmiEu3qogkbi",
    "infected": 356,
    "recovered": 353,
    "latitude": 25.92448,
    "pop": 38560000,
    "sick": 2,
    "invisible": false
  },
  {
    "latitude": -52.368,
    "pop": 166533,
    "longitude": -70.9863,
    "name": "Magallanes",
    "country": "CL",
    "lastUpdated": "2020-05-02T16:11:10.844Z",
    "dead": 11,
    "id": "XIYUg6ShQvWyEAJfyJzC",
    "infected": 726,
    "recovered": 0,
    "sick": 715,
    "invisible": false
  },
  {
    "recovered": 0,
    "latitude": 37.794597,
    "pop": 246746,
    "longitude": -25.506134,
    "name": "Açores",
    "country": "PT",
    "lastUpdated": "2020-05-02T16:04:01.887Z",
    "dead": 13,
    "id": "XhM7BCQK50gGQ2wIUtDq",
    "infected": 131,
    "sick": 118,
    "invisible": false
  },
  {
    "infected": 648,
    "recovered": 435,
    "latitude": -32.5228,
    "pop": 3457000,
    "longitude": -55.7658,
    "name": "Uruguay",
    "country": "UY",
    "lastUpdated": "2020-05-02T16:25:03.041Z",
    "dead": 17,
    "id": "XrsuLstdybIqIvv0E0aJ",
    "sick": 196,
    "invisible": false
  },
  {
    "infected": 422,
    "recovered": 189,
    "latitude": 42.0396,
    "pop": 339178,
    "longitude": 9.0129,
    "name": "Corse",
    "country": "FR",
    "lastUpdated": "2020-05-01T22:54:50.096Z",
    "dead": 50,
    "id": "YGXgIObKVabP2CYEdcb9",
    "sick": 183,
    "invisible": false
  },
  {
    "infected": 133,
    "recovered": 40,
    "latitude": 2.916112,
    "pop": 1126000,
    "longitude": -75.28344,
    "name": "Huila",
    "country": "CO",
    "lastUpdated": "2020-05-02T16:18:09.651Z",
    "dead": 7,
    "id": "YI9zIOUXJqAcgc0T80yb",
    "sick": 86,
    "invisible": false
  },
  {
    "infected": 353,
    "recovered": 76,
    "latitude": 31.9522,
    "pop": 5052000,
    "longitude": 35.2332,
    "name": "Palestine",
    "country": "PS",
    "lastUpdated": "2020-05-02T16:25:03.048Z",
    "dead": 2,
    "id": "YMzKw0SnXG71VT7H1jff",
    "sick": 275,
    "invisible": false
  },
  {
    "infected": 1066,
    "recovered": 0,
    "latitude": 17.97,
    "pop": 2460900,
    "longitude": -92.5867,
    "name": "Tabasco",
    "country": "MX",
    "lastUpdated": "2020-05-02T16:01:10.645Z",
    "dead": 132,
    "id": "YP3nlz6AKyrnCWYb5mHA",
    "sick": 934,
    "invisible": false
  },
  {
    "recovered": 19,
    "latitude": 11.8037491,
    "pop": 1955000,
    "longitude": -15.1804132,
    "name": "Guinea-Bissau",
    "country": "GW",
    "lastUpdated": "2020-05-02T16:25:03.049Z",
    "dead": 1,
    "id": "YZoy8ReFucvC3IFnWZHn",
    "infected": 257,
    "sick": 237,
    "invisible": false
  },
  {
    "latitude": 64.2008,
    "pop": 737438,
    "longitude": -149.4937,
    "name": "Alaska",
    "country": "US",
    "lastUpdated": "2020-05-02T16:09:06.243Z",
    "dead": 9,
    "id": "YaCODTMD1KKRnrAlkg2u",
    "infected": 364,
    "recovered": 0,
    "sick": 355,
    "invisible": false
  },
  {
    "lastUpdated": "2020-05-02T16:09:04.666Z",
    "dead": 1321,
    "id": "YfA7o2lZP1DhV4JB6Umh",
    "infected": 16119,
    "recovered": 11805,
    "latitude": 42.9896,
    "pop": 2178000,
    "longitude": -2.6189,
    "name": "País Vasco",
    "country": "ES",
    "sick": 2993,
    "invisible": false
  },
  {
    "id": "YidRsOGDERjtbaIBGCdu",
    "infected": 147,
    "recovered": 0,
    "latitude": 16.8922,
    "pop": 4091400,
    "longitude": -96.4085,
    "name": "Oaxaca",
    "country": "MX",
    "lastUpdated": "2020-05-02T16:01:10.640Z",
    "dead": 20,
    "sick": 127,
    "invisible": false
  },