[
  {
    "hide": false,
    "infected": 18,
    "recovered": 0,
    "latitude": 25.315058,
    "longitude": 51.145517,
    "name": "Qatar",
    "country": "QA",
    "dead": 0,
    "lastUpdated": "2020-03-09T18:16:02.529Z",
    "id": "0m4aECS0Z2DGFEr8ldgI",
    "sick": 18
  },
  {
    "hide": false,
    "infected": 245,
    "recovered": 227,
    "latitude": 35.64249,
    "longitude": 108.472214,
    "name": "Shaanxi",
    "country": "CN",
    "dead": 1,
    "lastUpdated": "2020-03-09T08:14:30.644Z",
    "id": "0x2HLhr5z5xAtEdO4iZm",
    "sick": 17
  },
  {
    "dead": 0,
    "lastUpdated": "2020-03-09T18:16:02.598Z",
    "id": "19MvIhipqTyYv1H37Upw",
    "hide": false,
    "infected": 4,
    "recovered": 0,
    "latitude": 41.643351,
    "longitude": 21.668393,
    "name": "North Macedonia",
    "country": "MK",
    "sick": 4
  },
  {
    "id": "1Fap7rZu9SIRqf5TG9Dg",
    "hide": false,
    "infected": 18,
    "recovered": 18,
    "latitude": 35.801933,
    "longitude": 96.779286,
    "name": "Qinghai",
    "country": "CN",
    "dead": 0,
    "lastUpdated": "2020-03-09T08:14:02.157Z",
    "sick": 0
  },
  {
    "longitude": -51.925282,
    "name": "Brazil",
    "country": "BR",
    "dead": 0,
    "lastUpdated": "2020-03-09T18:16:02.569Z",
    "id": "1f0YoV0vAcexEhpESyZc",
    "hide": false,
    "infected": 25,
    "recovered": 0,
    "latitude": -14.235004,
    "sick": 25
  },
  {
    "dead": 0,
    "lastUpdated": "2020-03-09T08:15:48.578Z",
    "id": "25qIBtsW2nfQj3pwBKg9",
    "hide": false,
    "infected": 1,
    "recovered": 1,
    "latitude": 30.15336,
    "longitude": 88.787865,
    "name": "Tibet",
    "country": "CN",
    "sick": 0
  },
  {
    "hide": false,
    "infected": 19,
    "recovered": 0,
    "latitude": -1.572184,
    "longitude": 115.66779,
    "name": "Indonesia",
    "country": "ID",
    "dead": 0,
    "lastUpdated": "2020-03-09T18:16:02.559Z",
    "id": "2KHYUb5t3lwzVVmDjwNX",
    "sick": 19
  },
  {
    "latitude": 43.807191,
    "longitude": -120.585594,
    "name": "Oregon",
    "country": "US",
    "dead": 0,
    "lastUpdated": "2020-03-09T07:53:04.053Z",
    "id": "2OrsssmGUs4XCzaZzvTv",
    "hide": false,
    "infected": 14,
    "recovered": 0,
    "sick": 14
  },
  {
    "id": "2jxHvSsxdnom0nPNvOT8",
    "hide": false,
    "infected": 93,
    "recovered": 90,
    "latitude": 43.851921,
    "longitude": 126.548103,
    "name": "Jilin",
    "country": "CN",
    "dead": 1,
    "lastUpdated": "2020-03-09T08:13:50.986Z",
    "sick": 2
  },
  {
    "longitude": -5.3536,
    "name": "Gibraltar",
    "country": "GI",
    "dead": 0,
    "lastUpdated": "2020-03-09T18:16:02.454Z",
    "id": "2p11BjSAs3wVyymgqBOe",
    "hide": false,
    "infected": 1,
    "recovered": 1,
    "latitude": 36.1408,
    "sick": 0
  },
  {
    "id": "4hfZRUoUgI4a3vrG0GBk",
    "hide": false,
    "infected": 27,
    "recovered": 4,
    "latitude": 53.7267,
    "longitude": -127.6476,
    "name": "British Columbia",
    "country": "CA",
    "dead": 0,
    "lastUpdated": "2020-03-09T08:08:24.074Z",
    "sick": 23
  },
  {
    "latitude": 41.065877,
    "longitude": -7.920053,
    "name": "Portugal",
    "country": "PT",
    "dead": 0,
    "lastUpdated": "2020-03-09T18:16:02.525Z",
    "id": "4rQLxUCMmQLpbi6E9tbH",
    "hide": false,
    "infected": 35,
    "recovered": 0,
    "sick": 35
  },
  {
    "hide": false,
    "infected": 9,
    "recovered": 0,
    "latitude": 40.3426,
    "longitude": 47.93802,
    "name": "Azerbaijan",
    "country": "AZ",
    "dead": 0,
    "lastUpdated": "2020-03-09T18:16:02.401Z",
    "id": "4zqzRm2xHn0CDVOUQJ8p",
    "sick": 9
  },
  {
    "dead": 3,
    "lastUpdated": "2020-03-09T08:16:15.329Z",
    "id": "5N16a2OXXRpsEFanw0TC",
    "hide": false,
    "infected": 38,
    "recovered": 4,
    "latitude": -31.253218,
    "longitude": 146.921097,
    "name": "New South Wales",
    "country": "AU",
    "sick": 31
  },
  {
    "recovered": 1,
    "latitude": 28.394857,
    "longitude": 84.124008,
    "name": "Nepal",
    "country": "NP",
    "dead": 0,
    "lastUpdated": "2020-03-09T18:16:02.552Z",
    "id": "5gXZIjRgAvd6xWN1LOv8",
    "hide": false,
    "infected": 1,
    "sick": 0
  },
  {
    "dead": 1,
    "lastUpdated": "2020-03-09T18:16:02.404Z",
    "id": "5pwmh7aSdGRKqRbnuyc0",
    "hide": false,
    "infected": 24,
    "recovered": 2,
    "latitude": 12.879721,
    "longitude": 121.774017,
    "name": "Philippines",
    "country": "PH",
    "sick": 21
  },
  {
    "dead": 0,
    "lastUpdated": "2020-03-09T18:16:02.501Z",
    "id": "694ON7d0mRJDeM1gHBTR",
    "hide": false,
    "infected": 1,
    "recovered": 0,
    "latitude": 55.621011,
    "longitude": 23.804991,
    "name": "Lithuania",
    "country": "LT",
    "sick": 1
  },
  {
    "latitude": 22.396427,
    "longitude": 114.109497,
    "name": "Hong Kong",
    "country": "HK",
    "dead": 3,
    "lastUpdated": "2020-03-09T18:16:02.449Z",
    "id": "6IcHIIH0zXpY0POmBZTv",
    "hide": false,
    "infected": 115,
    "recovered": 59,
    "sick": 53
  },
  {
    "longitude": 14.5058,
    "name": "Slovenia",
    "country": "SI",
    "dead": 0,
    "lastUpdated": "2020-03-09T18:16:02.565Z",
    "id": "6ahNiyKDSDAftCctgLH3",
    "hide": false,
    "infected": 23,
    "recovered": 0,
    "latitude": 46.0569,
    "sick": 23
  },
  {
    "recovered": 0,
    "latitude": 17.901672,
    "longitude": -62.818544,
    "name": "Saint-Barthélemy",
    "country": "FR",
    "dead": 0,
    "lastUpdated": "2020-03-09T18:16:03.769Z",
    "id": "78Ox26bNHDA2Pk2b3Uwn",
    "hide": false,
    "infected": 1,
    "sick": 1
  },
  {
    "recovered": 0,
    "latitude": 47.4979,
    "longitude": 19.0402,
    "name": "Hungary",
    "country": "HU",
    "dead": 0,
    "lastUpdated": "2020-03-09T18:16:02.509Z",
    "id": "7rYC2iFB50c55Ihgbs4Q",
    "hide": false,
    "infected": 9,
    "sick": 9
  },
  {
    "hide": false,
    "infected": 3,
    "recovered": 0,
    "latitude": 53.560281,
    "longitude": -113.487916,
    "name": "Edmonton",
    "country": "CA",
    "dead": 0,
    "lastUpdated": "2020-03-09T08:08:46.376Z",
    "id": "88Jeyxv0ccymGSIJLKsT",
    "sick": 3
  },
  {
    "hide": false,
    "infected": 2,
    "recovered": 0,
    "latitude": 7.3697,
    "longitude": 12.3547,
    "name": "Cameroon",
    "country": "CM",
    "dead": 0,
    "lastUpdated": "2020-03-09T18:16:02.590Z",
    "id": "8C0d7WVCjyUGtnc2gUAR",
    "sick": 2
  },
  {
    "id": "8pA3fM4xC2c2wv1b4TnE",
    "hide": false,
    "infected": 160,
    "recovered": 93,
    "latitude": 1.352083,
    "longitude": 103.819839,
    "name": "Singapore",
    "country": "SG",
    "dead": 0,
    "lastUpdated": "2020-03-09T18:16:02.604Z",
    "sick": 67
  },
  {
    "hide": false,
    "infected": 15,
    "recovered": 5,
    "latitude": 45.943161,
    "longitude": 24.966761,
    "name": "Romania",
    "country": "RO",
    "dead": 0,
    "lastUpdated": "2020-03-09T18:16:02.475Z",
    "id": "9QcETqEcM2fTv9zRvx5T",
    "sick": 10
  },
  {
    "hide": false,
    "infected": 33,
    "recovered": 1,
    "latitude": 61.92411,
    "longitude": 25.748152,
    "name": "Finland",
    "country": "FI",
    "dead": 0,
    "lastUpdated": "2020-03-09T18:16:02.463Z",
    "id": "9p6OCdZbUUwBLA60Gk3W",
    "sick": 32
  },
  {
    "hide": false,
    "infected": 6,
    "recovered": 0,
    "latitude": 43.311643,
    "longitude": -71.590315,
    "name": "New Hampshire",
    "country": "US",
    "dead": 0,
    "lastUpdated": "2020-03-09T07:56:18.418Z",
    "id": "A84CwQ52kA46Hr7pn6Bm",
    "sick": 6
  },
  {
    "latitude": 41.823261,
    "longitude": -71.412257,
    "name": "Rhode Island",
    "country": "US",
    "dead": 0,
    "lastUpdated": "2020-03-09T07:53:59.165Z",
    "id": "AEUWUHS65qvjEslew11c",
    "hide": false,
    "infected": 3,
    "recovered": 0,
    "sick": 3
  },
  {
    "recovered": 923,
    "latitude": 27.285971,
    "longitude": 116.01609,
    "name": "Jiangxi",
    "country": "CN",
    "dead": 1,
    "lastUpdated": "2020-03-09T08:10:35.691Z",
    "id": "AmBYm5J6E9Cuez1FQjiN",
    "hide": false,
    "infected": 935,
    "sick": 11
  },
  {
    "longitude": 1.659626,
    "name": "Algeria",
    "country": "DZ",
    "dead": 0,
    "lastUpdated": "2020-03-09T18:16:02.498Z",
    "id": "AwN0CScPDApcLFgz6e3z",
    "hide": false,
    "infected": 20,
    "recovered": 0,
    "latitude": 28.033886,
    "sick": 20
  },
  {
    "latitude": 20.5937,
    "longitude": 78.9629,
    "name": "India",
    "country": "IN",
    "dead": 0,
    "lastUpdated": "2020-03-09T18:16:02.479Z",
    "id": "B05tcRxZlMUSyed5WcAA",
    "hide": false,
    "infected": 45,
    "recovered": 4,
    "sick": 41
  },
  {
    "latitude": 45.099998,
    "longitude": 15.2,
    "name": "Croatia",
    "country": "HR",
    "dead": 0,
    "lastUpdated": "2020-03-09T18:16:02.428Z",
    "id": "B82Ef45M8cDu4q7VsSHF",
    "hide": false,
    "infected": 12,
    "recovered": 0,
    "sick": 12
  },
  {
    "latitude": 40.23985,
    "longitude": -100.996784,
    "name": "United States (Unknown State)",
    "country": "US",
    "dead": 0,
    "lastUpdated": "2020-03-09T07:51:57.085Z",
    "id": "BCFAwm0wjOZlbPfnttGd",
    "hide": false,
    "infected": 45,
    "recovered": 0,
    "sick": 45
  },
  {
    "dead": 0,
    "lastUpdated": "2020-03-09T07:59:22.139Z",
    "id": "BF51mWl51fgEcyBpCSzb",
    "hide": false,
    "infected": 6,
    "recovered": 0,
    "latitude": 39.509109,
    "longitude": -76.98432,
    "name": "Maryland",
    "country": "US",
    "sick": 6
  },
  {
    "hide": false,
    "infected": 6,
    "recovered": 0,
    "latitude": 53.709808,
    "longitude": 27.953388,
    "name": "Belarus",
    "country": "BY",
    "dead": 0,
    "lastUpdated": "2020-03-09T18:16:02.615Z",
    "id": "BGg6yVU5VP71B8NXU0oh",
    "sick": 6
  },
  {
    "hide": false,
    "infected": 5,
    "recovered": 2,
    "latitude": 33.42744,
    "longitude": -111.94012,
    "name": "Arizona",
    "country": "US",
    "dead": 0,
    "lastUpdated": "2020-03-09T07:48:49.935Z",
    "id": "BTEESCuD2ZbS1afunR2A",
    "sick": 3
  },
  {
    "id": "C3BCUzV80z9GfiuByIcr",
    "hide": false,
    "infected": 106,
    "recovered": 0,
    "latitude": 40.719042,
    "longitude": -73.982597,
    "name": "New York",
    "country": "US",
    "dead": 0,
    "lastUpdated": "2020-03-09T07:53:48.410Z",
    "sick": 106
  },
  {
    "longitude": 15.359413,
    "name": "Czechia",
    "country": "CZ",
    "dead": 0,
    "lastUpdated": "2020-03-09T18:16:02.487Z",
    "id": "C6S76AggdWVU8G22jFHQ",
    "hide": false,
    "infected": 36,
    "recovered": 0,
    "latitude": 49.731626,
    "sick": 36
  },
  {
    "hide": false,
    "infected": 109,
    "recovered": 22,
    "latitude": 26.0667,
    "longitude": 50.557701,
    "name": "Bahrain",
    "country": "BH",
    "dead": 0,
    "lastUpdated": "2020-03-09T18:16:02.433Z",
    "id": "C7cj4nwRITs13KnaJrQ2",
    "sick": 87
  },
  {
    "hide": false,
    "infected": 280,
    "recovered": 18,
    "latitude": 52.355518,
    "longitude": -1.17432,
    "name": "United Kingdom",
    "country": "GB",
    "dead": 3,
    "lastUpdated": "2020-03-09T14:23:22.613Z",
    "id": "CrXu6i5Sqx11iwdfHfBs",
    "sick": 259
  },
  {
    "latitude": 40.259003,
    "longitude": 44.818474,
    "name": "Armenia",
    "country": "AM",
    "dead": 0,
    "lastUpdated": "2020-03-09T18:16:02.510Z",
    "id": "DCJCtZoBTWQ4mzdDNljD",
    "hide": false,
    "infected": 1,
    "recovered": 0,
    "sick": 1
  },
  {
    "hide": false,
    "infected": 10,
    "recovered": 10,
    "latitude": 22.192039,
    "longitude": 113.551262,
    "name": "Macao",
    "country": "MO",
    "dead": 0,
    "lastUpdated": "2020-03-09T18:16:02.491Z",
    "id": "DdBt8qsG6A3g92oOR3ow",
    "sick": 0
  },
  {
    "latitude": 40.6401,
    "longitude": 22.9444,
    "name": "Greece",
    "country": "GR",
    "dead": 0,
    "lastUpdated": "2020-03-09T18:16:02.410Z",
    "id": "Dtr1lap1RpJpXJdXGJiW",
    "hide": false,
    "infected": 84,
    "recovered": 0,
    "sick": 84
  },
  {
    "latitude": 25.03841,
    "longitude": 121.563698,
    "name": "Taiwan",
    "country": "TW",
    "dead": 1,
    "lastUpdated": "2020-03-09T18:16:02.447Z",
    "id": "EKTfs8e7M6DXzI1HqyyX",
    "hide": false,
    "infected": 45,
    "recovered": 15,
    "sick": 29
  },
  {
    "infected": 9,
    "recovered": 0,
    "latitude": 10.327273,
    "longitude": -84.387618,
    "name": "Costa Rica",
    "country": "CR",
    "dead": 0,
    "lastUpdated": "2020-03-09T18:16:02.567Z",
    "id": "EQzJvzVHKjs8kLmK7BMu",
    "hide": false,
    "sick": 9
  },
  {
    "hide": false,
    "infected": 4,
    "recovered": 0,
    "latitude": 33.93911,
    "longitude": 67.709953,
    "name": "Afghanistan",
    "country": "AF",
    "dead": 0,
    "lastUpdated": "2020-03-09T18:16:02.506Z",
    "id": "FCDmlmnIIswd8bQiUjfN",
    "sick": 4
  },
  {
    "dead": 6,
    "lastUpdated": "2020-03-09T08:09:43.544Z",
    "id": "FErOU1m4Tj7jIkRam3vF",
    "hide": false,
    "infected": 576,
    "recovered": 528,
    "latitude": 29.431585,
    "longitude": 106.912254,
    "name": "Chongqing",
    "country": "CN",
    "sick": 42
  },
  {
    "id": "FZsUkhxBEgqsPb4eO0PN",
    "hide": false,
    "infected": 65,
    "recovered": 1,
    "latitude": 29.311661,
    "longitude": 47.481766,
    "name": "Kuwait",
    "country": "KW",
    "dead": 0,
    "lastUpdated": "2020-03-09T18:16:02.439Z",
    "sick": 64
  },
  {
    "id": "FuiVEJvWb0QMCpxJ3563",
    "hide": false,
    "infected": 5,
    "recovered": 0,
    "latitude": 18.947829,
    "longitude": -70.430399,
    "name": "Dominican Republic",
    "country": "DO",
    "dead": 0,
    "lastUpdated": "2020-03-09T18:16:02.477Z",
    "sick": 5
  },
  {
    "hide": false,
    "infected": 8,
    "recovered": 0,
    "latitude": 48.669,
    "longitude": 19.699,
    "name": "Slovakia",
    "country": "SK",
    "dead": 0,
    "lastUpdated": "2020-03-09T18:16:02.485Z",
    "id": "FzIDXoqWnTI3nUfhPyT2",
    "sick": 8
  },
  {
    "latitude": 30.37532,
    "longitude": 69.345116,
    "name": "Pakistan",
    "country": "PK",
    "dead": 0,
    "lastUpdated": "2020-03-09T18:16:02.549Z",
    "id": "GAp7Wb6IMhdgbvEtMza9",
    "hide": false,
    "infected": 8,
    "recovered": 1,
    "sick": 7
  },
  {
    "hide": false,
    "infected": 59,
    "recovered": 7,
    "latitude": 23.424076,
    "longitude": 53.847816,
    "name": "United Arab Emirates",
    "country": "AE",
    "dead": 0,
    "lastUpdated": "2020-03-09T14:22:45.284Z",
    "id": "GHzBIsHy2GiBc5JV2HMs",
    "sick": 52
  },
  {
    "recovered": 3,
    "latitude": 36.621981,
    "longitude": -119.339046,
    "name": "California",
    "country": "US",
    "dead": 1,
    "lastUpdated": "2020-03-09T07:51:12.813Z",
    "id": "Gh46r6vuaY7fbGt3IboN",
    "hide": false,
    "infected": 99,
    "sick": 95
  },
  {
    "infected": 1,
    "recovered": 0,
    "latitude": 35.87189,
    "longitude": -97.145514,
    "name": "Oklahoma",
    "country": "US",
    "dead": 0,
    "lastUpdated": "2020-03-09T08:03:48.393Z",
    "id": "GpF8ULuKOQiFDCUHN44h",
    "hide": false,
    "sick": 1
  },
  {
    "hide": false,
    "infected": 75,
    "recovered": 70,
    "latitude": 42.83263,
    "longitude": 113.750972,
    "name": "Inner Mongolia",
    "country": "CN",
    "dead": 1,
    "lastUpdated": "2020-03-09T08:15:09.229Z",
    "id": "H3JeVigVbo5CSYfZG4WI",
    "sick": 4
  },
  {
    "recovered": 0,
    "latitude": 39.74536,
    "longitude": -116.724977,
    "name": "Nevada",
    "country": "US",
    "dead": 0,
    "lastUpdated": "2020-03-09T07:59:38.443Z",
    "id": "H3bDg4eV30up4WWrIDAS",
    "hide": false,
    "infected": 4,
    "sick": 4
  },
  {
    "id": "HRDpwyxpqW9RN0xLFyNu",
    "hide": false,
    "infected": 1,
    "recovered": 0,
    "latitude": 27.5142,
    "longitude": 90.4336,
    "name": "Bhutan",
    "country": "BT",
    "dead": 0,
    "lastUpdated": "2020-03-09T18:16:02.457Z",
    "sick": 1
  },
  {
    "id": "I4OJ6z9Vjs1byOcbsJrd",
    "hide": false,
    "infected": 7,
    "recovered": 1,
    "latitude": 23.634501,
    "longitude": -102.552788,
    "name": "Mexico",
    "country": "MX",
    "dead": 0,
    "lastUpdated": "2020-03-09T18:16:02.431Z",
    "sick": 6
  },
  {
    "infected": 1352,
    "recovered": 1260,
    "latitude": 23.363855,
    "longitude": 113.373448,
    "name": "Guangdong",
    "country": "CN",
    "dead": 8,
    "lastUpdated": "2020-03-09T08:10:58.582Z",
    "id": "IAX0OQLVnUwU7FX0ENF1",
    "hide": false,
    "sick": 84
  },
  {
    "dead": 22,
    "lastUpdated": "2020-03-09T08:09:51.700Z",
    "id": "IFuMrMvSjoiX5agYvllh",
    "hide": false,
    "infected": 1272,
    "recovered": 1247,
    "latitude": 33.875408,
    "longitude": 113.484016,
    "name": "Henan",
    "country": "CN",
    "sick": 3
  },
  {
    "infected": 13,
    "recovered": 0,
    "latitude": 32.528564,
    "longitude": -83.280125,
    "name": "Georgia (US)",
    "country": "US",
    "dead": 0,
    "lastUpdated": "2020-03-09T07:57:52.872Z",
    "id": "IvQkDJkTAsoIqPRAU25n",
    "hide": false,
    "sick": 13
  },
  {
    "latitude": -42.8285,
    "longitude": 172.488081,
    "name": "New Zealand",
    "country": "NZ",
    "dead": 0,
    "lastUpdated": "2020-03-09T18:16:02.481Z",
    "id": "IvVhpOoGpH6JVkGyUhXN",
    "hide": false,
    "infected": 5,
    "recovered": 0,
    "sick": 5
  },
  {
    "longitude": 6.1296,
    "name": "Luxembourg",
    "country": "LU",
    "dead": 0,
    "lastUpdated": "2020-03-09T18:16:02.426Z",
    "id": "JcFsHSn2WvZ5LJW42ovG",
    "hide": false,
    "infected": 5,
    "recovered": 0,
    "latitude": 49.8153,
    "sick": 5
  },
  {
    "id": "JrBbirlBKGdWSdcDt7PF",
    "hide": false,
    "infected": 1,
    "recovered": 0,
    "latitude": 8.6195,
    "longitude": 0.8248,
    "name": "Togo",
    "country": "TG",
    "dead": 0,
    "lastUpdated": "2020-03-09T18:16:02.607Z",
    "sick": 1
  },
  {
    "hide": false,
    "infected": 4,
    "recovered": 0,
    "latitude": 42.7339,
    "longitude": 25.4858,
    "name": "Bulgaria",
    "country": "BG",
    "dead": 0,
    "lastUpdated": "2020-03-09T18:16:02.547Z",
    "id": "JzZ8sbqzjutThVjkPKPL",
    "sick": 4
  },
  {
    "hide": false,
    "infected": 1,
    "recovered": 1,
    "latitude": 7.873054,
    "longitude": 80.771797,
    "name": "Sri Lanka",
    "country": "LK",
    "dead": 0,
    "lastUpdated": "2020-03-09T18:16:02.397Z",
    "id": "KsWzJO06cf0d6LJ4ZNh9",
    "sick": 0
  },
  {
    "dead": 0,
    "lastUpdated": "2020-03-09T18:16:02.596Z",
    "id": "KwOuGBKSMRlmwftxAvLX",
    "hide": false,
    "infected": 20,
    "recovered": 3,
    "latitude": 61.52401,
    "longitude": 105.318756,
    "name": "Russia",
    "country": "RU",
    "sick": 17
  },
  {
    "dead": 0,
    "lastUpdated": "2020-03-09T18:16:03.775Z",
    "id": "LBUtrLDKJiupXjlUNTUe",
    "hide": false,
    "infected": 2,
    "recovered": 0,
    "latitude": 18.0708,
    "longitude": -63.0501,
    "name": "Saint-Martin",
    "country": "FR",
    "sick": 2
  },
  {
    "latitude": 47.166,
    "longitude": 9.5554,
    "name": "Liechtenstein",
    "country": "LI",
    "dead": 0,
    "lastUpdated": "2020-03-09T18:16:02.621Z",
    "id": "LTGEU2E9MFkrCcFhZYVk",
    "hide": false,
    "infected": 1,
    "recovered": 0,
    "sick": 1
  },
  {
    "longitude": -84.27,
    "name": "Kentucky",
    "country": "US",
    "dead": 0,
    "lastUpdated": "2020-03-09T08:00:41.925Z",
    "id": "MC8MXFw9iXYybnF8v7e6",
    "hide": false,
    "infected": 3,
    "recovered": 0,
    "latitude": 37.8393,
    "sick": 3
  },
  {
    "dead": 0,
    "lastUpdated": "2020-03-09T08:00:16.192Z",
    "id": "MOxDkmQ4wBi1CuAdVxDE",
    "hide": false,
    "infected": 2,
    "recovered": 0,
    "latitude": 40.2672,
    "longitude": -86.1349,
    "name": "Indiana",
    "country": "US",
    "sick": 2
  },
  {
    "longitude": 105.977203,
    "name": "Ningxia",
    "country": "CN",
    "dead": 0,
    "lastUpdated": "2020-03-09T08:15:27.561Z",
    "id": "MntmjjuHljarCdt6aIeE",
    "hide": false,
    "infected": 75,
    "recovered": 71,
    "latitude": 37.330509,
    "sick": 4
  },
  {
    "hide": false,
    "infected": 4,
    "recovered": 0,
    "latitude": 44.696652,
    "longitude": 17.824332,
    "name": "Bosnia and Herzegovina",
    "country": "BA",
    "dead": 0,
    "lastUpdated": "2020-03-09T18:16:02.610Z",
    "id": "N7c13sCQF0G789XAVazJ",
    "sick": 4
  },
  {
    "hide": false,
    "infected": 133,
    "recovered": 130,
    "latitude": 37.242565,
    "longitude": 111.856857,
    "name": "Shanxi",
    "country": "CN",
    "dead": 0,
    "lastUpdated": "2020-03-09T08:14:42.514Z",
    "id": "NBRIGIRrJB1Ry8prDNAC",
    "sick": 3
  },
  {
    "infected": 2,
    "recovered": 0,
    "latitude": 35.7596,
    "longitude": -79.0193,
    "name": "North Carolina",
    "country": "US",
    "dead": 0,
    "lastUpdated": "2020-03-09T08:01:41.699Z",
    "id": "NC64Qp5kTqAfiTuR27k8",
    "hide": false,
    "sick": 2
  },
  {
    "hide": false,
    "infected": 6,
    "recovered": 1,
    "latitude": 56.96776,
    "longitude": 25.837107,
    "name": "Latvia",
    "country": "LV",
    "dead": 0,
    "lastUpdated": "2020-03-09T18:16:02.589Z",
    "id": "NmmMKy0YqA8StHdGzB5N",
    "sick": 5
  },
  {
    "latitude": 34.003307,
    "longitude": -80.525613,
    "name": "South Carolina",
    "country": "US",
    "dead": 0,
    "lastUpdated": "2020-03-09T08:04:01.492Z",
    "id": "ONU4CK8QjViFHKg2w5if",
    "hide": false,
    "infected": 6,
    "recovered": 0,
    "sick": 6
  },
  {
    "dead": 0,
    "lastUpdated": "2020-03-09T08:09:14.120Z",
    "id": "OnOseaqWdnuP18oruABW",
    "hide": false,
    "infected": 2,
    "recovered": 0,
    "latitude": -41.915264,
    "longitude": 146.725256,
    "name": "Tasmania",
    "country": "AU",
    "sick": 2
  },
  {
    "dead": 0,
    "lastUpdated": "2020-03-09T08:01:22.934Z",
    "id": "PJvVYosLIhbcRZYnKX1R",
    "hide": false,
    "infected": 2,
    "recovered": 0,
    "latitude": 46.7296,
    "longitude": -94.6859,
    "name": "Minnesota",
    "country": "US",
    "sick": 2
  },
  {
    "dead": 0,
    "lastUpdated": "2020-03-09T07:48:33.483Z",
    "id": "PTwQr9ijo0TBBsPH2sdJ",
    "hide": false,
    "infected": 7,
    "recovered": 2,
    "latitude": 41.908724,
    "longitude": -87.631753,
    "name": "Illinois",
    "country": "US",
    "sick": 5
  },
  {
    "hide": false,
    "infected": 5,
    "recovered": 0,
    "latitude": 34.201507,
    "longitude": 9.460554,
    "name": "Tunisia",
    "country": "TN",
    "dead": 0,
    "lastUpdated": "2020-03-09T18:16:02.437Z",
    "id": "Pr76V4raf108uSRoEXac",
    "sick": 5
  },
  {
    "dead": 0,
    "lastUpdated": "2020-03-09T08:16:24.892Z",
    "id": "Q18mrGvFWTLX2BU9SqhQ",
    "hide": false,
    "infected": 11,
    "recovered": 7,
    "latitude": -37.009609,
    "longitude": 143.94853,
    "name": "Victoria",
    "country": "AU",
    "sick": 4
  },
  {
    "id": "QR9go2hQKXjty7JHUYe4",
    "hide": false,
    "infected": 10,
    "recovered": 0,
    "latitude": 58.595272,
    "longitude": 25.013607,
    "name": "Estonia",
    "country": "EE",
    "dead": 0,
    "lastUpdated": "2020-03-09T18:16:02.530Z",
    "sick": 10
  },
  {
    "latitude": 43.653225,
    "longitude": -79.383186,
    "name": "Toronto, ON",
    "country": "CA",
    "dead": 0,
    "lastUpdated": "2020-03-09T08:08:39.883Z",
    "id": "Rx4TuyMpfGb3S8wYJX0x",
    "hide": false,
    "infected": 28,
    "recovered": 3,
    "sick": 25
  },
  {
    "id": "SDdefnq1bc3ZNr7SpEsW",
    "hide": false,
    "infected": 2,
    "recovered": 0,
    "latitude": 14.652027,
    "longitude": -61.011715,
    "name": "Martinique",
    "country": "FR",
    "dead": 0,
    "lastUpdated": "2020-03-09T18:16:03.756Z",
    "sick": 2
  },
  {
    "id": "SGe9sCPayMqh6RsGFaBA",
    "hide": false,
    "infected": 374,
    "recovered": 3,
    "latitude": 46.818188,
    "longitude": 8.227512,
    "name": "Switzerland",
    "country": "CH",
    "dead": 2,
    "lastUpdated": "2020-03-09T18:16:02.423Z",
    "sick": 369
  },
  {
    "hide": false,
    "infected": 4,
    "recovered": 0,
    "latitude": 45.505029,
    "longitude": -73.581878,
    "name": "Montreal",
    "country": "CA",
    "dead": 0,
    "lastUpdated": "2020-03-09T08:07:56.452Z",
    "id": "SHoOE3NiJgWAlDVBzwYH",
    "sick": 4
  },
  {
    "latitude": 41.4925,
    "longitude": -99.9018,
    "name": "Nebraska",
    "country": "US",
    "dead": 0,
    "lastUpdated": "2020-03-09T08:01:08.438Z",
    "id": "SakhKQzKu1LRI8laqdQq",
    "hide": false,
    "infected": 3,
    "recovered": 0,
    "sick": 3
  },
  {
    "hide": false,
    "infected": 2,
    "recovered": 1,
    "latitude": 12.565679,
    "longitude": 104.990967,
    "name": "Cambodia",
    "country": "KH",
    "dead": 0,
    "lastUpdated": "2020-03-09T18:16:02.517Z",
    "id": "SioMALgUbo7peXmbco2f",
    "sick": 1
  },
  {
    "latitude": 23.635796,
    "longitude": 44.344334,
    "name": "Saudi Arabia",
    "country": "SA",
    "dead": 0,
    "lastUpdated": "2020-03-09T18:16:02.513Z",
    "id": "T7NffoeCgTUpAbOHvYwP",
    "hide": false,
    "infected": 15,
    "recovered": 1,
    "sick": 14
  },
  {
    "hide": false,
    "infected": 8,
    "recovered": 0,
    "latitude": 39.318928,
    "longitude": -105.461392,
    "name": "Colorado",
    "country": "US",
    "dead": 0,
    "lastUpdated": "2020-03-09T07:58:40.711Z",
    "id": "Th4dlpXXmSDgi1OHs36P",
    "sick": 8
  },
  {
    "dead": 0,
    "lastUpdated": "2020-03-09T18:16:02.375Z",
    "id": "Ty1AY3VLPJcRZgdBIERx",
    "hide": false,
    "infected": 90,
    "recovered": 1,
    "latitude": 55.675758,
    "longitude": 12.56902,
    "name": "Denmark",
    "country": "DK",
    "sick": 89
  },
  {
    "hide": false,
    "infected": 758,
    "recovered": 699,
    "latitude": 36.395859,
    "longitude": 118.769882,
    "name": "Shandong",
    "country": "CN",
    "dead": 6,
    "lastUpdated": "2020-03-09T08:14:13.196Z",
    "id": "U0tkTJ9CGsBuFJ2Gdoum",
    "sick": 53
  },
  {
    "hide": false,
    "infected": 51,
    "recovered": 0,
    "latitude": 43.94236,
    "longitude": 12.457777,
    "name": "San Marino",
    "country": "SM",
    "dead": 2,
    "lastUpdated": "2020-03-09T18:16:02.626Z",
    "id": "U12rMD5GDW58Q0lIwrB1",
    "sick": 49
  },
  {
    "infected": 530,
    "recovered": 101,
    "latitude": 36.204823,
    "longitude": 138.25293,
    "name": "Japan",
    "country": "JP",
    "dead": 9,
    "lastUpdated": "2020-03-09T18:16:02.537Z",
    "id": "U13Gy4BpRLAZ95bPmBXd",
    "hide": false,
    "sick": 420
  },
  {
    "latitude": 3.527606,
    "longitude": -72.998674,
    "name": "Colombia",
    "country": "CO",
    "dead": 0,
    "lastUpdated": "2020-03-09T18:16:02.461Z",
    "id": "VAAmtxtDuCY0o55zRsOh",
    "hide": false,
    "infected": 3,
    "recovered": 0,
    "sick": 3
  },
  {
    "hide": false,
    "infected": 174,
    "recovered": 170,
    "latitude": 25.181129,
    "longitude": 101.864143,
    "name": "Yunnan",
    "country": "CN",
    "dead": 2,
    "lastUpdated": "2020-03-09T08:12:05.213Z",
    "id": "VIf8T8PD3ZzlzAm5eBCX",
    "sick": 2
  },
  {
    "latitude": -30.5595,
    "longitude": 22.9375,
    "name": "South Africa",
    "country": "ZA",
    "dead": 0,
    "lastUpdated": "2020-03-09T18:16:02.471Z",
    "id": "Whrue10NtwIObLvFFyBr",
    "hide": false,
    "infected": 7,
    "recovered": 0,
    "sick": 7
  },
  {
    "hide": false,
    "infected": 3,
    "recovered": 0,
    "latitude": 23.685,
    "longitude": 90.3563,
    "name": "Bangladesh",
    "country": "BD",
    "dead": 0,
    "lastUpdated": "2020-03-09T18:16:02.435Z",
    "id": "WpLayPPLIJ7VcHZdQaoM",
    "sick": 3
  },
  {
    "hide": false,
    "infected": 296,
    "recovered": 295,
    "latitude": 25.92448,
    "longitude": 118.278992,
    "name": "Fujian",
    "country": "CN",
    "dead": 1,
    "lastUpdated": "2020-03-09T08:11:06.371Z",
    "id": "XBBw0iMPrmiEu3qogkbi",
    "sick": 0
  },
  {
    "dead": 2,
    "lastUpdated": "2020-03-09T18:16:02.480Z",
    "id": "XWtMdKtp2HAFy68kPZLa",
    "hide": false,
    "infected": 1176,
    "recovered": 18,
    "latitude": 51.165691,
    "longitude": 10.451526,
    "name": "Germany",
    "country": "DE",
    "sick": 1156
  },
  {
    "latitude": 41.871941,
    "longitude": 12.56738,
    "name": "Italy",
    "country": "IT",
    "dead": 463,
    "lastUpdated": "2020-03-09T18:16:02.383Z",
    "id": "XdekMZcw1lJK2MWpBlNK",
    "hide": false,
    "infected": 9172,
    "recovered": 724,
    "sick": 7985
  },
  {
    "hide": false,
    "infected": 25,
    "recovered": 0,
    "latitude": 31.9522,
    "longitude": 35.2332,
    "name": "Palestine",
    "country": "PS",
    "dead": 0,
    "lastUpdated": "2020-03-09T18:16:02.612Z",
    "id": "YMzKw0SnXG71VT7H1jff",
    "sick": 25
  },
  {
    "hide": false,
    "infected": 7478,
    "recovered": 166,
    "latitude": 37.568291,
    "longitude": 126.99778,
    "name": "South Korea",
    "country": "KR",
    "dead": 53,
    "lastUpdated": "2020-03-09T14:24:15.139Z",
    "id": "Yw9uBekNlefXBcOCNMfP",
    "sick": 7259
  },
  {
    "latitude": 52.2297,
    "longitude": 21.0122,
    "name": "Poland",
    "country": "PL",
    "dead": 0,
    "lastUpdated": "2020-03-09T18:16:02.623Z",
    "id": "ZAZNuCK1VweBaTLCFzCk",
    "hide": false,
    "infected": 17,
    "recovered": 0,
    "sick": 17
  },
  {
    "longitude": 136.209152,
    "name": "South Australia",
    "country": "AU",
    "dead": 0,
    "lastUpdated": "2020-03-09T08:16:43.626Z",
    "id": "a9p9pAOsjg1WAjPGc2a6",
    "hide": false,
    "infected": 7,
    "recovered": 2,
    "latitude": -30.000233,
    "sick": 5
  },
  {
    "hide": false,
    "infected": 256,
    "recovered": 230,
    "latitude": 23.64407,
    "longitude": 108.26651,
    "name": "Guangxi",
    "country": "CN",
    "dead": 2,
    "lastUpdated": "2020-03-09T08:11:24.047Z",
    "id": "aTa8MiBjtH3iY0SRs2HQ",
    "sick": 24
  },
  {
    "infected": 428,
    "recovered": 315,
    "latitude": 39.904202,
    "longitude": 116.407394,
    "name": "Beijing",
    "country": "CN",
    "dead": 8,
    "lastUpdated": "2020-03-09T08:12:27.635Z",
    "id": "alj4hkxg9cjrTxOzwFKt",
    "hide": false,
    "sick": 105
  },
  {
    "longitude": 43.679291,
    "name": "Iraq",
    "country": "IQ",
    "dead": 6,
    "lastUpdated": "2020-03-09T18:16:02.508Z",
    "id": "b7TwXX46FA0EmH1CjHET",
    "hide": false,
    "infected": 65,
    "recovered": 1,
    "latitude": 33.22319,
    "sick": 58
  },
  {
    "dead": 0,
    "lastUpdated": "2020-03-09T18:16:02.521Z",
    "id": "b9p1JhVml3GGC7iiPmKv",
    "hide": false,
    "infected": 4,
    "recovered": 1,
    "latitude": 14.457474,
    "longitude": -14.358636,
    "name": "Senegal",
    "country": "SN",
    "sick": 3
  },
  {
    "dead": 0,
    "lastUpdated": "2020-03-09T07:58:07.658Z",
    "id": "bYp4RRHv19M7lYtSzQeV",
    "hide": false,
    "infected": 5,
    "recovered": 0,
    "latitude": 39.561889,
    "longitude": -74.672169,
    "name": "New Jersey",
    "country": "US",
    "sick": 5
  },
  {
    "dead": 0,
    "lastUpdated": "2020-03-09T18:16:02.532Z",
    "id": "bdqD4kpdqGgUaX70Tm2Q",
    "hide": false,
    "infected": 117,
    "recovered": 24,
    "latitude": 3.139,
    "longitude": 101.6869,
    "name": "Malaysia",
    "country": "MY",
    "sick": 93
  },
  {
    "latitude": 60.128162,
    "longitude": 18.643501,
    "name": "Sweden",
    "country": "SE",
    "dead": 0,
    "lastUpdated": "2020-03-09T18:16:02.522Z",
    "id": "bignnyt2A8BBx8VNo32p",
    "hide": false,
    "infected": 260,
    "recovered": 1,
    "sick": 259
  },
  {
    "hide": false,
    "infected": 60,
    "recovered": 1,
    "latitude": 64.963051,
    "longitude": -19.020836,
    "name": "Iceland",
    "country": "IS",
    "dead": 0,
    "lastUpdated": "2020-03-09T18:16:02.561Z",
    "id": "cPxe7nsRnOf6aOPqHElJ",
    "sick": 59
  },
  {
    "hide": false,
    "infected": 41,
    "recovered": 4,
    "latitude": 31.046051,
    "longitude": 34.851612,
    "name": "Israel",
    "country": "IL",
    "dead": 0,
    "lastUpdated": "2020-03-09T18:16:02.442Z",
    "id": "cX891t0ONLNFj0MYq6La",
    "sick": 37
  },
  {
    "dead": 0,
    "lastUpdated": "2020-03-09T18:16:03.748Z",
    "id": "cc7s6hYGQ2MovBBBgkKb",
    "hide": false,
    "infected": 5,
    "recovered": 0,
    "latitude": 4.749531,
    "longitude": -53.112909,
    "name": "Guyane",
    "country": "FR",
    "sick": 5
  },
  {
    "dead": 0,
    "lastUpdated": "2020-03-09T18:16:02.594Z",
    "id": "cgzd5EM8PZv5ziJtTz1w",
    "hide": false,
    "infected": 2,
    "recovered": 0,
    "latitude": 61.8926,
    "longitude": -6.9118,
    "name": "Faeroe Islands",
    "country": "FO",
    "sick": 2
  },
  {
    "recovered": 0,
    "latitude": 41.2033,
    "longitude": -77.1945,
    "name": "Pennsylvania",
    "country": "US",
    "dead": 0,
    "lastUpdated": "2020-03-09T08:03:23.226Z",
    "id": "chj2FF3zb4Xxcop9RHre",
    "hide": false,
    "infected": 6,
    "sick": 6
  },
  {
    "latitude": 40.463669,
    "longitude": -3.74922,
    "name": "Spain",
    "country": "ES",
    "dead": 28,
    "lastUpdated": "2020-03-09T18:16:02.420Z",
    "id": "d0ExINgPaWUBm3l4ioJL",
    "hide": false,
    "infected": 1073,
    "recovered": 32,
    "sick": 1013
  },
  {
    "latitude": 42.50837,
    "longitude": 1.517155,
    "name": "Andorra",
    "country": "AD",
    "dead": 0,
    "lastUpdated": "2020-03-09T18:16:02.605Z",
    "id": "dedMXSYR2k92wkSXNZqn",
    "hide": false,
    "infected": 1,
    "recovered": 0,
    "sick": 1
  },
  {
    "hide": false,
    "infected": 131,
    "recovered": 2,
    "latitude": 47.516232,
    "longitude": 14.550072,
    "name": "Austria",
    "country": "AT",
    "dead": 0,
    "lastUpdated": "2020-03-09T18:16:02.497Z",
    "id": "e3BtI12qbqhE8jypOoZu",
    "sick": 129
  },
  {
    "dead": 1,
    "lastUpdated": "2020-03-09T08:12:52.424Z",
    "id": "e7P83iImanpd9r36oXK3",
    "hide": false,
    "infected": 125,
    "recovered": 109,
    "latitude": 41.097481,
    "longitude": 122.310669,
    "name": "Liaoning",
    "country": "CN",
    "sick": 15
  },
  {
    "id": "e9pQqQa7CEblCYoDtfKo",
    "hide": false,
    "infected": 342,
    "recovered": 315,
    "latitude": 31.230391,
    "longitude": 121.473701,
    "name": "Shanghai",
    "country": "CN",
    "dead": 3,
    "lastUpdated": "2020-03-09T08:11:33.970Z",
    "sick": 24
  },
  {
    "hide": false,
    "infected": 23,
    "recovered": 1,
    "latitude": 42.360081,
    "longitude": -71.058884,
    "name": "Massachusetts",
    "country": "US",
    "dead": 0,
    "lastUpdated": "2020-03-09T07:49:46.911Z",
    "id": "eCKDGssww4pF7NrxOySu",
    "sick": 22
  },
  {
    "dead": 0,
    "lastUpdated": "2020-03-09T18:16:02.562Z",
    "id": "eLgKPNUwYM5MNDAtF6ql",
    "hide": false,
    "infected": 1,
    "recovered": 0,
    "latitude": 43.740451,
    "longitude": 7.432032,
    "name": "Monaco",
    "country": "MC",
    "sick": 1
  },
  {
    "hide": false,
    "infected": 539,
    "recovered": 465,
    "latitude": 30.14208,
    "longitude": 102.960701,
    "name": "Sichuan",
    "country": "CN",
    "dead": 3,
    "lastUpdated": "2020-03-09T08:11:48.283Z",
    "id": "eyK5bxFkwdoAouIBvLFM",
    "sick": 71
  },
  {
    "longitude": 55.975414,
    "name": "Oman",
    "country": "OM",
    "dead": 0,
    "lastUpdated": "2020-03-09T18:16:02.617Z",
    "id": "f9kmlhYtc3WA3kjbWszW",
    "hide": false,
    "infected": 18,
    "recovered": 9,
    "latitude": 21.473534,
    "sick": 9
  },
  {
    "recovered": 0,
    "latitude": 31.295929,
    "longitude": 36.691952,
    "name": "Jordan",
    "country": "JO",
    "dead": 0,
    "lastUpdated": "2020-03-09T18:16:02.584Z",
    "id": "fK06AziL8wyrcoz7rsmJ",
    "hide": false,
    "infected": 1,
    "sick": 1
  },
  {
    "dead": 2,
    "lastUpdated": "2020-03-09T07:55:03.625Z",
    "id": "fNganaGVPifA4QahEQPS",
    "hide": false,
    "infected": 11,
    "recovered": 0,
    "latitude": 27.716933,
    "longitude": -81.555239,
    "name": "Florida",
    "country": "US",
    "sick": 9
  },
  {
    "latitude": 35.452016,
    "longitude": 139.664285,
    "name": "Yokahama Port (Cruise)",
    "country": "JP",
    "dead": 7,
    "lastUpdated": "2020-03-09T08:06:34.720Z",
    "id": "fNnE9CD0SttEVrCUo1Ym",
    "hide": false,
    "infected": 706,
    "recovered": 245,
    "sick": 454
  },
  {
    "dead": 3007,
    "lastUpdated": "2020-03-09T08:10:03.944Z",
    "id": "fiJ14DCxw15e3SMemh8R",
    "hide": false,
    "infected": 67743,
    "recovered": 46451,
    "latitude": 31.160629,
    "longitude": 112.255402,
    "name": "Hubei",
    "country": "CN",
    "sick": 18285
  },
  {
    "hide": false,
    "infected": 1,
    "recovered": 0,
    "latitude": 50.4501,
    "longitude": 30.5234,
    "name": "Ukraine",
    "country": "UA",
    "dead": 0,
    "lastUpdated": "2020-03-09T18:16:02.459Z",
    "id": "flbZ2kaR5kBuV8XZ2Nsu",
    "sick": 1
  },
  {
    "latitude": 52.132633,
    "longitude": 5.291266,
    "name": "Netherlands",
    "country": "NL",
    "dead": 3,
    "lastUpdated": "2020-03-09T18:16:02.597Z",
    "id": "g0lRMtEJbucWIGqSPn0I",
    "hide": false,
    "infected": 321,
    "recovered": 0,
    "sick": 318
  },
  {
    "latitude": 42.984268,
    "longitude": -81.247528,
    "name": "London, ON",
    "country": "CA",
    "dead": 0,
    "lastUpdated": "2020-03-09T08:08:30.738Z",
    "id": "g93vYzplUjSlZyA1PNCo",
    "hide": false,
    "infected": 1,
    "recovered": 1,
    "sick": 0
  },
  {
    "longitude": 14.432846,
    "name": "Malta",
    "country": "MT",
    "dead": 0,
    "lastUpdated": "2020-03-09T18:16:02.599Z",
    "id": "h9UqxYZ5xC4JZrmdDz0q",
    "hide": false,
    "infected": 3,
    "recovered": 0,
    "latitude": 35.894231,
    "sick": 3
  },
  {
    "latitude": 35.751835,
    "longitude": 104.28611,
    "name": "Gansu",
    "country": "CN",
    "dead": 2,
    "lastUpdated": "2020-03-09T08:12:16.524Z",
    "id": "iGkTscdD0XyHFSP23Qrp",
    "hide": false,
    "infected": 124,
    "recovered": 87,
    "sick": 35
  },
  {
    "id": "jMlHjIOb7eMPSxFBrmG1",
    "hide": false,
    "infected": 136,
    "recovered": 129,
    "latitude": 39.343357,
    "longitude": 117.361649,
    "name": "Tianjin",
    "country": "CN",
    "dead": 3,
    "lastUpdated": "2020-03-09T08:13:30.025Z",
    "sick": 4
  },
  {
    "id": "jpVXEDCyfyq26gPoCtHL",
    "hide": false,
    "infected": 21,
    "recovered": 0,
    "latitude": 53.3498,
    "longitude": -6.2603,
    "name": "Ireland",
    "country": "IE",
    "dead": 0,
    "lastUpdated": "2020-03-09T18:16:02.452Z",
    "sick": 21
  },
  {
    "id": "lhPjpn6CzqTRDN0RW8uE",
    "hide": false,
    "infected": 76,
    "recovered": 73,
    "latitude": 42.524635,
    "longitude": 87.539589,
    "name": "Xinjiang",
    "country": "CN",
    "dead": 3,
    "lastUpdated": "2020-03-09T08:15:39.099Z",
    "sick": 0
  },
  {
    "longitude": 12.4534,
    "name": "Vatican City",
    "country": "VA",
    "dead": 0,
    "lastUpdated": "2020-03-09T18:16:02.585Z",
    "id": "mF7rVMdVnazAuw8G22xs",
    "hide": false,
    "infected": 1,
    "recovered": 0,
    "latitude": 41.9029,
    "sick": 1
  },
  {
    "dead": 0,
    "lastUpdated": "2020-03-09T18:16:02.587Z",
    "id": "mSACWVbCy5QE7ciLA93J",
    "hide": false,
    "infected": 10,
    "recovered": 0,
    "latitude": -33.4489,
    "longitude": -70.6693,
    "name": "Chile",
    "country": "CL",
    "sick": 10
  },
  {
    "dead": 0,
    "lastUpdated": "2020-03-09T07:59:58.678Z",
    "id": "nLhJXE2apq8yNNj363ai",
    "hide": false,
    "infected": 3,
    "recovered": 0,
    "latitude": 35.693323,
    "longitude": -86.605748,
    "name": "Tennessee",
    "country": "US",
    "sick": 3
  },
  {
    "hide": false,
    "infected": 2,
    "recovered": 0,
    "latitude": 31.893778,
    "longitude": -6.196132,
    "name": "Morocco",
    "country": "MA",
    "dead": 0,
    "lastUpdated": "2020-03-09T18:16:02.545Z",
    "id": "oJ5vSDE9vgXC2PG8LElp",
    "sick": 2
  },
  {
    "hide": false,
    "infected": 15,
    "recovered": 8,
    "latitude": -20.917574,
    "longitude": 142.702789,
    "name": "Queensland",
    "country": "AU",
    "dead": 0,
    "lastUpdated": "2020-03-09T08:16:33.708Z",
    "id": "oxz2l1rJipCsfMfy8Mmk",
    "sick": 7
  },
  {
    "hide": false,
    "infected": 481,
    "recovered": 421,
    "latitude": 47.121647,
    "longitude": 128.738235,
    "name": "Heilongjiang",
    "country": "CN",
    "dead": 13,
    "lastUpdated": "2020-03-09T08:13:18.338Z",
    "id": "p1aZboN4BtRJe7hPl8cw",
    "sick": 47
  },
  {
    "hide": false,
    "infected": 990,
    "recovered": 984,
    "latitude": 32.026379,
    "longitude": 117.252747,
    "name": "Anhui",
    "country": "CN",
    "dead": 6,
    "lastUpdated": "2020-03-09T08:10:12.967Z",
    "id": "pFhBwPnGGpQ6DLppJ6YS",
    "sick": 0
  },
  {
    "hide": false,
    "infected": 3,
    "recovered": 0,
    "latitude": -26.190439,
    "longitude": 123.325947,
    "name": "Western Australia",
    "country": "AU",
    "dead": 1,
    "lastUpdated": "2020-03-09T08:09:07.226Z",
    "id": "qnQ0dkxAxnDP01YpdZgk",
    "sick": 2
  },
  {
    "recovered": 1,
    "latitude": 50.503887,
    "longitude": 4.469936,
    "name": "Belgium",
    "country": "BE",
    "dead": 0,
    "lastUpdated": "2020-03-09T18:16:02.502Z",
    "id": "qpAxVz0garcS0gNZxtOw",
    "hide": false,
    "infected": 239,
    "sick": 238
  },
  {
    "latitude": 29.424122,
    "longitude": -98.493629,
    "name": "Texas",
    "country": "US",
    "dead": 0,
    "lastUpdated": "2020-03-09T07:51:49.030Z",
    "id": "qsrWiq0qCmIG66hpWojP",
    "hide": false,
    "infected": 12,
    "recovered": 0,
    "sick": 12
  },
  {
    "latitude": 14.058324,
    "longitude": 108.277199,
    "name": "Vietnam",
    "country": "VN",
    "dead": 0,
    "lastUpdated": "2020-03-09T18:16:02.550Z",
    "id": "rKnSEyG03ak4YmGzonlg",
    "hide": false,
    "infected": 31,
    "recovered": 16,
    "sick": 15
  },
  {
    "hide": false,
    "infected": 1215,
    "recovered": 1174,
    "latitude": 29.159849,
    "longitude": 120.326447,
    "name": "Zhejiang",
    "country": "CN",
    "dead": 1,
    "lastUpdated": "2020-03-09T08:11:57.469Z",
    "id": "rgBVJ4hPofqjjchnroiY",
    "sick": 40
  },
  {
    "dead": 0,
    "lastUpdated": "2020-03-09T18:16:02.444Z",
    "id": "rxSafpWsyKhfkV0HTtb4",
    "hide": false,
    "infected": 205,
    "recovered": 1,
    "latitude": 60.472023,
    "longitude": 8.468946,
    "name": "Norway",
    "country": "NO",
    "sick": 204
  },
  {
    "latitude": 51.048087,
    "longitude": -114.078022,
    "name": "Calgary",
    "country": "CA",
    "dead": 0,
    "lastUpdated": "2020-03-09T08:08:03.993Z",
    "id": "sBFMOzZJdrdXdyLZpweO",
    "hide": false,
    "infected": 1,
    "recovered": 0,
    "sick": 1
  },
  {
    "latitude": 19.566395,
    "longitude": 109.949684,
    "name": "Hainan",
    "country": "CN",
    "dead": 6,
    "lastUpdated": "2020-03-09T08:12:40.152Z",
    "id": "sKNhMvgXeyivpNFg02RA",
    "hide": false,
    "infected": 168,
    "recovered": 159,
    "sick": 3
  },
  {
    "dead": 0,
    "lastUpdated": "2020-03-09T18:16:02.602Z",
    "id": "sLL1jETcJYjT6g5bfcEG",
    "hide": false,
    "infected": 9,
    "recovered": 0,
    "latitude": -10.33755,
    "longitude": -75.630295,
    "name": "Peru",
    "country": "PE",
    "sick": 9
  },
  {
    "infected": 318,
    "recovered": 307,
    "latitude": 37.89566,
    "longitude": 114.904221,
    "name": "Hebei",
    "country": "CN",
    "dead": 6,
    "lastUpdated": "2020-03-09T08:13:40.407Z",
    "id": "sgsBhTwHxF1VVnqXbXXp",
    "hide": false,
    "sick": 5
  },
  {
    "latitude": 42.3154,
    "longitude": 43.3569,
    "name": "Georgia",
    "country": "GE",
    "dead": 0,
    "lastUpdated": "2020-03-09T18:16:02.466Z",
    "id": "sjW9OwjFqrOvjVHRXWoR",
    "hide": false,
    "infected": 15,
    "recovered": 0,
    "sick": 15
  },
  {
    "dead": 0,
    "lastUpdated": "2020-03-09T08:03:34.045Z",
    "id": "tSmr8vNsiDhhpXMSBsms",
    "hide": false,
    "infected": 1,
    "recovered": 0,
    "latitude": 39.147061,
    "longitude": -111.596466,
    "name": "Utah",
    "country": "US",
    "sick": 1
  },
  {
    "latitude": 27.3818,
    "longitude": 111.510681,
    "name": "Hunan",
    "country": "CN",
    "dead": 4,
    "lastUpdated": "2020-03-09T08:10:20.326Z",
    "id": "tdNRDDrgvBQqqwzdFGh4",
    "hide": false,
    "infected": 1018,
    "recovered": 979,
    "sick": 35
  },
  {
    "hide": false,
    "infected": 146,
    "recovered": 123,
    "latitude": 26.842964,
    "longitude": 107.290283,
    "name": "Guizhou",
    "country": "CN",
    "dead": 2,
    "lastUpdated": "2020-03-09T08:15:17.922Z",
    "id": "tyY4QSHWG9sXqSO9jm0Y",
    "sick": 21
  },
  {
    "hide": false,
    "infected": 631,
    "recovered": 618,
    "latitude": 32.93708,
    "longitude": 119.151932,
    "name": "Jiangsu",
    "country": "CN",
    "dead": 0,
    "lastUpdated": "2020-03-09T08:14:22.030Z",
    "id": "uvxN28EpGmRq3K9REtBP",
    "sick": 13
  },
  {
    "dead": 1,
    "lastUpdated": "2020-03-09T18:16:02.614Z",
    "id": "v8JcH4FHH7BDpJlNNHjv",
    "hide": false,
    "infected": 55,
    "recovered": 1,
    "latitude": 26.820553,
    "longitude": 30.802498,
    "name": "Egypt",
    "country": "EG",
    "sick": 53
  },
  {
    "latitude": 47.288374,
    "longitude": -119.928431,
    "name": "Washington",
    "country": "US",
    "dead": 18,
    "lastUpdated": "2020-03-09T07:55:59.742Z",
    "id": "vCUVQn7RK8pkw5y2rvYN",
    "hide": false,
    "infected": 123,
    "recovered": 1,
    "sick": 104
  },
  {
    "hide": false,
    "infected": 7161,
    "recovered": 2394,
    "latitude": 32.42791,
    "longitude": 53.688046,
    "name": "Iran",
    "country": "IR",
    "dead": 237,
    "lastUpdated": "2020-03-09T18:16:02.515Z",
    "id": "vkkXVaqUswO5JsMZx0mX",
    "sick": 4530
  },
  {
    "dead": 1,
    "lastUpdated": "2020-03-09T18:16:02.535Z",
    "id": "wEl0cjiA6OcZiI9kaSsF",
    "hide": false,
    "infected": 12,
    "recovered": 0,
    "latitude": -34.6037,
    "longitude": -58.3816,
    "name": "Argentina",
    "country": "AR",
    "sick": 11
  },
  {
    "hide": false,
    "infected": 2,
    "recovered": 0,
    "latitude": 21.287261,
    "longitude": -157.838954,
    "name": "Hawaii",
    "country": "US",
    "dead": 0,
    "lastUpdated": "2020-03-09T08:04:16.648Z",
    "id": "wi47s9vKxiMqxfgurj3B",
    "sick": 2
  },
  {
    "dead": 0,
    "lastUpdated": "2020-03-09T18:16:02.625Z",
    "id": "xFgM48q8JxVPfvQLQDNb",
    "hide": false,
    "infected": 41,
    "recovered": 1,
    "latitude": 34.08267,
    "longitude": 35.918113,
    "name": "Lebanon",
    "country": "LB",
    "sick": 40
  },
  {
    "dead": 0,
    "lastUpdated": "2020-03-09T18:16:02.592Z",
    "id": "xHWPTTpNHEwWv6MqfxP5",
    "hide": false,
    "infected": 2,
    "recovered": 0,
    "latitude": 9.081999,
    "longitude": 8.675277,
    "name": "Nigeria",
    "country": "NG",
    "sick": 2
  },
  {
    "latitude": 43.073051,
    "longitude": -89.40123,
    "name": "Wisconsin",
    "country": "US",
    "dead": 0,
    "lastUpdated": "2020-03-09T07:51:29.677Z",
    "id": "xSHgaJlyPxHFWB6hhyng",
    "hide": false,
    "infected": 1,
    "recovered": 1,
    "sick": 0
  },
  {
    "dead": 19,
    "lastUpdated": "2020-03-09T10:35:55.194Z",
    "id": "yXFfRqV9eQnNiCzS2k6w",
    "hide": false,
    "infected": 1209,
    "recovered": 12,
    "latitude": 46.565366,
    "longitude": 2.693317,
    "name": "France (Métropole)",
    "country": "FR",
    "sick": 1178
  },
  {
    "hide": false,
    "infected": 15,
    "recovered": 0,
    "latitude": -1.831239,
    "longitude": -78.183403,
    "name": "Ecuador",
    "country": "EC",
    "dead": 0,
    "lastUpdated": "2020-03-09T18:16:02.415Z",
    "id": "zC03Urt1iJJb2Tf6p0jd",
    "sick": 15
  },
  {
    "latitude": 15.870032,
    "longitude": 100.992538,
    "name": "Thailand",
    "country": "TH",
    "dead": 1,
    "lastUpdated": "2020-03-09T18:16:02.542Z",
    "id": "zvdC0u72Bk5YKNaazZFZ",
    "hide": false,
    "infected": 50,
    "recovered": 33,
    "sick": 16
  },
  {
    "latitude": 44.0165,
    "longitude": 21.0059,
    "name": "Serbia",
    "country": "RS",
    "dead": 0,
    "lastUpdated": "2020-03-09T18:16:02.606Z",
    "id": "zyxFwuiyCJHhRyNEg60C",
    "hide": false,
    "infected": 2,
    "recovered": 0,
    "sick": 2
  }
]