[
  {
    "lastUpdated": "2020-04-04T17:49:02.239Z",
    "dead": 186,
    "id": "0GJcws44NSPsDHAuxJhW",
    "infected": 2828,
    "recovered": 146,
    "latitude": 41.066666,
    "pop": 5827000,
    "longitude": 14.333333,
    "name": "Campania",
    "country": "IT",
    "sick": 2496
  },
  {
    "latitude": 20.9517,
    "pop": 45990000,
    "longitude": 85.0985,
    "name": "Odisha",
    "country": "IN",
    "lastUpdated": "2020-04-04T17:40:02.104Z",
    "dead": 0,
    "id": "0VG7S6aaK4eSo59fL9JO",
    "infected": 20,
    "recovered": 2,
    "sick": 18
  },
  {
    "infected": 10,
    "recovered": 0,
    "latitude": 11.7401,
    "pop": 427246,
    "longitude": 92.6586,
    "name": "Andaman and Nicobar Islands",
    "country": "IN",
    "lastUpdated": "2020-04-04T17:52:05.742Z",
    "dead": 0,
    "id": "0jStOpTUNRaQYJqgmRoK",
    "sick": 10
  },
  {
    "latitude": 25.315058,
    "pop": 2639000,
    "longitude": 51.145517,
    "name": "Qatar",
    "country": "QA",
    "lastUpdated": "2020-04-04T17:45:03.113Z",
    "dead": 3,
    "id": "0m4aECS0Z2DGFEr8ldgI",
    "infected": 1325,
    "recovered": 109,
    "sick": 1213
  },
  {
    "infected": 69,
    "recovered": 3,
    "latitude": 22.9868,
    "pop": 90320000,
    "longitude": 87.855,
    "name": "West Bengal",
    "country": "IN",
    "lastUpdated": "2020-04-04T17:52:05.841Z",
    "dead": 3,
    "id": "0n54EMSDJcRoT1QEvw80",
    "sick": 63
  },
  {
    "longitude": 78.6569,
    "name": "Madhya Pradesh",
    "country": "IN",
    "lastUpdated": "2020-04-04T17:40:02.113Z",
    "dead": 11,
    "id": "0s18o5DrDAHjbu5MFcrj",
    "infected": 154,
    "recovered": 0,
    "latitude": 22.9734,
    "pop": 73340000,
    "sick": 143
  },
  {
    "recovered": 14514,
    "latitude": 37.0902,
    "longitude": -95.7129,
    "name": "Unknown US state",
    "country": "US",
    "dead": 0,
    "lastUpdated": "2020-04-04T17:45:02.578Z",
    "id": "0tFoopNTs6e4tOoaltu2",
    "infected": 0,
    "sick": 0
  },
  {
    "longitude": 108.472214,
    "name": "Shaanxi",
    "country": "CN",
    "lastUpdated": "2020-04-04T17:29:09.363Z",
    "dead": 3,
    "id": "0x2HLhr5z5xAtEdO4iZm",
    "infected": 256,
    "recovered": 245,
    "latitude": 35.64249,
    "pop": 37330000,
    "sick": 8
  },
  {
    "infected": 483,
    "recovered": 20,
    "latitude": 41.643351,
    "pop": 2077000,
    "longitude": 21.668393,
    "name": "North Macedonia",
    "country": "MK",
    "lastUpdated": "2020-04-04T17:45:03.104Z",
    "dead": 17,
    "id": "19MvIhipqTyYv1H37Upw",
    "sick": 446
  },
  {
    "recovered": 0,
    "latitude": 53.1355,
    "pop": 521542,
    "longitude": -57.6604,
    "name": "Newfoundland and Labrador",
    "country": "CA",
    "lastUpdated": "2020-04-04T17:45:02.030Z",
    "dead": 1,
    "id": "1DOMOmCWDtva46OVSZLv",
    "infected": 195,
    "sick": 194
  },
  {
    "longitude": 96.779286,
    "name": "Qinghai",
    "country": "CN",
    "lastUpdated": "2020-04-04T17:29:08.964Z",
    "dead": 0,
    "id": "1Fap7rZu9SIRqf5TG9Dg",
    "infected": 18,
    "recovered": 18,
    "latitude": 35.801933,
    "pop": 5627000,
    "sick": 0
  },
  {
    "longitude": 8.206944,
    "name": "Piemonte",
    "country": "IT",
    "lastUpdated": "2020-04-04T17:49:02.521Z",
    "dead": 1128,
    "id": "1eTSQyfp8RoDPeFrIwun",
    "infected": 11709,
    "recovered": 888,
    "latitude": 44.9,
    "pop": 4376000,
    "sick": 9693
  },
  {
    "infected": 9391,
    "recovered": 127,
    "latitude": -14.235004,
    "pop": 209300000,
    "longitude": -51.925282,
    "name": "Brazil",
    "country": "BR",
    "lastUpdated": "2020-04-04T17:45:03.042Z",
    "dead": 376,
    "id": "1f0YoV0vAcexEhpESyZc",
    "sick": 8888
  },
  {
    "id": "1qTPB8X3tyLyIdsb5TN3",
    "infected": 752,
    "recovered": 29,
    "latitude": 47.4116,
    "pop": 3550000,
    "longitude": 28.3699,
    "name": "Moldova",
    "country": "MD",
    "lastUpdated": "2020-04-04T17:45:03.072Z",
    "dead": 12,
    "sick": 711
  },
  {
    "lastUpdated": "2020-04-04T17:29:09.252Z",
    "dead": 0,
    "id": "25qIBtsW2nfQj3pwBKg9",
    "infected": 1,
    "recovered": 1,
    "latitude": 30.15336,
    "pop": 3180000,
    "longitude": 88.787865,
    "name": "Tibet",
    "country": "CN",
    "sick": 0
  },
  {
    "recovered": 150,
    "latitude": -1.572184,
    "pop": 264000000,
    "longitude": 115.66779,
    "name": "Indonesia",
    "country": "ID",
    "lastUpdated": "2020-04-04T17:45:03.025Z",
    "dead": 191,
    "id": "2KHYUb5t3lwzVVmDjwNX",
    "infected": 2092,
    "sick": 1751
  },
  {
    "lastUpdated": "2020-04-04T17:48:14.620Z",
    "dead": 22,
    "id": "2OrsssmGUs4XCzaZzvTv",
    "infected": 899,
    "recovered": 0,
    "latitude": 43.807191,
    "pop": 4191000,
    "longitude": -120.585594,
    "name": "Oregon",
    "country": "US",
    "sick": 877
  },
  {
    "recovered": 92,
    "latitude": 43.851921,
    "pop": 27460000,
    "longitude": 126.548103,
    "name": "Jilin",
    "country": "CN",
    "lastUpdated": "2020-04-04T17:29:09.359Z",
    "dead": 1,
    "id": "2jxHvSsxdnom0nPNvOT8",
    "infected": 98,
    "sick": 5
  },
  {
    "recovered": 52,
    "latitude": 36.1408,
    "pop": 34571,
    "longitude": -5.3536,
    "name": "Gibraltar",
    "country": "GI",
    "lastUpdated": "2020-04-04T17:45:03.286Z",
    "dead": 0,
    "id": "2p11BjSAs3wVyymgqBOe",
    "infected": 98,
    "sick": 46
  },
  {
    "lastUpdated": "2020-04-03T18:15:04.001Z",
    "dead": 98,
    "id": "2sLNkkHpyaHx7dD3aMDO",
    "infected": 1430,
    "recovered": 225,
    "latitude": 47.7516,
    "pop": 2567000,
    "longitude": 1.6751,
    "name": "Centre-Val de Loire",
    "country": "FR",
    "sick": 1107
  },
  {
    "longitude": 12.643751,
    "name": "Umbria",
    "country": "IT",
    "lastUpdated": "2020-04-04T17:49:02.426Z",
    "dead": 41,
    "id": "319tiZOMczx1y0DfvOib",
    "infected": 1210,
    "recovered": 242,
    "latitude": 42.565044,
    "pop": 884640,
    "sick": 927
  },
  {
    "latitude": -13.133896,
    "pop": 17090000,
    "longitude": 27.849332,
    "name": "Zambia",
    "country": "ZM",
    "lastUpdated": "2020-04-04T17:45:03.219Z",
    "dead": 1,
    "id": "3IlPjAbP5qVMn1nlgLTJ",
    "infected": 39,
    "recovered": 2,
    "sick": 36
  },
  {
    "infected": 201,
    "recovered": 1,
    "latitude": 42.7044,
    "pop": 631219,
    "longitude": 19.3958,
    "name": "Montenegro",
    "country": "ME",
    "lastUpdated": "2020-04-04T17:45:03.204Z",
    "dead": 2,
    "id": "3LstMSN5XMYBkxbe5HN7",
    "sick": 198
  },
  {
    "infected": 93,
    "recovered": 1,
    "latitude": -35.4735,
    "pop": 418440,
    "longitude": 149.0124,
    "name": "Australian Capital Territory",
    "country": "AU",
    "lastUpdated": "2020-04-04T17:42:03.044Z",
    "dead": 0,
    "id": "3OZoQsKrzxZ18EKyfGE6",
    "sick": 92
  },
  {
    "infected": 25,
    "recovered": 0,
    "latitude": 26.2006,
    "pop": 30940000,
    "longitude": 92.9376,
    "name": "Assam",
    "country": "IN",
    "lastUpdated": "2020-04-04T17:40:02.140Z",
    "dead": 0,
    "id": "3cCbnJCsK7mKlTO08K1o",
    "sick": 25
  },
  {
    "recovered": 0,
    "latitude": 40.4173,
    "pop": 11690000,
    "longitude": -82.9071,
    "name": "Ohio",
    "country": "US",
    "lastUpdated": "2020-04-04T17:48:14.606Z",
    "dead": 91,
    "id": "3fC3bAyIRUquOQOEnQNe",
    "infected": 3312,
    "sick": 3221
  },
  {
    "latitude": 21.0079,
    "pop": 4420000,
    "longitude": -10.9408,
    "name": "Mauritania",
    "country": "MR",
    "lastUpdated": "2020-04-04T17:45:03.244Z",
    "dead": 1,
    "id": "4NnFMekRK2m14IlnZZoj",
    "infected": 6,
    "recovered": 2,
    "sick": 3
  },
  {
    "longitude": -127.6476,
    "name": "British Columbia",
    "country": "CA",
    "lastUpdated": "2020-04-04T17:45:01.942Z",
    "dead": 35,
    "id": "4hfZRUoUgI4a3vrG0GBk",
    "infected": 1174,
    "recovered": 0,
    "latitude": 53.7267,
    "pop": 5071000,
    "sick": 1139
  },
  {
    "latitude": 41.065877,
    "pop": 10290000,
    "longitude": -7.920053,
    "name": "Portugal",
    "country": "PT",
    "lastUpdated": "2020-04-04T17:45:03.013Z",
    "dead": 266,
    "id": "4rQLxUCMmQLpbi6E9tbH",
    "infected": 10524,
    "recovered": 75,
    "sick": 10183
  },
  {
    "longitude": 47.93802,
    "name": "Azerbaijan",
    "country": "AZ",
    "lastUpdated": "2020-04-04T17:45:03.076Z",
    "dead": 5,
    "id": "4zqzRm2xHn0CDVOUQJ8p",
    "infected": 521,
    "recovered": 32,
    "latitude": 40.3426,
    "pop": 9898000,
    "sick": 484
  },
  {
    "recovered": 0,
    "latitude": 25.025885,
    "pop": 395361,
    "longitude": -78.035889,
    "name": "Bahamas",
    "country": "BS",
    "lastUpdated": "2020-04-04T17:45:03.370Z",
    "dead": 3,
    "id": "5MHegCUO9L3LiAU7DDey",
    "infected": 24,
    "sick": 21
  },
  {
    "lastUpdated": "2020-04-04T17:42:03.232Z",
    "dead": 8,
    "id": "5N16a2OXXRpsEFanw0TC",
    "infected": 2493,
    "recovered": 4,
    "latitude": -31.253218,
    "pop": 7544000,
    "longitude": 146.921097,
    "name": "New South Wales",
    "country": "AU",
    "sick": 2481
  },
  {
    "longitude": 165.618042,
    "name": "New Caledonia",
    "country": "NC",
    "lastUpdated": "2020-04-04T17:45:03.266Z",
    "dead": 0,
    "id": "5fg04eyDwFw3kEXnrxez",
    "infected": 18,
    "recovered": 1,
    "latitude": -20.9043045,
    "pop": 280460,
    "sick": 17
  },
  {
    "recovered": 1,
    "latitude": 28.394857,
    "pop": 29300000,
    "longitude": 84.124008,
    "name": "Nepal",
    "country": "NP",
    "lastUpdated": "2020-04-04T17:45:03.315Z",
    "dead": 0,
    "id": "5gXZIjRgAvd6xWN1LOv8",
    "infected": 9,
    "sick": 8
  },
  {
    "infected": 3094,
    "recovered": 57,
    "latitude": 12.879721,
    "pop": 104900000,
    "longitude": 121.774017,
    "name": "Philippines",
    "country": "PH",
    "lastUpdated": "2020-04-04T17:45:03.103Z",
    "dead": 144,
    "id": "5pwmh7aSdGRKqRbnuyc0",
    "sick": 2893
  },
  {
    "latitude": -17.824858,
    "pop": 14802190,
    "longitude": 31.053028,
    "name": "Zimbabwe",
    "country": "ZW",
    "lastUpdated": "2020-04-04T17:45:03.273Z",
    "dead": 1,
    "id": "5qtR9nx4BLwu1ODTniaY",
    "infected": 9,
    "recovered": 0,
    "sick": 8
  },
  {
    "longitude": 23.804991,
    "name": "Lithuania",
    "country": "LT",
    "lastUpdated": "2020-04-04T17:45:03.016Z",
    "dead": 10,
    "id": "694ON7d0mRJDeM1gHBTR",
    "infected": 771,
    "recovered": 7,
    "latitude": 55.621011,
    "pop": 2794000,
    "sick": 754
  },
  {
    "infected": 862,
    "recovered": 173,
    "latitude": 22.396427,
    "pop": 7392000,
    "longitude": 114.109497,
    "name": "Hong Kong",
    "country": "HK",
    "lastUpdated": "2020-04-04T17:45:03.018Z",
    "dead": 4,
    "id": "6IcHIIH0zXpY0POmBZTv",
    "sick": 685
  },
  {
    "recovered": 2,
    "latitude": 9.3077,
    "pop": 11180000,
    "longitude": 2.3158,
    "name": "Benin",
    "country": "BJ",
    "lastUpdated": "2020-04-04T17:45:03.371Z",
    "dead": 0,
    "id": "6SlpghTyB6lpMFvx3g9U",
    "infected": 16,
    "sick": 14
  },
  {
    "infected": 49118,
    "recovered": 13242,
    "latitude": 45.6667,
    "pop": 10040000,
    "longitude": 9.5,
    "name": "Lombardia",
    "country": "IT",
    "lastUpdated": "2020-04-04T17:49:02.423Z",
    "dead": 8656,
    "id": "6ZHcvMIzVWIaRnc4R3Qp",
    "sick": 27220
  },
  {
    "latitude": 46.0569,
    "pop": 2067000,
    "longitude": 14.5058,
    "name": "Slovenia",
    "country": "SI",
    "lastUpdated": "2020-04-04T17:45:03.051Z",
    "dead": 22,
    "id": "6ahNiyKDSDAftCctgLH3",
    "infected": 977,
    "recovered": 79,
    "sick": 876
  },
  {
    "infected": 21,
    "recovered": 1,
    "latitude": -0.8037,
    "pop": 2025000,
    "longitude": 11.6094,
    "name": "Gabon",
    "country": "GA",
    "lastUpdated": "2020-04-04T17:45:03.227Z",
    "dead": 1,
    "id": "6pBi38TUgYfFm0bry2uh",
    "sick": 19
  },
  {
    "latitude": 17.901672,
    "pop": 9131,
    "longitude": -62.818544,
    "name": "Saint-Barthélémy",
    "country": "FR",
    "lastUpdated": "2020-04-04T17:45:03.314Z",
    "dead": 0,
    "id": "78Ox26bNHDA2Pk2b3Uwn",
    "infected": 6,
    "recovered": 1,
    "sick": 5
  },
  {
    "longitude": -61.7964,
    "name": "Antigua and Barbuda",
    "country": "AG",
    "lastUpdated": "2020-04-04T17:45:03.365Z",
    "dead": 0,
    "id": "7hVFcEV7nV0MrQr3LHrl",
    "infected": 15,
    "recovered": 0,
    "latitude": 17.0608,
    "pop": 102012,
    "sick": 15
  },
  {
    "lastUpdated": "2020-04-04T17:41:02.727Z",
    "dead": 399,
    "id": "7kCrrlOBE3jN6FtOVNUB",
    "infected": 23854,
    "recovered": 1397,
    "latitude": 48.7904,
    "pop": 13000000,
    "longitude": 11.4979,
    "name": "Bayern",
    "country": "DE",
    "sick": 22058
  },
  {
    "id": "7rYC2iFB50c55Ihgbs4Q",
    "infected": 678,
    "recovered": 58,
    "latitude": 47.4979,
    "pop": 9773000,
    "longitude": 19.0402,
    "name": "Hungary",
    "country": "HU",
    "lastUpdated": "2020-04-04T17:45:03.111Z",
    "dead": 32,
    "sick": 588
  },
  {
    "infected": 509,
    "recovered": 17,
    "latitude": 7.3697,
    "pop": 24050000,
    "longitude": 12.3547,
    "name": "Cameroon",
    "country": "CM",
    "lastUpdated": "2020-04-04T17:45:03.085Z",
    "dead": 8,
    "id": "8C0d7WVCjyUGtnc2gUAR",
    "sick": 484
  },
  {
    "recovered": 1,
    "latitude": -16.2902,
    "pop": 11050000,
    "longitude": -63.5887,
    "name": "Bolivia",
    "country": "BO",
    "lastUpdated": "2020-04-04T17:45:03.313Z",
    "dead": 10,
    "id": "8RihJrXw4NQXPxaRxr1u",
    "infected": 139,
    "sick": 128
  },
  {
    "latitude": 12.9843,
    "pop": 109897,
    "longitude": -61.2872,
    "name": "St. Vincent Grenadines",
    "country": "VC",
    "lastUpdated": "2020-04-04T17:45:03.175Z",
    "dead": 0,
    "id": "8ZTySQROQejkDAad0qxQ",
    "infected": 7,
    "recovered": 1,
    "sick": 6
  },
  {
    "infected": 1189,
    "recovered": 297,
    "latitude": 1.352083,
    "pop": 5621000,
    "longitude": 103.819839,
    "name": "Singapore",
    "country": "SG",
    "lastUpdated": "2020-04-04T17:45:03.086Z",
    "dead": 6,
    "id": "8pA3fM4xC2c2wv1b4TnE",
    "sick": 886
  },
  {
    "lastUpdated": "2020-04-03T18:13:56.123Z",
    "dead": 109,
    "id": "98hwAoohgWEOQVa3NlM5",
    "infected": 1494,
    "recovered": 387,
    "latitude": 47.2184,
    "pop": 3787000,
    "longitude": -1.5536,
    "name": "Pays de la Loire",
    "country": "FR",
    "sick": 998
  },
  {
    "infected": 10,
    "recovered": 2,
    "latitude": 12.8628,
    "pop": 40530000,
    "longitude": 30.2176,
    "name": "Sudan",
    "country": "SD",
    "lastUpdated": "2020-04-04T17:45:03.264Z",
    "dead": 2,
    "id": "9DPOkpIqrFy9mR4e9fuv",
    "sick": 6
  },
  {
    "lastUpdated": "2020-04-04T17:45:03.075Z",
    "dead": 146,
    "id": "9QcETqEcM2fTv9zRvx5T",
    "infected": 3613,
    "recovered": 329,
    "latitude": 45.943161,
    "pop": 19530000,
    "longitude": 24.966761,
    "name": "Romania",
    "country": "RO",
    "sick": 3138
  },
  {
    "latitude": 12.136389,
    "pop": 6218000,
    "longitude": -86.251389,
    "name": "Nicaragua",
    "country": "NI",
    "lastUpdated": "2020-04-04T17:45:03.328Z",
    "dead": 1,
    "id": "9Y5wmCqNCC6ZrenM31uA",
    "infected": 5,
    "recovered": 0,
    "sick": 4
  },
  {
    "longitude": -3.996166,
    "name": "Mali",
    "country": "ML",
    "lastUpdated": "2020-04-04T17:45:03.269Z",
    "dead": 3,
    "id": "9dIzxqDSVqPyINkHqwGv",
    "infected": 41,
    "recovered": 1,
    "latitude": 17.5706921,
    "pop": 18540000,
    "sick": 37
  },
  {
    "longitude": 25.748152,
    "name": "Finland",
    "country": "FI",
    "lastUpdated": "2020-04-04T17:45:03.100Z",
    "dead": 25,
    "id": "9p6OCdZbUUwBLA60Gk3W",
    "infected": 1882,
    "recovered": 300,
    "latitude": 61.92411,
    "pop": 5513000,
    "sick": 1557
  },
  {
    "infected": 540,
    "recovered": 0,
    "latitude": 43.311643,
    "pop": 1356000,
    "longitude": -71.590315,
    "name": "New Hampshire",
    "country": "US",
    "lastUpdated": "2020-04-04T17:48:14.561Z",
    "dead": 7,
    "id": "A84CwQ52kA46Hr7pn6Bm",
    "sick": 533
  },
  {
    "id": "AEUWUHS65qvjEslew11c",
    "infected": 711,
    "recovered": 0,
    "latitude": 41.823261,
    "pop": 1057000,
    "longitude": -71.412257,
    "name": "Rhode Island",
    "country": "US",
    "lastUpdated": "2020-04-04T17:48:14.634Z",
    "dead": 14,
    "sick": 697
  },
  {
    "infected": 16540,
    "recovered": 2040,
    "latitude": 44.498955,
    "pop": 4453000,
    "longitude": 11.327591,
    "name": "Emilia-Romagna",
    "country": "IT",
    "lastUpdated": "2020-04-04T17:49:02.121Z",
    "dead": 1977,
    "id": "AJ9jQ0iyKsafsmf5yHAR",
    "sick": 12523
  },
  {
    "latitude": 49.3964,
    "pop": 990509,
    "longitude": 7.023,
    "name": "Saarland",
    "country": "DE",
    "lastUpdated": "2020-04-04T17:41:02.824Z",
    "dead": 20,
    "id": "AKjFRQGnzuuZQhv5Qwx7",
    "infected": 1318,
    "recovered": 61,
    "sick": 1237
  },
  {
    "infected": 11,
    "recovered": 3,
    "latitude": 71.7069,
    "pop": 56171,
    "longitude": -42.6043,
    "name": "Greenland",
    "country": "GL",
    "lastUpdated": "2020-04-04T17:45:03.168Z",
    "dead": 0,
    "id": "APaZzlGCEeuoLBtzTJMe",
    "sick": 8
  },
  {
    "longitude": -63.582687,
    "name": "Nova Scotia",
    "country": "CA",
    "lastUpdated": "2020-04-04T17:45:02.131Z",
    "dead": 0,
    "id": "AVCpxeh0fuH2WrHWNDYH",
    "infected": 207,
    "recovered": 0,
    "latitude": 45.65107,
    "pop": 971395,
    "sick": 207
  },
  {
    "recovered": 0,
    "latitude": 47.012918,
    "pop": 1062000,
    "longitude": -109.128641,
    "name": "Montana",
    "country": "US",
    "lastUpdated": "2020-04-04T17:48:14.672Z",
    "dead": 5,
    "id": "AcULcZBozObOhwuRKMjJ",
    "infected": 262,
    "sick": 257
  },
  {
    "lastUpdated": "2020-04-04T17:29:09.170Z",
    "dead": 1,
    "id": "AmBYm5J6E9Cuez1FQjiN",
    "infected": 937,
    "recovered": 935,
    "latitude": 27.285971,
    "pop": 45200000,
    "longitude": 116.01609,
    "name": "Jiangxi",
    "country": "CN",
    "sick": 1
  },
  {
    "infected": 1251,
    "recovered": 90,
    "latitude": 28.033886,
    "pop": 41320000,
    "longitude": 1.659626,
    "name": "Algeria",
    "country": "DZ",
    "lastUpdated": "2020-04-04T17:45:03.054Z",
    "dead": 130,
    "id": "AwN0CScPDApcLFgz6e3z",
    "sick": 1031
  },
  {
    "lastUpdated": "2020-04-04T17:45:03.037Z",
    "dead": 12,
    "id": "B82Ef45M8cDu4q7VsSHF",
    "infected": 1126,
    "recovered": 119,
    "latitude": 45.099998,
    "pop": 4076000,
    "longitude": 15.2,
    "name": "Croatia",
    "country": "HR",
    "sick": 995
  },
  {
    "infected": 120,
    "recovered": 0,
    "latitude": 17.6077881,
    "pop": 23716000,
    "longitude": 8.081666,
    "name": "Niger",
    "country": "NE",
    "lastUpdated": "2020-04-04T17:45:03.376Z",
    "dead": 5,
    "id": "BENubqQInFUJzhpZTsLT",
    "sick": 115
  },
  {
    "longitude": -76.98432,
    "name": "Maryland",
    "country": "US",
    "lastUpdated": "2020-04-04T17:48:14.585Z",
    "dead": 54,
    "id": "BF51mWl51fgEcyBpCSzb",
    "infected": 3125,
    "recovered": 0,
    "latitude": 39.509109,
    "pop": 6043000,
    "sick": 3071
  },
  {
    "latitude": 53.709808,
    "pop": 9508000,
    "longitude": 27.953388,
    "name": "Belarus",
    "country": "BY",
    "lastUpdated": "2020-04-04T17:45:03.114Z",
    "dead": 5,
    "id": "BGg6yVU5VP71B8NXU0oh",
    "infected": 440,
    "recovered": 53,
    "sick": 382
  },
  {
    "id": "BGtoyzb7y54LVlJ91rbf",
    "infected": 1418,
    "recovered": 258,
    "latitude": 48.8799,
    "pop": 3319000,
    "longitude": 0.1713,
    "name": "Normandie",
    "country": "FR",
    "lastUpdated": "2020-04-03T18:14:37.412Z",
    "dead": 93,
    "sick": 1067
  },
  {
    "infected": 2019,
    "recovered": 0,
    "latitude": 34.048927,
    "pop": 7172000,
    "longitude": -111.093735,
    "name": "Arizona",
    "country": "US",
    "lastUpdated": "2020-04-04T17:48:14.652Z",
    "dead": 52,
    "id": "BTEESCuD2ZbS1afunR2A",
    "sick": 1967
  },
  {
    "lastUpdated": "2020-04-04T17:45:03.274Z",
    "dead": 0,
    "id": "BnpMamidC5yYzeK8tPUL",
    "infected": 3,
    "recovered": 0,
    "latitude": -3.3730559,
    "pop": 10860000,
    "longitude": 29.9188862,
    "name": "Burundi",
    "country": "BI",
    "sick": 3
  },
  {
    "recovered": 0,
    "latitude": 40.719042,
    "pop": 19540000,
    "longitude": -73.982597,
    "name": "New York",
    "country": "US",
    "lastUpdated": "2020-04-04T17:48:14.493Z",
    "dead": 3565,
    "id": "C3BCUzV80z9GfiuByIcr",
    "infected": 113806,
    "sick": 110241
  },
  {
    "longitude": 15.359413,
    "name": "Czechia",
    "country": "CZ",
    "lastUpdated": "2020-04-04T17:45:03.074Z",
    "dead": 59,
    "id": "C6S76AggdWVU8G22jFHQ",
    "infected": 4362,
    "recovered": 78,
    "latitude": 49.731626,
    "pop": 10650000,
    "sick": 4225
  },
  {
    "infected": 688,
    "recovered": 423,
    "latitude": 26.0667,
    "pop": 1493000,
    "longitude": 50.557701,
    "name": "Bahrain",
    "country": "BH",
    "lastUpdated": "2020-04-04T17:45:03.116Z",
    "dead": 4,
    "id": "C7cj4nwRITs13KnaJrQ2",
    "sick": 261
  },
  {
    "infected": 200,
    "recovered": 25,
    "latitude": 27.0238,
    "pop": 68890000,
    "longitude": 74.2179,
    "name": "Rajasthan",
    "country": "IN",
    "lastUpdated": "2020-04-04T17:40:02.144Z",
    "dead": 0,
    "id": "CKZCZTPlrcq5fbfUPA9k",
    "sick": 175
  },
  {
    "recovered": 0,
    "latitude": 13.803,
    "pop": 6378000,
    "longitude": -88.9053,
    "name": "El Salvador",
    "country": "SV",
    "lastUpdated": "2020-04-04T17:45:03.271Z",
    "dead": 3,
    "id": "Cgvmtle61ehMvCzRzYx7",
    "infected": 56,
    "sick": 53
  },
  {
    "infected": 41903,
    "recovered": 135,
    "latitude": 52.355518,
    "pop": 66440000,
    "longitude": -1.17432,
    "name": "United Kingdom",
    "country": "GB",
    "lastUpdated": "2020-04-04T17:45:03.125Z",
    "dead": 4313,
    "id": "CrXu6i5Sqx11iwdfHfBs",
    "sick": 37455
  },
  {
    "latitude": 40.259003,
    "pop": 2973000,
    "longitude": 44.818474,
    "name": "Armenia",
    "country": "AM",
    "lastUpdated": "2020-04-04T17:45:03.034Z",
    "dead": 7,
    "id": "DCJCtZoBTWQ4mzdDNljD",
    "infected": 770,
    "recovered": 43,
    "sick": 720
  },
  {
    "recovered": 14,
    "latitude": 32.3213844,
    "pop": 65440,
    "longitude": -64.75737,
    "name": "Bermuda",
    "country": "BM",
    "lastUpdated": "2020-04-04T17:45:03.222Z",
    "dead": 0,
    "id": "DZyTD0Mu5WIcK6yTcJ91",
    "infected": 35,
    "sick": 21
  },
  {
    "latitude": 22.192039,
    "pop": 622567,
    "longitude": 113.551262,
    "name": "Macao",
    "country": "MO",
    "lastUpdated": "2020-04-04T17:45:03.297Z",
    "dead": 0,
    "id": "DdBt8qsG6A3g92oOR3ow",
    "infected": 43,
    "recovered": 10,
    "sick": 33
  },
  {
    "lastUpdated": "2020-04-04T17:48:14.557Z",
    "dead": 0,
    "id": "DrGzziUglmBognCGY7R2",
    "infected": 166,
    "recovered": 0,
    "latitude": 42.962334,
    "pop": 577737,
    "longitude": -107.534868,
    "name": "Wyoming",
    "country": "US",
    "sick": 166
  },
  {
    "latitude": 40.6401,
    "pop": 10740000,
    "longitude": 22.9444,
    "name": "Greece",
    "country": "GR",
    "lastUpdated": "2020-04-04T17:45:03.121Z",
    "dead": 68,
    "id": "Dtr1lap1RpJpXJdXGJiW",
    "infected": 1673,
    "recovered": 78,
    "sick": 1527
  },
  {
    "lastUpdated": "2020-04-04T17:45:03.089Z",
    "dead": 5,
    "id": "EKTfs8e7M6DXzI1HqyyX",
    "infected": 355,
    "recovered": 50,
    "latitude": 25.03841,
    "pop": 23780000,
    "longitude": 121.563698,
    "name": "Taiwan",
    "country": "TW",
    "sick": 300
  },
  {
    "latitude": 10.327273,
    "pop": 4906000,
    "longitude": -84.387618,
    "name": "Costa Rica",
    "country": "CR",
    "lastUpdated": "2020-04-04T17:45:03.077Z",
    "dead": 2,
    "id": "EQzJvzVHKjs8kLmK7BMu",
    "infected": 416,
    "recovered": 11,
    "sick": 403
  },
  {
    "longitude": 71.1924,
    "name": "Gujarat",
    "country": "IN",
    "lastUpdated": "2020-04-04T17:52:06.053Z",
    "dead": 10,
    "id": "ERwk9R9en4m9WbdoMbIg",
    "infected": 105,
    "recovered": 14,
    "latitude": 22.2587,
    "pop": 62700000,
    "sick": 81
  },
  {
    "id": "Esl5UlCVB9s8pmGB5Ofr",
    "infected": 18,
    "recovered": 0,
    "latitude": 30.7333,
    "pop": 1055000,
    "longitude": 76.7794,
    "name": "Chandigarh",
    "country": "IN",
    "lastUpdated": "2020-04-04T17:52:05.945Z",
    "dead": 0,
    "sick": 18
  },
  {
    "lastUpdated": "2020-04-04T17:48:14.583Z",
    "dead": 18,
    "id": "F4rPrEVGAIMM5rfPEMv4",
    "infected": 452,
    "recovered": 0,
    "latitude": 18.200178,
    "pop": 3195000,
    "longitude": -66.664513,
    "name": "Puerto Rico",
    "country": "PR",
    "sick": 434
  },
  {
    "lastUpdated": "2020-04-04T17:45:03.012Z",
    "dead": 7,
    "id": "FCDmlmnIIswd8bQiUjfN",
    "infected": 299,
    "recovered": 10,
    "latitude": 33.93911,
    "pop": 35530000,
    "longitude": 67.709953,
    "name": "Afghanistan",
    "country": "AF",
    "sick": 282
  },
  {
    "lastUpdated": "2020-04-04T17:29:09.552Z",
    "dead": 6,
    "id": "FErOU1m4Tj7jIkRam3vF",
    "infected": 579,
    "recovered": 570,
    "latitude": 29.431585,
    "pop": 30480000,
    "longitude": 106.912254,
    "name": "Chongqing",
    "country": "CN",
    "sick": 3
  },
  {
    "infected": 479,
    "recovered": 93,
    "latitude": 29.311661,
    "pop": 4137000,
    "longitude": 47.481766,
    "name": "Kuwait",
    "country": "KW",
    "lastUpdated": "2020-04-04T17:45:03.017Z",
    "dead": 1,
    "id": "FZsUkhxBEgqsPb4eO0PN",
    "sick": 385
  },
  {
    "infected": 485,
    "recovered": 6,
    "latitude": 11.1271,
    "pop": 67860000,
    "longitude": 78.6569,
    "name": "Tamil Nadu",
    "country": "IN",
    "lastUpdated": "2020-04-04T17:40:02.106Z",
    "dead": 2,
    "id": "FeS45oMNC27pI17F0xEV",
    "sick": 477
  },
  {
    "longitude": -70.430399,
    "name": "Dominican Republic",
    "country": "DO",
    "lastUpdated": "2020-04-04T17:45:03.027Z",
    "dead": 68,
    "id": "FuiVEJvWb0QMCpxJ3563",
    "infected": 1488,
    "recovered": 16,
    "latitude": 18.947829,
    "pop": 10770000,
    "sick": 1404
  },
  {
    "longitude": 79.0193,
    "name": "Telengana",
    "country": "IN",
    "lastUpdated": "2020-04-04T17:52:05.939Z",
    "dead": 7,
    "id": "FyC551oNwmENxbr9Yght",
    "infected": 159,
    "recovered": 1,
    "latitude": 18.1124,
    "pop": 35190000,
    "sick": 151
  },
  {
    "infected": 471,
    "recovered": 10,
    "latitude": 48.669,
    "pop": 5450000,
    "longitude": 19.699,
    "name": "Slovakia",
    "country": "SK",
    "lastUpdated": "2020-04-04T17:45:03.040Z",
    "dead": 1,
    "id": "FzIDXoqWnTI3nUfhPyT2",
    "sick": 460
  },
  {
    "infected": 2818,
    "recovered": 131,
    "latitude": 30.37532,
    "pop": 197000000,
    "longitude": 69.345116,
    "name": "Pakistan",
    "country": "PK",
    "lastUpdated": "2020-04-04T17:45:03.110Z",
    "dead": 41,
    "id": "GAp7Wb6IMhdgbvEtMza9",
    "sick": 2646
  },
  {
    "latitude": 31.1471,
    "pop": 27980000,
    "longitude": 75.3412,
    "name": "Punjab",
    "country": "IN",
    "lastUpdated": "2020-04-04T17:40:02.108Z",
    "dead": 5,
    "id": "GGru8cG08mANO8XDDUtZ",
    "infected": 65,
    "recovered": 3,
    "sick": 57
  },
  {
    "latitude": 23.424076,
    "pop": 9400000,
    "longitude": 53.847816,
    "name": "United Arab Emirates",
    "country": "AE",
    "lastUpdated": "2020-04-04T17:45:03.028Z",
    "dead": 10,
    "id": "GHzBIsHy2GiBc5JV2HMs",
    "infected": 1505,
    "recovered": 125,
    "sick": 1370
  },
  {
    "id": "Gh46r6vuaY7fbGt3IboN",
    "infected": 12571,
    "recovered": 0,
    "latitude": 36.621981,
    "pop": 39560000,
    "longitude": -119.339046,
    "name": "California",
    "country": "US",
    "lastUpdated": "2020-04-04T17:48:14.563Z",
    "dead": 281,
    "sick": 12290
  },
  {
    "longitude": -97.145514,
    "name": "Oklahoma",
    "country": "US",
    "lastUpdated": "2020-04-04T17:48:14.705Z",
    "dead": 42,
    "id": "GpF8ULuKOQiFDCUHN44h",
    "infected": 1161,
    "recovered": 0,
    "latitude": 35.87189,
    "pop": 3943000,
    "sick": 1119
  },
  {
    "lastUpdated": "2020-04-04T17:49:02.134Z",
    "dead": 146,
    "id": "Gzx6GX1qhBm714BkEC6l",
    "infected": 1592,
    "recovered": 245,
    "latitude": 46.5,
    "pop": 520891,
    "longitude": 11.35,
    "name": "P.A. Bolzano",
    "country": "IT",
    "sick": 1201
  },
  {
    "lastUpdated": "2020-04-04T17:29:09.073Z",
    "dead": 1,
    "id": "H3JeVigVbo5CSYfZG4WI",
    "infected": 117,
    "recovered": 74,
    "latitude": 42.83263,
    "pop": 24710000,
    "longitude": 113.750972,
    "name": "Inner Mongolia",
    "country": "CN",
    "sick": 42
  },
  {
    "latitude": 39.74536,
    "pop": 3034000,
    "longitude": -116.724977,
    "name": "Nevada",
    "country": "US",
    "lastUpdated": "2020-04-04T17:48:14.553Z",
    "dead": 46,
    "id": "H3bDg4eV30up4WWrIDAS",
    "infected": 1742,
    "recovered": 0,
    "sick": 1696
  },
  {
    "longitude": 75.7139,
    "name": "Karnataka",
    "country": "IN",
    "lastUpdated": "2020-04-04T17:40:02.142Z",
    "dead": 4,
    "id": "HN5mGmxlqlSeFSNeu1K5",
    "infected": 144,
    "recovered": 11,
    "latitude": 15.3173,
    "pop": 64060000,
    "sick": 129
  },
  {
    "lastUpdated": "2020-04-04T17:45:03.319Z",
    "dead": 0,
    "id": "HRDpwyxpqW9RN0xLFyNu",
    "infected": 5,
    "recovered": 2,
    "latitude": 27.5142,
    "pop": 807610,
    "longitude": 90.4336,
    "name": "Bhutan",
    "country": "BT",
    "sick": 3
  },
  {
    "latitude": 41.3775,
    "pop": 32390000,
    "longitude": 64.5853,
    "name": "Uzbekistan",
    "country": "UZ",
    "lastUpdated": "2020-04-04T17:45:03.058Z",
    "dead": 2,
    "id": "HRTA10dtrruDEwjJEGMp",
    "infected": 266,
    "recovered": 25,
    "sick": 239
  },
  {
    "lastUpdated": "2020-04-04T17:48:14.555Z",
    "dead": 10,
    "id": "HSSFomRju0doHhWgW8On",
    "infected": 495,
    "recovered": 0,
    "latitude": 34.138916,
    "pop": 2095000,
    "longitude": -105.576255,
    "name": "New Mexico",
    "country": "US",
    "sick": 485
  },
  {
    "recovered": 50,
    "latitude": 53.6127,
    "pop": 1635000,
    "longitude": 12.4296,
    "name": "Mecklenburg-Vorpommern",
    "country": "DE",
    "lastUpdated": "2020-04-04T17:41:03.021Z",
    "dead": 5,
    "id": "He1gSS1v50t06i3YrqvB",
    "infected": 526,
    "sick": 471
  },
  {
    "id": "I4OJ6z9Vjs1byOcbsJrd",
    "infected": 1688,
    "recovered": 633,
    "latitude": 23.634501,
    "pop": 129200000,
    "longitude": -102.552788,
    "name": "Mexico",
    "country": "MX",
    "lastUpdated": "2020-04-04T17:45:03.136Z",
    "dead": 60,
    "sick": 995
  },
  {
    "longitude": 13.75,
    "name": "Abruzzo",
    "country": "IT",
    "lastUpdated": "2020-04-04T17:49:02.138Z",
    "dead": 153,
    "id": "I9EqrZfbPnkioNU4wZGz",
    "infected": 1628,
    "recovered": 119,
    "latitude": 42.25,
    "pop": 1315000,
    "sick": 1356
  },
  {
    "id": "IAX0OQLVnUwU7FX0ENF1",
    "infected": 1516,
    "recovered": 1378,
    "latitude": 23.363855,
    "pop": 113460000,
    "longitude": 113.373448,
    "name": "Guangdong",
    "country": "CN",
    "lastUpdated": "2020-04-04T17:29:09.353Z",
    "dead": 8,
    "sick": 130
  },
  {
    "longitude": 113.484016,
    "name": "Henan",
    "country": "CN",
    "lastUpdated": "2020-04-04T17:29:09.355Z",
    "dead": 22,
    "id": "IFuMrMvSjoiX5agYvllh",
    "infected": 1276,
    "recovered": 1251,
    "latitude": 33.875408,
    "pop": 94000000,
    "sick": 3
  },
  {
    "latitude": 19.0558,
    "pop": 10980000,
    "longitude": -73.0513,
    "name": "Haiti",
    "country": "HT",
    "lastUpdated": "2020-04-04T17:45:03.173Z",
    "dead": 0,
    "id": "InZ38sIqyK7FN7XAOZoX",
    "infected": 20,
    "recovered": 1,
    "sick": 19
  },
  {
    "recovered": 0,
    "latitude": 32.528564,
    "pop": 10520000,
    "longitude": -83.280125,
    "name": "Georgia (US)",
    "country": "US",
    "lastUpdated": "2020-04-04T17:48:14.600Z",
    "dead": 198,
    "id": "IvQkDJkTAsoIqPRAU25n",
    "infected": 5967,
    "sick": 5769
  },
  {
    "lastUpdated": "2020-04-04T17:45:03.092Z",
    "dead": 1,
    "id": "IvVhpOoGpH6JVkGyUhXN",
    "infected": 950,
    "recovered": 127,
    "latitude": -42.8285,
    "pop": 4794000,
    "longitude": 172.488081,
    "name": "New Zealand",
    "country": "NZ",
    "sick": 822
  },
  {
    "longitude": -66.5897,
    "name": "Venezuela",
    "country": "VE",
    "lastUpdated": "2020-04-04T17:45:03.194Z",
    "dead": 7,
    "id": "J3mZXlfEnnJx4CDZLvRG",
    "infected": 153,
    "recovered": 52,
    "latitude": 6.4238,
    "pop": 31980000,
    "sick": 94
  },
  {
    "infected": 426,
    "recovered": 33,
    "latitude": 35.1264,
    "pop": 1170000,
    "longitude": 33.4299,
    "name": "Cyprus",
    "country": "CY",
    "lastUpdated": "2020-04-04T17:45:03.033Z",
    "dead": 11,
    "id": "JQByE4l2OA6sGOqIcWrM",
    "sick": 382
  },
  {
    "latitude": 25.0961,
    "pop": 99020000,
    "longitude": 85.3131,
    "name": "Bihar",
    "country": "IN",
    "lastUpdated": "2020-04-04T17:40:02.095Z",
    "dead": 1,
    "id": "JR7hOGked7CZtIs2nCV5",
    "infected": 32,
    "recovered": 3,
    "sick": 28
  },
  {
    "latitude": 14.628434,
    "pop": 16910000,
    "longitude": -90.522713,
    "name": "Guatemala",
    "country": "GT",
    "lastUpdated": "2020-04-04T17:45:03.385Z",
    "dead": 2,
    "id": "JUWE6bG3b5oL7fKQMSvv",
    "infected": 57,
    "recovered": 15,
    "sick": 40
  },
  {
    "longitude": 6.1296,
    "name": "Luxembourg",
    "country": "LU",
    "lastUpdated": "2020-04-04T17:45:03.038Z",
    "dead": 31,
    "id": "JcFsHSn2WvZ5LJW42ovG",
    "infected": 2729,
    "recovered": 500,
    "latitude": 49.8153,
    "pop": 602005,
    "sick": 2198
  },
  {
    "lastUpdated": "2020-04-04T17:45:03.343Z",
    "dead": 3,
    "id": "JrBbirlBKGdWSdcDt7PF",
    "infected": 41,
    "recovered": 17,
    "latitude": 8.6195,
    "pop": 7798000,
    "longitude": 0.8248,
    "name": "Togo",
    "country": "TG",
    "sick": 21
  },
  {
    "longitude": 25.4858,
    "name": "Bulgaria",
    "country": "BG",
    "lastUpdated": "2020-04-04T17:45:03.039Z",
    "dead": 17,
    "id": "JzZ8sbqzjutThVjkPKPL",
    "infected": 503,
    "recovered": 34,
    "latitude": 42.7339,
    "pop": 7050000,
    "sick": 452
  },
  {
    "recovered": 767,
    "latitude": 44.5,
    "pop": 1557000,
    "longitude": 8.833,
    "name": "Liguria",
    "country": "IT",
    "lastUpdated": "2020-04-04T17:49:02.338Z",
    "dead": 542,
    "id": "KLXicxFogWnu0dLp4bNK",
    "infected": 4203,
    "sick": 2894
  },
  {
    "latitude": 43.4167,
    "pop": 3737000,
    "longitude": 11,
    "name": "Toscana",
    "country": "IT",
    "lastUpdated": "2020-04-04T17:49:02.230Z",
    "dead": 307,
    "id": "KrLrJbpDqqiXgUPGCCW9",
    "infected": 5671,
    "recovered": 310,
    "sick": 5054
  },
  {
    "infected": 166,
    "recovered": 27,
    "latitude": 7.873054,
    "pop": 21440000,
    "longitude": 80.771797,
    "name": "Sri Lanka",
    "country": "LK",
    "lastUpdated": "2020-04-04T17:45:03.295Z",
    "dead": 5,
    "id": "KsWzJO06cf0d6LJ4ZNh9",
    "sick": 134
  },
  {
    "recovered": 2,
    "latitude": 15.9129,
    "pop": 49670000,
    "longitude": 79.74,
    "name": "Andhra Pradesh",
    "country": "IN",
    "lastUpdated": "2020-04-04T17:40:02.059Z",
    "dead": 1,
    "id": "KtQIo2DoqjELtPAlyDVO",
    "infected": 190,
    "sick": 187
  },
  {
    "latitude": 61.52401,
    "pop": 144500000,
    "longitude": 105.318756,
    "name": "Russia",
    "country": "RU",
    "lastUpdated": "2020-04-04T17:45:03.060Z",
    "dead": 43,
    "id": "KwOuGBKSMRlmwftxAvLX",
    "infected": 4731,
    "recovered": 333,
    "sick": 4355
  },
  {
    "id": "LBUtrLDKJiupXjlUNTUe",
    "infected": 24,
    "recovered": 5,
    "latitude": 18.0708,
    "pop": 32125,
    "longitude": -63.0501,
    "name": "Saint-Martin",
    "country": "FR",
    "lastUpdated": "2020-04-04T17:45:03.325Z",
    "dead": 2,
    "sick": 17
  },
  {
    "lastUpdated": "2020-04-04T17:45:03.361Z",
    "dead": 0,
    "id": "LTGEU2E9MFkrCcFhZYVk",
    "infected": 77,
    "recovered": 0,
    "latitude": 47.166,
    "pop": 38557,
    "longitude": 9.5554,
    "name": "Liechtenstein",
    "country": "LI",
    "sick": 77
  },
  {
    "latitude": 9.9456,
    "pop": 12720000,
    "longitude": -9.6966,
    "name": "Guinea",
    "country": "GN",
    "lastUpdated": "2020-04-04T17:45:03.225Z",
    "dead": 0,
    "id": "LU2QWt5ao8IJa8evNYVV",
    "infected": 73,
    "recovered": 2,
    "sick": 71
  },
  {
    "latitude": 3.9193051,
    "pop": 563402,
    "longitude": -56.0277824,
    "name": "Suriname",
    "country": "SR",
    "lastUpdated": "2020-04-04T17:45:03.378Z",
    "dead": 1,
    "id": "LglKINHyQpYpFxjckbQ6",
    "infected": 10,
    "recovered": 0,
    "sick": 9
  },
  {
    "id": "LkIDKY0CMAqzbwBHyYCP",
    "infected": 220,
    "recovered": 0,
    "latitude": 52.9399,
    "pop": 1174000,
    "longitude": -106.4509,
    "name": "Saskatchewan",
    "country": "CA",
    "lastUpdated": "2020-04-04T17:45:02.028Z",
    "dead": 3,
    "sick": 217
  },
  {
    "id": "MC8MXFw9iXYybnF8v7e6",
    "infected": 831,
    "recovered": 0,
    "latitude": 37.8393,
    "pop": 4468000,
    "longitude": -84.27,
    "name": "Kentucky",
    "country": "US",
    "lastUpdated": "2020-04-04T17:48:14.597Z",
    "dead": 37,
    "sick": 794
  },
  {
    "latitude": 40.2672,
    "pop": 6692000,
    "longitude": -86.1349,
    "name": "Indiana",
    "country": "US",
    "lastUpdated": "2020-04-04T17:48:14.577Z",
    "dead": 116,
    "id": "MOxDkmQ4wBi1CuAdVxDE",
    "infected": 3953,
    "recovered": 0,
    "sick": 3837
  },
  {
    "lastUpdated": "2020-04-04T17:45:03.030Z",
    "dead": 1,
    "id": "MdQOfc1gNh2DOqwSP6UV",
    "infected": 218,
    "recovered": 19,
    "latitude": 7.54,
    "pop": 24290000,
    "longitude": -5.5471,
    "name": "Ivory Coast",
    "country": "CI",
    "sick": 198
  },
  {
    "latitude": 51.4332,
    "pop": 17910000,
    "longitude": 7.6616,
    "name": "Nordrhein-Westfalen",
    "country": "DE",
    "lastUpdated": "2020-04-04T17:41:02.919Z",
    "dead": 257,
    "id": "MjpYq3zQyAvSQlVVYjD2",
    "infected": 19888,
    "recovered": 5004,
    "sick": 14627
  },
  {
    "infected": 75,
    "recovered": 75,
    "latitude": 37.330509,
    "pop": 6301000,
    "longitude": 105.977203,
    "name": "Ningxia",
    "country": "CN",
    "lastUpdated": "2020-04-04T17:29:08.968Z",
    "dead": 0,
    "id": "MntmjjuHljarCdt6aIeE",
    "sick": 0
  },
  {
    "lastUpdated": "2020-04-04T17:41:02.934Z",
    "dead": 349,
    "id": "N3XsRBwJSsNclkEf7Zz5",
    "infected": 19651,
    "recovered": 2073,
    "latitude": 48.6616,
    "pop": 11020000,
    "longitude": 9.3501,
    "name": "Baden-Württemberg",
    "country": "DE",
    "sick": 17229
  },
  {
    "infected": 617,
    "recovered": 28,
    "latitude": 44.696652,
    "pop": 3507000,
    "longitude": 17.824332,
    "name": "Bosnia and Herzegovina",
    "country": "BA",
    "lastUpdated": "2020-04-04T17:45:03.096Z",
    "dead": 19,
    "id": "N7c13sCQF0G789XAVazJ",
    "sick": 570
  },
  {
    "id": "NBRIGIRrJB1Ry8prDNAC",
    "infected": 137,
    "recovered": 133,
    "latitude": 37.242565,
    "pop": 36500000,
    "longitude": 111.856857,
    "name": "Shanxi",
    "country": "CN",
    "lastUpdated": "2020-04-04T17:29:09.475Z",
    "dead": 0,
    "sick": 4
  },
  {
    "lastUpdated": "2020-04-04T17:48:14.570Z",
    "dead": 30,
    "id": "NC64Qp5kTqAfiTuR27k8",
    "infected": 2438,
    "recovered": 0,
    "latitude": 35.7596,
    "pop": 10380000,
    "longitude": -79.0193,
    "name": "North Carolina",
    "country": "US",
    "sick": 2408
  },
  {
    "latitude": 52.4125,
    "pop": 2504000,
    "longitude": 12.5316,
    "name": "Brandenburg",
    "country": "DE",
    "lastUpdated": "2020-04-04T17:41:02.829Z",
    "dead": 24,
    "id": "NJjo2gfBvnbK4xatrsUz",
    "infected": 1375,
    "recovered": 137,
    "sick": 1214
  },
  {
    "recovered": 2,
    "latitude": 30.0668,
    "pop": 10080000,
    "longitude": 79.0193,
    "name": "Uttarakhand",
    "country": "IN",
    "lastUpdated": "2020-04-04T17:40:02.137Z",
    "dead": 0,
    "id": "NMeZEcGToxXfpi16PfFV",
    "infected": 22,
    "sick": 20
  },
  {
    "infected": 4498,
    "recovered": 500,
    "latitude": 50.6521,
    "pop": 6243000,
    "longitude": 9.1624,
    "name": "Hessen",
    "country": "DE",
    "lastUpdated": "2020-04-04T17:41:02.937Z",
    "dead": 57,
    "id": "Nk5vPgUIXsWVfbWZf15O",
    "sick": 3941
  },
  {
    "recovered": 1,
    "latitude": 56.96776,
    "pop": 1920000,
    "longitude": 25.837107,
    "name": "Latvia",
    "country": "LV",
    "lastUpdated": "2020-04-04T17:45:03.078Z",
    "dead": 1,
    "id": "NmmMKy0YqA8StHdGzB5N",
    "infected": 509,
    "sick": 507
  },
  {
    "id": "O4g88K49HKEZLFXm5gxb",
    "infected": 10,
    "recovered": 0,
    "latitude": 6.4281,
    "pop": 4732000,
    "longitude": -9.4295,
    "name": "Liberia",
    "country": "LR",
    "lastUpdated": "2020-04-04T17:45:03.316Z",
    "dead": 1,
    "sick": 9
  },
  {
    "longitude": -80.525613,
    "name": "South Carolina",
    "country": "US",
    "lastUpdated": "2020-04-04T17:48:14.663Z",
    "dead": 34,
    "id": "ONU4CK8QjViFHKg2w5if",
    "infected": 1700,
    "recovered": 0,
    "latitude": 34.003307,
    "pop": 5084000,
    "sick": 1666
  },
  {
    "latitude": 33.51822,
    "pop": 2987000,
    "longitude": -89.582775,
    "name": "Mississippi",
    "country": "US",
    "lastUpdated": "2020-04-04T17:48:14.579Z",
    "dead": 35,
    "id": "OYa0jFzdbAgo8zUsRv6q",
    "infected": 1455,
    "recovered": 0,
    "sick": 1420
  },
  {
    "latitude": 45.2538,
    "pop": 1338000,
    "longitude": -69.4455,
    "name": "Maine",
    "country": "US",
    "lastUpdated": "2020-04-04T17:48:14.581Z",
    "dead": 9,
    "id": "OcXNp9kNVSwrRlG3bNVN",
    "infected": 432,
    "recovered": 0,
    "sick": 423
  },
  {
    "recovered": 3,
    "latitude": -41.915264,
    "pop": 515000,
    "longitude": 146.725256,
    "name": "Tasmania",
    "country": "AU",
    "lastUpdated": "2020-04-04T17:42:03.127Z",
    "dead": 0,
    "id": "OnOseaqWdnuP18oruABW",
    "infected": 79,
    "sick": 76
  },
  {
    "latitude": 19.3133,
    "pop": 61559,
    "longitude": -81.2546,
    "name": "Cayman Islands",
    "country": "KY",
    "lastUpdated": "2020-04-04T17:45:03.183Z",
    "dead": 1,
    "id": "P4mwRFLbrvT0t75uD8Wo",
    "infected": 29,
    "recovered": 1,
    "sick": 27
  },
  {
    "latitude": 16.7424984,
    "pop": 5900,
    "longitude": -62.1873665,
    "name": "Montserrat",
    "country": "MS",
    "lastUpdated": "2020-04-04T17:45:03.284Z",
    "dead": 0,
    "id": "PEDkeFMTOZpvHiSVxBk7",
    "infected": 6,
    "recovered": 0,
    "sick": 6
  },
  {
    "infected": 89,
    "recovered": 0,
    "latitude": -1.9403,
    "pop": 12210000,
    "longitude": 29.8739,
    "name": "Rwanda",
    "country": "RW",
    "lastUpdated": "2020-04-04T17:45:03.357Z",
    "dead": 0,
    "id": "PEcgZGEkyhABztt1Ufgc",
    "sick": 89
  },
  {
    "recovered": 0,
    "latitude": 46.7296,
    "pop": 5611000,
    "longitude": -94.6859,
    "name": "Minnesota",
    "country": "US",
    "lastUpdated": "2020-04-04T17:48:14.659Z",
    "dead": 22,
    "id": "PJvVYosLIhbcRZYnKX1R",
    "infected": 789,
    "sick": 767
  },
  {
    "infected": 9266,
    "recovered": 2,
    "latitude": 40.6331,
    "pop": 12740000,
    "longitude": -89.3985,
    "name": "Illinois",
    "country": "US",
    "lastUpdated": "2020-04-04T17:48:14.594Z",
    "dead": 210,
    "id": "PTwQr9ijo0TBBsPH2sdJ",
    "sick": 9054
  },
  {
    "infected": 13,
    "recovered": 1,
    "latitude": 13.909444,
    "pop": 178844,
    "longitude": -60.978893,
    "name": "Saint Lucia",
    "country": "LC",
    "lastUpdated": "2020-04-04T17:45:03.162Z",
    "dead": 0,
    "id": "PjLqCeFdyzdZNcZxMkK1",
    "sick": 12
  },
  {
    "latitude": 34.201507,
    "pop": 11530000,
    "longitude": 9.460554,
    "name": "Tunisia",
    "country": "TN",
    "lastUpdated": "2020-04-04T17:45:03.119Z",
    "dead": 19,
    "id": "Pr76V4raf108uSRoEXac",
    "infected": 553,
    "recovered": 5,
    "sick": 529
  },
  {
    "id": "PuQgOd9KWiMzGZXm11sR",
    "infected": 9,
    "recovered": 0,
    "latitude": -26.5225,
    "pop": 1367000,
    "longitude": 31.4659,
    "name": "Eswatini",
    "country": "SZ",
    "lastUpdated": "2020-04-04T17:45:03.326Z",
    "dead": 0,
    "sick": 9
  },
  {
    "id": "Q18mrGvFWTLX2BU9SqhQ",
    "infected": 1115,
    "recovered": 171,
    "latitude": -37.009609,
    "pop": 6359000,
    "longitude": 143.94853,
    "name": "Victoria",
    "country": "AU",
    "lastUpdated": "2020-04-04T17:42:03.228Z",
    "dead": 4,
    "sick": 940
  },
  {
    "infected": 1589,
    "recovered": 77,
    "latitude": 54.2194,
    "pop": 2890000,
    "longitude": 9.6961,
    "name": "Schleswig-Holstein",
    "country": "DE",
    "lastUpdated": "2020-04-04T17:41:02.822Z",
    "dead": 18,
    "id": "Q39XkabIYxt15mHINzTa",
    "sick": 1494
  },
  {
    "id": "QR9go2hQKXjty7JHUYe4",
    "infected": 1039,
    "recovered": 59,
    "latitude": 58.595272,
    "pop": 1328000,
    "longitude": 25.013607,
    "name": "Estonia",
    "country": "EE",
    "lastUpdated": "2020-04-04T17:45:03.055Z",
    "dead": 13,
    "sick": 967
  },
  {
    "infected": 1,
    "recovered": 0,
    "latitude": -6.315,
    "pop": 8251000,
    "longitude": 143.9555,
    "name": "Papua New Guinea",
    "country": "PG",
    "lastUpdated": "2020-04-04T17:45:03.298Z",
    "dead": 0,
    "id": "QlZrE4nosm5WfdA2aCDg",
    "sick": 1
  },
  {
    "recovered": 0,
    "latitude": 18.3358,
    "pop": 107268,
    "longitude": -64.8963,
    "name": "U.S. Virgin Islands",
    "country": "US",
    "lastUpdated": "2020-04-04T17:48:14.604Z",
    "dead": 0,
    "id": "QqhD3YDMKXojvQY3Yu41",
    "infected": 38,
    "sick": 38
  },
  {
    "recovered": 0,
    "latitude": 15.414999,
    "pop": 71937,
    "longitude": -61.3709755,
    "name": "Dominica",
    "country": "DM",
    "lastUpdated": "2020-04-04T17:45:03.336Z",
    "dead": 0,
    "id": "Qy2qW2ep5wltnYjPJBxh",
    "infected": 14,
    "sick": 14
  },
  {
    "latitude": 8.538,
    "pop": 4099000,
    "longitude": -80.7821,
    "name": "Panama",
    "country": "PA",
    "lastUpdated": "2020-04-04T17:45:03.019Z",
    "dead": 41,
    "id": "R8YCgephnxTufvcPWMgx",
    "infected": 1673,
    "recovered": 13,
    "sick": 1619
  },
  {
    "latitude": 15.2,
    "pop": 9265000,
    "longitude": -86.2419,
    "name": "Honduras",
    "country": "HN",
    "lastUpdated": "2020-04-04T17:45:03.031Z",
    "dead": 15,
    "id": "RA2SE0p2bVhqo0P2hzGY",
    "infected": 264,
    "recovered": 3,
    "sick": 246
  },
  {
    "infected": 1986,
    "recovered": 505,
    "latitude": 45.633331,
    "pop": 1216000,
    "longitude": 13.8,
    "name": "Friuli Venezia Giulia",
    "country": "IT",
    "lastUpdated": "2020-04-04T17:49:02.234Z",
    "dead": 145,
    "id": "RCrDBCdBNYzgLNr0aB2H",
    "sick": 1336
  },
  {
    "infected": 786,
    "recovered": 0,
    "latitude": 41.878,
    "pop": 3156000,
    "longitude": -93.0977,
    "name": "Iowa",
    "country": "US",
    "lastUpdated": "2020-04-04T17:48:14.602Z",
    "dead": 14,
    "id": "RX0KDu1AFrlCsrRso0nb",
    "sick": 772
  },
  {
    "longitude": 17.2283306,
    "name": "Libya",
    "country": "LY",
    "lastUpdated": "2020-04-04T17:45:03.375Z",
    "dead": 1,
    "id": "RaJxbzlnRFTuj4B8IbpC",
    "infected": 17,
    "recovered": 0,
    "latitude": 26.3351002,
    "pop": 6846000,
    "sick": 16
  },
  {
    "lastUpdated": "2020-04-04T17:48:14.656Z",
    "dead": 18,
    "id": "Rf4uvBfP3GRDSHdZElRd",
    "infected": 629,
    "recovered": 0,
    "latitude": 39.0119,
    "pop": 2912000,
    "longitude": -98.4842,
    "name": "Kansas",
    "country": "US",
    "sick": 611
  },
  {
    "infected": 11591,
    "recovered": 2543,
    "latitude": 48.6998,
    "pop": 5518000,
    "longitude": 6.1878,
    "name": "Grand Est",
    "country": "FR",
    "lastUpdated": "2020-04-03T18:08:50.744Z",
    "dead": 1311,
    "id": "RmEgf1xeclWt7XCF9oiR",
    "sick": 7737
  },
  {
    "longitude": -85.3232,
    "name": "Ontario",
    "country": "CA",
    "lastUpdated": "2020-04-04T17:45:02.133Z",
    "dead": 94,
    "id": "Rx4TuyMpfGb3S8wYJX0x",
    "infected": 3630,
    "recovered": 0,
    "latitude": 51.2538,
    "pop": 14570000,
    "sick": 3536
  },
  {
    "latitude": 14.652027,
    "pop": 376480,
    "longitude": -61.011715,
    "name": "Martinique",
    "country": "FR",
    "lastUpdated": "2020-04-04T17:45:03.195Z",
    "dead": 3,
    "id": "SDdefnq1bc3ZNr7SpEsW",
    "infected": 143,
    "recovered": 27,
    "sick": 113
  },
  {
    "infected": 205,
    "recovered": 31,
    "latitude": 7.9465,
    "pop": 28830000,
    "longitude": -1.0232,
    "name": "Ghana",
    "country": "GH",
    "lastUpdated": "2020-04-04T17:45:03.201Z",
    "dead": 5,
    "id": "SG9VWLOV3x2JsTkXmVSz",
    "sick": 169
  },
  {
    "longitude": 8.227512,
    "name": "Switzerland",
    "country": "CH",
    "lastUpdated": "2020-04-04T17:45:03.097Z",
    "dead": 641,
    "id": "SGe9sCPayMqh6RsGFaBA",
    "infected": 20278,
    "recovered": 4846,
    "latitude": 46.818188,
    "pop": 8570000,
    "sick": 14791
  },
  {
    "recovered": 0,
    "latitude": 46.8139,
    "pop": 8485000,
    "longitude": -71.208,
    "name": "Quebec",
    "country": "CA",
    "lastUpdated": "2020-04-04T17:45:02.050Z",
    "dead": 61,
    "id": "SHoOE3NiJgWAlDVBzwYH",
    "infected": 6101,
    "sick": 6040
  },
  {
    "latitude": 42.6026,
    "pop": 1831000,
    "longitude": 20.903,
    "name": "Kosovo",
    "country": "XK",
    "lastUpdated": "2020-04-04T17:14:08.024Z",
    "dead": 1,
    "id": "SMWvuMMuKp2QK7O2tNia",
    "infected": 135,
    "recovered": 16,
    "sick": 118
  },
  {
    "infected": 7,
    "recovered": 0,
    "latitude": 15.2993,
    "pop": 1817000,
    "longitude": 74.124,
    "name": "Goa",
    "country": "IN",
    "lastUpdated": "2020-04-04T17:52:05.673Z",
    "dead": 0,
    "id": "SPcujsH2YlUaoAr8AiWF",
    "sick": 7
  },
  {
    "recovered": 30,
    "latitude": 39,
    "pop": 1957000,
    "longitude": 16.5,
    "name": "Calabria",
    "country": "IT",
    "lastUpdated": "2020-04-04T17:49:02.325Z",
    "dead": 49,
    "id": "SZdF624x0v1LlyzZjKFu",
    "infected": 741,
    "sick": 662
  },
  {
    "infected": 285,
    "recovered": 0,
    "latitude": 41.4925,
    "pop": 1929000,
    "longitude": -99.9018,
    "name": "Nebraska",
    "country": "US",
    "lastUpdated": "2020-04-04T17:48:14.627Z",
    "dead": 6,
    "id": "SakhKQzKu1LRI8laqdQq",
    "sick": 279
  },
  {
    "longitude": 55.5364,
    "name": "La Réunion",
    "country": "FR",
    "lastUpdated": "2020-04-04T17:45:03.057Z",
    "dead": 0,
    "id": "SgHzWAAYK1j2sipovxM6",
    "infected": 334,
    "recovered": 40,
    "latitude": -21.1151,
    "pop": 859959,
    "sick": 294
  },
  {
    "latitude": 12.565679,
    "pop": 16010000,
    "longitude": 104.990967,
    "name": "Cambodia",
    "country": "KH",
    "lastUpdated": "2020-04-04T17:45:03.318Z",
    "dead": 0,
    "id": "SioMALgUbo7peXmbco2f",
    "infected": 114,
    "recovered": 50,
    "sick": 64
  },
  {
    "infected": 84,
    "recovered": 0,
    "latitude": 13.4443,
    "pop": 164229,
    "longitude": 144.7937,
    "name": "Guam",
    "country": "GU",
    "lastUpdated": "2020-04-04T17:48:14.632Z",
    "dead": 4,
    "id": "SsWhuEElU7dCTTuH5fdQ",
    "sick": 80
  },
  {
    "recovered": 3,
    "latitude": -4.0383,
    "pop": 81340000,
    "longitude": 21.7587,
    "name": "DR Congo",
    "country": "CD",
    "lastUpdated": "2020-04-04T17:45:03.382Z",
    "dead": 16,
    "id": "T3iRf8mTUTAzbKrORTap",
    "infected": 148,
    "sick": 129
  },
  {
    "recovered": 420,
    "latitude": 23.635796,
    "pop": 32940000,
    "longitude": 44.344334,
    "name": "Saudi Arabia",
    "country": "SA",
    "lastUpdated": "2020-04-04T17:45:03.032Z",
    "dead": 29,
    "id": "T7NffoeCgTUpAbOHvYwP",
    "infected": 2179,
    "sick": 1730
  },
  {
    "recovered": 66,
    "latitude": 4.506106,
    "pop": 428697,
    "longitude": 114.650692,
    "name": "Brunei",
    "country": "BN",
    "lastUpdated": "2020-04-04T17:45:03.285Z",
    "dead": 1,
    "id": "TQZmzsLhJqjtCSExAkCP",
    "infected": 135,
    "sick": 68
  },
  {
    "lastUpdated": "2020-04-03T18:10:44.624Z",
    "dead": 448,
    "id": "TT0MKODSjrxHvG19xZCa",
    "infected": 6645,
    "recovered": 1537,
    "latitude": 45.4471,
    "pop": 8027000,
    "longitude": 4.3853,
    "name": "Auvergne-Rhône-Alpes",
    "country": "FR",
    "sick": 4660
  },
  {
    "lastUpdated": "2020-04-04T17:48:14.611Z",
    "dead": 111,
    "id": "Th4dlpXXmSDgi1OHs36P",
    "infected": 4181,
    "recovered": 0,
    "latitude": 39.318928,
    "pop": 5696000,
    "longitude": -105.461392,
    "name": "Colorado",
    "country": "US",
    "sick": 4070
  },
  {
    "latitude": 12.2383,
    "pop": 19190000,
    "longitude": -1.5616,
    "name": "Burkina Faso",
    "country": "BF",
    "lastUpdated": "2020-04-04T17:45:03.068Z",
    "dead": 16,
    "id": "Tup6oDCHj6DgqZR3nQ3x",
    "infected": 318,
    "recovered": 66,
    "sick": 236
  },
  {
    "longitude": -61.670761,
    "name": "Grenada",
    "country": "GD",
    "lastUpdated": "2020-04-04T17:45:03.276Z",
    "dead": 0,
    "id": "TvqURPN5xzVBXsmGP46N",
    "infected": 12,
    "recovered": 0,
    "latitude": 12.104818,
    "pop": 112381,
    "sick": 12
  },
  {
    "latitude": 55.675758,
    "pop": 5603000,
    "longitude": 12.56902,
    "name": "Denmark",
    "country": "DK",
    "lastUpdated": "2020-04-04T17:45:03.007Z",
    "dead": 161,
    "id": "Ty1AY3VLPJcRZgdBIERx",
    "infected": 4077,
    "recovered": 1283,
    "sick": 2633
  },
  {
    "infected": 778,
    "recovered": 755,
    "latitude": 36.395859,
    "pop": 100472400,
    "longitude": 118.769882,
    "name": "Shandong",
    "country": "CN",
    "lastUpdated": "2020-04-04T17:29:09.158Z",
    "dead": 7,
    "id": "U0tkTJ9CGsBuFJ2Gdoum",
    "sick": 16
  },
  {
    "infected": 251,
    "recovered": 26,
    "latitude": 43.94236,
    "pop": 33400,
    "longitude": 12.457777,
    "name": "San Marino",
    "country": "SM",
    "lastUpdated": "2020-04-04T17:45:03.069Z",
    "dead": 32,
    "id": "U12rMD5GDW58Q0lIwrB1",
    "sick": 193
  },
  {
    "id": "U13Gy4BpRLAZ95bPmBXd",
    "infected": 2935,
    "recovered": 514,
    "latitude": 36.204823,
    "pop": 126800000,
    "longitude": 138.25293,
    "name": "Japan",
    "country": "JP",
    "lastUpdated": "2020-04-04T17:45:03.101Z",
    "dead": 69,
    "sick": 2352
  },
  {
    "latitude": 1.3733,
    "pop": 42860000,
    "longitude": 32.2903,
    "name": "Uganda",
    "country": "UG",
    "lastUpdated": "2020-04-04T17:45:03.346Z",
    "dead": 0,
    "id": "UCZXEgnHtxUoChWLR6fQ",
    "infected": 48,
    "recovered": 0,
    "sick": 48
  },
  {
    "id": "UIbrFy6kiTTF0D37Kqmp",
    "infected": 8,
    "recovered": 1,
    "latitude": -11.2027,
    "pop": 29780000,
    "longitude": 17.8739,
    "name": "Angola",
    "country": "AO",
    "lastUpdated": "2020-04-04T17:45:03.366Z",
    "dead": 2,
    "sick": 5
  },
  {
    "infected": 989,
    "recovered": 245,
    "latitude": 48.202,
    "pop": 3329000,
    "longitude": -2.9326,
    "name": "Bretagne",
    "country": "FR",
    "lastUpdated": "2020-04-03T18:11:57.332Z",
    "dead": 69,
    "id": "URKMlJ7OTNldjpaxFbjE",
    "sick": 675
  },
  {
    "longitude": 9.9937,
    "name": "Hamburg",
    "country": "DE",
    "lastUpdated": "2020-04-04T17:41:02.921Z",
    "dead": 16,
    "id": "UfFaUECHINUutv1M9tzq",
    "infected": 2882,
    "recovered": 1250,
    "latitude": 53.5511,
    "pop": 1822000,
    "sick": 1616
  },
  {
    "recovered": 0,
    "latitude": -19.4914,
    "pop": 211945,
    "longitude": 132.551,
    "name": "Northern Territory",
    "country": "AU",
    "lastUpdated": "2020-04-04T17:42:03.219Z",
    "dead": 0,
    "id": "UrF45V1VqMo6YBib2KlL",
    "infected": 25,
    "sick": 25
  },
  {
    "lastUpdated": "2020-04-04T17:45:03.363Z",
    "dead": 4,
    "id": "UsxgpiuFCtlR2CW1UUFm",
    "infected": 23,
    "recovered": 6,
    "latitude": 18.0424805,
    "pop": 41109,
    "longitude": -63.0548286,
    "name": "Sint Maarten",
    "country": "SX",
    "sick": 13
  },
  {
    "infected": 5,
    "recovered": 1,
    "latitude": 11.943179,
    "pop": 241773,
    "longitude": 79.808206,
    "name": "Puducherry",
    "country": "IN",
    "lastUpdated": "2020-04-04T17:52:05.847Z",
    "dead": 0,
    "id": "V1qE740s3EUGyKGr6SVv",
    "sick": 4
  },
  {
    "infected": 1267,
    "recovered": 55,
    "latitude": 3.527606,
    "pop": 49070000,
    "longitude": -72.998674,
    "name": "Colombia",
    "country": "CO",
    "lastUpdated": "2020-04-04T17:45:03.029Z",
    "dead": 25,
    "id": "VAAmtxtDuCY0o55zRsOh",
    "sick": 1187
  },
  {
    "recovered": 15,
    "latitude": 21.5218,
    "pop": 11480000,
    "longitude": -77.7812,
    "name": "Cuba",
    "country": "CU",
    "lastUpdated": "2020-04-04T17:45:03.020Z",
    "dead": 6,
    "id": "VAG9AcMABTf8oIAfELPh",
    "infected": 288,
    "sick": 267
  },
  {
    "lastUpdated": "2020-04-04T17:29:08.962Z",
    "dead": 2,
    "id": "VIf8T8PD3ZzlzAm5eBCX",
    "infected": 184,
    "recovered": 172,
    "latitude": 25.181129,
    "pop": 45970000,
    "longitude": 101.864143,
    "name": "Yunnan",
    "country": "CN",
    "sick": 10
  },
  {
    "latitude": 26.8467,
    "pop": 204200000,
    "longitude": 80.9462,
    "name": "Uttar Pradesh",
    "country": "IN",
    "lastUpdated": "2020-04-04T17:40:02.129Z",
    "dead": 2,
    "id": "VcKcLdCkC6YpPfIDnRVD",
    "infected": 234,
    "recovered": 21,
    "sick": 211
  },
  {
    "lastUpdated": "2020-04-04T17:45:02.044Z",
    "dead": 0,
    "id": "Vd3lLgrNsr81plzTgZkz",
    "infected": 4,
    "recovered": 0,
    "latitude": 64.8255,
    "pop": 44826,
    "longitude": -124.8457,
    "name": "Northwest Territories",
    "country": "CA",
    "sick": 4
  },
  {
    "latitude": 43.8927,
    "pop": 5893000,
    "longitude": 3.2828,
    "name": "Occitanie",
    "country": "FR",
    "lastUpdated": "2020-04-03T18:12:59.300Z",
    "dead": 131,
    "id": "WAnbFrEjtZDTCIYBt8rz",
    "infected": 2442,
    "recovered": 657,
    "sick": 1654
  },
  {
    "recovered": 9,
    "latitude": 40.5,
    "pop": 567118,
    "longitude": 16.5,
    "name": "Basilicata",
    "country": "IT",
    "lastUpdated": "2020-04-04T17:49:02.220Z",
    "dead": 11,
    "id": "WD502XimGXnWzqYg7zxL",
    "infected": 264,
    "sick": 244
  },
  {
    "recovered": 0,
    "latitude": 24.6637,
    "pop": 2722000,
    "longitude": 93.9063,
    "name": "Manipur",
    "country": "IN",
    "lastUpdated": "2020-04-04T17:52:05.761Z",
    "dead": 0,
    "id": "WKsJQmcpWKxnp0nCwN77",
    "infected": 2,
    "sick": 2
  },
  {
    "infected": 1505,
    "recovered": 95,
    "latitude": -30.5595,
    "pop": 56720000,
    "longitude": 22.9375,
    "name": "South Africa",
    "country": "ZA",
    "lastUpdated": "2020-04-04T17:45:03.043Z",
    "dead": 9,
    "id": "Whrue10NtwIObLvFFyBr",
    "sick": 1401
  },
  {
    "latitude": 13.443182,
    "pop": 2101000,
    "longitude": -15.3101387,
    "name": "Gambia",
    "country": "GM",
    "lastUpdated": "2020-04-04T17:45:03.303Z",
    "dead": 1,
    "id": "Wk811YwpQxsOCfz8As86",
    "infected": 4,
    "recovered": 2,
    "sick": 1
  },
  {
    "latitude": 23.685,
    "pop": 164700000,
    "longitude": 90.3563,
    "name": "Bangladesh",
    "country": "BD",
    "lastUpdated": "2020-04-04T17:45:03.253Z",
    "dead": 8,
    "id": "WpLayPPLIJ7VcHZdQaoM",
    "infected": 70,
    "recovered": 30,
    "sick": 32
  },
  {
    "latitude": 45.5,
    "pop": 4905000,
    "longitude": 11.75,
    "name": "Veneto",
    "country": "IT",
    "lastUpdated": "2020-04-04T17:49:02.335Z",
    "dead": 607,
    "id": "X2iRhHF6f9pUnJcxPc3J",
    "infected": 10824,
    "recovered": 1124,
    "sick": 9093
  },
  {
    "latitude": -8.556856,
    "pop": 1311000,
    "longitude": 125.56031,
    "name": "Timor-Leste",
    "country": "TL",
    "lastUpdated": "2020-04-04T17:45:03.338Z",
    "dead": 0,
    "id": "X3GMAVINj2GDzIRVfo7n",
    "infected": 1,
    "recovered": 0,
    "sick": 1
  },
  {
    "longitude": 77.577049,
    "name": "Ladakh",
    "country": "IN",
    "lastUpdated": "2020-04-04T17:52:05.758Z",
    "dead": 0,
    "id": "X3PZqaJxtnlxcgP4tzya",
    "infected": 14,
    "recovered": 3,
    "latitude": 34.152588,
    "pop": 274289,
    "sick": 11
  },
  {
    "infected": 350,
    "recovered": 301,
    "latitude": 25.92448,
    "pop": 38560000,
    "longitude": 118.278992,
    "name": "Fujian",
    "country": "CN",
    "lastUpdated": "2020-04-04T17:29:08.889Z",
    "dead": 1,
    "id": "XBBw0iMPrmiEu3qogkbi",
    "sick": 48
  },
  {
    "longitude": -55.7658,
    "name": "Uruguay",
    "country": "UY",
    "lastUpdated": "2020-04-04T17:45:03.045Z",
    "dead": 4,
    "id": "XrsuLstdybIqIvv0E0aJ",
    "infected": 386,
    "recovered": 86,
    "latitude": -32.5228,
    "pop": 3457000,
    "sick": 296
  },
  {
    "infected": 291,
    "recovered": 102,
    "latitude": 42.0396,
    "pop": 339178,
    "longitude": 9.0129,
    "name": "Corse",
    "country": "FR",
    "lastUpdated": "2020-04-02T17:46:28.011Z",
    "dead": 23,
    "id": "YGXgIObKVabP2CYEdcb9",
    "sick": 166
  },
  {
    "longitude": 35.2332,
    "name": "Palestine",
    "country": "PS",
    "lastUpdated": "2020-04-04T17:45:03.059Z",
    "dead": 1,
    "id": "YMzKw0SnXG71VT7H1jff",
    "infected": 216,
    "recovered": 21,
    "latitude": 31.9522,
    "pop": 5052000,
    "sick": 194
  },
  {
    "latitude": 11.8037491,
    "pop": 1955000,
    "longitude": -15.1804132,
    "name": "Guinea-Bissau",
    "country": "GW",
    "lastUpdated": "2020-04-04T17:45:03.304Z",
    "dead": 0,
    "id": "YZoy8ReFucvC3IFnWZHn",
    "infected": 15,
    "recovered": 0,
    "sick": 15
  },
  {
    "longitude": -149.4937,
    "name": "Alaska",
    "country": "US",
    "lastUpdated": "2020-04-04T17:48:14.609Z",
    "dead": 3,
    "id": "YaCODTMD1KKRnrAlkg2u",
    "infected": 157,
    "recovered": 0,
    "latitude": 64.2008,
    "pop": 737438,
    "sick": 154
  },
  {
    "latitude": 37.568291,
    "pop": 51470000,
    "longitude": 126.99778,
    "name": "South Korea",
    "country": "KR",
    "lastUpdated": "2020-04-04T17:45:03.088Z",
    "dead": 177,
    "id": "Yw9uBekNlefXBcOCNMfP",
    "infected": 10156,
    "recovered": 6325,
    "sick": 3654
  },
  {
    "lastUpdated": "2020-04-04T17:45:03.287Z",
    "dead": 0,
    "id": "YzZqZMJGvG6joQCdiuXC",
    "infected": 52,
    "recovered": 0,
    "latitude": 13.193887,
    "pop": 285719,
    "longitude": -59.543198,
    "name": "Barbados",
    "country": "BB",
    "sick": 52
  },
  {
    "infected": 3627,
    "recovered": 116,
    "latitude": 52.2297,
    "pop": 37980000,
    "longitude": 21.0122,
    "name": "Poland",
    "country": "PL",
    "lastUpdated": "2020-04-04T17:45:03.006Z",
    "dead": 79,
    "id": "ZAZNuCK1VweBaTLCFzCk",
    "sick": 3432
  },
  {
    "recovered": 0,
    "latitude": -17.713371,
    "pop": 905502,
    "longitude": 178.065033,
    "name": "Fiji",
    "country": "FJ",
    "lastUpdated": "2020-04-04T17:45:03.289Z",
    "dead": 0,
    "id": "ZmzOT0sJgfWXEpRImItC",
    "infected": 12,
    "sick": 12
  },
  {
    "infected": 4914,
    "recovered": 0,
    "latitude": 41.6032,
    "pop": 3573000,
    "longitude": -73.0877,
    "name": "Connecticut",
    "country": "US",
    "lastUpdated": "2020-04-04T17:48:14.549Z",
    "dead": 131,
    "id": "Zqy0gftQzocR49jEJNMl",
    "sick": 4783
  },
  {
    "latitude": 43.616943,
    "pop": 1532000,
    "longitude": 13.516667,
    "name": "Marche",
    "country": "IT",
    "lastUpdated": "2020-04-04T16:04:02.318Z",
    "dead": 557,
    "id": "Zwbjs4XN7P9s849Q3zFj",
    "infected": 4230,
    "recovered": 42,
    "sick": 3631
  },
  {
    "longitude": 10.8453,
    "name": "Thüringen",
    "country": "DE",
    "lastUpdated": "2020-04-04T17:52:03.241Z",
    "dead": 6,
    "id": "a9OgUWo6ZSWA3HyF0xnj",
    "infected": 840,
    "recovered": 129,
    "latitude": 51.011,
    "pop": 2137000,
    "sick": 705
  },
  {
    "infected": 407,
    "recovered": 6,
    "latitude": -30.000233,
    "pop": 1677000,
    "longitude": 136.209152,
    "name": "South Australia",
    "country": "AU",
    "lastUpdated": "2020-04-04T17:42:03.120Z",
    "dead": 0,
    "id": "a9p9pAOsjg1WAjPGc2a6",
    "sick": 401
  },
  {
    "latitude": 37.9643,
    "pop": 6126000,
    "longitude": -91.8318,
    "name": "Missouri",
    "country": "US",
    "lastUpdated": "2020-04-04T17:48:14.574Z",
    "dead": 33,
    "id": "aPubGfQ8ToSEuKJldKRT",
    "infected": 2158,
    "recovered": 0,
    "sick": 2125
  },
  {
    "id": "aTa8MiBjtH3iY0SRs2HQ",
    "infected": 254,
    "recovered": 252,
    "latitude": 23.64407,
    "pop": 48380000,
    "longitude": 108.26651,
    "name": "Guangxi",
    "country": "CN",
    "lastUpdated": "2020-04-04T17:29:08.970Z",
    "dead": 2,
    "sick": 0
  },
  {
    "lastUpdated": "2020-04-04T17:45:03.374Z",
    "dead": 0,
    "id": "adcBUeAYp6ey0ZXCzKNs",
    "infected": 8,
    "recovered": 0,
    "latitude": 6.6111,
    "pop": 4659000,
    "longitude": 20.9394,
    "name": "CAR",
    "country": "CF",
    "sick": 8
  },
  {
    "id": "afeZTVC1J1SMMNFxkrcc",
    "infected": 2012,
    "recovered": 0,
    "latitude": 37.4316,
    "pop": 8518000,
    "longitude": -78.6569,
    "name": "Virginia",
    "country": "US",
    "lastUpdated": "2020-04-04T17:48:14.559Z",
    "dead": 47,
    "sick": 1965
  },
  {
    "infected": 585,
    "recovered": 438,
    "latitude": 39.904202,
    "pop": 21540000,
    "longitude": 116.407394,
    "name": "Beijing",
    "country": "CN",
    "lastUpdated": "2020-04-04T17:29:09.067Z",
    "dead": 8,
    "id": "alj4hkxg9cjrTxOzwFKt",
    "sick": 139
  },
  {
    "lastUpdated": "2020-04-04T17:45:03.094Z",
    "dead": 56,
    "id": "b7TwXX46FA0EmH1CjHET",
    "infected": 878,
    "recovered": 259,
    "latitude": 33.22319,
    "pop": 38270000,
    "longitude": 43.679291,
    "name": "Iraq",
    "country": "IQ",
    "sick": 563
  },
  {
    "latitude": 14.457474,
    "pop": 15850000,
    "longitude": -14.358636,
    "name": "Senegal",
    "country": "SN",
    "lastUpdated": "2020-04-04T17:45:03.115Z",
    "dead": 2,
    "id": "b9p1JhVml3GGC7iiPmKv",
    "infected": 219,
    "recovered": 72,
    "sick": 145
  },
  {
    "latitude": -0.0236,
    "pop": 49700000,
    "longitude": 37.9062,
    "name": "Kenya",
    "country": "KE",
    "lastUpdated": "2020-04-04T17:45:03.381Z",
    "dead": 4,
    "id": "bVHiTolbUJGHIeVht3eG",
    "infected": 126,
    "recovered": 4,
    "sick": 118
  },
  {
    "infected": 34997,
    "recovered": 0,
    "latitude": 39.561889,
    "pop": 8909000,
    "longitude": -74.672169,
    "name": "New Jersey",
    "country": "US",
    "lastUpdated": "2020-04-04T17:18:14.081Z",
    "dead": 646,
    "id": "bYp4RRHv19M7lYtSzQeV",
    "sick": 34351
  },
  {
    "lastUpdated": "2020-04-04T17:45:03.049Z",
    "dead": 57,
    "id": "bdqD4kpdqGgUaX70Tm2Q",
    "infected": 3483,
    "recovered": 915,
    "latitude": 3.139,
    "pop": 31620000,
    "longitude": 101.6869,
    "name": "Malaysia",
    "country": "MY",
    "sick": 2511
  },
  {
    "longitude": 18.643501,
    "name": "Sweden",
    "country": "SE",
    "lastUpdated": "2020-04-04T17:45:03.014Z",
    "dead": 373,
    "id": "bignnyt2A8BBx8VNo32p",
    "infected": 6443,
    "recovered": 205,
    "latitude": 60.128162,
    "pop": 10120000,
    "sick": 5865
  },
  {
    "infected": 2,
    "recovered": 0,
    "latitude": 23.6102,
    "pop": 31900000,
    "longitude": 85.2799,
    "name": "Jharkhand",
    "country": "IN",
    "lastUpdated": "2020-04-04T17:52:05.853Z",
    "dead": 0,
    "id": "bo2XnTYrVRoaktD5uF93",
    "sick": 2
  },
  {
    "latitude": 17.363747,
    "pop": 53100,
    "longitude": -62.754593,
    "name": "Saint Kitts and Nevis",
    "country": "KN",
    "lastUpdated": "2020-04-04T17:45:03.249Z",
    "dead": 0,
    "id": "bor36ktvkrB3iSxlsegc",
    "infected": 9,
    "recovered": 0,
    "sick": 9
  },
  {
    "infected": 333,
    "recovered": 99,
    "latitude": 40.973765,
    "pop": 2877000,
    "longitude": 20.010162,
    "name": "Albania",
    "country": "AL",
    "lastUpdated": "2020-04-04T17:45:03.112Z",
    "dead": 18,
    "id": "cCGmFmwHOoBrEpvG3qBP",
    "sick": 216
  },
  {
    "longitude": 96.199379,
    "name": "Myanmar",
    "country": "MM",
    "lastUpdated": "2020-04-04T17:45:03.198Z",
    "dead": 1,
    "id": "cIbchhSBTuxXmXYgpkdB",
    "infected": 21,
    "recovered": 0,
    "latitude": 16.871311,
    "pop": 55901000,
    "sick": 20
  },
  {
    "infected": 10,
    "recovered": 1,
    "latitude": -25.953724,
    "pop": 29670000,
    "longitude": 32.588711,
    "name": "Mozambique",
    "country": "MZ",
    "lastUpdated": "2020-04-04T17:45:03.323Z",
    "dead": 0,
    "id": "cO8TChMvQvAtoZMNurTQ",
    "sick": 9
  },
  {
    "longitude": 103.8467,
    "name": "Mongolia",
    "country": "MN",
    "lastUpdated": "2020-04-04T17:45:03.259Z",
    "dead": 0,
    "id": "cPxONYsVo6BgvCW9HUeQ",
    "infected": 14,
    "recovered": 2,
    "latitude": 46.8625,
    "pop": 3076000,
    "sick": 12
  },
  {
    "latitude": 64.963051,
    "pop": 364260,
    "longitude": -19.020836,
    "name": "Iceland",
    "country": "IS",
    "lastUpdated": "2020-04-04T17:45:03.099Z",
    "dead": 4,
    "id": "cPxe7nsRnOf6aOPqHElJ",
    "infected": 1417,
    "recovered": 396,
    "sick": 1017
  },
  {
    "infected": 7589,
    "recovered": 427,
    "latitude": 31.046051,
    "pop": 8712000,
    "longitude": 34.851612,
    "name": "Israel",
    "country": "IL",
    "lastUpdated": "2020-04-04T17:45:03.046Z",
    "dead": 44,
    "id": "cX891t0ONLNFj0MYq6La",
    "sick": 7118
  },
  {
    "recovered": 22,
    "latitude": 4.749531,
    "pop": 290691,
    "longitude": -53.112909,
    "name": "Guyane",
    "country": "FR",
    "lastUpdated": "2020-04-04T17:45:03.322Z",
    "dead": 0,
    "id": "cc7s6hYGQ2MovBBBgkKb",
    "infected": 57,
    "sick": 35
  },
  {
    "recovered": 93,
    "latitude": 61.8926,
    "pop": 49290,
    "longitude": -6.9118,
    "name": "Faeroe Islands",
    "country": "FO",
    "lastUpdated": "2020-04-04T17:45:03.384Z",
    "dead": 0,
    "id": "cgzd5EM8PZv5ziJtTz1w",
    "infected": 181,
    "sick": 88
  },
  {
    "longitude": -77.1945,
    "name": "Pennsylvania",
    "country": "US",
    "lastUpdated": "2020-04-04T17:48:14.572Z",
    "dead": 136,
    "id": "chj2FF3zb4Xxcop9RHre",
    "infected": 10017,
    "recovered": 0,
    "latitude": 41.2033,
    "pop": 12810000,
    "sick": 9881
  },
  {
    "recovered": 521,
    "latitude": 45.7087,
    "pop": 5987000,
    "longitude": 0.6269,
    "name": "Nouvelle-Aquitaine",
    "country": "FR",
    "lastUpdated": "2020-04-03T18:13:27.141Z",
    "dead": 100,
    "id": "cpf3Y5PQTYywIm3PrpIQ",
    "infected": 1828,
    "sick": 1207
  },
  {
    "latitude": 40.463669,
    "pop": 46660000,
    "longitude": -3.74922,
    "name": "Spain",
    "country": "ES",
    "lastUpdated": "2020-04-04T17:45:03.084Z",
    "dead": 11744,
    "id": "d0ExINgPaWUBm3l4ioJL",
    "infected": 124736,
    "recovered": 34219,
    "sick": 78773
  },
  {
    "infected": 466,
    "recovered": 21,
    "latitude": 42.50837,
    "pop": 76965,
    "longitude": 1.517155,
    "name": "Andorra",
    "country": "AD",
    "lastUpdated": "2020-04-04T17:45:03.080Z",
    "dead": 17,
    "id": "dedMXSYR2k92wkSXNZqn",
    "sick": 428
  },
  {
    "latitude": 38.831163,
    "pop": 967171,
    "longitude": -75.375673,
    "name": "Delaware",
    "country": "US",
    "lastUpdated": "2020-04-04T17:48:14.567Z",
    "dead": 14,
    "id": "dzCgqYduzyncjNKU9z6G",
    "infected": 450,
    "recovered": 0,
    "sick": 436
  },
  {
    "infected": 23934,
    "recovered": 786,
    "latitude": 38.9637,
    "pop": 80810000,
    "longitude": 35.2433,
    "name": "Turkey",
    "country": "TR",
    "lastUpdated": "2020-04-04T17:45:03.126Z",
    "dead": 501,
    "id": "dzIcCaUZlbIXuRw0SyDE",
    "sick": 22647
  },
  {
    "id": "e3BtI12qbqhE8jypOoZu",
    "infected": 11781,
    "recovered": 2507,
    "latitude": 47.516232,
    "pop": 8822000,
    "longitude": 14.550072,
    "name": "Austria",
    "country": "AT",
    "lastUpdated": "2020-04-04T17:45:03.036Z",
    "dead": 186,
    "sick": 9088
  },
  {
    "longitude": 9.8451,
    "name": "Niedersachsen",
    "country": "DE",
    "lastUpdated": "2020-04-04T17:41:02.930Z",
    "dead": 91,
    "id": "e3CJgTO8wVbBQZaxqNze",
    "infected": 5999,
    "recovered": 1473,
    "latitude": 52.6367,
    "pop": 7963000,
    "sick": 4435
  },
  {
    "longitude": 122.310669,
    "name": "Liaoning",
    "country": "CN",
    "lastUpdated": "2020-04-04T17:29:09.263Z",
    "dead": 2,
    "id": "e7P83iImanpd9r36oXK3",
    "infected": 141,
    "recovered": 125,
    "latitude": 41.097481,
    "pop": 43900000,
    "sick": 14
  },
  {
    "latitude": 31.230391,
    "pop": 24240000,
    "longitude": 121.473701,
    "name": "Shanghai",
    "country": "CN",
    "lastUpdated": "2020-04-04T17:29:09.077Z",
    "dead": 6,
    "id": "e9pQqQa7CEblCYoDtfKo",
    "infected": 529,
    "recovered": 356,
    "sick": 167
  },
  {
    "latitude": 42.407211,
    "pop": 6902000,
    "longitude": -71.382439,
    "name": "Massachusetts",
    "country": "US",
    "lastUpdated": "2020-04-04T17:48:14.565Z",
    "dead": 192,
    "id": "eCKDGssww4pF7NrxOySu",
    "infected": 10402,
    "recovered": 0,
    "sick": 10210
  },
  {
    "infected": 64,
    "recovered": 3,
    "latitude": 43.740451,
    "pop": 38695,
    "longitude": 7.432032,
    "name": "Monaco",
    "country": "MC",
    "lastUpdated": "2020-04-04T17:45:03.192Z",
    "dead": 1,
    "id": "eLgKPNUwYM5MNDAtF6ql",
    "sick": 60
  },
  {
    "id": "ejrjMKfHexGnK52FS9Aa",
    "infected": 2826,
    "recovered": 835,
    "latitude": 47.2805,
    "pop": 2686000,
    "longitude": 4.9994,
    "name": "Bourgogne-Franche-Comté",
    "country": "FR",
    "lastUpdated": "2020-04-03T18:11:16.385Z",
    "dead": 303,
    "sick": 1688
  },
  {
    "infected": 525,
    "recovered": 36,
    "latitude": 48.0196,
    "pop": 18040000,
    "longitude": 66.9237,
    "name": "Kazakhstan",
    "country": "KZ",
    "lastUpdated": "2020-04-04T17:45:03.053Z",
    "dead": 5,
    "id": "etrmrftkQg6Kbd9seAga",
    "sick": 484
  },
  {
    "infected": 557,
    "recovered": 538,
    "latitude": 30.14208,
    "pop": 81100000,
    "longitude": 102.960701,
    "name": "Sichuan",
    "country": "CN",
    "lastUpdated": "2020-04-04T17:29:09.472Z",
    "dead": 3,
    "id": "eyK5bxFkwdoAouIBvLFM",
    "sick": 16
  },
  {
    "recovered": 61,
    "latitude": 21.473534,
    "pop": 4636000,
    "longitude": 55.975414,
    "name": "Oman",
    "country": "OM",
    "lastUpdated": "2020-04-04T17:45:03.145Z",
    "dead": 2,
    "id": "f9kmlhYtc3WA3kjbWszW",
    "infected": 277,
    "sick": 214
  },
  {
    "latitude": -0.228021,
    "pop": 81340000,
    "longitude": 15.8276587,
    "name": "Congo",
    "country": "CG",
    "lastUpdated": "2020-04-04T17:45:03.368Z",
    "dead": 2,
    "id": "fEyJ83bQtvcaes8KLhVx",
    "infected": 22,
    "recovered": 2,
    "sick": 18
  },
  {
    "latitude": 51.1045,
    "pop": 4081000,
    "longitude": 13.2017,
    "name": "Sachsen",
    "country": "DE",
    "lastUpdated": "2020-04-04T17:41:03.024Z",
    "dead": 31,
    "id": "fGqVm2khm3IBRs709S1f",
    "infected": 2893,
    "recovered": 62,
    "sick": 2800
  },
  {
    "latitude": 47,
    "longitude": 2,
    "name": "Région non communiquée",
    "country": "FR",
    "dead": 1418,
    "lastUpdated": "2020-04-04T08:27:04.948Z",
    "id": "fIp76gl05LhZ0aOxUbhz",
    "infected": 0,
    "recovered": 0,
    "sick": 0
  },
  {
    "id": "fJc9CaZGR1OCHaW8Tn4V",
    "infected": 9,
    "recovered": 0,
    "latitude": 15.4542,
    "pop": 14900000,
    "longitude": 18.7322,
    "name": "Chad",
    "country": "TD",
    "lastUpdated": "2020-04-04T17:45:03.351Z",
    "dead": 0,
    "sick": 9
  },
  {
    "lastUpdated": "2020-04-04T17:45:03.107Z",
    "dead": 5,
    "id": "fK06AziL8wyrcoz7rsmJ",
    "infected": 323,
    "recovered": 74,
    "latitude": 31.295929,
    "pop": 9702000,
    "longitude": 36.691952,
    "name": "Jordan",
    "country": "JO",
    "sick": 244
  },
  {
    "infected": 11111,
    "recovered": 0,
    "latitude": 27.716933,
    "pop": 21300000,
    "longitude": -81.555239,
    "name": "Florida",
    "country": "US",
    "lastUpdated": "2020-04-04T17:48:14.551Z",
    "dead": 191,
    "id": "fNganaGVPifA4QahEQPS",
    "sick": 10920
  },
  {
    "latitude": 35.452016,
    "longitude": 139.664285,
    "name": "Diamond Princess (Cruise)",
    "country": "ZZ",
    "dead": 10,
    "lastUpdated": "2020-04-04T14:22:47.533Z",
    "id": "fNnE9CD0SttEVrCUo1Ym",
    "infected": 712,
    "recovered": 587,
    "sick": 115
  },
  {
    "infected": 2220,
    "recovered": 257,
    "latitude": 46.0679,
    "pop": 538223,
    "longitude": 11.1211,
    "name": "P.A. Trento",
    "country": "IT",
    "lastUpdated": "2020-04-04T17:49:02.430Z",
    "dead": 210,
    "id": "fOlU5JggPKOO8jbHh5GD",
    "sick": 1753
  },
  {
    "lastUpdated": "2020-04-04T17:41:02.826Z",
    "dead": 22,
    "id": "ffKhENYKy3bwsyBLiYtE",
    "infected": 3486,
    "recovered": 1720,
    "latitude": 52.52,
    "pop": 3748000,
    "longitude": 13.405,
    "name": "Berlin",
    "country": "DE",
    "sick": 1744
  },
  {
    "lastUpdated": "2020-04-04T17:29:09.556Z",
    "dead": 3207,
    "id": "fiJ14DCxw15e3SMemh8R",
    "infected": 67803,
    "recovered": 63762,
    "latitude": 31.160629,
    "pop": 58500000,
    "longitude": 112.255402,
    "name": "Hubei",
    "country": "CN",
    "sick": 834
  },
  {
    "id": "flbZ2kaR5kBuV8XZ2Nsu",
    "infected": 1096,
    "recovered": 23,
    "latitude": 50.4501,
    "pop": 42220000,
    "longitude": 30.5234,
    "name": "Ukraine",
    "country": "UA",
    "lastUpdated": "2020-04-04T17:45:03.087Z",
    "dead": 28,
    "sick": 1045
  },
  {
    "infected": 144,
    "recovered": 9,
    "latitude": 41.2044,
    "pop": 6202000,
    "longitude": 74.7661,
    "name": "Kyrgyzstan",
    "country": "KG",
    "lastUpdated": "2020-04-04T17:45:03.199Z",
    "dead": 1,
    "id": "fst48lrFxiMJbQPf4nur",
    "sick": 134
  },
  {
    "longitude": 5.291266,
    "name": "Netherlands",
    "country": "NL",
    "lastUpdated": "2020-04-04T17:45:03.105Z",
    "dead": 1651,
    "id": "g0lRMtEJbucWIGqSPn0I",
    "infected": 16627,
    "recovered": 250,
    "latitude": 52.132633,
    "pop": 17180000,
    "sick": 14726
  },
  {
    "lastUpdated": "2020-04-04T17:48:14.665Z",
    "dead": 12,
    "id": "gIdgxJZfTl2QOSYEwMAz",
    "infected": 738,
    "recovered": 0,
    "latitude": 34.69522,
    "pop": 3014000,
    "longitude": -92.288012,
    "name": "Arkansas",
    "country": "US",
    "sick": 726
  },
  {
    "lastUpdated": "2020-04-04T17:45:03.281Z",
    "dead": 4,
    "id": "gXd2X2PjmGP0XVwxpWqT",
    "infected": 23,
    "recovered": 0,
    "latitude": 4.8604159,
    "pop": 777859,
    "longitude": -58.9301796,
    "name": "Guyana",
    "country": "GY",
    "sick": 19
  },
  {
    "latitude": 43.9695,
    "pop": 882235,
    "longitude": -99.9018,
    "name": "South Dakota",
    "country": "US",
    "lastUpdated": "2020-04-04T17:48:14.639Z",
    "dead": 2,
    "id": "gYDsNgvuvtbg8t77w6FS",
    "infected": 212,
    "recovered": 0,
    "sick": 210
  },
  {
    "infected": 213,
    "recovered": 2,
    "latitude": 35.894231,
    "pop": 493559,
    "longitude": 14.432846,
    "name": "Malta",
    "country": "MT",
    "lastUpdated": "2020-04-04T17:45:03.177Z",
    "dead": 0,
    "id": "h9UqxYZ5xC4JZrmdDz0q",
    "sick": 211
  },
  {
    "lastUpdated": "2020-04-04T17:52:06.049Z",
    "dead": 6,
    "id": "hqwsh1rmvkWI3LFUVuMk",
    "infected": 445,
    "recovered": 15,
    "latitude": 28.7041,
    "pop": 18980000,
    "longitude": 77.1025,
    "name": "Delhi",
    "country": "IN",
    "sick": 424
  },
  {
    "infected": 138,
    "recovered": 131,
    "latitude": 35.751835,
    "pop": 25580000,
    "longitude": 104.28611,
    "name": "Gansu",
    "country": "CN",
    "lastUpdated": "2020-04-04T17:29:09.254Z",
    "dead": 2,
    "id": "iGkTscdD0XyHFSP23Qrp",
    "sick": 5
  },
  {
    "latitude": 34.8021,
    "pop": 18270000,
    "longitude": 38.9968,
    "name": "Syria",
    "country": "SY",
    "lastUpdated": "2020-04-04T17:45:03.278Z",
    "dead": 2,
    "id": "iHf1IZQP3CA3sT2erzyh",
    "infected": 16,
    "recovered": 2,
    "sick": 12
  },
  {
    "infected": 306,
    "recovered": 50,
    "latitude": 10.8505,
    "pop": 34800000,
    "longitude": 76.2711,
    "name": "Kerala",
    "country": "IN",
    "lastUpdated": "2020-04-04T17:40:02.056Z",
    "dead": 2,
    "id": "idymmgoqLHImnBdyC7r7",
    "sick": 254
  },
  {
    "longitude": -61.551,
    "name": "Guadeloupe",
    "country": "FR",
    "lastUpdated": "2020-04-03T18:16:02.381Z",
    "dead": 7,
    "id": "j8eMjjqNAqHAJhAKdBYN",
    "infected": 130,
    "recovered": 29,
    "latitude": 16.265,
    "pop": 395700,
    "sick": 94
  },
  {
    "latitude": 50.1183,
    "pop": 4074000,
    "longitude": 7.309,
    "name": "Rheinland-Pfalz",
    "country": "DE",
    "lastUpdated": "2020-04-04T14:24:06.679Z",
    "dead": 33,
    "id": "jKn2pIFlIBScjb47GjRX",
    "infected": 3627,
    "recovered": 690,
    "sick": 2904
  },
  {
    "latitude": 39.343357,
    "pop": 15000000,
    "longitude": 117.361649,
    "name": "Tianjin",
    "country": "CN",
    "lastUpdated": "2020-04-04T17:29:09.166Z",
    "dead": 3,
    "id": "jMlHjIOb7eMPSxFBrmG1",
    "infected": 180,
    "recovered": 144,
    "sick": 33
  },
  {
    "lastUpdated": "2020-04-04T17:45:03.345Z",
    "dead": 0,
    "id": "jOc8JUDWxCmquh49oZxV",
    "infected": 4,
    "recovered": 0,
    "latitude": 17.1898766,
    "pop": 397000,
    "longitude": -88.4976501,
    "name": "Belize",
    "country": "BZ",
    "sick": 4
  },
  {
    "latitude": 44.5588,
    "pop": 629299,
    "longitude": -72.5778,
    "name": "Vermont",
    "country": "US",
    "lastUpdated": "2020-04-04T17:48:14.576Z",
    "dead": 17,
    "id": "jPC0eOG50FWknCDe3K6P",
    "infected": 389,
    "recovered": 0,
    "sick": 372
  },
  {
    "infected": 4604,
    "recovered": 25,
    "latitude": 53.3498,
    "pop": 4830000,
    "longitude": -6.2603,
    "name": "Ireland",
    "country": "IE",
    "lastUpdated": "2020-04-04T17:45:03.044Z",
    "dead": 137,
    "id": "jpVXEDCyfyq26gPoCtHL",
    "sick": 4442
  },
  {
    "infected": 6,
    "recovered": 0,
    "latitude": 64.2823,
    "pop": 35874,
    "longitude": -135,
    "name": "Yukon",
    "country": "CA",
    "lastUpdated": "2020-04-04T17:45:02.038Z",
    "dead": 0,
    "id": "k73gNv36u1SmziUF6mUw",
    "sick": 6
  },
  {
    "latitude": 40.078072,
    "pop": 1648000,
    "longitude": 9.283447,
    "name": "Sardegna",
    "country": "IT",
    "lastUpdated": "2020-04-04T17:49:02.332Z",
    "dead": 41,
    "id": "kF99avagXvBfZTHv9ETi",
    "infected": 874,
    "recovered": 44,
    "sick": 789
  },
  {
    "latitude": 11.572076,
    "pop": 956985,
    "longitude": 43.145645,
    "name": "Djibouti",
    "country": "DJ",
    "lastUpdated": "2020-04-04T17:45:03.242Z",
    "dead": 0,
    "id": "l4nYeaqwy2yrEVqnijFj",
    "infected": 50,
    "recovered": 8,
    "sick": 42
  },
  {
    "infected": 1013,
    "recovered": 0,
    "latitude": 44.0682,
    "pop": 1754000,
    "longitude": -114.742,
    "name": "Idaho",
    "country": "US",
    "lastUpdated": "2020-04-04T17:48:14.616Z",
    "dead": 10,
    "id": "l7fHSKOmcaRX3tq9FCT6",
    "sick": 1003
  },
  {
    "latitude": 40.816666,
    "pop": 4048000,
    "longitude": 16.549999,
    "name": "Puglia",
    "country": "IT",
    "lastUpdated": "2020-04-04T17:49:02.237Z",
    "dead": 173,
    "id": "lAKH5Wfg4GhaM54VElFN",
    "infected": 2240,
    "recovered": 94,
    "sick": 1973
  },
  {
    "recovered": 1,
    "latitude": 10.6918,
    "pop": 1369000,
    "longitude": -61.2225,
    "name": "Trinidad and Tobago",
    "country": "TT",
    "lastUpdated": "2020-04-04T17:45:03.356Z",
    "dead": 6,
    "id": "lfLdfRP7hyiA6MVnQqqn",
    "infected": 101,
    "sick": 94
  },
  {
    "recovered": 0,
    "latitude": 16.5388,
    "pop": 546388,
    "longitude": -23.0418,
    "name": "Cape Verde",
    "country": "CV",
    "lastUpdated": "2020-04-04T17:45:03.306Z",
    "dead": 1,
    "id": "lgqPuia1S3ApA5Lsl2la",
    "infected": 7,
    "sick": 6
  },
  {
    "longitude": 87.539589,
    "name": "Xinjiang",
    "country": "CN",
    "lastUpdated": "2020-04-04T17:29:09.057Z",
    "dead": 3,
    "id": "lhPjpn6CzqTRDN0RW8uE",
    "infected": 76,
    "recovered": 73,
    "latitude": 42.524635,
    "pop": 21810000,
    "sick": 0
  },
  {
    "infected": 19,
    "recovered": 13,
    "latitude": 3.2028,
    "pop": 436330,
    "longitude": 73.2207,
    "name": "Maldives",
    "country": "MV",
    "lastUpdated": "2020-04-04T17:45:03.292Z",
    "dead": 0,
    "id": "m45gI2UbWMuTrOnTtp9k",
    "sick": 6
  },
  {
    "longitude": 12.4534,
    "name": "Vatican City",
    "country": "VA",
    "lastUpdated": "2020-04-04T17:45:03.300Z",
    "dead": 0,
    "id": "mF7rVMdVnazAuw8G22xs",
    "infected": 7,
    "recovered": 0,
    "latitude": 41.9029,
    "pop": 1000,
    "sick": 7
  },
  {
    "recovered": 50,
    "latitude": 19.7515,
    "pop": 114200000,
    "longitude": 75.7139,
    "name": "Maharashtra",
    "country": "IN",
    "lastUpdated": "2020-04-04T17:40:02.271Z",
    "dead": 26,
    "id": "mJtdLs4ub6CkcAOeMWUm",
    "infected": 537,
    "sick": 461
  },
  {
    "id": "mSACWVbCy5QE7ciLA93J",
    "infected": 4161,
    "recovered": 528,
    "latitude": -33.4489,
    "pop": 18050000,
    "longitude": -70.6693,
    "name": "Chile",
    "country": "CL",
    "lastUpdated": "2020-04-04T17:45:03.106Z",
    "dead": 27,
    "sick": 3606
  },
  {
    "latitude": -6.369,
    "pop": 57310000,
    "longitude": 34.8888,
    "name": "Tanzania",
    "country": "TZ",
    "lastUpdated": "2020-04-04T17:45:03.224Z",
    "dead": 1,
    "id": "mnew3ojzmWV0dWSPfCQ9",
    "infected": 20,
    "recovered": 3,
    "sick": 16
  },
  {
    "latitude": 15.1794,
    "pop": 4475000,
    "longitude": 39.7823,
    "name": "Eritrea",
    "country": "ER",
    "lastUpdated": "2020-04-04T17:45:03.330Z",
    "dead": 0,
    "id": "n6OSwOVBdUie3xeZJmOf",
    "infected": 22,
    "recovered": 0,
    "sick": 22
  },
  {
    "infected": 3068,
    "recovered": 0,
    "latitude": 35.693323,
    "pop": 6770000,
    "longitude": -86.605748,
    "name": "Tennessee",
    "country": "US",
    "lastUpdated": "2020-04-04T17:48:14.661Z",
    "dead": 44,
    "id": "nLhJXE2apq8yNNj363ai",
    "sick": 3024
  },
  {
    "infected": 10,
    "recovered": 0,
    "latitude": 19.8562698,
    "pop": 7247000,
    "longitude": 102.4954987,
    "name": "Laos",
    "country": "LA",
    "lastUpdated": "2020-04-04T17:45:03.197Z",
    "dead": 0,
    "id": "nZzFt6liil98URpNfQyX",
    "sick": 10
  },
  {
    "id": "oB5fSyjWJ0FbNAkssuci",
    "infected": 10,
    "recovered": 0,
    "latitude": -4.6796,
    "pop": 95843,
    "longitude": 55.492,
    "name": "Seychelles",
    "country": "SC",
    "lastUpdated": "2020-04-04T17:45:03.341Z",
    "dead": 0,
    "sick": 10
  },
  {
    "longitude": -6.196132,
    "name": "Morocco",
    "country": "MA",
    "lastUpdated": "2020-04-04T17:45:03.082Z",
    "dead": 58,
    "id": "oJ5vSDE9vgXC2PG8LElp",
    "infected": 883,
    "recovered": 65,
    "latitude": 31.893778,
    "pop": 35740000,
    "sick": 760
  },
  {
    "infected": 4652,
    "recovered": 984,
    "latitude": 50.4801,
    "pop": 5978000,
    "longitude": 2.7937,
    "name": "Hauts-de-France",
    "country": "FR",
    "lastUpdated": "2020-04-03T18:09:55.978Z",
    "dead": 438,
    "id": "ofWLu9EuQoK2nHjwU1mA",
    "sick": 3230
  },
  {
    "lastUpdated": "2020-04-04T17:40:02.245Z",
    "dead": 2,
    "id": "oqLEd2Z9P3FJeQsfIk8e",
    "infected": 6,
    "recovered": 1,
    "latitude": 31.1048,
    "pop": 6856000,
    "longitude": 77.1734,
    "name": "Himachal Pradesh",
    "country": "IN",
    "sick": 3
  },
  {
    "latitude": -20.917574,
    "pop": 5071000,
    "longitude": 142.702789,
    "name": "Queensland",
    "country": "AU",
    "lastUpdated": "2020-04-04T17:42:03.131Z",
    "dead": 2,
    "id": "oxz2l1rJipCsfMfy8Mmk",
    "infected": 900,
    "recovered": 8,
    "sick": 890
  },
  {
    "id": "p1aZboN4BtRJe7hPl8cw",
    "infected": 491,
    "recovered": 469,
    "latitude": 47.121647,
    "pop": 38310000,
    "longitude": 128.738235,
    "name": "Heilongjiang",
    "country": "CN",
    "lastUpdated": "2020-04-04T17:29:09.065Z",
    "dead": 13,
    "sick": 9
  },
  {
    "infected": 990,
    "recovered": 984,
    "latitude": 32.026379,
    "pop": 62000000,
    "longitude": 117.252747,
    "name": "Anhui",
    "country": "CN",
    "lastUpdated": "2020-04-04T17:29:08.956Z",
    "dead": 6,
    "id": "pFhBwPnGGpQ6DLppJ6YS",
    "sick": 0
  },
  {
    "id": "pHrUAOBW5WDdMsVWpEEi",
    "infected": 7,
    "recovered": 1,
    "latitude": 2.046934,
    "pop": 14740000,
    "longitude": 45.318161,
    "name": "Somalia",
    "country": "SO",
    "lastUpdated": "2020-04-04T17:45:03.307Z",
    "dead": 0,
    "sick": 6
  },
  {
    "recovered": 3,
    "latitude": 21.2787,
    "pop": 25550000,
    "longitude": 81.8661,
    "name": "Chhattisgarh",
    "country": "IN",
    "lastUpdated": "2020-04-04T17:40:02.243Z",
    "dead": 0,
    "id": "pu6AXEsDnpmmqnhajobN",
    "infected": 10,
    "sick": 7
  },
  {
    "longitude": -77.0369,
    "name": "Washington, D.C.",
    "country": "US",
    "lastUpdated": "2020-04-04T17:48:14.618Z",
    "dead": 15,
    "id": "q5cfvHprVTraL1yXnhDx",
    "infected": 757,
    "recovered": 0,
    "latitude": 38.9072,
    "pop": 633427,
    "sick": 742
  },
  {
    "longitude": -106.3468,
    "name": "Unknown Canadian province",
    "country": "CA",
    "dead": 0,
    "lastUpdated": "2020-03-30T14:58:07.823Z",
    "id": "qAbgEfrtA8NbQkzMFkEk",
    "infected": 0,
    "recovered": 573,
    "latitude": 56.1304,
    "sick": 0
  },
  {
    "lastUpdated": "2020-04-04T17:42:03.051Z",
    "dead": 2,
    "id": "qnQ0dkxAxnDP01YpdZgk",
    "infected": 436,
    "recovered": 1,
    "latitude": -26.190439,
    "pop": 2589000,
    "longitude": 123.325947,
    "name": "Western Australia",
    "country": "AU",
    "sick": 433
  },
  {
    "lastUpdated": "2020-04-04T17:45:03.021Z",
    "dead": 1283,
    "id": "qpAxVz0garcS0gNZxtOw",
    "infected": 18431,
    "recovered": 3247,
    "latitude": 50.503887,
    "pop": 11400000,
    "longitude": 4.469936,
    "name": "Belgium",
    "country": "BE",
    "sick": 13901
  },
  {
    "infected": 237,
    "recovered": 0,
    "latitude": 39,
    "pop": 1806000,
    "longitude": -80.5,
    "name": "West Virginia",
    "country": "US",
    "lastUpdated": "2020-04-04T17:48:14.630Z",
    "dead": 2,
    "id": "qrYN2o4c4gAK3ffF5JIw",
    "sick": 235
  },
  {
    "recovered": 0,
    "latitude": 31,
    "pop": 28700000,
    "longitude": -100,
    "name": "Texas",
    "country": "US",
    "lastUpdated": "2020-04-04T17:48:14.592Z",
    "dead": 104,
    "id": "qsrWiq0qCmIG66hpWojP",
    "infected": 6060,
    "sick": 5956
  },
  {
    "recovered": 1177,
    "latitude": 43.9352,
    "pop": 5059000,
    "longitude": 6.0679,
    "name": "Provence-Alpes-Côte d'Azur",
    "country": "FR",
    "lastUpdated": "2020-04-03T18:12:37.993Z",
    "dead": 161,
    "id": "qyX9xXEuKg3co8yKe3Fl",
    "infected": 3954,
    "sick": 2616
  },
  {
    "lastUpdated": "2020-04-04T17:48:14.650Z",
    "dead": 370,
    "id": "qzuktS0qQVU4PEookjss",
    "infected": 10297,
    "recovered": 0,
    "latitude": 30.9843,
    "pop": 4660000,
    "longitude": -91.9623,
    "name": "Louisiana",
    "country": "US",
    "sick": 9927
  },
  {
    "lastUpdated": "2020-04-04T17:52:06.043Z",
    "dead": 0,
    "id": "r54PtV0VHsIOc0YPTyhd",
    "infected": 1,
    "recovered": 0,
    "latitude": 23.1645,
    "pop": 1116000,
    "longitude": 92.9376,
    "name": "Mizoram",
    "country": "IN",
    "sick": 1
  },
  {
    "recovered": 1,
    "latitude": 12.5211,
    "pop": 105264,
    "longitude": -69.9683,
    "name": "Aruba",
    "country": "AW",
    "lastUpdated": "2020-04-04T17:45:03.308Z",
    "dead": 0,
    "id": "rKbrli0DkAmp1UpbrqHQ",
    "infected": 64,
    "sick": 63
  },
  {
    "recovered": 90,
    "latitude": 14.058324,
    "pop": 95540000,
    "longitude": 108.277199,
    "name": "Vietnam",
    "country": "VN",
    "lastUpdated": "2020-04-04T17:45:03.070Z",
    "dead": 0,
    "id": "rKnSEyG03ak4YmGzonlg",
    "infected": 240,
    "sick": 150
  },
  {
    "recovered": 1,
    "latitude": 1.6508009,
    "pop": 1268000,
    "longitude": 10.2678947,
    "name": "Equatorial Guinea",
    "country": "GQ",
    "lastUpdated": "2020-04-04T17:45:03.310Z",
    "dead": 0,
    "id": "rS04qvFoAknfeZsL2w5f",
    "infected": 16,
    "sick": 15
  },
  {
    "id": "rUQ6Z3pmWTPVlqEUSmN7",
    "infected": 134,
    "recovered": 14,
    "latitude": -12.8275,
    "pop": 270372,
    "longitude": 45.1662,
    "name": "Mayotte",
    "country": "FR",
    "lastUpdated": "2020-04-04T17:45:03.232Z",
    "dead": 2,
    "sick": 118
  },
  {
    "recovered": 1229,
    "latitude": 29.159849,
    "pop": 57370000,
    "longitude": 120.326447,
    "name": "Zhejiang",
    "country": "CN",
    "lastUpdated": "2020-04-04T17:29:09.163Z",
    "dead": 1,
    "id": "rgBVJ4hPofqjjchnroiY",
    "infected": 1262,
    "sick": 32
  },
  {
    "longitude": 7.313076,
    "name": "Valle d'Aosta",
    "country": "IT",
    "lastUpdated": "2020-04-04T17:49:02.534Z",
    "dead": 82,
    "id": "rqbHQdev461heM0vyE9L",
    "infected": 748,
    "recovered": 106,
    "latitude": 45.734955,
    "pop": 126202,
    "sick": 560
  },
  {
    "recovered": 32,
    "latitude": 60.472023,
    "pop": 5368000,
    "longitude": 8.468946,
    "name": "Norway",
    "country": "NO",
    "lastUpdated": "2020-04-04T17:45:03.048Z",
    "dead": 62,
    "id": "rxSafpWsyKhfkV0HTtb4",
    "infected": 5550,
    "sick": 5456
  },
  {
    "latitude": 53.9333,
    "pop": 4371000,
    "longitude": -116.5765,
    "name": "Alberta",
    "country": "CA",
    "lastUpdated": "2020-04-04T17:45:02.034Z",
    "dead": 18,
    "id": "sBFMOzZJdrdXdyLZpweO",
    "infected": 1075,
    "recovered": 0,
    "sick": 1057
  },
  {
    "infected": 168,
    "recovered": 162,
    "latitude": 19.566395,
    "pop": 9258000,
    "longitude": 109.949684,
    "name": "Hainan",
    "country": "CN",
    "lastUpdated": "2020-04-04T17:29:09.273Z",
    "dead": 6,
    "id": "sKNhMvgXeyivpNFg02RA",
    "sick": 0
  },
  {
    "id": "sLL1jETcJYjT6g5bfcEG",
    "infected": 1595,
    "recovered": 537,
    "latitude": -10.33755,
    "pop": 32170000,
    "longitude": -75.630295,
    "name": "Peru",
    "country": "PE",
    "lastUpdated": "2020-04-04T17:45:03.079Z",
    "dead": 61,
    "sick": 997
  },
  {
    "infected": 326,
    "recovered": 310,
    "latitude": 37.89566,
    "pop": 74700000,
    "longitude": 114.904221,
    "name": "Hebei",
    "country": "CN",
    "lastUpdated": "2020-04-04T17:29:09.467Z",
    "dead": 6,
    "id": "sgsBhTwHxF1VVnqXbXXp",
    "sick": 10
  },
  {
    "latitude": 42.3154,
    "pop": 3717000,
    "longitude": 43.3569,
    "name": "Georgia",
    "country": "GE",
    "lastUpdated": "2020-04-04T17:45:03.200Z",
    "dead": 1,
    "id": "sjW9OwjFqrOvjVHRXWoR",
    "infected": 159,
    "recovered": 31,
    "sick": 127
  },
  {
    "lastUpdated": "2020-04-04T17:45:03.205Z",
    "dead": 3,
    "id": "t2fq7L9UcXfhuXfQNVRj",
    "infected": 96,
    "recovered": 12,
    "latitude": -23.4425,
    "pop": 6811000,
    "longitude": -58.4438,
    "name": "Paraguay",
    "country": "PY",
    "sick": 81
  },
  {
    "infected": 1248,
    "recovered": 0,
    "latitude": 39.147061,
    "pop": 3161000,
    "longitude": -111.596466,
    "name": "Utah",
    "country": "US",
    "lastUpdated": "2020-04-04T17:48:14.668Z",
    "dead": 7,
    "id": "tSmr8vNsiDhhpXMSBsms",
    "sick": 1241
  },
  {
    "latitude": 27.3818,
    "pop": 67370000,
    "longitude": 111.510681,
    "name": "Hunan",
    "country": "CN",
    "lastUpdated": "2020-04-04T17:29:09.256Z",
    "dead": 4,
    "id": "tdNRDDrgvBQqqwzdFGh4",
    "infected": 1019,
    "recovered": 1014,
    "sick": 1
  },
  {
    "lastUpdated": "2020-04-04T17:29:09.361Z",
    "dead": 2,
    "id": "tyY4QSHWG9sXqSO9jm0Y",
    "infected": 147,
    "recovered": 144,
    "latitude": 26.842964,
    "pop": 34750000,
    "longitude": 107.290283,
    "name": "Guizhou",
    "country": "CN",
    "sick": 1
  },
  {
    "latitude": -20.2067,
    "pop": 1265000,
    "longitude": 57.6755,
    "name": "Mauritius",
    "country": "MU",
    "lastUpdated": "2020-04-04T17:45:03.291Z",
    "dead": 7,
    "id": "uZg9Xtu4zR5tp12TMpOQ",
    "infected": 196,
    "recovered": 0,
    "sick": 189
  },
  {
    "recovered": 28,
    "latitude": 29.0588,
    "pop": 25350000,
    "longitude": 76.0856,
    "name": "Haryana",
    "country": "IN",
    "lastUpdated": "2020-04-04T17:40:02.254Z",
    "dead": 0,
    "id": "ubUuY89n0cXVgahI4Ytp",
    "infected": 84,
    "sick": 56
  },
  {
    "infected": 206,
    "recovered": 24,
    "latitude": 41.6667,
    "pop": 308493,
    "longitude": 14.5,
    "name": "Molise",
    "country": "IT",
    "lastUpdated": "2020-04-04T17:49:02.438Z",
    "dead": 11,
    "id": "ueDdQxnY3NvbnoCcPaDH",
    "sick": 171
  },
  {
    "recovered": 632,
    "latitude": 32.93708,
    "pop": 80400000,
    "longitude": 119.151932,
    "name": "Jiangsu",
    "country": "CN",
    "lastUpdated": "2020-04-04T17:29:09.479Z",
    "dead": 0,
    "id": "uvxN28EpGmRq3K9REtBP",
    "infected": 651,
    "sick": 19
  },
  {
    "longitude": 11.6923,
    "name": "Sachsen-Anhalt",
    "country": "DE",
    "lastUpdated": "2020-04-04T17:41:02.936Z",
    "dead": 11,
    "id": "uxAceZxiizwmo60pyyGn",
    "infected": 929,
    "recovered": 79,
    "latitude": 51.9503,
    "pop": 2277000,
    "sick": 839
  },
  {
    "latitude": 33.7782,
    "pop": 12550000,
    "longitude": 76.5762,
    "name": "Jammu and Kashmir",
    "country": "IN",
    "lastUpdated": "2020-04-04T17:40:02.111Z",
    "dead": 2,
    "id": "v5wfBhxjYTpTMaKko6AW",
    "infected": 92,
    "recovered": 3,
    "sick": 87
  },
  {
    "longitude": 30.802498,
    "name": "Egypt",
    "country": "EG",
    "lastUpdated": "2020-04-04T17:45:03.073Z",
    "dead": 66,
    "id": "v8JcH4FHH7BDpJlNNHjv",
    "infected": 985,
    "recovered": 216,
    "latitude": 26.820553,
    "pop": 97550000,
    "sick": 703
  },
  {
    "infected": 6967,
    "recovered": 0,
    "latitude": 47.288374,
    "pop": 7536000,
    "longitude": -119.928431,
    "name": "Washington",
    "country": "US",
    "lastUpdated": "2020-04-04T17:48:14.654Z",
    "dead": 295,
    "id": "vCUVQn7RK8pkw5y2rvYN",
    "sick": 6672
  },
  {
    "id": "vMGALmMJbagxGIbLyFfS",
    "infected": 53,
    "recovered": 7,
    "latitude": 18.1096,
    "pop": 2890000,
    "longitude": -77.2975,
    "name": "Jamaica",
    "country": "JM",
    "lastUpdated": "2020-04-04T17:45:03.294Z",
    "dead": 3,
    "sick": 43
  },
  {
    "latitude": 32.3182,
    "pop": 4888000,
    "longitude": -86.9023,
    "name": "Alabama",
    "country": "US",
    "lastUpdated": "2020-04-04T17:48:14.637Z",
    "dead": 38,
    "id": "vSMJR4m49MZM15umlC9B",
    "infected": 1535,
    "recovered": 0,
    "sick": 1497
  },