[
  {
    "latitude": 41.066666,
    "pop": 5827000,
    "longitude": 14.333333,
    "name": "Campania",
    "country": "IT",
    "lastUpdated": "2020-03-26T08:16:02.544Z",
    "dead": 74,
    "id": "0GJcws44NSPsDHAuxJhW",
    "infected": 1199,
    "recovered": 53,
    "sick": 1072
  },
  {
    "infected": 2,
    "recovered": 0,
    "latitude": 20.9517,
    "pop": 45990000,
    "longitude": 85.0985,
    "name": "Odisha",
    "country": "IN",
    "lastUpdated": "2020-03-26T08:11:02.035Z",
    "dead": 0,
    "id": "0VG7S6aaK4eSo59fL9JO",
    "sick": 2
  },
  {
    "infected": 537,
    "recovered": 41,
    "latitude": 25.315058,
    "pop": 2639000,
    "longitude": 51.145517,
    "name": "Qatar",
    "country": "QA",
    "lastUpdated": "2020-03-26T08:13:03.538Z",
    "dead": 0,
    "id": "0m4aECS0Z2DGFEr8ldgI",
    "sick": 496
  },
  {
    "latitude": 22.9868,
    "pop": 90320000,
    "longitude": 87.855,
    "name": "West Bengal",
    "country": "IN",
    "lastUpdated": "2020-03-26T08:11:02.012Z",
    "dead": 1,
    "id": "0n54EMSDJcRoT1QEvw80",
    "infected": 9,
    "recovered": 0,
    "sick": 8
  },
  {
    "latitude": 22.9734,
    "pop": 73340000,
    "longitude": 78.6569,
    "name": "Madhya Pradesh",
    "country": "IN",
    "lastUpdated": "2020-03-26T08:11:02.009Z",
    "dead": 1,
    "id": "0s18o5DrDAHjbu5MFcrj",
    "infected": 15,
    "recovered": 0,
    "sick": 14
  },
  {
    "dead": 0,
    "lastUpdated": "2020-03-26T08:13:03.441Z",
    "id": "0tFoopNTs6e4tOoaltu2",
    "infected": 0,
    "recovered": 394,
    "latitude": 37.0902,
    "longitude": -95.7129,
    "name": "Unknown US state",
    "country": "US",
    "sick": 0
  },
  {
    "lastUpdated": "2020-03-26T00:48:44.440Z",
    "dead": 3,
    "id": "0x2HLhr5z5xAtEdO4iZm",
    "infected": 250,
    "recovered": 240,
    "latitude": 35.64249,
    "pop": 37330000,
    "longitude": 108.472214,
    "name": "Shaanxi",
    "country": "CN",
    "sick": 7
  },
  {
    "latitude": 41.643351,
    "pop": 2077000,
    "longitude": 21.668393,
    "name": "North Macedonia",
    "country": "MK",
    "lastUpdated": "2020-03-26T08:13:03.636Z",
    "dead": 3,
    "id": "19MvIhipqTyYv1H37Upw",
    "infected": 177,
    "recovered": 1,
    "sick": 173
  },
  {
    "infected": 67,
    "recovered": 0,
    "latitude": 53.1355,
    "pop": 521542,
    "longitude": -57.6604,
    "name": "Newfoundland and Labrador",
    "country": "CA",
    "lastUpdated": "2020-03-26T08:09:01.971Z",
    "dead": 0,
    "id": "1DOMOmCWDtva46OVSZLv",
    "sick": 67
  },
  {
    "infected": 18,
    "recovered": 18,
    "latitude": 35.801933,
    "pop": 5627000,
    "longitude": 96.779286,
    "name": "Qinghai",
    "country": "CN",
    "lastUpdated": "2020-03-26T00:49:02.519Z",
    "dead": 0,
    "id": "1Fap7rZu9SIRqf5TG9Dg",
    "sick": 0
  },
  {
    "pop": 4376000,
    "longitude": 8.206944,
    "name": "Piemonte",
    "country": "IT",
    "lastUpdated": "2020-03-26T08:16:02.640Z",
    "dead": 449,
    "id": "1eTSQyfp8RoDPeFrIwun",
    "infected": 6024,
    "recovered": 19,
    "latitude": 44.9,
    "sick": 5556
  },
  {
    "lastUpdated": "2020-03-26T08:13:03.613Z",
    "dead": 59,
    "id": "1f0YoV0vAcexEhpESyZc",
    "infected": 2554,
    "recovered": 6,
    "latitude": -14.235004,
    "pop": 209300000,
    "longitude": -51.925282,
    "name": "Brazil",
    "country": "BR",
    "sick": 2489
  },
  {
    "infected": 149,
    "recovered": 2,
    "latitude": 47.4116,
    "pop": 3550000,
    "longitude": 28.3699,
    "name": "Moldova",
    "country": "MD",
    "lastUpdated": "2020-03-26T08:13:03.560Z",
    "dead": 1,
    "id": "1qTPB8X3tyLyIdsb5TN3",
    "sick": 146
  },
  {
    "lastUpdated": "2020-03-26T00:47:55.705Z",
    "dead": 0,
    "id": "25qIBtsW2nfQj3pwBKg9",
    "infected": 1,
    "recovered": 1,
    "latitude": 30.15336,
    "pop": 3180000,
    "longitude": 88.787865,
    "name": "Tibet",
    "country": "CN",
    "sick": 0
  },
  {
    "infected": 790,
    "recovered": 31,
    "latitude": -1.572184,
    "pop": 264000000,
    "longitude": 115.66779,
    "name": "Indonesia",
    "country": "ID",
    "lastUpdated": "2020-03-26T08:13:03.644Z",
    "dead": 58,
    "id": "2KHYUb5t3lwzVVmDjwNX",
    "sick": 701
  },
  {
    "lastUpdated": "2020-03-26T08:09:02.028Z",
    "dead": 10,
    "id": "2OrsssmGUs4XCzaZzvTv",
    "infected": 266,
    "recovered": 0,
    "latitude": 43.807191,
    "pop": 4191000,
    "longitude": -120.585594,
    "name": "Oregon",
    "country": "US",
    "sick": 256
  },
  {
    "id": "2jxHvSsxdnom0nPNvOT8",
    "infected": 94,
    "recovered": 92,
    "latitude": 43.851921,
    "pop": 27460000,
    "longitude": 126.548103,
    "name": "Jilin",
    "country": "CN",
    "lastUpdated": "2020-03-26T00:49:11.237Z",
    "dead": 1,
    "sick": 1
  },
  {
    "latitude": 36.1408,
    "pop": 34571,
    "longitude": -5.3536,
    "name": "Gibraltar",
    "country": "GI",
    "lastUpdated": "2020-03-26T08:13:03.867Z",
    "dead": 0,
    "id": "2p11BjSAs3wVyymgqBOe",
    "infected": 26,
    "recovered": 5,
    "sick": 21
  },
  {
    "lastUpdated": "2020-03-26T08:04:06.628Z",
    "dead": 0,
    "id": "2sLNkkHpyaHx7dD3aMDO",
    "infected": 561,
    "recovered": 0,
    "latitude": 47.7516,
    "pop": 2567000,
    "longitude": 1.6751,
    "name": "Centre-Val de Loire",
    "country": "FR",
    "sick": 561
  },
  {
    "id": "319tiZOMczx1y0DfvOib",
    "infected": 710,
    "recovered": 5,
    "latitude": 42.565044,
    "pop": 884640,
    "longitude": 12.643751,
    "name": "Umbria",
    "country": "IT",
    "lastUpdated": "2020-03-26T08:16:02.637Z",
    "dead": 19,
    "sick": 686
  },
  {
    "infected": 12,
    "recovered": 0,
    "latitude": -13.133896,
    "pop": 17090000,
    "longitude": 27.849332,
    "name": "Zambia",
    "country": "ZM",
    "lastUpdated": "2020-03-26T08:13:03.814Z",
    "dead": 0,
    "id": "3IlPjAbP5qVMn1nlgLTJ",
    "sick": 12
  },
  {
    "latitude": 42.7044,
    "pop": 631219,
    "longitude": 19.3958,
    "name": "Montenegro",
    "country": "ME",
    "lastUpdated": "2020-03-26T08:13:03.889Z",
    "dead": 1,
    "id": "3LstMSN5XMYBkxbe5HN7",
    "infected": 67,
    "recovered": 0,
    "sick": 66
  },
  {
    "lastUpdated": "2020-03-26T08:10:03.744Z",
    "dead": 0,
    "id": "3OZoQsKrzxZ18EKyfGE6",
    "infected": 53,
    "recovered": 0,
    "latitude": -35.4735,
    "pop": 418440,
    "longitude": 149.0124,
    "name": "Australian Capital Territory",
    "country": "AU",
    "sick": 53
  },
  {
    "latitude": 40.4173,
    "pop": 11690000,
    "longitude": -82.9071,
    "name": "Ohio",
    "country": "US",
    "lastUpdated": "2020-03-26T08:09:01.888Z",
    "dead": 11,
    "id": "3fC3bAyIRUquOQOEnQNe",
    "infected": 704,
    "recovered": 0,
    "sick": 693
  },
  {
    "id": "4NnFMekRK2m14IlnZZoj",
    "infected": 2,
    "recovered": 0,
    "latitude": 21.0079,
    "pop": 4420000,
    "longitude": -10.9408,
    "name": "Mauritania",
    "country": "MR",
    "lastUpdated": "2020-03-26T08:13:03.843Z",
    "dead": 0,
    "sick": 2
  },
  {
    "latitude": 53.7267,
    "pop": 5071000,
    "longitude": -127.6476,
    "name": "British Columbia",
    "country": "CA",
    "lastUpdated": "2020-03-26T08:09:02.055Z",
    "dead": 14,
    "id": "4hfZRUoUgI4a3vrG0GBk",
    "infected": 659,
    "recovered": 0,
    "sick": 645
  },
  {
    "recovered": 22,
    "latitude": 41.065877,
    "pop": 10290000,
    "longitude": -7.920053,
    "name": "Portugal",
    "country": "PT",
    "lastUpdated": "2020-03-26T08:13:03.579Z",
    "dead": 43,
    "id": "4rQLxUCMmQLpbi6E9tbH",
    "infected": 2995,
    "sick": 2930
  },
  {
    "latitude": 40.3426,
    "pop": 9898000,
    "longitude": 47.93802,
    "name": "Azerbaijan",
    "country": "AZ",
    "lastUpdated": "2020-03-26T08:13:03.595Z",
    "dead": 2,
    "id": "4zqzRm2xHn0CDVOUQJ8p",
    "infected": 93,
    "recovered": 10,
    "sick": 81
  },
  {
    "infected": 5,
    "recovered": 1,
    "latitude": 25.025885,
    "pop": 395361,
    "longitude": -78.035889,
    "name": "Bahamas",
    "country": "BS",
    "lastUpdated": "2020-03-26T08:13:03.956Z",
    "dead": 0,
    "id": "5MHegCUO9L3LiAU7DDey",
    "sick": 4
  },
  {
    "latitude": -31.253218,
    "pop": 7544000,
    "longitude": 146.921097,
    "name": "New South Wales",
    "country": "AU",
    "lastUpdated": "2020-03-26T08:10:03.847Z",
    "dead": 7,
    "id": "5N16a2OXXRpsEFanw0TC",
    "infected": 1219,
    "recovered": 4,
    "sick": 1208
  },
  {
    "pop": 280460,
    "longitude": 165.618042,
    "name": "New Caledonia",
    "country": "NC",
    "lastUpdated": "2020-03-26T08:13:03.815Z",
    "dead": 0,
    "id": "5fg04eyDwFw3kEXnrxez",
    "infected": 14,
    "recovered": 0,
    "latitude": -20.9043045,
    "sick": 14
  },
  {
    "infected": 3,
    "recovered": 1,
    "latitude": 28.394857,
    "pop": 29300000,
    "longitude": 84.124008,
    "name": "Nepal",
    "country": "NP",
    "lastUpdated": "2020-03-26T08:13:03.795Z",
    "dead": 0,
    "id": "5gXZIjRgAvd6xWN1LOv8",
    "sick": 2
  },
  {
    "latitude": 12.879721,
    "pop": 104900000,
    "longitude": 121.774017,
    "name": "Philippines",
    "country": "PH",
    "lastUpdated": "2020-03-26T08:13:03.597Z",
    "dead": 38,
    "id": "5pwmh7aSdGRKqRbnuyc0",
    "infected": 636,
    "recovered": 26,
    "sick": 572
  },
  {
    "id": "5qtR9nx4BLwu1ODTniaY",
    "infected": 3,
    "recovered": 0,
    "latitude": -17.824858,
    "pop": 14802190,
    "longitude": 31.053028,
    "name": "Zimbabwe",
    "country": "ZW",
    "lastUpdated": "2020-03-26T08:13:03.952Z",
    "dead": 1,
    "sick": 2
  },
  {
    "infected": 290,
    "recovered": 1,
    "latitude": 55.621011,
    "pop": 2794000,
    "longitude": 23.804991,
    "name": "Lithuania",
    "country": "LT",
    "lastUpdated": "2020-03-26T08:13:03.522Z",
    "dead": 4,
    "id": "694ON7d0mRJDeM1gHBTR",
    "sick": 285
  },
  {
    "infected": 411,
    "recovered": 102,
    "latitude": 22.396427,
    "pop": 7392000,
    "longitude": 114.109497,
    "name": "Hong Kong",
    "country": "HK",
    "lastUpdated": "2020-03-26T08:13:03.568Z",
    "dead": 4,
    "id": "6IcHIIH0zXpY0POmBZTv",
    "sick": 305
  },
  {
    "infected": 6,
    "recovered": 0,
    "latitude": 9.3077,
    "pop": 11180000,
    "longitude": 2.3158,
    "name": "Benin",
    "country": "BJ",
    "lastUpdated": "2020-03-26T08:13:03.917Z",
    "dead": 0,
    "id": "6SlpghTyB6lpMFvx3g9U",
    "sick": 6
  },
  {
    "latitude": 45.6667,
    "pop": 10040000,
    "longitude": 9.5,
    "name": "Lombardia",
    "country": "IT",
    "lastUpdated": "2020-03-26T08:16:02.321Z",
    "dead": 4474,
    "id": "6ZHcvMIzVWIaRnc4R3Qp",
    "infected": 32346,
    "recovered": 7281,
    "sick": 20591
  },
  {
    "longitude": 14.5058,
    "name": "Slovenia",
    "country": "SI",
    "lastUpdated": "2020-03-26T08:13:03.512Z",
    "dead": 5,
    "id": "6ahNiyKDSDAftCctgLH3",
    "infected": 528,
    "recovered": 10,
    "latitude": 46.0569,
    "pop": 2067000,
    "sick": 513
  },
  {
    "infected": 7,
    "recovered": 0,
    "latitude": -0.8037,
    "pop": 2025000,
    "longitude": 11.6094,
    "name": "Gabon",
    "country": "GA",
    "lastUpdated": "2020-03-26T08:13:03.827Z",
    "dead": 1,
    "id": "6pBi38TUgYfFm0bry2uh",
    "sick": 6
  },
  {
    "latitude": 17.901672,
    "pop": 9131,
    "longitude": -62.818544,
    "name": "Saint-Barthélémy",
    "country": "FR",
    "lastUpdated": "2020-03-26T08:04:06.619Z",
    "dead": 0,
    "id": "78Ox26bNHDA2Pk2b3Uwn",
    "infected": 3,
    "recovered": 0,
    "sick": 3
  },
  {
    "infected": 3,
    "recovered": 0,
    "latitude": 17.0608,
    "pop": 102012,
    "longitude": -61.7964,
    "name": "Antigua and Barbuda",
    "country": "AG",
    "lastUpdated": "2020-03-26T08:13:03.885Z",
    "dead": 0,
    "id": "7hVFcEV7nV0MrQr3LHrl",
    "sick": 3
  },
  {
    "infected": 7689,
    "recovered": 47,
    "latitude": 48.7904,
    "pop": 13000000,
    "longitude": 11.4979,
    "name": "Bayern",
    "country": "DE",
    "lastUpdated": "2020-03-25T14:57:03.173Z",
    "dead": 41,
    "id": "7kCrrlOBE3jN6FtOVNUB",
    "sick": 7601
  },
  {
    "infected": 261,
    "recovered": 28,
    "latitude": 47.4979,
    "pop": 9773000,
    "longitude": 19.0402,
    "name": "Hungary",
    "country": "HU",
    "lastUpdated": "2020-03-26T08:13:03.570Z",
    "dead": 10,
    "id": "7rYC2iFB50c55Ihgbs4Q",
    "sick": 223
  },
  {
    "latitude": 7.3697,
    "pop": 24050000,
    "longitude": 12.3547,
    "name": "Cameroon",
    "country": "CM",
    "lastUpdated": "2020-03-26T08:13:03.693Z",
    "dead": 1,
    "id": "8C0d7WVCjyUGtnc2gUAR",
    "infected": 75,
    "recovered": 2,
    "sick": 72
  },
  {
    "latitude": -16.2902,
    "pop": 11050000,
    "longitude": -63.5887,
    "name": "Bolivia",
    "country": "BO",
    "lastUpdated": "2020-03-26T08:13:03.851Z",
    "dead": 0,
    "id": "8RihJrXw4NQXPxaRxr1u",
    "infected": 38,
    "recovered": 0,
    "sick": 38
  },
  {
    "infected": 1,
    "recovered": 0,
    "latitude": 12.9843,
    "pop": 109897,
    "longitude": -61.2872,
    "name": "St. Vincent Grenadines",
    "country": "VC",
    "lastUpdated": "2020-03-26T08:13:03.943Z",
    "dead": 0,
    "id": "8ZTySQROQejkDAad0qxQ",
    "sick": 1
  },
  {
    "latitude": 1.352083,
    "pop": 5621000,
    "longitude": 103.819839,
    "name": "Singapore",
    "country": "SG",
    "lastUpdated": "2020-03-26T08:13:03.609Z",
    "dead": 2,
    "id": "8pA3fM4xC2c2wv1b4TnE",
    "infected": 631,
    "recovered": 160,
    "sick": 469
  },
  {
    "latitude": 47.2184,
    "pop": 3787000,
    "longitude": -1.5536,
    "name": "Pays de la Loire",
    "country": "FR",
    "lastUpdated": "2020-03-26T08:04:06.621Z",
    "dead": 0,
    "id": "98hwAoohgWEOQVa3NlM5",
    "infected": 368,
    "recovered": 0,
    "sick": 368
  },
  {
    "infected": 3,
    "recovered": 0,
    "latitude": 12.8628,
    "pop": 40530000,
    "longitude": 30.2176,
    "name": "Sudan",
    "country": "SD",
    "lastUpdated": "2020-03-26T08:13:03.974Z",
    "dead": 1,
    "id": "9DPOkpIqrFy9mR4e9fuv",
    "sick": 2
  },
  {
    "latitude": 45.943161,
    "pop": 19530000,
    "longitude": 24.966761,
    "name": "Romania",
    "country": "RO",
    "lastUpdated": "2020-03-26T08:13:03.569Z",
    "dead": 17,
    "id": "9QcETqEcM2fTv9zRvx5T",
    "infected": 906,
    "recovered": 86,
    "sick": 803
  },
  {
    "lastUpdated": "2020-03-26T08:13:03.835Z",
    "dead": 0,
    "id": "9Y5wmCqNCC6ZrenM31uA",
    "infected": 2,
    "recovered": 0,
    "latitude": 12.136389,
    "pop": 6218000,
    "longitude": -86.251389,
    "name": "Nicaragua",
    "country": "NI",
    "sick": 2
  },
  {
    "infected": 880,
    "recovered": 10,
    "latitude": 61.92411,
    "pop": 5513000,
    "longitude": 25.748152,
    "name": "Finland",
    "country": "FI",
    "lastUpdated": "2020-03-26T08:13:03.598Z",
    "dead": 3,
    "id": "9p6OCdZbUUwBLA60Gk3W",
    "sick": 867
  },
  {
    "latitude": 43.311643,
    "pop": 1356000,
    "longitude": -71.590315,
    "name": "New Hampshire",
    "country": "US",
    "lastUpdated": "2020-03-26T08:09:02.062Z",
    "dead": 1,
    "id": "A84CwQ52kA46Hr7pn6Bm",
    "infected": 137,
    "recovered": 0,
    "sick": 136
  },
  {
    "infected": 132,
    "recovered": 0,
    "latitude": 41.823261,
    "pop": 1057000,
    "longitude": -71.412257,
    "name": "Rhode Island",
    "country": "US",
    "lastUpdated": "2020-03-26T08:09:02.042Z",
    "dead": 0,
    "id": "AEUWUHS65qvjEslew11c",
    "sick": 132
  },
  {
    "infected": 10054,
    "recovered": 721,
    "latitude": 44.498955,
    "pop": 4453000,
    "longitude": 11.327591,
    "name": "Emilia Romagna",
    "country": "IT",
    "lastUpdated": "2020-03-26T08:16:02.246Z",
    "dead": 1077,
    "id": "AJ9jQ0iyKsafsmf5yHAR",
    "sick": 8256
  },
  {
    "infected": 466,
    "recovered": 21,
    "latitude": 49.3964,
    "pop": 990509,
    "longitude": 7.023,
    "name": "Saarland",
    "country": "DE",
    "lastUpdated": "2020-03-26T08:12:03.429Z",
    "dead": 3,
    "id": "AKjFRQGnzuuZQhv5Qwx7",
    "sick": 442
  },
  {
    "infected": 6,
    "recovered": 2,
    "latitude": 71.7069,
    "pop": 56171,
    "longitude": -42.6043,
    "name": "Greenland",
    "country": "GL",
    "lastUpdated": "2020-03-26T08:13:03.897Z",
    "dead": 0,
    "id": "APaZzlGCEeuoLBtzTJMe",
    "sick": 4
  },
  {
    "lastUpdated": "2020-03-26T08:09:01.979Z",
    "dead": 0,
    "id": "AVCpxeh0fuH2WrHWNDYH",
    "infected": 68,
    "recovered": 0,
    "latitude": 45.65107,
    "pop": 971395,
    "longitude": -63.582687,
    "name": "Nova Scotia",
    "country": "CA",
    "sick": 68
  },
  {
    "lastUpdated": "2020-03-26T08:09:02.039Z",
    "dead": 0,
    "id": "AcULcZBozObOhwuRKMjJ",
    "infected": 67,
    "recovered": 0,
    "latitude": 47.012918,
    "pop": 1062000,
    "longitude": -109.128641,
    "name": "Montana",
    "country": "US",
    "sick": 67
  },
  {
    "infected": 936,
    "recovered": 934,
    "latitude": 27.285971,
    "pop": 45200000,
    "longitude": 116.01609,
    "name": "Jiangxi",
    "country": "CN",
    "lastUpdated": "2020-03-26T00:50:55.005Z",
    "dead": 1,
    "id": "AmBYm5J6E9Cuez1FQjiN",
    "sick": 1
  },
  {
    "latitude": 28.033886,
    "pop": 41320000,
    "longitude": 1.659626,
    "name": "Algeria",
    "country": "DZ",
    "lastUpdated": "2020-03-26T08:13:03.620Z",
    "dead": 21,
    "id": "AwN0CScPDApcLFgz6e3z",
    "infected": 302,
    "recovered": 65,
    "sick": 216
  },
  {
    "lastUpdated": "2020-03-26T08:13:03.586Z",
    "dead": 1,
    "id": "B82Ef45M8cDu4q7VsSHF",
    "infected": 442,
    "recovered": 22,
    "latitude": 45.099998,
    "pop": 4076000,
    "longitude": 15.2,
    "name": "Croatia",
    "country": "HR",
    "sick": 419
  },
  {
    "recovered": 0,
    "latitude": 17.6077881,
    "pop": 23716000,
    "longitude": 8.081666,
    "name": "Niger",
    "country": "NE",
    "lastUpdated": "2020-03-26T08:13:03.809Z",
    "dead": 1,
    "id": "BENubqQInFUJzhpZTsLT",
    "infected": 7,
    "sick": 6
  },
  {
    "lastUpdated": "2020-03-26T08:09:01.983Z",
    "dead": 4,
    "id": "BF51mWl51fgEcyBpCSzb",
    "infected": 426,
    "recovered": 0,
    "latitude": 39.509109,
    "pop": 6043000,
    "longitude": -76.98432,
    "name": "Maryland",
    "country": "US",
    "sick": 422
  },
  {
    "pop": 9508000,
    "longitude": 27.953388,
    "name": "Belarus",
    "country": "BY",
    "lastUpdated": "2020-03-26T08:13:03.602Z",
    "dead": 0,
    "id": "BGg6yVU5VP71B8NXU0oh",
    "infected": 86,
    "recovered": 29,
    "latitude": 53.709808,
    "sick": 57
  },
  {
    "latitude": 48.8799,
    "pop": 3319000,
    "longitude": 0.1713,
    "name": "Normandie",
    "country": "FR",
    "lastUpdated": "2020-03-26T08:04:07.019Z",
    "dead": 0,
    "id": "BGtoyzb7y54LVlJ91rbf",
    "infected": 688,
    "recovered": 0,
    "sick": 688
  },
  {
    "latitude": 34.048927,
    "pop": 7172000,
    "longitude": -111.093735,
    "name": "Arizona",
    "country": "US",
    "lastUpdated": "2020-03-26T08:09:02.025Z",
    "dead": 6,
    "id": "BTEESCuD2ZbS1afunR2A",
    "infected": 401,
    "recovered": 0,
    "sick": 395
  },
  {
    "infected": 33033,
    "recovered": 0,
    "latitude": 40.719042,
    "pop": 19540000,
    "longitude": -73.982597,
    "name": "New York",
    "country": "US",
    "lastUpdated": "2020-03-26T08:09:01.957Z",
    "dead": 366,
    "id": "C3BCUzV80z9GfiuByIcr",
    "sick": 32667
  },
  {
    "lastUpdated": "2020-03-26T08:13:03.617Z",
    "dead": 6,
    "id": "C6S76AggdWVU8G22jFHQ",
    "infected": 1775,
    "recovered": 10,
    "latitude": 49.731626,
    "pop": 10650000,
    "longitude": 15.359413,
    "name": "Czechia",
    "country": "CZ",
    "sick": 1759
  },
  {
    "lastUpdated": "2020-03-26T08:13:03.505Z",
    "dead": 4,
    "id": "C7cj4nwRITs13KnaJrQ2",
    "infected": 419,
    "recovered": 190,
    "latitude": 26.0667,
    "pop": 1493000,
    "longitude": 50.557701,
    "name": "Bahrain",
    "country": "BH",
    "sick": 225
  },
  {
    "pop": 68890000,
    "longitude": 74.2179,
    "name": "Rajasthan",
    "country": "IN",
    "lastUpdated": "2020-03-26T08:11:02.053Z",
    "dead": 0,
    "id": "CKZCZTPlrcq5fbfUPA9k",
    "infected": 38,
    "recovered": 3,
    "latitude": 27.0238,
    "sick": 35
  },
  {
    "id": "Cgvmtle61ehMvCzRzYx7",
    "infected": 13,
    "recovered": 0,
    "latitude": 13.803,
    "pop": 6378000,
    "longitude": -88.9053,
    "name": "El Salvador",
    "country": "SV",
    "lastUpdated": "2020-03-26T08:13:03.823Z",
    "dead": 0,
    "sick": 13
  },
  {
    "infected": 9529,
    "recovered": 135,
    "latitude": 52.355518,
    "pop": 66440000,
    "longitude": -1.17432,
    "name": "United Kingdom",
    "country": "GB",
    "lastUpdated": "2020-03-26T08:13:03.449Z",
    "dead": 465,
    "id": "CrXu6i5Sqx11iwdfHfBs",
    "sick": 8929
  },
  {
    "lastUpdated": "2020-03-26T08:13:03.510Z",
    "dead": 0,
    "id": "DCJCtZoBTWQ4mzdDNljD",
    "infected": 290,
    "recovered": 18,
    "latitude": 40.259003,
    "pop": 2973000,
    "longitude": 44.818474,
    "name": "Armenia",
    "country": "AM",
    "sick": 272
  },
  {
    "infected": 31,
    "recovered": 10,
    "latitude": 22.192039,
    "pop": 622567,
    "longitude": 113.551262,
    "name": "Macao",
    "country": "MO",
    "lastUpdated": "2020-03-26T08:13:03.808Z",
    "dead": 0,
    "id": "DdBt8qsG6A3g92oOR3ow",
    "sick": 21
  },
  {
    "lastUpdated": "2020-03-26T08:09:02.000Z",
    "dead": 0,
    "id": "DrGzziUglmBognCGY7R2",
    "infected": 49,
    "recovered": 0,
    "latitude": 42.962334,
    "pop": 577737,
    "longitude": -107.534868,
    "name": "Wyoming",
    "country": "US",
    "sick": 49
  },
  {
    "latitude": 40.6401,
    "pop": 10740000,
    "longitude": 22.9444,
    "name": "Greece",
    "country": "GR",
    "lastUpdated": "2020-03-26T08:13:03.546Z",
    "dead": 22,
    "id": "Dtr1lap1RpJpXJdXGJiW",
    "infected": 821,
    "recovered": 36,
    "sick": 763
  },
  {
    "pop": 23780000,
    "longitude": 121.563698,
    "name": "Taiwan",
    "country": "TW",
    "lastUpdated": "2020-03-26T08:13:03.558Z",
    "dead": 2,
    "id": "EKTfs8e7M6DXzI1HqyyX",
    "infected": 252,
    "recovered": 29,
    "latitude": 25.03841,
    "sick": 221
  },
  {
    "latitude": 10.327273,
    "pop": 4906000,
    "longitude": -84.387618,
    "name": "Costa Rica",
    "country": "CR",
    "lastUpdated": "2020-03-26T08:13:03.556Z",
    "dead": 2,
    "id": "EQzJvzVHKjs8kLmK7BMu",
    "infected": 201,
    "recovered": 2,
    "sick": 197
  },
  {
    "latitude": 22.2587,
    "pop": 62700000,
    "longitude": 71.1924,
    "name": "Gujarat",
    "country": "IN",
    "lastUpdated": "2020-03-26T08:11:02.032Z",
    "dead": 2,
    "id": "ERwk9R9en4m9WbdoMbIg",
    "infected": 38,
    "recovered": 0,
    "sick": 36
  },
  {
    "lastUpdated": "2020-03-26T08:11:02.072Z",
    "dead": 0,
    "id": "Esl5UlCVB9s8pmGB5Ofr",
    "infected": 7,
    "recovered": 0,
    "latitude": 30.7333,
    "pop": 1055000,
    "longitude": 76.7794,
    "name": "Chandigarh",
    "country": "IN",
    "sick": 7
  },
  {
    "latitude": 18.200178,
    "pop": 3195000,
    "longitude": -66.664513,
    "name": "Puerto Rico",
    "country": "PR",
    "lastUpdated": "2020-03-26T08:09:02.001Z",
    "dead": 2,
    "id": "F4rPrEVGAIMM5rfPEMv4",
    "infected": 51,
    "recovered": 0,
    "sick": 49
  },
  {
    "latitude": 33.93911,
    "pop": 35530000,
    "longitude": 67.709953,
    "name": "Afghanistan",
    "country": "AF",
    "lastUpdated": "2020-03-26T08:13:03.575Z",
    "dead": 2,
    "id": "FCDmlmnIIswd8bQiUjfN",
    "infected": 84,
    "recovered": 2,
    "sick": 80
  },
  {
    "lastUpdated": "2020-03-26T00:51:27.316Z",
    "dead": 6,
    "id": "FErOU1m4Tj7jIkRam3vF",
    "infected": 578,
    "recovered": 570,
    "latitude": 29.431585,
    "pop": 30480000,
    "longitude": 106.912254,
    "name": "Chongqing",
    "country": "CN",
    "sick": 2
  },
  {
    "id": "FZsUkhxBEgqsPb4eO0PN",
    "infected": 195,
    "recovered": 43,
    "latitude": 29.311661,
    "pop": 4137000,
    "longitude": 47.481766,
    "name": "Kuwait",
    "country": "KW",
    "lastUpdated": "2020-03-26T08:13:03.641Z",
    "dead": 0,
    "sick": 152
  },
  {
    "latitude": 11.1271,
    "pop": 67860000,
    "longitude": 78.6569,
    "name": "Tamil Nadu",
    "country": "IN",
    "lastUpdated": "2020-03-26T08:11:02.006Z",
    "dead": 1,
    "id": "FeS45oMNC27pI17F0xEV",
    "infected": 26,
    "recovered": 1,
    "sick": 24
  },
  {
    "lastUpdated": "2020-03-26T08:13:03.582Z",
    "dead": 10,
    "id": "FuiVEJvWb0QMCpxJ3563",
    "infected": 392,
    "recovered": 3,
    "latitude": 18.947829,
    "pop": 10770000,
    "longitude": -70.430399,
    "name": "Dominican Republic",
    "country": "DO",
    "sick": 379
  },
  {
    "infected": 41,
    "recovered": 1,
    "latitude": 18.1124,
    "pop": 35190000,
    "longitude": 79.0193,
    "name": "Telengana",
    "country": "IN",
    "lastUpdated": "2020-03-26T08:11:02.058Z",
    "dead": 0,
    "id": "FyC551oNwmENxbr9Yght",
    "sick": 40
  },
  {
    "pop": 5450000,
    "longitude": 19.699,
    "name": "Slovakia",
    "country": "SK",
    "lastUpdated": "2020-03-26T08:13:03.553Z",
    "dead": 0,
    "id": "FzIDXoqWnTI3nUfhPyT2",
    "infected": 216,
    "recovered": 7,
    "latitude": 48.669,
    "sick": 209
  },
  {
    "latitude": 30.37532,
    "pop": 197000000,
    "longitude": 69.345116,
    "name": "Pakistan",
    "country": "PK",
    "lastUpdated": "2020-03-26T08:13:03.533Z",
    "dead": 8,
    "id": "GAp7Wb6IMhdgbvEtMza9",
    "infected": 1102,
    "recovered": 21,
    "sick": 1073
  },
  {
    "id": "GGru8cG08mANO8XDDUtZ",
    "infected": 33,
    "recovered": 0,
    "latitude": 31.1471,
    "pop": 27980000,
    "longitude": 75.3412,
    "name": "Punjab",
    "country": "IN",
    "lastUpdated": "2020-03-26T08:11:02.014Z",
    "dead": 1,
    "sick": 32
  },
  {
    "id": "GHzBIsHy2GiBc5JV2HMs",
    "infected": 333,
    "recovered": 52,
    "latitude": 23.424076,
    "pop": 9400000,
    "longitude": 53.847816,
    "name": "United Arab Emirates",
    "country": "AE",
    "lastUpdated": "2020-03-26T08:13:03.601Z",
    "dead": 2,
    "sick": 279
  },
  {
    "id": "Gh46r6vuaY7fbGt3IboN",
    "infected": 3169,
    "recovered": 0,
    "latitude": 36.621981,
    "pop": 39560000,
    "longitude": -119.339046,
    "name": "California",
    "country": "US",
    "lastUpdated": "2020-03-26T08:09:02.058Z",
    "dead": 67,
    "sick": 3102
  },
  {
    "infected": 164,
    "recovered": 0,
    "latitude": 35.87189,
    "pop": 3943000,
    "longitude": -97.145514,
    "name": "Oklahoma",
    "country": "US",
    "lastUpdated": "2020-03-26T08:09:01.977Z",
    "dead": 6,
    "id": "GpF8ULuKOQiFDCUHN44h",
    "sick": 158
  },
  {
    "infected": 858,
    "recovered": 67,
    "latitude": 46.5,
    "pop": 520891,
    "longitude": 11.35,
    "name": "P.A. Bolzano",
    "country": "IT",
    "lastUpdated": "2020-03-26T08:16:02.421Z",
    "dead": 43,
    "id": "Gzx6GX1qhBm714BkEC6l",
    "sick": 748
  },
  {
    "pop": 24710000,
    "longitude": 113.750972,
    "name": "Inner Mongolia",
    "country": "CN",
    "lastUpdated": "2020-03-26T00:48:31.445Z",
    "dead": 1,
    "id": "H3JeVigVbo5CSYfZG4WI",
    "infected": 77,
    "recovered": 74,
    "latitude": 42.83263,
    "sick": 2
  },
  {
    "infected": 405,
    "recovered": 0,
    "latitude": 39.74536,
    "pop": 3034000,
    "longitude": -116.724977,
    "name": "Nevada",
    "country": "US",
    "lastUpdated": "2020-03-26T08:09:01.987Z",
    "dead": 14,
    "id": "H3bDg4eV30up4WWrIDAS",
    "sick": 391
  },
  {
    "latitude": 15.3173,
    "pop": 64060000,
    "longitude": 75.7139,
    "name": "Karnataka",
    "country": "IN",
    "lastUpdated": "2020-03-26T08:11:02.002Z",
    "dead": 1,
    "id": "HN5mGmxlqlSeFSNeu1K5",
    "infected": 41,
    "recovered": 3,
    "sick": 37
  },
  {
    "infected": 2,
    "recovered": 0,
    "latitude": 27.5142,
    "pop": 807610,
    "longitude": 90.4336,
    "name": "Bhutan",
    "country": "BT",
    "lastUpdated": "2020-03-26T08:13:03.873Z",
    "dead": 0,
    "id": "HRDpwyxpqW9RN0xLFyNu",
    "sick": 2
  },
  {
    "latitude": 41.3775,
    "pop": 32390000,
    "longitude": 64.5853,
    "name": "Uzbekistan",
    "country": "UZ",
    "lastUpdated": "2020-03-26T08:13:03.861Z",
    "dead": 0,
    "id": "HRTA10dtrruDEwjJEGMp",
    "infected": 65,
    "recovered": 0,
    "sick": 65
  },
  {
    "latitude": 34.138916,
    "pop": 2095000,
    "longitude": -105.576255,
    "name": "New Mexico",
    "country": "US",
    "lastUpdated": "2020-03-26T08:09:01.998Z",
    "dead": 1,
    "id": "HSSFomRju0doHhWgW8On",
    "infected": 113,
    "recovered": 0,
    "sick": 112
  },
  {
    "infected": 245,
    "recovered": 5,
    "latitude": 53.6127,
    "pop": 1635000,
    "longitude": 12.4296,
    "name": "Mecklenburg-Vorpommern",
    "country": "DE",
    "lastUpdated": "2020-03-26T08:12:03.550Z",
    "dead": 0,
    "id": "He1gSS1v50t06i3YrqvB",
    "sick": 240
  },
  {
    "longitude": -102.552788,
    "name": "Mexico",
    "country": "MX",
    "lastUpdated": "2020-03-26T08:13:03.517Z",
    "dead": 6,
    "id": "I4OJ6z9Vjs1byOcbsJrd",
    "infected": 475,
    "recovered": 4,
    "latitude": 23.634501,
    "pop": 129200000,
    "sick": 465
  },
  {
    "lastUpdated": "2020-03-26T08:16:02.626Z",
    "dead": 52,
    "id": "I9EqrZfbPnkioNU4wZGz",
    "infected": 813,
    "recovered": 23,
    "latitude": 42.25,
    "pop": 1315000,
    "longitude": 13.75,
    "name": "Abruzzo",
    "country": "IT",
    "sick": 738
  },
  {
    "recovered": 1336,
    "latitude": 23.363855,
    "pop": 113460000,
    "longitude": 113.373448,
    "name": "Guangdong",
    "country": "CN",
    "lastUpdated": "2020-03-26T00:50:48.753Z",
    "dead": 8,
    "id": "IAX0OQLVnUwU7FX0ENF1",
    "infected": 1433,
    "sick": 89
  },
  {
    "pop": 94000000,
    "longitude": 113.484016,
    "name": "Henan",
    "country": "CN",
    "lastUpdated": "2020-03-26T00:51:20.787Z",
    "dead": 22,
    "id": "IFuMrMvSjoiX5agYvllh",
    "infected": 1274,
    "recovered": 1250,
    "latitude": 33.875408,
    "sick": 2
  },
  {
    "latitude": 19.0558,
    "pop": 10980000,
    "longitude": -73.0513,
    "name": "Haiti",
    "country": "HT",
    "lastUpdated": "2020-03-26T08:13:03.910Z",
    "dead": 0,
    "id": "InZ38sIqyK7FN7XAOZoX",
    "infected": 8,
    "recovered": 0,
    "sick": 8
  },
  {
    "latitude": 32.528564,
    "pop": 10520000,
    "longitude": -83.280125,
    "name": "Georgia (US)",
    "country": "US",
    "lastUpdated": "2020-03-26T03:39:01.384Z",
    "dead": 47,
    "id": "IvQkDJkTAsoIqPRAU25n",
    "infected": 1404,
    "recovered": 0,
    "sick": 1357
  },
  {
    "infected": 283,
    "recovered": 27,
    "latitude": -42.8285,
    "pop": 4794000,
    "longitude": 172.488081,
    "name": "New Zealand",
    "country": "NZ",
    "lastUpdated": "2020-03-26T08:13:03.605Z",
    "dead": 0,
    "id": "IvVhpOoGpH6JVkGyUhXN",
    "sick": 256
  },
  {
    "infected": 106,
    "recovered": 15,
    "latitude": 6.4238,
    "pop": 31980000,
    "longitude": -66.5897,
    "name": "Venezuela",
    "country": "VE",
    "lastUpdated": "2020-03-26T08:13:03.514Z",
    "dead": 0,
    "id": "J3mZXlfEnnJx4CDZLvRG",
    "sick": 91
  },
  {
    "infected": 132,
    "recovered": 3,
    "latitude": 35.1264,
    "pop": 1170000,
    "longitude": 33.4299,
    "name": "Cyprus",
    "country": "CY",
    "lastUpdated": "2020-03-26T08:13:03.549Z",
    "dead": 3,
    "id": "JQByE4l2OA6sGOqIcWrM",
    "sick": 126
  },
  {
    "latitude": 25.0961,
    "pop": 99020000,
    "longitude": 85.3131,
    "name": "Bihar",
    "country": "IN",
    "lastUpdated": "2020-03-26T08:11:01.997Z",
    "dead": 1,
    "id": "JR7hOGked7CZtIs2nCV5",
    "infected": 3,
    "recovered": 0,
    "sick": 2
  },
  {
    "latitude": 14.628434,
    "pop": 16910000,
    "longitude": -90.522713,
    "name": "Guatemala",
    "country": "GT",
    "lastUpdated": "2020-03-26T08:13:03.863Z",
    "dead": 1,
    "id": "JUWE6bG3b5oL7fKQMSvv",
    "infected": 24,
    "recovered": 4,
    "sick": 19
  },
  {
    "infected": 1333,
    "recovered": 6,
    "latitude": 49.8153,
    "pop": 602005,
    "longitude": 6.1296,
    "name": "Luxembourg",
    "country": "LU",
    "lastUpdated": "2020-03-26T08:13:03.614Z",
    "dead": 8,
    "id": "JcFsHSn2WvZ5LJW42ovG",
    "sick": 1319
  },
  {
    "latitude": 8.6195,
    "pop": 7798000,
    "longitude": 0.8248,
    "name": "Togo",
    "country": "TG",
    "lastUpdated": "2020-03-26T08:13:03.839Z",
    "dead": 0,
    "id": "JrBbirlBKGdWSdcDt7PF",
    "infected": 23,
    "recovered": 1,
    "sick": 22
  },
  {
    "infected": 243,
    "recovered": 4,
    "latitude": 42.7339,
    "pop": 7050000,
    "longitude": 25.4858,
    "name": "Bulgaria",
    "country": "BG",
    "lastUpdated": "2020-03-26T08:13:03.544Z",
    "dead": 3,
    "id": "JzZ8sbqzjutThVjkPKPL",
    "sick": 236
  },
  {
    "lastUpdated": "2020-03-26T08:16:02.534Z",
    "dead": 254,
    "id": "KLXicxFogWnu0dLp4bNK",
    "infected": 2305,
    "recovered": 225,
    "latitude": 44.5,
    "pop": 1557000,
    "longitude": 8.833,
    "name": "Liguria",
    "country": "IT",
    "sick": 1826
  },
  {
    "infected": 2972,
    "recovered": 54,
    "latitude": 43.4167,
    "pop": 3737000,
    "longitude": 11,
    "name": "Toscana",
    "country": "IT",
    "lastUpdated": "2020-03-26T08:16:02.437Z",
    "dead": 142,
    "id": "KrLrJbpDqqiXgUPGCCW9",
    "sick": 2776
  },
  {
    "infected": 102,
    "recovered": 3,
    "latitude": 7.873054,
    "pop": 21440000,
    "longitude": 80.771797,
    "name": "Sri Lanka",
    "country": "LK",
    "lastUpdated": "2020-03-26T08:13:03.611Z",
    "dead": 0,
    "id": "KsWzJO06cf0d6LJ4ZNh9",
    "sick": 99
  },
  {
    "infected": 11,
    "recovered": 1,
    "latitude": 15.9129,
    "pop": 49670000,
    "longitude": 79.74,
    "name": "Andhra Pradesh",
    "country": "IN",
    "lastUpdated": "2020-03-26T08:11:02.068Z",
    "dead": 0,
    "id": "KtQIo2DoqjELtPAlyDVO",
    "sick": 10
  },
  {
    "id": "KwOuGBKSMRlmwftxAvLX",
    "infected": 840,
    "recovered": 38,
    "latitude": 61.52401,
    "pop": 144500000,
    "longitude": 105.318756,
    "name": "Russia",
    "country": "RU",
    "lastUpdated": "2020-03-26T08:13:03.550Z",
    "dead": 3,
    "sick": 799
  },
  {
    "lastUpdated": "2020-03-26T08:04:06.517Z",
    "dead": 0,
    "id": "LBUtrLDKJiupXjlUNTUe",
    "infected": 11,
    "recovered": 0,
    "latitude": 18.0708,
    "pop": 32125,
    "longitude": -63.0501,
    "name": "Saint-Martin",
    "country": "FR",
    "sick": 11
  },
  {
    "pop": 38557,
    "longitude": 9.5554,
    "name": "Liechtenstein",
    "country": "LI",
    "lastUpdated": "2020-03-26T08:13:03.811Z",
    "dead": 0,
    "id": "LTGEU2E9MFkrCcFhZYVk",
    "infected": 51,
    "recovered": 0,
    "latitude": 47.166,
    "sick": 51
  },
  {
    "lastUpdated": "2020-03-26T08:13:03.810Z",
    "dead": 0,
    "id": "LU2QWt5ao8IJa8evNYVV",
    "infected": 4,
    "recovered": 0,
    "latitude": 9.9456,
    "pop": 12720000,
    "longitude": -9.6966,
    "name": "Guinea",
    "country": "GN",
    "sick": 4
  },
  {
    "infected": 8,
    "recovered": 0,
    "latitude": 3.9193051,
    "pop": 563402,
    "longitude": -56.0277824,
    "name": "Suriname",
    "country": "SR",
    "lastUpdated": "2020-03-26T08:13:03.820Z",
    "dead": 0,
    "id": "LglKINHyQpYpFxjckbQ6",
    "sick": 8
  },
  {
    "infected": 86,
    "recovered": 0,
    "latitude": 52.9399,
    "pop": 1174000,
    "longitude": -106.4509,
    "name": "Saskatchewan",
    "country": "CA",
    "lastUpdated": "2020-03-26T08:09:01.950Z",
    "dead": 0,
    "id": "LkIDKY0CMAqzbwBHyYCP",
    "sick": 86
  },
  {
    "latitude": 37.8393,
    "pop": 4468000,
    "longitude": -84.27,
    "name": "Kentucky",
    "country": "US",
    "lastUpdated": "2020-03-26T08:09:02.064Z",
    "dead": 5,
    "id": "MC8MXFw9iXYybnF8v7e6",
    "infected": 197,
    "recovered": 0,
    "sick": 192
  },
  {
    "lastUpdated": "2020-03-26T08:09:01.984Z",
    "dead": 14,
    "id": "MOxDkmQ4wBi1CuAdVxDE",
    "infected": 478,
    "recovered": 0,
    "latitude": 40.2672,
    "pop": 6692000,
    "longitude": -86.1349,
    "name": "Indiana",
    "country": "US",
    "sick": 464
  },
  {
    "infected": 80,
    "recovered": 3,
    "latitude": 7.54,
    "pop": 24290000,
    "longitude": -5.5471,
    "name": "Ivory Coast",
    "country": "CI",
    "lastUpdated": "2020-03-26T08:13:03.684Z",
    "dead": 0,
    "id": "MdQOfc1gNh2DOqwSP6UV",
    "sick": 77
  },
  {
    "pop": 17910000,
    "longitude": 7.6616,
    "name": "Nordrhein-Westfalen",
    "country": "DE",
    "lastUpdated": "2020-03-26T08:12:03.443Z",
    "dead": 66,
    "id": "MjpYq3zQyAvSQlVVYjD2",
    "infected": 9764,
    "recovered": 755,
    "latitude": 51.4332,
    "sick": 8943
  },
  {
    "latitude": 37.330509,
    "pop": 6301000,
    "longitude": 105.977203,
    "name": "Ningxia",
    "country": "CN",
    "lastUpdated": "2020-03-26T00:48:16.004Z",
    "dead": 0,
    "id": "MntmjjuHljarCdt6aIeE",
    "infected": 75,
    "recovered": 75,
    "sick": 0
  },
  {
    "latitude": 48.6616,
    "pop": 11020000,
    "longitude": 9.3501,
    "name": "Baden-Württemberg",
    "country": "DE",
    "lastUpdated": "2020-03-26T08:12:03.633Z",
    "dead": 56,
    "id": "N3XsRBwJSsNclkEf7Zz5",
    "infected": 7252,
    "recovered": 186,
    "sick": 7010
  },
  {
    "latitude": 44.696652,
    "pop": 3507000,
    "longitude": 17.824332,
    "name": "Bosnia and Herzegovina",
    "country": "BA",
    "lastUpdated": "2020-03-26T08:13:03.590Z",
    "dead": 3,
    "id": "N7c13sCQF0G789XAVazJ",
    "infected": 185,
    "recovered": 2,
    "sick": 180
  },
  {
    "recovered": 133,
    "latitude": 37.242565,
    "pop": 36500000,
    "longitude": 111.856857,
    "name": "Shanxi",
    "country": "CN",
    "lastUpdated": "2020-03-26T00:48:37.367Z",
    "dead": 0,
    "id": "NBRIGIRrJB1Ry8prDNAC",
    "infected": 134,
    "sick": 1
  },
  {
    "infected": 625,
    "recovered": 0,
    "latitude": 35.7596,
    "pop": 10380000,
    "longitude": -79.0193,
    "name": "North Carolina",
    "country": "US",
    "lastUpdated": "2020-03-26T08:09:01.935Z",
    "dead": 2,
    "id": "NC64Qp5kTqAfiTuR27k8",
    "sick": 623
  },
  {
    "longitude": 12.5316,
    "name": "Brandenburg",
    "country": "DE",
    "lastUpdated": "2020-03-26T08:12:03.548Z",
    "dead": 1,
    "id": "NJjo2gfBvnbK4xatrsUz",
    "infected": 505,
    "recovered": 1,
    "latitude": 52.4125,
    "pop": 2504000,
    "sick": 503
  },
  {
    "latitude": 30.0668,
    "pop": 10080000,
    "longitude": 79.0193,
    "name": "Uttarakhand",
    "country": "IN",
    "lastUpdated": "2020-03-26T08:11:02.048Z",
    "dead": 0,
    "id": "NMeZEcGToxXfpi16PfFV",
    "infected": 5,
    "recovered": 0,
    "sick": 5
  },
  {
    "latitude": 50.6521,
    "pop": 6243000,
    "longitude": 9.1624,
    "name": "Hessen",
    "country": "DE",
    "lastUpdated": "2020-03-26T08:12:03.255Z",
    "dead": 6,
    "id": "Nk5vPgUIXsWVfbWZf15O",
    "infected": 1909,
    "recovered": 19,
    "sick": 1884
  },
  {
    "lastUpdated": "2020-03-26T08:13:03.589Z",
    "dead": 0,
    "id": "NmmMKy0YqA8StHdGzB5N",
    "infected": 221,
    "recovered": 1,
    "latitude": 56.96776,
    "pop": 1920000,
    "longitude": 25.837107,
    "name": "Latvia",
    "country": "LV",
    "sick": 220
  },
  {
    "pop": 4732000,
    "longitude": -9.4295,
    "name": "Liberia",
    "country": "LR",
    "lastUpdated": "2020-03-26T08:13:03.812Z",
    "dead": 0,
    "id": "O4g88K49HKEZLFXm5gxb",
    "infected": 3,
    "recovered": 0,
    "latitude": 6.4281,
    "sick": 3
  },
  {
    "infected": 424,
    "recovered": 0,
    "latitude": 34.003307,
    "pop": 5084000,
    "longitude": -80.525613,
    "name": "South Carolina",
    "country": "US",
    "lastUpdated": "2020-03-26T08:09:01.903Z",
    "dead": 7,
    "id": "ONU4CK8QjViFHKg2w5if",
    "sick": 417
  },
  {
    "latitude": 33.51822,
    "pop": 2987000,
    "longitude": -89.582775,
    "name": "Mississippi",
    "country": "US",
    "lastUpdated": "2020-03-26T08:09:01.926Z",
    "dead": 5,
    "id": "OYa0jFzdbAgo8zUsRv6q",
    "infected": 377,
    "recovered": 0,
    "sick": 372
  },
  {
    "infected": 142,
    "recovered": 0,
    "latitude": 45.2538,
    "pop": 1338000,
    "longitude": -69.4455,
    "name": "Maine",
    "country": "US",
    "lastUpdated": "2020-03-26T08:09:01.900Z",
    "dead": 0,
    "id": "OcXNp9kNVSwrRlG3bNVN",
    "sick": 142
  },
  {
    "latitude": -41.915264,
    "pop": 515000,
    "longitude": 146.725256,
    "name": "Tasmania",
    "country": "AU",
    "lastUpdated": "2020-03-26T08:10:03.644Z",
    "dead": 0,
    "id": "OnOseaqWdnuP18oruABW",
    "infected": 40,
    "recovered": 3,
    "sick": 37
  },
  {
    "latitude": 19.3133,
    "pop": 61559,
    "longitude": -81.2546,
    "name": "Cayman Islands",
    "country": "KY",
    "lastUpdated": "2020-03-26T08:13:03.908Z",
    "dead": 1,
    "id": "P4mwRFLbrvT0t75uD8Wo",
    "infected": 8,
    "recovered": 0,
    "sick": 7
  },
  {
    "longitude": -62.1873665,
    "name": "Montserrat",
    "country": "MS",
    "lastUpdated": "2020-03-26T08:13:03.838Z",
    "dead": 0,
    "id": "PEDkeFMTOZpvHiSVxBk7",
    "infected": 1,
    "recovered": 0,
    "latitude": 16.7424984,
    "pop": 5900,
    "sick": 1
  },
  {
    "longitude": 29.8739,
    "name": "Rwanda",
    "country": "RW",
    "lastUpdated": "2020-03-26T08:13:03.776Z",
    "dead": 0,
    "id": "PEcgZGEkyhABztt1Ufgc",
    "infected": 41,
    "recovered": 0,
    "latitude": -1.9403,
    "pop": 12210000,
    "sick": 41
  },
  {
    "infected": 286,
    "recovered": 0,
    "latitude": 46.7296,
    "pop": 5611000,
    "longitude": -94.6859,
    "name": "Minnesota",
    "country": "US",
    "lastUpdated": "2020-03-26T08:09:02.015Z",
    "dead": 1,
    "id": "PJvVYosLIhbcRZYnKX1R",
    "sick": 285
  },
  {
    "infected": 1870,
    "recovered": 0,
    "latitude": 40.6331,
    "pop": 12740000,
    "longitude": -89.3985,
    "name": "Illinois",
    "country": "US",
    "lastUpdated": "2020-03-26T08:09:01.980Z",
    "dead": 19,
    "id": "PTwQr9ijo0TBBsPH2sdJ",
    "sick": 1851
  },
  {
    "recovered": 0,
    "latitude": 13.909444,
    "pop": 178844,
    "longitude": -60.978893,
    "name": "Saint Lucia",
    "country": "LC",
    "lastUpdated": "2020-03-26T08:13:03.836Z",
    "dead": 0,
    "id": "PjLqCeFdyzdZNcZxMkK1",
    "infected": 3,
    "sick": 3
  },
  {
    "infected": 173,
    "recovered": 2,
    "latitude": 34.201507,
    "pop": 11530000,
    "longitude": 9.460554,
    "name": "Tunisia",
    "country": "TN",
    "lastUpdated": "2020-03-26T08:13:03.622Z",
    "dead": 5,
    "id": "Pr76V4raf108uSRoEXac",
    "sick": 166
  },
  {
    "infected": 4,
    "recovered": 0,
    "latitude": -26.5225,
    "pop": 1367000,
    "longitude": 31.4659,
    "name": "Eswatini",
    "country": "SZ",
    "lastUpdated": "2020-03-26T08:13:03.821Z",
    "dead": 0,
    "id": "PuQgOd9KWiMzGZXm11sR",
    "sick": 4
  },
  {
    "latitude": -37.009609,
    "pop": 6359000,
    "longitude": 143.94853,
    "name": "Victoria",
    "country": "AU",
    "lastUpdated": "2020-03-26T08:10:03.841Z",
    "dead": 0,
    "id": "Q18mrGvFWTLX2BU9SqhQ",
    "infected": 520,
    "recovered": 97,
    "sick": 423
  },
  {
    "latitude": 54.2194,
    "pop": 2890000,
    "longitude": 9.6961,
    "name": "Schleswig-Holstein",
    "country": "DE",
    "lastUpdated": "2020-03-26T08:12:03.341Z",
    "dead": 4,
    "id": "Q39XkabIYxt15mHINzTa",
    "infected": 609,
    "recovered": 2,
    "sick": 603
  },
  {
    "latitude": 58.595272,
    "pop": 1328000,
    "longitude": 25.013607,
    "name": "Estonia",
    "country": "EE",
    "lastUpdated": "2020-03-26T08:13:03.591Z",
    "dead": 1,
    "id": "QR9go2hQKXjty7JHUYe4",
    "infected": 404,
    "recovered": 8,
    "sick": 395
  },
  {
    "infected": 1,
    "recovered": 0,
    "latitude": -6.315,
    "pop": 8251000,
    "longitude": 143.9555,
    "name": "Papua New Guinea",
    "country": "PG",
    "lastUpdated": "2020-03-26T08:13:03.840Z",
    "dead": 0,
    "id": "QlZrE4nosm5WfdA2aCDg",
    "sick": 1
  },
  {
    "infected": 17,
    "recovered": 0,
    "latitude": 18.3358,
    "pop": 107268,
    "longitude": -64.8963,
    "name": "U.S. Virgin Islands",
    "country": "VI",
    "lastUpdated": "2020-03-26T03:11:14.741Z",
    "dead": 0,
    "id": "QqhD3YDMKXojvQY3Yu41",
    "sick": 17
  },
  {
    "latitude": 15.414999,
    "pop": 71937,
    "longitude": -61.3709755,
    "name": "Dominica",
    "country": "DM",
    "lastUpdated": "2020-03-26T08:13:03.818Z",
    "dead": 0,
    "id": "Qy2qW2ep5wltnYjPJBxh",
    "infected": 11,
    "recovered": 0,
    "sick": 11
  },
  {
    "pop": 4099000,
    "longitude": -80.7821,
    "name": "Panama",
    "country": "PA",
    "lastUpdated": "2020-03-26T08:13:03.518Z",
    "dead": 8,
    "id": "R8YCgephnxTufvcPWMgx",
    "infected": 558,
    "recovered": 2,
    "latitude": 8.538,
    "sick": 548
  },
  {
    "id": "RA2SE0p2bVhqo0P2hzGY",
    "infected": 52,
    "recovered": 0,
    "latitude": 15.2,
    "pop": 9265000,
    "longitude": -86.2419,
    "name": "Honduras",
    "country": "HN",
    "lastUpdated": "2020-03-26T08:13:03.806Z",
    "dead": 0,
    "sick": 52
  },
  {
    "lastUpdated": "2020-03-26T08:16:02.442Z",
    "dead": 70,
    "id": "RCrDBCdBNYzgLNr0aB2H",
    "infected": 1139,
    "recovered": 158,
    "latitude": 45.633331,
    "pop": 1216000,
    "longitude": 13.8,
    "name": "Friuli Venezia Giulia",
    "country": "IT",
    "sick": 911
  },
  {
    "latitude": 41.878,
    "pop": 3156000,
    "longitude": -93.0977,
    "name": "Iowa",
    "country": "US",
    "lastUpdated": "2020-03-26T08:09:01.908Z",
    "dead": 1,
    "id": "RX0KDu1AFrlCsrRso0nb",
    "infected": 146,
    "recovered": 0,
    "sick": 145
  },
  {
    "id": "Rf4uvBfP3GRDSHdZElRd",
    "infected": 137,
    "recovered": 0,
    "latitude": 39.0119,
    "pop": 2912000,
    "longitude": -98.4842,
    "name": "Kansas",
    "country": "US",
    "lastUpdated": "2020-03-26T08:09:01.937Z",
    "dead": 3,
    "sick": 134
  },
  {
    "recovered": 0,
    "latitude": 48.6998,
    "pop": 5518000,
    "longitude": 6.1878,
    "name": "Grand Est",
    "country": "FR",
    "lastUpdated": "2020-03-26T08:04:06.343Z",
    "dead": 0,
    "id": "RmEgf1xeclWt7XCF9oiR",
    "infected": 5479,
    "sick": 5479
  },
  {
    "pop": 14570000,
    "longitude": -85.3232,
    "name": "Ontario",
    "country": "CA",
    "lastUpdated": "2020-03-26T08:09:01.913Z",
    "dead": 12,
    "id": "Rx4TuyMpfGb3S8wYJX0x",
    "infected": 688,
    "recovered": 0,
    "latitude": 51.2538,
    "sick": 676
  },
  {
    "infected": 66,
    "recovered": 0,
    "latitude": 14.652027,
    "pop": 376480,
    "longitude": -61.011715,
    "name": "Martinique",
    "country": "FR",
    "lastUpdated": "2020-03-26T08:04:06.420Z",
    "dead": 0,
    "id": "SDdefnq1bc3ZNr7SpEsW",
    "sick": 66
  },
  {
    "recovered": 0,
    "latitude": 7.9465,
    "pop": 28830000,
    "longitude": -1.0232,
    "name": "Ghana",
    "country": "GH",
    "lastUpdated": "2020-03-26T02:43:03.666Z",
    "dead": 4,
    "id": "SG9VWLOV3x2JsTkXmVSz",
    "infected": 93,
    "sick": 89
  },
  {
    "latitude": 46.818188,
    "pop": 8570000,
    "longitude": 8.227512,
    "name": "Switzerland",
    "country": "CH",
    "lastUpdated": "2020-03-26T08:13:03.632Z",
    "dead": 153,
    "id": "SGe9sCPayMqh6RsGFaBA",
    "infected": 10897,
    "recovered": 131,
    "sick": 10613
  },
  {
    "lastUpdated": "2020-03-26T08:09:02.066Z",
    "dead": 6,
    "id": "SHoOE3NiJgWAlDVBzwYH",
    "infected": 1342,
    "recovered": 0,
    "latitude": 46.8139,
    "pop": 8485000,
    "longitude": -71.208,
    "name": "Quebec",
    "country": "CA",
    "sick": 1336
  },
  {
    "latitude": 42.6026,
    "pop": 1831000,
    "longitude": 20.903,
    "name": "Kosovo",
    "country": "XK",
    "lastUpdated": "2020-03-26T08:14:01.781Z",
    "dead": 1,
    "id": "SMWvuMMuKp2QK7O2tNia",
    "infected": 71,
    "recovered": 0,
    "sick": 70
  },
  {
    "latitude": 15.2993,
    "pop": 1817000,
    "longitude": 74.124,
    "name": "Goa",
    "country": "IN",
    "lastUpdated": "2020-03-26T08:11:02.030Z",
    "dead": 0,
    "id": "SPcujsH2YlUaoAr8AiWF",
    "infected": 3,
    "recovered": 0,
    "sick": 3
  },
  {
    "longitude": 16.5,
    "name": "Calabria",
    "country": "IT",
    "lastUpdated": "2020-03-26T08:16:02.424Z",
    "dead": 11,
    "id": "SZdF624x0v1LlyzZjKFu",
    "infected": 351,
    "recovered": 7,
    "latitude": 39,
    "pop": 1957000,
    "sick": 333
  },
  {
    "infected": 74,
    "recovered": 0,
    "latitude": 41.4925,
    "pop": 1929000,
    "longitude": -99.9018,
    "name": "Nebraska",
    "country": "US",
    "lastUpdated": "2020-03-26T08:09:02.069Z",
    "dead": 0,
    "id": "SakhKQzKu1LRI8laqdQq",
    "sick": 74
  },
  {
    "latitude": -21.1151,
    "pop": 859959,
    "longitude": 55.5364,
    "name": "La Réunion",
    "country": "FR",
    "lastUpdated": "2020-03-26T08:04:06.623Z",
    "dead": 0,
    "id": "SgHzWAAYK1j2sipovxM6",
    "infected": 94,
    "recovered": 0,
    "sick": 94
  },
  {
    "infected": 96,
    "recovered": 10,
    "latitude": 12.565679,
    "pop": 16010000,
    "longitude": 104.990967,
    "name": "Cambodia",
    "country": "KH",
    "lastUpdated": "2020-03-26T08:13:03.519Z",
    "dead": 0,
    "id": "SioMALgUbo7peXmbco2f",
    "sick": 86
  },
  {
    "infected": 37,
    "recovered": 0,
    "latitude": 13.4443,
    "pop": 164229,
    "longitude": 144.7937,
    "name": "Guam",
    "country": "GU",
    "lastUpdated": "2020-03-26T08:09:02.006Z",
    "dead": 1,
    "id": "SsWhuEElU7dCTTuH5fdQ",
    "sick": 36
  },
  {
    "infected": 48,
    "recovered": 0,
    "latitude": -4.0383,
    "pop": 81340000,
    "longitude": 21.7587,
    "name": "DR Congo",
    "country": "CD",
    "lastUpdated": "2020-03-26T08:13:03.792Z",
    "dead": 2,
    "id": "T3iRf8mTUTAzbKrORTap",
    "sick": 46
  },
  {
    "pop": 32940000,
    "longitude": 44.344334,
    "name": "Saudi Arabia",
    "country": "SA",
    "lastUpdated": "2020-03-26T08:13:03.515Z",
    "dead": 2,
    "id": "T7NffoeCgTUpAbOHvYwP",
    "infected": 900,
    "recovered": 29,
    "latitude": 23.635796,
    "sick": 869
  },
  {
    "infected": 109,
    "recovered": 2,
    "latitude": 4.506106,
    "pop": 428697,
    "longitude": 114.650692,
    "name": "Brunei",
    "country": "BN",
    "lastUpdated": "2020-03-26T08:13:03.561Z",
    "dead": 0,
    "id": "TQZmzsLhJqjtCSExAkCP",
    "sick": 107
  },
  {
    "latitude": 45.4471,
    "pop": 8027000,
    "longitude": 4.3853,
    "name": "Auvergne-Rhône-Alpes",
    "country": "FR",
    "lastUpdated": "2020-03-26T08:04:06.423Z",
    "dead": 0,
    "id": "TT0MKODSjrxHvG19xZCa",
    "infected": 2093,
    "recovered": 0,
    "sick": 2093
  },
  {
    "infected": 1087,
    "recovered": 0,
    "latitude": 39.318928,
    "pop": 5696000,
    "longitude": -105.461392,
    "name": "Colorado",
    "country": "US",
    "lastUpdated": "2020-03-26T08:09:01.920Z",
    "dead": 20,
    "id": "Th4dlpXXmSDgi1OHs36P",
    "sick": 1067
  },
  {
    "infected": 146,
    "recovered": 10,
    "latitude": 12.2383,
    "pop": 19190000,
    "longitude": -1.5616,
    "name": "Burkina Faso",
    "country": "BF",
    "lastUpdated": "2020-03-26T08:13:03.557Z",
    "dead": 4,
    "id": "Tup6oDCHj6DgqZR3nQ3x",
    "sick": 132
  },
  {
    "id": "TvqURPN5xzVBXsmGP46N",
    "infected": 1,
    "recovered": 0,
    "latitude": 12.104818,
    "pop": 112381,
    "longitude": -61.670761,
    "name": "Grenada",
    "country": "GD",
    "lastUpdated": "2020-03-26T08:13:03.920Z",
    "dead": 0,
    "sick": 1
  },
  {
    "latitude": 55.675758,
    "pop": 5603000,
    "longitude": 12.56902,
    "name": "Denmark",
    "country": "DK",
    "lastUpdated": "2020-03-26T08:13:03.537Z",
    "dead": 34,
    "id": "Ty1AY3VLPJcRZgdBIERx",
    "infected": 1724,
    "recovered": 1,
    "sick": 1689
  },
  {
    "latitude": 36.395859,
    "pop": 100472400,
    "longitude": 118.769882,
    "name": "Shandong",
    "country": "CN",
    "lastUpdated": "2020-03-26T00:48:57.104Z",
    "dead": 7,
    "id": "U0tkTJ9CGsBuFJ2Gdoum",
    "infected": 769,
    "recovered": 752,
    "sick": 10
  },
  {
    "recovered": 4,
    "latitude": 43.94236,
    "pop": 33400,
    "longitude": 12.457777,
    "name": "San Marino",
    "country": "SM",
    "lastUpdated": "2020-03-26T08:13:03.608Z",
    "dead": 21,
    "id": "U12rMD5GDW58Q0lIwrB1",
    "infected": 208,
    "sick": 183
  },
  {
    "infected": 1307,
    "recovered": 310,
    "latitude": 36.204823,
    "pop": 126800000,
    "longitude": 138.25293,
    "name": "Japan",
    "country": "JP",
    "lastUpdated": "2020-03-26T08:13:03.547Z",
    "dead": 45,
    "id": "U13Gy4BpRLAZ95bPmBXd",
    "sick": 952
  },
  {
    "infected": 14,
    "recovered": 0,
    "latitude": 1.3733,
    "pop": 42860000,
    "longitude": 32.2903,
    "name": "Uganda",
    "country": "UG",
    "lastUpdated": "2020-03-26T08:13:03.879Z",
    "dead": 0,
    "id": "UCZXEgnHtxUoChWLR6fQ",
    "sick": 14
  },
  {
    "infected": 3,
    "recovered": 0,
    "latitude": -11.2027,
    "pop": 29780000,
    "longitude": 17.8739,
    "name": "Angola",
    "country": "AO",
    "lastUpdated": "2020-03-26T08:13:03.947Z",
    "dead": 0,
    "id": "UIbrFy6kiTTF0D37Kqmp",
    "sick": 3
  },
  {
    "infected": 603,
    "recovered": 0,
    "latitude": 48.202,
    "pop": 3329000,
    "longitude": -2.9326,
    "name": "Bretagne",
    "country": "FR",
    "lastUpdated": "2020-03-26T08:04:06.935Z",
    "dead": 0,
    "id": "URKMlJ7OTNldjpaxFbjE",
    "sick": 603
  },
  {
    "latitude": 53.5511,
    "pop": 1822000,
    "longitude": 9.9937,
    "name": "Hamburg",
    "country": "DE",
    "lastUpdated": "2020-03-26T08:12:03.351Z",
    "dead": 1,
    "id": "UfFaUECHINUutv1M9tzq",
    "infected": 1450,
    "recovered": 1,
    "sick": 1448
  },
  {
    "lastUpdated": "2020-03-26T08:10:03.838Z",
    "dead": 0,
    "id": "UrF45V1VqMo6YBib2KlL",
    "infected": 8,
    "recovered": 0,
    "latitude": -19.4914,
    "pop": 211945,
    "longitude": 132.551,
    "name": "Northern Territory",
    "country": "AU",
    "sick": 8
  },
  {
    "pop": 41109,
    "longitude": -63.0548286,
    "name": "Sint Maarten",
    "country": "SX",
    "lastUpdated": "2020-03-26T08:13:03.869Z",
    "dead": 0,
    "id": "UsxgpiuFCtlR2CW1UUFm",
    "infected": 3,
    "recovered": 0,
    "latitude": 18.0424805,
    "sick": 3
  },
  {
    "latitude": 11.943179,
    "pop": 241773,
    "longitude": 79.808206,
    "name": "Puducherry",
    "country": "IN",
    "lastUpdated": "2020-03-26T08:11:02.051Z",
    "dead": 0,
    "id": "V1qE740s3EUGyKGr6SVv",
    "infected": 1,
    "recovered": 0,
    "sick": 1
  },
  {
    "infected": 470,
    "recovered": 8,
    "latitude": 3.527606,
    "pop": 49070000,
    "longitude": -72.998674,
    "name": "Colombia",
    "country": "CO",
    "lastUpdated": "2020-03-26T08:13:03.603Z",
    "dead": 4,
    "id": "VAAmtxtDuCY0o55zRsOh",
    "sick": 458
  },
  {
    "infected": 57,
    "recovered": 1,
    "latitude": 21.5218,
    "pop": 11480000,
    "longitude": -77.7812,
    "name": "Cuba",
    "country": "CU",
    "lastUpdated": "2020-03-26T08:13:03.878Z",
    "dead": 1,
    "id": "VAG9AcMABTf8oIAfELPh",
    "sick": 55
  },
  {
    "infected": 176,
    "recovered": 172,
    "latitude": 25.181129,
    "pop": 45970000,
    "longitude": 101.864143,
    "name": "Yunnan",
    "country": "CN",
    "lastUpdated": "2020-03-26T00:50:06.521Z",
    "dead": 2,
    "id": "VIf8T8PD3ZzlzAm5eBCX",
    "sick": 2
  },
  {
    "infected": 37,
    "recovered": 11,
    "latitude": 26.8467,
    "pop": 204200000,
    "longitude": 80.9462,
    "name": "Uttar Pradesh",
    "country": "IN",
    "lastUpdated": "2020-03-26T08:11:02.075Z",
    "dead": 0,
    "id": "VcKcLdCkC6YpPfIDnRVD",
    "sick": 26
  },
  {
    "id": "WAnbFrEjtZDTCIYBt8rz",
    "infected": 1082,
    "recovered": 0,
    "latitude": 43.8927,
    "pop": 5893000,
    "longitude": 3.2828,
    "name": "Occitanie",
    "country": "FR",
    "lastUpdated": "2020-03-26T08:04:06.339Z",
    "dead": 0,
    "sick": 1082
  },
  {
    "latitude": 40.5,
    "pop": 567118,
    "longitude": 16.5,
    "name": "Basilicata",
    "country": "IT",
    "lastUpdated": "2020-03-26T08:16:02.430Z",
    "dead": 1,
    "id": "WD502XimGXnWzqYg7zxL",
    "infected": 113,
    "recovered": 0,
    "sick": 112
  },
  {
    "infected": 1,
    "recovered": 0,
    "latitude": 24.6637,
    "pop": 2722000,
    "longitude": 93.9063,
    "name": "Manipur",
    "country": "IN",
    "lastUpdated": "2020-03-26T08:11:02.027Z",
    "dead": 0,
    "id": "WKsJQmcpWKxnp0nCwN77",
    "sick": 1
  },
  {
    "lastUpdated": "2020-03-26T08:13:03.521Z",
    "dead": 0,
    "id": "Whrue10NtwIObLvFFyBr",
    "infected": 709,
    "recovered": 12,
    "latitude": -30.5595,
    "pop": 56720000,
    "longitude": 22.9375,
    "name": "South Africa",
    "country": "ZA",
    "sick": 697
  },
  {
    "infected": 3,
    "recovered": 0,
    "latitude": 13.443182,
    "pop": 2101000,
    "longitude": -15.3101387,
    "name": "Gambia",
    "country": "GM",
    "lastUpdated": "2020-03-26T08:13:03.915Z",
    "dead": 1,
    "id": "Wk811YwpQxsOCfz8As86",
    "sick": 2
  },
  {
    "latitude": 23.685,
    "pop": 164700000,
    "longitude": 90.3563,
    "name": "Bangladesh",
    "country": "BD",
    "lastUpdated": "2020-03-26T08:13:03.805Z",
    "dead": 5,
    "id": "WpLayPPLIJ7VcHZdQaoM",
    "infected": 39,
    "recovered": 7,
    "sick": 27
  },
  {
    "longitude": 11.75,
    "name": "Veneto",
    "country": "IT",
    "lastUpdated": "2020-03-26T08:16:02.338Z",
    "dead": 258,
    "id": "X2iRhHF6f9pUnJcxPc3J",
    "infected": 6442,
    "recovered": 439,
    "latitude": 45.5,
    "pop": 4905000,
    "sick": 5745
  },
  {
    "latitude": 34.152588,
    "pop": 274289,
    "longitude": 77.577049,
    "name": "Ladakh",
    "country": "IN",
    "lastUpdated": "2020-03-26T08:11:02.039Z",
    "dead": 0,
    "id": "X3PZqaJxtnlxcgP4tzya",
    "infected": 13,
    "recovered": 0,
    "sick": 13
  },
  {
    "lastUpdated": "2020-03-26T00:50:38.556Z",
    "dead": 1,
    "id": "XBBw0iMPrmiEu3qogkbi",
    "infected": 322,
    "recovered": 295,
    "latitude": 25.92448,
    "pop": 38560000,
    "longitude": 118.278992,
    "name": "Fujian",
    "country": "CN",
    "sick": 26
  },
  {
    "infected": 217,
    "recovered": 0,
    "latitude": -32.5228,
    "pop": 3457000,
    "longitude": -55.7658,
    "name": "Uruguay",
    "country": "UY",
    "lastUpdated": "2020-03-26T08:13:03.621Z",
    "dead": 0,
    "id": "XrsuLstdybIqIvv0E0aJ",
    "sick": 217
  },
  {
    "infected": 225,
    "recovered": 0,
    "latitude": 42.0396,
    "pop": 339178,
    "longitude": 9.0129,
    "name": "Corse",
    "country": "FR",
    "lastUpdated": "2020-03-26T08:04:06.530Z",
    "dead": 0,
    "id": "YGXgIObKVabP2CYEdcb9",
    "sick": 225
  },
  {
    "infected": 86,
    "recovered": 17,
    "latitude": 31.9522,
    "pop": 5052000,
    "longitude": 35.2332,
    "name": "Palestine",
    "country": "PS",
    "lastUpdated": "2020-03-26T08:13:03.596Z",
    "dead": 1,
    "id": "YMzKw0SnXG71VT7H1jff",
    "sick": 68
  },
  {
    "lastUpdated": "2020-03-26T08:09:01.906Z",
    "dead": 1,
    "id": "YaCODTMD1KKRnrAlkg2u",
    "infected": 41,
    "recovered": 0,
    "latitude": 64.2008,
    "pop": 737438,
    "longitude": -149.4937,
    "name": "Alaska",
    "country": "US",
    "sick": 40
  },
  {
    "infected": 9241,
    "recovered": 4144,
    "latitude": 37.568291,
    "pop": 51470000,
    "longitude": 126.99778,
    "name": "South Korea",
    "country": "KR",
    "lastUpdated": "2020-03-26T08:13:03.507Z",
    "dead": 131,
    "id": "Yw9uBekNlefXBcOCNMfP",
    "sick": 4966
  },
  {
    "lastUpdated": "2020-03-26T08:13:03.801Z",
    "dead": 0,
    "id": "YzZqZMJGvG6joQCdiuXC",
    "infected": 18,
    "recovered": 0,
    "latitude": 13.193887,
    "pop": 285719,
    "longitude": -59.543198,
    "name": "Barbados",
    "country": "BB",
    "sick": 18
  },
  {
    "lastUpdated": "2020-03-26T08:13:03.511Z",
    "dead": 14,
    "id": "ZAZNuCK1VweBaTLCFzCk",
    "infected": 1051,
    "recovered": 7,
    "latitude": 52.2297,
    "pop": 37980000,
    "longitude": 21.0122,
    "name": "Poland",
    "country": "PL",
    "sick": 1030
  },
  {
    "longitude": 178.065033,
    "name": "Fiji",
    "country": "FJ",
    "lastUpdated": "2020-03-26T08:13:03.901Z",
    "dead": 0,
    "id": "ZmzOT0sJgfWXEpRImItC",
    "infected": 5,
    "recovered": 0,
    "latitude": -17.713371,
    "pop": 905502,
    "sick": 5
  },
  {
    "lastUpdated": "2020-03-26T08:09:02.016Z",
    "dead": 19,
    "id": "Zqy0gftQzocR49jEJNMl",
    "infected": 875,
    "recovered": 0,
    "latitude": 41.6032,
    "pop": 3573000,
    "longitude": -73.0877,
    "name": "Connecticut",
    "country": "US",
    "sick": 856
  },
  {
    "lastUpdated": "2020-03-26T08:16:02.332Z",
    "dead": 287,
    "id": "Zwbjs4XN7P9s849Q3zFj",
    "infected": 2934,
    "recovered": 8,
    "latitude": 43.616943,
    "pop": 1532000,
    "longitude": 13.516667,
    "name": "Marche",
    "country": "IT",
    "sick": 2639
  },
  {
    "recovered": 64,
    "latitude": 51.011,
    "pop": 2137000,
    "longitude": 10.8453,
    "name": "Thüringen",
    "country": "DE",
    "lastUpdated": "2020-03-26T08:12:03.434Z",
    "dead": 2,
    "id": "a9OgUWo6ZSWA3HyF0xnj",
    "infected": 479,
    "sick": 413
  },
  {
    "infected": 235,
    "recovered": 6,
    "latitude": -30.000233,
    "pop": 1677000,
    "longitude": 136.209152,
    "name": "South Australia",
    "country": "AU",
    "lastUpdated": "2020-03-26T08:10:03.748Z",
    "dead": 0,
    "id": "a9p9pAOsjg1WAjPGc2a6",
    "sick": 229
  },
  {
    "latitude": 37.9643,
    "pop": 6126000,
    "longitude": -91.8318,
    "name": "Missouri",
    "country": "US",
    "lastUpdated": "2020-03-26T08:09:01.896Z",
    "dead": 8,
    "id": "aPubGfQ8ToSEuKJldKRT",
    "infected": 377,
    "recovered": 0,
    "sick": 369
  },
  {
    "latitude": 23.64407,
    "pop": 48380000,
    "longitude": 108.26651,
    "name": "Guangxi",
    "country": "CN",
    "lastUpdated": "2020-03-26T00:50:31.178Z",
    "dead": 2,
    "id": "aTa8MiBjtH3iY0SRs2HQ",
    "infected": 254,
    "recovered": 250,
    "sick": 2
  },
  {
    "infected": 3,
    "recovered": 0,
    "latitude": 6.6111,
    "pop": 4659000,
    "longitude": 20.9394,
    "name": "CAR",
    "country": "CF",
    "lastUpdated": "2020-03-26T08:13:03.969Z",
    "dead": 0,
    "id": "adcBUeAYp6ey0ZXCzKNs",
    "sick": 3
  },
  {
    "infected": 397,
    "recovered": 0,
    "latitude": 37.4316,
    "pop": 8518000,
    "longitude": -78.6569,
    "name": "Virginia",
    "country": "US",
    "lastUpdated": "2020-03-26T08:09:01.899Z",
    "dead": 9,
    "id": "afeZTVC1J1SMMNFxkrcc",
    "sick": 388
  },
  {
    "longitude": 116.407394,
    "name": "Beijing",
    "country": "CN",
    "lastUpdated": "2020-03-26T00:49:53.319Z",
    "dead": 8,
    "id": "alj4hkxg9cjrTxOzwFKt",
    "infected": 561,
    "recovered": 403,
    "latitude": 39.904202,
    "pop": 21540000,
    "sick": 150
  },
  {
    "latitude": 33.22319,
    "pop": 38270000,
    "longitude": 43.679291,
    "name": "Iraq",
    "country": "IQ",
    "lastUpdated": "2020-03-26T08:13:03.894Z",
    "dead": 29,
    "id": "b7TwXX46FA0EmH1CjHET",
    "infected": 346,
    "recovered": 103,
    "sick": 214
  },
  {
    "lastUpdated": "2020-03-26T08:13:03.534Z",
    "dead": 0,
    "id": "b9p1JhVml3GGC7iiPmKv",
    "infected": 99,
    "recovered": 9,
    "latitude": 14.457474,
    "pop": 15850000,
    "longitude": -14.358636,
    "name": "Senegal",
    "country": "SN",
    "sick": 90
  },
  {
    "infected": 28,
    "recovered": 1,
    "latitude": -0.0236,
    "pop": 49700000,
    "longitude": 37.9062,
    "name": "Kenya",
    "country": "KE",
    "lastUpdated": "2020-03-26T08:13:03.871Z",
    "dead": 0,
    "id": "bVHiTolbUJGHIeVht3eG",
    "sick": 27
  },
  {
    "latitude": 39.561889,
    "pop": 8909000,
    "longitude": -74.672169,
    "name": "New Jersey",
    "country": "US",
    "lastUpdated": "2020-03-26T08:09:01.894Z",
    "dead": 62,
    "id": "bYp4RRHv19M7lYtSzQeV",
    "infected": 4407,
    "recovered": 0,
    "sick": 4345
  },
  {
    "latitude": 3.139,
    "pop": 31620000,
    "longitude": 101.6869,
    "name": "Malaysia",
    "country": "MY",
    "lastUpdated": "2020-03-26T08:13:03.520Z",
    "dead": 21,
    "id": "bdqD4kpdqGgUaX70Tm2Q",
    "infected": 1796,
    "recovered": 199,
    "sick": 1576
  },
  {
    "recovered": 16,
    "latitude": 60.128162,
    "pop": 10120000,
    "longitude": 18.643501,
    "name": "Sweden",
    "country": "SE",
    "lastUpdated": "2020-03-26T08:13:03.615Z",
    "dead": 62,
    "id": "bignnyt2A8BBx8VNo32p",
    "infected": 2526,
    "sick": 2448
  },
  {
    "lastUpdated": "2020-03-26T08:13:03.525Z",
    "dead": 5,
    "id": "cCGmFmwHOoBrEpvG3qBP",
    "infected": 146,
    "recovered": 17,
    "latitude": 40.973765,
    "pop": 2877000,
    "longitude": 20.010162,
    "name": "Albania",
    "country": "AL",
    "sick": 124
  },
  {
    "latitude": 16.871311,
    "pop": 55901000,
    "longitude": 96.199379,
    "name": "Myanmar",
    "country": "MM",
    "lastUpdated": "2020-03-26T08:13:03.826Z",
    "dead": 0,
    "id": "cIbchhSBTuxXmXYgpkdB",
    "infected": 3,
    "recovered": 0,
    "sick": 3
  },
  {
    "infected": 5,
    "recovered": 0,
    "latitude": -25.953724,
    "pop": 29670000,
    "longitude": 32.588711,
    "name": "Mozambique",
    "country": "MZ",
    "lastUpdated": "2020-03-26T08:13:03.848Z",
    "dead": 0,
    "id": "cO8TChMvQvAtoZMNurTQ",
    "sick": 5
  },
  {
    "latitude": 46.8625,
    "pop": 3076000,
    "longitude": 103.8467,
    "name": "Mongolia",
    "country": "MN",
    "lastUpdated": "2020-03-26T08:13:03.882Z",
    "dead": 0,
    "id": "cPxONYsVo6BgvCW9HUeQ",
    "infected": 11,
    "recovered": 0,
    "sick": 11
  },
  {
    "latitude": 64.963051,
    "pop": 364260,
    "longitude": -19.020836,
    "name": "Iceland",
    "country": "IS",
    "lastUpdated": "2020-03-26T08:13:03.578Z",
    "dead": 2,
    "id": "cPxe7nsRnOf6aOPqHElJ",
    "infected": 737,
    "recovered": 56,
    "sick": 679
  },
  {
    "latitude": 31.046051,
    "pop": 8712000,
    "longitude": 34.851612,
    "name": "Israel",
    "country": "IL",
    "lastUpdated": "2020-03-26T08:13:03.524Z",
    "dead": 5,
    "id": "cX891t0ONLNFj0MYq6La",
    "infected": 2495,
    "recovered": 66,
    "sick": 2424
  },
  {
    "latitude": 4.749531,
    "pop": 290691,
    "longitude": -53.112909,
    "name": "Guyane",
    "country": "FR",
    "lastUpdated": "2020-03-26T08:04:06.630Z",
    "dead": 0,
    "id": "cc7s6hYGQ2MovBBBgkKb",
    "infected": 28,
    "recovered": 0,
    "sick": 28
  },
  {
    "infected": 140,
    "recovered": 47,
    "latitude": 61.8926,
    "pop": 49290,
    "longitude": -6.9118,
    "name": "Faeroe Islands",
    "country": "FO",
    "lastUpdated": "2020-03-26T08:13:03.607Z",
    "dead": 0,
    "id": "cgzd5EM8PZv5ziJtTz1w",
    "sick": 93
  },
  {
    "latitude": 41.2033,
    "pop": 12810000,
    "longitude": -77.1945,
    "name": "Pennsylvania",
    "country": "US",
    "lastUpdated": "2020-03-26T08:09:01.953Z",
    "dead": 15,
    "id": "chj2FF3zb4Xxcop9RHre",
    "infected": 1284,
    "recovered": 0,
    "sick": 1269
  },
  {
    "id": "cpf3Y5PQTYywIm3PrpIQ",
    "infected": 912,
    "recovered": 0,
    "latitude": 45.7087,
    "pop": 5987000,
    "longitude": 0.6269,
    "name": "Nouvelle-Aquitaine",
    "country": "FR",
    "lastUpdated": "2020-03-26T08:04:06.522Z",
    "dead": 0,
    "sick": 912
  },
  {
    "latitude": 40.463669,
    "pop": 46660000,
    "longitude": -3.74922,
    "name": "Spain",
    "country": "ES",
    "lastUpdated": "2020-03-26T08:13:03.606Z",
    "dead": 3647,
    "id": "d0ExINgPaWUBm3l4ioJL",
    "infected": 49515,
    "recovered": 5367,
    "sick": 40501
  },
  {
    "latitude": 42.50837,
    "pop": 76965,
    "longitude": 1.517155,
    "name": "Andorra",
    "country": "AD",
    "lastUpdated": "2020-03-26T08:13:03.530Z",
    "dead": 1,
    "id": "dedMXSYR2k92wkSXNZqn",
    "infected": 188,
    "recovered": 1,
    "sick": 186
  },
  {
    "longitude": -75.375673,
    "name": "Delaware",
    "country": "US",
    "lastUpdated": "2020-03-26T08:09:02.057Z",
    "dead": 0,
    "id": "dzCgqYduzyncjNKU9z6G",
    "infected": 119,
    "recovered": 0,
    "latitude": 38.831163,
    "pop": 967171,
    "sick": 119
  },
  {
    "lastUpdated": "2020-03-26T08:13:03.571Z",
    "dead": 59,
    "id": "dzIcCaUZlbIXuRw0SyDE",
    "infected": 2433,
    "recovered": 26,
    "latitude": 38.9637,
    "pop": 80810000,
    "longitude": 35.2433,
    "name": "Turkey",
    "country": "TR",
    "sick": 2348
  },
  {
    "infected": 5888,
    "recovered": 9,
    "latitude": 47.516232,
    "pop": 8822000,
    "longitude": 14.550072,
    "name": "Austria",
    "country": "AT",
    "lastUpdated": "2020-03-26T08:13:03.588Z",
    "dead": 34,
    "id": "e3BtI12qbqhE8jypOoZu",
    "sick": 5845
  },
  {
    "infected": 2313,
    "recovered": 83,
    "latitude": 52.6367,
    "pop": 7963000,
    "longitude": 9.8451,
    "name": "Niedersachsen",
    "country": "DE",
    "lastUpdated": "2020-03-26T08:12:03.266Z",
    "dead": 8,
    "id": "e3CJgTO8wVbBQZaxqNze",
    "sick": 2222
  },
  {
    "lastUpdated": "2020-03-26T00:49:39.712Z",
    "dead": 2,
    "id": "e7P83iImanpd9r36oXK3",
    "infected": 127,
    "recovered": 124,
    "latitude": 41.097481,
    "pop": 43900000,
    "longitude": 122.310669,
    "name": "Liaoning",
    "country": "CN",
    "sick": 1
  },
  {
    "latitude": 31.230391,
    "pop": 24240000,
    "longitude": 121.473701,
    "name": "Shanghai",
    "country": "CN",
    "lastUpdated": "2020-03-26T00:50:24.769Z",
    "dead": 5,
    "id": "e9pQqQa7CEblCYoDtfKo",
    "infected": 433,
    "recovered": 330,
    "sick": 98
  },
  {
    "pop": 6902000,
    "longitude": -71.382439,
    "name": "Massachusetts",
    "country": "US",
    "lastUpdated": "2020-03-26T08:09:01.880Z",
    "dead": 15,
    "id": "eCKDGssww4pF7NrxOySu",
    "infected": 1838,
    "recovered": 0,
    "latitude": 42.407211,
    "sick": 1823
  },
  {
    "infected": 31,
    "recovered": 1,
    "latitude": 43.740451,
    "pop": 38695,
    "longitude": 7.432032,
    "name": "Monaco",
    "country": "MC",
    "lastUpdated": "2020-03-26T08:13:03.903Z",
    "dead": 0,
    "id": "eLgKPNUwYM5MNDAtF6ql",
    "sick": 30
  },
  {
    "latitude": 47.2805,
    "pop": 2686000,
    "longitude": 4.9994,
    "name": "Bourgogne-Franche-Comté",
    "country": "FR",
    "lastUpdated": "2020-03-26T08:04:06.418Z",
    "dead": 0,
    "id": "ejrjMKfHexGnK52FS9Aa",
    "infected": 1569,
    "recovered": 0,
    "sick": 1569
  },
  {
    "infected": 97,
    "recovered": 2,
    "latitude": 48.0196,
    "pop": 18040000,
    "longitude": 66.9237,
    "name": "Kazakhstan",
    "country": "KZ",
    "lastUpdated": "2020-03-26T08:13:03.564Z",
    "dead": 0,
    "id": "etrmrftkQg6Kbd9seAga",
    "sick": 95
  },
  {
    "lastUpdated": "2020-03-26T00:50:19.185Z",
    "dead": 3,
    "id": "eyK5bxFkwdoAouIBvLFM",
    "infected": 547,
    "recovered": 536,
    "latitude": 30.14208,
    "pop": 81100000,
    "longitude": 102.960701,
    "name": "Sichuan",
    "country": "CN",
    "sick": 8
  },
  {
    "longitude": 55.975414,
    "name": "Oman",
    "country": "OM",
    "lastUpdated": "2020-03-26T08:13:03.562Z",
    "dead": 0,
    "id": "f9kmlhYtc3WA3kjbWszW",
    "infected": 99,
    "recovered": 17,
    "latitude": 21.473534,
    "pop": 4636000,
    "sick": 82
  },
  {
    "recovered": 14,
    "latitude": 51.1045,
    "pop": 4081000,
    "longitude": 13.2017,
    "name": "Sachsen",
    "country": "DE",
    "lastUpdated": "2020-03-26T08:12:03.432Z",
    "dead": 6,
    "id": "fGqVm2khm3IBRs709S1f",
    "infected": 1128,
    "sick": 1108
  },
  {
    "infected": 0,
    "recovered": 3900,
    "latitude": 47,
    "longitude": 2,
    "name": "Région non communiquée",
    "country": "FR",
    "dead": 1331,
    "lastUpdated": "2020-03-26T08:13:03.445Z",
    "id": "fIp76gl05LhZ0aOxUbhz",
    "sick": 0
  },
  {
    "infected": 3,
    "recovered": 0,
    "latitude": 15.4542,
    "pop": 14900000,
    "longitude": 18.7322,
    "name": "Chad",
    "country": "TD",
    "lastUpdated": "2020-03-26T08:13:03.829Z",
    "dead": 0,
    "id": "fJc9CaZGR1OCHaW8Tn4V",
    "sick": 3
  },
  {
    "pop": 9702000,
    "longitude": 36.691952,
    "name": "Jordan",
    "country": "JO",
    "lastUpdated": "2020-03-26T08:13:03.583Z",
    "dead": 0,
    "id": "fK06AziL8wyrcoz7rsmJ",
    "infected": 172,
    "recovered": 1,
    "latitude": 31.295929,
    "sick": 171
  },
  {
    "id": "fNganaGVPifA4QahEQPS",
    "infected": 1978,
    "recovered": 0,
    "latitude": 27.716933,
    "pop": 21300000,
    "longitude": -81.555239,
    "name": "Florida",
    "country": "US",
    "lastUpdated": "2020-03-26T08:09:01.960Z",
    "dead": 23,
    "sick": 1955
  },
  {
    "dead": 10,
    "lastUpdated": "2020-03-26T03:11:11.927Z",
    "id": "fNnE9CD0SttEVrCUo1Ym",
    "infected": 712,
    "recovered": 587,
    "latitude": 35.452016,
    "longitude": 139.664285,
    "name": "Diamond Princess (Cruise)",
    "country": "ZZ",
    "sick": 115
  },
  {
    "id": "fOlU5JggPKOO8jbHh5GD",
    "infected": 1222,
    "recovered": 90,
    "latitude": 46.0679,
    "pop": 538223,
    "longitude": 11.1211,
    "name": "P.A. Trento",
    "country": "IT",
    "lastUpdated": "2020-03-26T08:16:02.539Z",
    "dead": 74,
    "sick": 1058
  },
  {
    "latitude": 52.52,
    "pop": 3748000,
    "longitude": 13.405,
    "name": "Berlin",
    "country": "DE",
    "lastUpdated": "2020-03-26T08:12:03.630Z",
    "dead": 4,
    "id": "ffKhENYKy3bwsyBLiYtE",
    "infected": 1645,
    "recovered": 6,
    "sick": 1635
  },
  {
    "infected": 67801,
    "recovered": 60811,
    "latitude": 31.160629,
    "pop": 58500000,
    "longitude": 112.255402,
    "name": "Hubei",
    "country": "CN",
    "lastUpdated": "2020-03-26T00:51:14.859Z",
    "dead": 3163,
    "id": "fiJ14DCxw15e3SMemh8R",
    "sick": 3827
  },
  {
    "pop": 42220000,
    "longitude": 30.5234,
    "name": "Ukraine",
    "country": "UA",
    "lastUpdated": "2020-03-26T08:13:03.508Z",
    "dead": 5,
    "id": "flbZ2kaR5kBuV8XZ2Nsu",
    "infected": 156,
    "recovered": 1,
    "latitude": 50.4501,
    "sick": 150
  },
  {
    "id": "fst48lrFxiMJbQPf4nur",
    "infected": 44,
    "recovered": 0,
    "latitude": 41.2044,
    "pop": 6202000,
    "longitude": 74.7661,
    "name": "Kyrgyzstan",
    "country": "KG",
    "lastUpdated": "2020-03-26T08:13:03.690Z",
    "dead": 0,
    "sick": 44
  },
  {
    "longitude": 5.291266,
    "name": "Netherlands",
    "country": "NL",
    "lastUpdated": "2020-03-26T08:13:03.584Z",
    "dead": 356,
    "id": "g0lRMtEJbucWIGqSPn0I",
    "infected": 6412,
    "recovered": 3,
    "latitude": 52.132633,
    "pop": 17180000,
    "sick": 6053
  },
  {
    "lastUpdated": "2020-03-26T08:09:02.049Z",
    "dead": 2,
    "id": "gIdgxJZfTl2QOSYEwMAz",
    "infected": 308,
    "recovered": 0,
    "latitude": 34.69522,
    "pop": 3014000,
    "longitude": -92.288012,
    "name": "Arkansas",
    "country": "US",
    "sick": 306
  },
  {
    "latitude": 4.8604159,
    "pop": 777859,
    "longitude": -58.9301796,
    "name": "Guyana",
    "country": "GY",
    "lastUpdated": "2020-03-26T08:13:03.946Z",
    "dead": 1,
    "id": "gXd2X2PjmGP0XVwxpWqT",
    "infected": 5,
    "recovered": 0,
    "sick": 4
  },
  {
    "latitude": 43.9695,
    "pop": 882235,
    "longitude": -99.9018,
    "name": "South Dakota",
    "country": "US",
    "lastUpdated": "2020-03-26T08:09:01.964Z",
    "dead": 1,
    "id": "gYDsNgvuvtbg8t77w6FS",
    "infected": 41,
    "recovered": 0,
    "sick": 40
  },
  {
    "latitude": 35.894231,
    "pop": 493559,
    "longitude": 14.432846,
    "name": "Malta",
    "country": "MT",
    "lastUpdated": "2020-03-26T08:13:03.581Z",
    "dead": 0,
    "id": "h9UqxYZ5xC4JZrmdDz0q",
    "infected": 129,
    "recovered": 2,
    "sick": 127
  },
  {
    "latitude": 28.7041,
    "pop": 18980000,
    "longitude": 77.1025,
    "name": "Delhi",
    "country": "IN",
    "lastUpdated": "2020-03-26T08:11:01.978Z",
    "dead": 1,
    "id": "hqwsh1rmvkWI3LFUVuMk",
    "infected": 35,
    "recovered": 6,
    "sick": 28
  },
  {
    "latitude": 35.751835,
    "pop": 25580000,
    "longitude": 104.28611,
    "name": "Gansu",
    "country": "CN",
    "lastUpdated": "2020-03-26T00:49:59.801Z",
    "dead": 2,
    "id": "iGkTscdD0XyHFSP23Qrp",
    "infected": 136,
    "recovered": 119,
    "sick": 15
  },
  {
    "lastUpdated": "2020-03-26T08:13:03.968Z",
    "dead": 0,
    "id": "iHf1IZQP3CA3sT2erzyh",
    "infected": 5,
    "recovered": 0,
    "latitude": 34.8021,
    "pop": 18270000,
    "longitude": 38.9968,
    "name": "Syria",
    "country": "SY",
    "sick": 5
  },
  {
    "latitude": 10.8505,
    "pop": 34800000,
    "longitude": 76.2711,
    "name": "Kerala",
    "country": "IN",
    "lastUpdated": "2020-03-26T08:11:02.064Z",
    "dead": 0,
    "id": "idymmgoqLHImnBdyC7r7",
    "infected": 118,
    "recovered": 4,
    "sick": 114
  },
  {
    "latitude": -25.2744,
    "longitude": 133.7751,
    "name": "Unknown Australian state",
    "country": "AU",
    "dead": 0,
    "lastUpdated": "2020-03-26T08:13:03.640Z",
    "id": "iwcBlwhnL6MDiXogzf8g",
    "infected": 0,
    "recovered": 170,
    "sick": 0
  },
  {
    "longitude": -61.551,
    "name": "Guadeloupe",
    "country": "FR",
    "lastUpdated": "2020-03-26T08:04:06.527Z",
    "dead": 0,
    "id": "j8eMjjqNAqHAJhAKdBYN",
    "infected": 76,
    "recovered": 0,
    "latitude": 16.265,
    "pop": 395700,
    "sick": 76
  },
  {
    "latitude": 50.1183,
    "pop": 4074000,
    "longitude": 7.309,
    "name": "Rheinland-Pfalz",
    "country": "DE",
    "lastUpdated": "2020-03-26T08:12:03.446Z",
    "dead": 6,
    "id": "jKn2pIFlIBScjb47GjRX",
    "infected": 1637,
    "recovered": 6,
    "sick": 1625
  },
  {
    "longitude": 117.361649,
    "name": "Tianjin",
    "country": "CN",
    "lastUpdated": "2020-03-26T00:49:24.908Z",
    "dead": 3,
    "id": "jMlHjIOb7eMPSxFBrmG1",
    "infected": 145,
    "recovered": 133,
    "latitude": 39.343357,
    "pop": 15000000,
    "sick": 9
  },
  {
    "infected": 2,
    "recovered": 0,
    "latitude": 17.1898766,
    "pop": 397000,
    "longitude": -88.4976501,
    "name": "Belize",
    "country": "BZ",
    "lastUpdated": "2020-03-26T08:13:03.817Z",
    "dead": 0,
    "id": "jOc8JUDWxCmquh49oZxV",
    "sick": 2
  },
  {
    "lastUpdated": "2020-03-26T08:09:02.003Z",
    "dead": 8,
    "id": "jPC0eOG50FWknCDe3K6P",
    "infected": 125,
    "recovered": 0,
    "latitude": 44.5588,
    "pop": 629299,
    "longitude": -72.5778,
    "name": "Vermont",
    "country": "US",
    "sick": 117
  },
  {
    "pop": 4830000,
    "longitude": -6.2603,
    "name": "Ireland",
    "country": "IE",
    "lastUpdated": "2020-03-26T08:13:03.600Z",
    "dead": 9,
    "id": "jpVXEDCyfyq26gPoCtHL",
    "infected": 1564,
    "recovered": 5,
    "latitude": 53.3498,
    "sick": 1550
  },
  {
    "pop": 1648000,
    "longitude": 9.283447,
    "name": "Sardegna",
    "country": "IT",
    "lastUpdated": "2020-03-26T08:16:02.521Z",
    "dead": 18,
    "id": "kF99avagXvBfZTHv9ETi",
    "infected": 442,
    "recovered": 12,
    "latitude": 40.078072,
    "sick": 412
  },
  {
    "latitude": 11.572076,
    "pop": 956985,
    "longitude": 43.145645,
    "name": "Djibouti",
    "country": "DJ",
    "lastUpdated": "2020-03-26T08:13:03.949Z",
    "dead": 0,
    "id": "l4nYeaqwy2yrEVqnijFj",
    "infected": 11,
    "recovered": 0,
    "sick": 11
  },
  {
    "lastUpdated": "2020-03-26T08:09:02.024Z",
    "dead": 0,
    "id": "l7fHSKOmcaRX3tq9FCT6",
    "infected": 138,
    "recovered": 0,
    "latitude": 44.0682,
    "pop": 1754000,
    "longitude": -114.742,
    "name": "Idaho",
    "country": "US",
    "sick": 138
  },
  {
    "infected": 1093,
    "recovered": 22,
    "latitude": 40.816666,
    "pop": 4048000,
    "longitude": 16.549999,
    "name": "Puglia",
    "country": "IT",
    "lastUpdated": "2020-03-26T08:16:02.646Z",
    "dead": 48,
    "id": "lAKH5Wfg4GhaM54VElFN",
    "sick": 1023
  },
  {
    "lastUpdated": "2020-03-26T08:13:03.963Z",
    "dead": 1,
    "id": "lfLdfRP7hyiA6MVnQqqn",
    "infected": 60,
    "recovered": 0,
    "latitude": 10.6918,
    "pop": 1369000,
    "longitude": -61.2225,
    "name": "Trinidad and Tobago",
    "country": "TT",
    "sick": 59
  },
  {
    "infected": 4,
    "recovered": 0,
    "latitude": 16.5388,
    "pop": 546388,
    "longitude": -23.0418,
    "name": "Cape Verde",
    "country": "CV",
    "lastUpdated": "2020-03-26T08:13:03.905Z",
    "dead": 1,
    "id": "lgqPuia1S3ApA5Lsl2la",
    "sick": 3
  },
  {
    "latitude": 42.524635,
    "pop": 21810000,
    "longitude": 87.539589,
    "name": "Xinjiang",
    "country": "CN",
    "lastUpdated": "2020-03-26T00:48:08.521Z",
    "dead": 3,
    "id": "lhPjpn6CzqTRDN0RW8uE",
    "infected": 76,
    "recovered": 73,
    "sick": 0
  },
  {
    "latitude": 3.2028,
    "pop": 436330,
    "longitude": 73.2207,
    "name": "Maldives",
    "country": "MV",
    "lastUpdated": "2020-03-26T08:13:03.799Z",
    "dead": 0,
    "id": "m45gI2UbWMuTrOnTtp9k",
    "infected": 13,
    "recovered": 8,
    "sick": 5
  },
  {
    "latitude": 41.9029,
    "pop": 1000,
    "longitude": 12.4534,
    "name": "Vatican City",
    "country": "VA",
    "lastUpdated": "2020-03-26T08:13:03.788Z",
    "dead": 0,
    "id": "mF7rVMdVnazAuw8G22xs",
    "infected": 4,
    "recovered": 0,
    "sick": 4
  },
  {
    "lastUpdated": "2020-03-26T08:11:02.004Z",
    "dead": 3,
    "id": "mJtdLs4ub6CkcAOeMWUm",
    "infected": 124,
    "recovered": 1,
    "latitude": 19.7515,
    "pop": 114200000,
    "longitude": 75.7139,
    "name": "Maharashtra",
    "country": "IN",
    "sick": 120
  },
  {
    "longitude": -70.6693,
    "name": "Chile",
    "country": "CL",
    "lastUpdated": "2020-03-26T08:13:03.574Z",
    "dead": 3,
    "id": "mSACWVbCy5QE7ciLA93J",
    "infected": 1142,
    "recovered": 22,
    "latitude": -33.4489,
    "pop": 18050000,
    "sick": 1117
  },
  {
    "infected": 13,
    "recovered": 0,
    "latitude": -6.369,
    "pop": 57310000,
    "longitude": 34.8888,
    "name": "Tanzania",
    "country": "TZ",
    "lastUpdated": "2020-03-26T08:13:03.831Z",
    "dead": 0,
    "id": "mnew3ojzmWV0dWSPfCQ9",
    "sick": 13
  },
  {
    "pop": 4475000,
    "longitude": 39.7823,
    "name": "Eritrea",
    "country": "ER",
    "lastUpdated": "2020-03-26T08:13:03.830Z",
    "dead": 0,
    "id": "n6OSwOVBdUie3xeZJmOf",
    "infected": 4,
    "recovered": 0,
    "latitude": 15.1794,
    "sick": 4
  },
  {
    "lastUpdated": "2020-03-26T08:09:02.022Z",
    "dead": 3,
    "id": "nLhJXE2apq8yNNj363ai",
    "infected": 916,
    "recovered": 0,
    "latitude": 35.693323,
    "pop": 6770000,
    "longitude": -86.605748,
    "name": "Tennessee",
    "country": "US",
    "sick": 913
  },
  {
    "infected": 7,
    "recovered": 0,
    "latitude": -4.6796,
    "pop": 95843,
    "longitude": 55.492,
    "name": "Seychelles",
    "country": "SC",
    "lastUpdated": "2020-03-26T08:13:03.951Z",
    "dead": 0,
    "id": "oB5fSyjWJ0FbNAkssuci",
    "sick": 7
  },
  {
    "longitude": -6.196132,
    "name": "Morocco",
    "country": "MA",
    "lastUpdated": "2020-03-26T08:13:03.618Z",
    "dead": 6,
    "id": "oJ5vSDE9vgXC2PG8LElp",
    "infected": 225,
    "recovered": 7,
    "latitude": 31.893778,
    "pop": 35740000,
    "sick": 212
  },
  {
    "infected": 1753,
    "recovered": 0,
    "latitude": 50.4801,
    "pop": 5978000,
    "longitude": 2.7937,
    "name": "Hauts-de-France",
    "country": "FR",
    "lastUpdated": "2020-03-26T08:04:06.430Z",
    "dead": 0,
    "id": "ofWLu9EuQoK2nHjwU1mA",
    "sick": 1753
  },
  {
    "infected": 3,
    "recovered": 0,
    "latitude": 31.1048,
    "pop": 6856000,
    "longitude": 77.1734,
    "name": "Himachal Pradesh",
    "country": "IN",
    "lastUpdated": "2020-03-26T08:11:02.056Z",
    "dead": 1,
    "id": "oqLEd2Z9P3FJeQsfIk8e",
    "sick": 2
  },
  {
    "infected": 493,
    "recovered": 8,
    "latitude": -20.917574,
    "pop": 5071000,
    "longitude": 142.702789,
    "name": "Queensland",
    "country": "AU",
    "lastUpdated": "2020-03-26T08:10:03.844Z",
    "dead": 0,
    "id": "oxz2l1rJipCsfMfy8Mmk",
    "sick": 485
  },
  {
    "infected": 484,
    "recovered": 468,
    "latitude": 47.121647,
    "pop": 38310000,
    "longitude": 128.738235,
    "name": "Heilongjiang",
    "country": "CN",
    "lastUpdated": "2020-03-26T00:49:31.217Z",
    "dead": 13,
    "id": "p1aZboN4BtRJe7hPl8cw",
    "sick": 3
  },
  {
    "infected": 990,
    "recovered": 984,
    "latitude": 32.026379,
    "pop": 62000000,
    "longitude": 117.252747,
    "name": "Anhui",
    "country": "CN",
    "lastUpdated": "2020-03-26T00:51:07.258Z",
    "dead": 6,
    "id": "pFhBwPnGGpQ6DLppJ6YS",
    "sick": 0
  },
  {
    "infected": 2,
    "recovered": 0,
    "latitude": 2.046934,
    "pop": 14740000,
    "longitude": 45.318161,
    "name": "Somalia",
    "country": "SO",
    "lastUpdated": "2020-03-26T08:13:03.899Z",
    "dead": 0,
    "id": "pHrUAOBW5WDdMsVWpEEi",
    "sick": 2
  },
  {
    "infected": 3,
    "recovered": 0,
    "latitude": 21.2787,
    "pop": 25550000,
    "longitude": 81.8661,
    "name": "Chhattisgarh",
    "country": "IN",
    "lastUpdated": "2020-03-26T08:11:02.078Z",
    "dead": 0,
    "id": "pu6AXEsDnpmmqnhajobN",
    "sick": 3
  },
  {
    "latitude": 38.9072,
    "pop": 633427,
    "longitude": -77.0369,
    "name": "Washington, D.C.",
    "country": "US",
    "lastUpdated": "2020-03-26T08:09:01.994Z",
    "dead": 3,
    "id": "q5cfvHprVTraL1yXnhDx",
    "infected": 231,
    "recovered": 0,
    "sick": 228
  },
  {
    "lastUpdated": "2020-03-26T08:10:03.740Z",
    "dead": 1,
    "id": "qnQ0dkxAxnDP01YpdZgk",
    "infected": 231,
    "recovered": 1,
    "latitude": -26.190439,
    "pop": 2589000,
    "longitude": 123.325947,
    "name": "Western Australia",
    "country": "AU",
    "sick": 229
  },
  {
    "infected": 4937,
    "recovered": 547,
    "latitude": 50.503887,
    "pop": 11400000,
    "longitude": 4.469936,
    "name": "Belgium",
    "country": "BE",
    "lastUpdated": "2020-03-26T08:13:03.638Z",
    "dead": 178,
    "id": "qpAxVz0garcS0gNZxtOw",
    "sick": 4212
  },
  {
    "latitude": 39,
    "pop": 1806000,
    "longitude": -80.5,
    "name": "West Virginia",
    "country": "US",
    "lastUpdated": "2020-03-26T08:09:01.918Z",
    "dead": 0,
    "id": "qrYN2o4c4gAK3ffF5JIw",
    "infected": 52,
    "recovered": 0,
    "sick": 52
  },
  {
    "latitude": 31,
    "pop": 28700000,
    "longitude": -100,
    "name": "Texas",
    "country": "US",
    "lastUpdated": "2020-03-26T08:09:02.018Z",
    "dead": 17,
    "id": "qsrWiq0qCmIG66hpWojP",
    "infected": 1345,
    "recovered": 0,
    "sick": 1328
  },
  {
    "latitude": 43.9352,
    "pop": 5059000,
    "longitude": 6.0679,
    "name": "Provence-Alpes-Côte d’Azur",
    "country": "FR",
    "lastUpdated": "2020-03-26T08:04:06.634Z",
    "dead": 0,
    "id": "qyX9xXEuKg3co8yKe3Fl",
    "infected": 1927,
    "recovered": 0,
    "sick": 1927
  },
  {
    "longitude": -91.9623,
    "name": "Louisiana",
    "country": "US",
    "lastUpdated": "2020-03-25T20:39:02.302Z",
    "dead": 65,
    "id": "qzuktS0qQVU4PEookjss",
    "infected": 1796,
    "recovered": 0,
    "latitude": 30.9843,
    "pop": 4660000,
    "sick": 1731
  },
  {
    "latitude": 23.1645,
    "pop": 1116000,
    "longitude": 92.9376,
    "name": "Mizoram",
    "country": "IN",
    "lastUpdated": "2020-03-26T08:11:02.025Z",
    "dead": 0,
    "id": "r54PtV0VHsIOc0YPTyhd",
    "infected": 1,
    "recovered": 0,
    "sick": 1
  },
  {
    "pop": 105264,
    "longitude": -69.9683,
    "name": "Aruba",
    "country": "AW",
    "lastUpdated": "2020-03-26T08:13:03.793Z",
    "dead": 0,
    "id": "rKbrli0DkAmp1UpbrqHQ",
    "infected": 19,
    "recovered": 1,
    "latitude": 12.5211,
    "sick": 18
  },
  {
    "latitude": 14.058324,
    "pop": 95540000,
    "longitude": 108.277199,
    "name": "Vietnam",
    "country": "VN",
    "lastUpdated": "2020-03-26T08:13:03.526Z",
    "dead": 0,
    "id": "rKnSEyG03ak4YmGzonlg",
    "infected": 148,
    "recovered": 17,
    "sick": 131
  },
  {
    "infected": 9,
    "recovered": 0,
    "latitude": 1.6508009,
    "pop": 1268000,
    "longitude": 10.2678947,
    "name": "Equatorial Guinea",
    "country": "GQ",
    "lastUpdated": "2020-03-26T08:13:03.964Z",
    "dead": 0,
    "id": "rS04qvFoAknfeZsL2w5f",
    "sick": 9
  },
  {
    "latitude": -12.8275,
    "pop": 270372,
    "longitude": 45.1662,
    "name": "Mayotte",
    "country": "FR",
    "lastUpdated": "2020-03-26T08:04:07.026Z",
    "dead": 0,
    "id": "rUQ6Z3pmWTPVlqEUSmN7",
    "infected": 35,
    "recovered": 0,
    "sick": 35
  },
  {
    "id": "rgBVJ4hPofqjjchnroiY",
    "infected": 1241,
    "recovered": 1221,
    "latitude": 29.159849,
    "pop": 57370000,
    "longitude": 120.326447,
    "name": "Zhejiang",
    "country": "CN",
    "lastUpdated": "2020-03-26T00:50:13.091Z",
    "dead": 1,
    "sick": 19
  },
  {
    "pop": 126202,
    "longitude": 7.313076,
    "name": "Valle d'Aosta",
    "country": "IT",
    "lastUpdated": "2020-03-26T08:16:02.622Z",
    "dead": 24,
    "id": "rqbHQdev461heM0vyE9L",
    "infected": 401,
    "recovered": 2,
    "latitude": 45.734955,
    "sick": 375
  },
  {
    "infected": 3100,
    "recovered": 6,
    "latitude": 60.472023,
    "pop": 5368000,
    "longitude": 8.468946,
    "name": "Norway",
    "country": "NO",
    "lastUpdated": "2020-03-26T08:13:03.565Z",
    "dead": 14,
    "id": "rxSafpWsyKhfkV0HTtb4",
    "sick": 3080
  },
  {
    "infected": 419,
    "recovered": 0,
    "latitude": 53.9333,
    "pop": 4371000,
    "longitude": -116.5765,
    "name": "Alberta",
    "country": "CA",
    "lastUpdated": "2020-03-26T08:09:01.967Z",
    "dead": 2,
    "id": "sBFMOzZJdrdXdyLZpweO",
    "sick": 417
  },
  {
    "pop": 9258000,
    "longitude": 109.949684,
    "name": "Hainan",
    "country": "CN",
    "lastUpdated": "2020-03-26T00:49:46.774Z",
    "dead": 6,
    "id": "sKNhMvgXeyivpNFg02RA",
    "infected": 168,
    "recovered": 161,
    "latitude": 19.566395,
    "sick": 1
  },
  {
    "id": "sLL1jETcJYjT6g5bfcEG",
    "infected": 480,
    "recovered": 1,
    "latitude": -10.33755,
    "pop": 32170000,
    "longitude": -75.630295,
    "name": "Peru",
    "country": "PE",
    "lastUpdated": "2020-03-26T08:13:03.634Z",
    "dead": 9,
    "sick": 470
  },
  {
    "latitude": 37.89566,
    "pop": 74700000,
    "longitude": 114.904221,
    "name": "Hebei",
    "country": "CN",
    "lastUpdated": "2020-03-26T00:49:17.753Z",
    "dead": 6,
    "id": "sgsBhTwHxF1VVnqXbXXp",
    "infected": 319,
    "recovered": 310,
    "sick": 3
  },
  {
    "recovered": 10,
    "latitude": 42.3154,
    "pop": 3717000,
    "longitude": 43.3569,
    "name": "Georgia",
    "country": "GE",
    "lastUpdated": "2020-03-26T08:13:03.687Z",
    "dead": 0,
    "id": "sjW9OwjFqrOvjVHRXWoR",
    "infected": 77,
    "sick": 67
  },
  {
    "longitude": -58.4438,
    "name": "Paraguay",
    "country": "PY",
    "lastUpdated": "2020-03-26T08:13:03.689Z",
    "dead": 3,
    "id": "t2fq7L9UcXfhuXfQNVRj",
    "infected": 41,
    "recovered": 0,
    "latitude": -23.4425,
    "pop": 6811000,
    "sick": 38
  },
  {
    "longitude": -111.596466,
    "name": "Utah",
    "country": "US",
    "lastUpdated": "2020-03-26T08:09:01.939Z",
    "dead": 1,
    "id": "tSmr8vNsiDhhpXMSBsms",
    "infected": 340,
    "recovered": 0,
    "latitude": 39.147061,
    "pop": 3161000,
    "sick": 339
  },
  {
    "infected": 1018,
    "recovered": 1014,
    "latitude": 27.3818,
    "pop": 67370000,
    "longitude": 111.510681,
    "name": "Hunan",
    "country": "CN",
    "lastUpdated": "2020-03-26T00:51:01.028Z",
    "dead": 4,
    "id": "tdNRDDrgvBQqqwzdFGh4",
    "sick": 0
  },
  {
    "lastUpdated": "2020-03-26T00:48:22.620Z",
    "dead": 2,
    "id": "tyY4QSHWG9sXqSO9jm0Y",
    "infected": 146,
    "recovered": 144,
    "latitude": 26.842964,
    "pop": 34750000,
    "longitude": 107.290283,
    "name": "Guizhou",
    "country": "CN",
    "sick": 0
  },
  {
    "infected": 52,
    "recovered": 0,
    "latitude": -20.2067,
    "pop": 1265000,
    "longitude": 57.6755,
    "name": "Mauritius",
    "country": "MU",
    "lastUpdated": "2020-03-26T08:13:03.891Z",
    "dead": 2,
    "id": "uZg9Xtu4zR5tp12TMpOQ",
    "sick": 50
  },
  {
    "pop": 25350000,
    "longitude": 76.0856,
    "name": "Haryana",
    "country": "IN",
    "lastUpdated": "2020-03-26T08:11:02.044Z",
    "dead": 0,
    "id": "ubUuY89n0cXVgahI4Ytp",
    "infected": 30,
    "recovered": 11,
    "latitude": 29.0588,
    "sick": 19
  },
  {
    "infected": 73,
    "recovered": 12,
    "latitude": 41.6667,
    "pop": 308493,
    "longitude": 14.5,
    "name": "Molise",
    "country": "IT",
    "lastUpdated": "2020-03-26T08:16:02.435Z",
    "dead": 8,
    "id": "ueDdQxnY3NvbnoCcPaDH",
    "sick": 53
  },
  {
    "infected": 638,
    "recovered": 631,
    "latitude": 32.93708,
    "pop": 80400000,
    "longitude": 119.151932,
    "name": "Jiangsu",
    "country": "CN",
    "lastUpdated": "2020-03-26T00:48:51.001Z",
    "dead": 0,
    "id": "uvxN28EpGmRq3K9REtBP",
    "sick": 7
  },
  {
    "infected": 420,
    "recovered": 2,
    "latitude": 51.9503,
    "pop": 2277000,
    "longitude": 11.6923,
    "name": "Sachsen-Anhalt",
    "country": "DE",
    "lastUpdated": "2020-03-26T08:12:03.439Z",
    "dead": 1,
    "id": "uxAceZxiizwmo60pyyGn",
    "sick": 417
  },
  {
    "infected": 11,
    "recovered": 1,
    "latitude": 33.7782,
    "pop": 12550000,
    "longitude": 76.5762,
    "name": "Jammu and Kashmir",
    "country": "IN",
    "lastUpdated": "2020-03-26T08:11:01.984Z",
    "dead": 0,
    "id": "v5wfBhxjYTpTMaKko6AW",
    "sick": 10
  },
  {
    "infected": 456,
    "recovered": 95,
    "latitude": 26.820553,
    "pop": 97550000,
    "longitude": 30.802498,
    "name": "Egypt",
    "country": "EG",
    "lastUpdated": "2020-03-26T08:13:03.577Z",
    "dead": 21,
    "id": "v8JcH4FHH7BDpJlNNHjv",
    "sick": 340
  },
  {
    "lastUpdated": "2020-03-26T08:09:01.875Z",
    "dead": 133,
    "id": "vCUVQn7RK8pkw5y2rvYN",
    "infected": 2600,
    "recovered": 0,
    "latitude": 47.288374,
    "pop": 7536000,
    "longitude": -119.928431,
    "name": "Washington",
    "country": "US",
    "sick": 2467
  },
  {
    "lastUpdated": "2020-03-26T08:13:03.922Z",
    "dead": 1,
    "id": "vMGALmMJbagxGIbLyFfS",
    "infected": 26,
    "recovered": 2,
    "latitude": 18.1096,
    "pop": 2890000,
    "longitude": -77.2975,
    "name": "Jamaica",
    "country": "JM",
    "sick": 23
  },
  {
    "latitude": 32.3182,
    "pop": 4888000,
    "longitude": -86.9023,
    "name": "Alabama",
    "country": "US",
    "lastUpdated": "2020-03-26T08:09:01.966Z",
    "dead": 1,
    "id": "vSMJR4m49MZM15umlC9B",
    "infected": 439,
    "recovered": 0,
    "sick": 438
  },
  {
    "recovered": 0,
    "latitude": 48.8499,
    "pop": 12210000,
    "longitude": 2.637,
    "name": "Ile-de-France",
    "country": "FR",
    "lastUpdated": "2020-03-26T08:04:06.432Z",
    "dead": 0,
    "id": "vSwFXxTSLgzsG25zOJUy",
    "infected": 7660,
    "sick": 7660
  },
  {
    "recovered": 0,
    "latitude": 46.5107,
    "pop": 156947,
    "longitude": -63.4168,
    "name": "Prince Edward Island",
    "country": "CA",
    "lastUpdated": "2020-03-26T08:09:01.973Z",
    "dead": 0,
    "id": "vjK6292ALJl5wq8XHw3P",
    "infected": 5,
    "sick": 5
  },
  {
    "infected": 27017,
    "recovered": 9625,
    "latitude": 32.42791,
    "pop": 81160000,
    "longitude": 53.688046,
    "name": "Iran",
    "country": "IR",
    "lastUpdated": "2020-03-26T08:13:03.535Z",
    "dead": 2077,
    "id": "vkkXVaqUswO5JsMZx0mX",
    "sick": 15315
  },
  {
    "id": "wCnlOr8oX3DlF0otQrFc",
    "infected": 35,
    "recovered": 0,
    "latitude": 53.7609,
    "pop": 1369000,
    "longitude": -98.8139,
    "name": "Manitoba",
    "country": "CA",
    "lastUpdated": "2020-03-26T08:09:01.989Z",
    "dead": 0,
    "sick": 35
  },
  {
    "latitude": -34.6037,
    "pop": 44270000,
    "longitude": -58.3816,
    "name": "Argentina",
    "country": "AR",
    "lastUpdated": "2020-03-26T08:13:03.594Z",
    "dead": 8,
    "id": "wEl0cjiA6OcZiI9kaSsF",
    "infected": 502,
    "recovered": 52,
    "sick": 442
  },
  {
    "recovered": 0,
    "latitude": 44.3148,
    "pop": 9996000,
    "longitude": -85.6024,
    "name": "Michigan",
    "country": "US",
    "lastUpdated": "2020-03-26T06:54:02.563Z",
    "dead": 43,
    "id": "wgRwpPMGBaKLAl1xo1C7",
    "infected": 2296,
    "sick": 2253
  },
  {
    "infected": 91,
    "recovered": 0,
    "latitude": 21.287261,
    "pop": 1420000,
    "longitude": -157.838954,
    "name": "Hawaii",
    "country": "US",
    "lastUpdated": "2020-03-25T21:39:01.847Z",
    "dead": 1,
    "id": "wi47s9vKxiMqxfgurj3B",
    "sick": 90
  },
  {
    "lastUpdated": "2020-03-26T08:16:02.334Z",
    "dead": 95,
    "id": "wj8SKMWy2gkQBhGU3R3L",
    "infected": 1901,
    "recovered": 131,
    "latitude": 41.9,
    "pop": 5897000,
    "longitude": 12.7167,
    "name": "Lazio",
    "country": "IT",
    "sick": 1675
  },
  {
    "lastUpdated": "2020-03-26T08:13:03.532Z",
    "dead": 6,
    "id": "xFgM48q8JxVPfvQLQDNb",
    "infected": 333,
    "recovered": 20,
    "latitude": 34.08267,
    "pop": 6082000,
    "longitude": 35.918113,
    "name": "Lebanon",
    "country": "LB",
    "sick": 307
  },
  {
    "lastUpdated": "2020-03-26T08:13:03.860Z",
    "dead": 1,
    "id": "xHWPTTpNHEwWv6MqfxP5",
    "infected": 51,
    "recovered": 2,
    "latitude": 9.081999,
    "pop": 190900000,
    "longitude": 8.675277,
    "name": "Nigeria",
    "country": "NG",
    "sick": 48
  },
  {
    "latitude": 47.5515,
    "pop": 760077,
    "longitude": -101.002,
    "name": "North Dakota",
    "country": "US",
    "lastUpdated": "2020-03-26T08:09:01.969Z",
    "dead": 0,
    "id": "xQpNodSQfHNHAtG9Onnj",
    "infected": 45,
    "recovered": 0,
    "sick": 45
  },
  {
    "longitude": -89.5,
    "name": "Wisconsin",
    "country": "US",
    "lastUpdated": "2020-03-26T08:09:01.996Z",
    "dead": 7,
    "id": "xSHgaJlyPxHFWB6hhyng",
    "infected": 638,
    "recovered": 0,
    "latitude": 44.5,
    "pop": 5814000,
    "sick": 631
  },
  {
    "latitude": 9.145,
    "pop": 105000000,
    "longitude": 40.4897,
    "name": "Ethiopia",
    "country": "ET",
    "lastUpdated": "2020-03-26T08:13:03.857Z",
    "dead": 0,
    "id": "xY69Nr3VSiZCwD2Qp0SD",
    "infected": 12,
    "recovered": 0,
    "sick": 12
  },
  {
    "lastUpdated": "2020-03-26T08:13:03.960Z",
    "dead": 0,
    "id": "xsmRrvV8VRC9SyYWK6ig",
    "infected": 19,
    "recovered": 0,
    "latitude": -18.7669468,
    "pop": 25570000,
    "longitude": 46.8691063,
    "name": "Madagascar",
    "country": "MG",
    "sick": 19
  },
  {
    "latitude": -22.95763,
    "pop": 2534000,
    "longitude": 18.4904,
    "name": "Namibia",
    "country": "NA",
    "lastUpdated": "2020-03-26T08:13:03.875Z",
    "dead": 0,
    "id": "xtX46kxBlEapOMdD1Emh",
    "infected": 7,
    "recovered": 2,
    "sick": 5
  },
  {
    "infected": 212,
    "recovered": 35,
    "latitude": 53.0793,
    "pop": 547976,
    "longitude": 8.8017,
    "name": "Bremen",
    "country": "DE",
    "lastUpdated": "2020-03-26T08:12:03.539Z",
    "dead": 1,
    "id": "y0d3PQgXJXdKsxweTIWv",
    "sick": 176
  },