[
  {
    "longitude": 14.333333,
    "name": "Campania",
    "country": "IT",
    "lastUpdated": "2020-03-27T00:46:02.541Z",
    "dead": 83,
    "id": "0GJcws44NSPsDHAuxJhW",
    "infected": 1310,
    "recovered": 58,
    "latitude": 41.066666,
    "pop": 5827000,
    "sick": 1169
  },
  {
    "id": "0VG7S6aaK4eSo59fL9JO",
    "infected": 2,
    "recovered": 0,
    "latitude": 20.9517,
    "pop": 45990000,
    "longitude": 85.0985,
    "name": "Odisha",
    "country": "IN",
    "lastUpdated": "2020-03-27T00:41:02.126Z",
    "dead": 0,
    "sick": 2
  },
  {
    "infected": 1,
    "recovered": 0,
    "latitude": 11.7401,
    "pop": 427246,
    "longitude": 92.6586,
    "name": "Andaman and Nicobar Islands",
    "country": "IN",
    "lastUpdated": "2020-03-27T00:41:02.187Z",
    "dead": 0,
    "id": "0jStOpTUNRaQYJqgmRoK",
    "sick": 1
  },
  {
    "latitude": 25.315058,
    "pop": 2639000,
    "longitude": 51.145517,
    "name": "Qatar",
    "country": "QA",
    "lastUpdated": "2020-03-27T00:43:04.599Z",
    "dead": 0,
    "id": "0m4aECS0Z2DGFEr8ldgI",
    "infected": 549,
    "recovered": 43,
    "sick": 506
  },
  {
    "recovered": 0,
    "latitude": 22.9868,
    "pop": 90320000,
    "longitude": 87.855,
    "name": "West Bengal",
    "country": "IN",
    "lastUpdated": "2020-03-27T00:41:02.156Z",
    "dead": 1,
    "id": "0n54EMSDJcRoT1QEvw80",
    "infected": 10,
    "sick": 9
  },
  {
    "latitude": 22.9734,
    "pop": 73340000,
    "longitude": 78.6569,
    "name": "Madhya Pradesh",
    "country": "IN",
    "lastUpdated": "2020-03-27T00:41:02.213Z",
    "dead": 1,
    "id": "0s18o5DrDAHjbu5MFcrj",
    "infected": 20,
    "recovered": 0,
    "sick": 19
  },
  {
    "dead": 0,
    "lastUpdated": "2020-03-26T15:43:05.110Z",
    "id": "0tFoopNTs6e4tOoaltu2",
    "infected": 0,
    "recovered": 428,
    "latitude": 37.0902,
    "longitude": -95.7129,
    "name": "Unknown US state",
    "country": "US",
    "sick": 0
  },
  {
    "recovered": 242,
    "latitude": 35.64249,
    "pop": 37330000,
    "longitude": 108.472214,
    "name": "Shaanxi",
    "country": "CN",
    "lastUpdated": "2020-03-27T00:45:28.978Z",
    "dead": 3,
    "id": "0x2HLhr5z5xAtEdO4iZm",
    "infected": 253,
    "sick": 8
  },
  {
    "infected": 201,
    "recovered": 3,
    "latitude": 41.643351,
    "pop": 2077000,
    "longitude": 21.668393,
    "name": "North Macedonia",
    "country": "MK",
    "lastUpdated": "2020-03-27T00:43:04.628Z",
    "dead": 3,
    "id": "19MvIhipqTyYv1H37Upw",
    "sick": 195
  },
  {
    "latitude": 53.1355,
    "pop": 521542,
    "longitude": -57.6604,
    "name": "Newfoundland and Labrador",
    "country": "CA",
    "lastUpdated": "2020-03-27T00:39:01.984Z",
    "dead": 0,
    "id": "1DOMOmCWDtva46OVSZLv",
    "infected": 82,
    "recovered": 0,
    "sick": 82
  },
  {
    "id": "1Fap7rZu9SIRqf5TG9Dg",
    "infected": 18,
    "recovered": 18,
    "latitude": 35.801933,
    "pop": 5627000,
    "longitude": 96.779286,
    "name": "Qinghai",
    "country": "CN",
    "lastUpdated": "2020-03-27T00:45:59.692Z",
    "dead": 0,
    "sick": 0
  },
  {
    "lastUpdated": "2020-03-27T00:46:02.146Z",
    "dead": 449,
    "id": "1eTSQyfp8RoDPeFrIwun",
    "infected": 6534,
    "recovered": 135,
    "latitude": 44.9,
    "pop": 4376000,
    "longitude": 8.206944,
    "name": "Piemonte",
    "country": "IT",
    "sick": 5950
  },
  {
    "longitude": -51.925282,
    "name": "Brazil",
    "country": "BR",
    "lastUpdated": "2020-03-27T00:43:04.641Z",
    "dead": 77,
    "id": "1f0YoV0vAcexEhpESyZc",
    "infected": 2985,
    "recovered": 6,
    "latitude": -14.235004,
    "pop": 209300000,
    "sick": 2902
  },
  {
    "infected": 177,
    "recovered": 2,
    "latitude": 47.4116,
    "pop": 3550000,
    "longitude": 28.3699,
    "name": "Moldova",
    "country": "MD",
    "lastUpdated": "2020-03-27T00:43:04.752Z",
    "dead": 1,
    "id": "1qTPB8X3tyLyIdsb5TN3",
    "sick": 174
  },
  {
    "id": "25qIBtsW2nfQj3pwBKg9",
    "infected": 1,
    "recovered": 1,
    "latitude": 30.15336,
    "pop": 3180000,
    "longitude": 88.787865,
    "name": "Tibet",
    "country": "CN",
    "lastUpdated": "2020-03-27T00:44:43.086Z",
    "dead": 0,
    "sick": 0
  },
  {
    "latitude": -1.572184,
    "pop": 264000000,
    "longitude": 115.66779,
    "name": "Indonesia",
    "country": "ID",
    "lastUpdated": "2020-03-27T00:43:04.613Z",
    "dead": 78,
    "id": "2KHYUb5t3lwzVVmDjwNX",
    "infected": 893,
    "recovered": 35,
    "sick": 780
  },
  {
    "infected": 316,
    "recovered": 0,
    "latitude": 43.807191,
    "pop": 4191000,
    "longitude": -120.585594,
    "name": "Oregon",
    "country": "US",
    "lastUpdated": "2020-03-27T00:39:01.908Z",
    "dead": 11,
    "id": "2OrsssmGUs4XCzaZzvTv",
    "sick": 305
  },
  {
    "lastUpdated": "2020-03-27T00:46:05.519Z",
    "dead": 1,
    "id": "2jxHvSsxdnom0nPNvOT8",
    "infected": 95,
    "recovered": 92,
    "latitude": 43.851921,
    "pop": 27460000,
    "longitude": 126.548103,
    "name": "Jilin",
    "country": "CN",
    "sick": 2
  },
  {
    "id": "2p11BjSAs3wVyymgqBOe",
    "infected": 35,
    "recovered": 13,
    "latitude": 36.1408,
    "pop": 34571,
    "longitude": -5.3536,
    "name": "Gibraltar",
    "country": "GI",
    "lastUpdated": "2020-03-27T00:43:05.062Z",
    "dead": 0,
    "sick": 22
  },
  {
    "latitude": 47.7516,
    "pop": 2567000,
    "longitude": 1.6751,
    "name": "Centre-Val de Loire",
    "country": "FR",
    "lastUpdated": "2020-03-26T18:19:06.852Z",
    "dead": 0,
    "id": "2sLNkkHpyaHx7dD3aMDO",
    "infected": 561,
    "recovered": 0,
    "sick": 561
  },
  {
    "infected": 802,
    "recovered": 12,
    "latitude": 42.565044,
    "pop": 884640,
    "longitude": 12.643751,
    "name": "Umbria",
    "country": "IT",
    "lastUpdated": "2020-03-27T00:46:02.536Z",
    "dead": 20,
    "id": "319tiZOMczx1y0DfvOib",
    "sick": 770
  },
  {
    "id": "321X89hv9Zm8QyXGHYjy",
    "infected": 0,
    "recovered": 4000,
    "latitude": 51.1657,
    "longitude": 10.4515,
    "name": "Deutschland",
    "country": "DE",
    "dead": 0,
    "lastUpdated": "2020-03-26T22:18:50.164Z",
    "sick": 0
  },
  {
    "lastUpdated": "2020-03-27T00:43:05.285Z",
    "dead": 0,
    "id": "3IlPjAbP5qVMn1nlgLTJ",
    "infected": 16,
    "recovered": 0,
    "latitude": -13.133896,
    "pop": 17090000,
    "longitude": 27.849332,
    "name": "Zambia",
    "country": "ZM",
    "sick": 16
  },
  {
    "recovered": 0,
    "latitude": 42.7044,
    "pop": 631219,
    "longitude": 19.3958,
    "name": "Montenegro",
    "country": "ME",
    "lastUpdated": "2020-03-27T00:43:05.103Z",
    "dead": 1,
    "id": "3LstMSN5XMYBkxbe5HN7",
    "infected": 69,
    "sick": 68
  },
  {
    "infected": 53,
    "recovered": 1,
    "latitude": -35.4735,
    "pop": 418440,
    "longitude": 149.0124,
    "name": "Australian Capital Territory",
    "country": "AU",
    "lastUpdated": "2020-03-27T00:48:45.144Z",
    "dead": 0,
    "id": "3OZoQsKrzxZ18EKyfGE6",
    "sick": 52
  },
  {
    "id": "3fC3bAyIRUquOQOEnQNe",
    "infected": 868,
    "recovered": 0,
    "latitude": 40.4173,
    "pop": 11690000,
    "longitude": -82.9071,
    "name": "Ohio",
    "country": "US",
    "lastUpdated": "2020-03-27T00:39:02.005Z",
    "dead": 15,
    "sick": 853
  },
  {
    "recovered": 0,
    "latitude": 21.0079,
    "pop": 4420000,
    "longitude": -10.9408,
    "name": "Mauritania",
    "country": "MR",
    "lastUpdated": "2020-03-27T00:43:05.167Z",
    "dead": 0,
    "id": "4NnFMekRK2m14IlnZZoj",
    "infected": 3,
    "sick": 3
  },
  {
    "lastUpdated": "2020-03-27T00:39:01.935Z",
    "dead": 14,
    "id": "4hfZRUoUgI4a3vrG0GBk",
    "infected": 725,
    "recovered": 0,
    "latitude": 53.7267,
    "pop": 5071000,
    "longitude": -127.6476,
    "name": "British Columbia",
    "country": "CA",
    "sick": 711
  },
  {
    "id": "4rQLxUCMmQLpbi6E9tbH",
    "infected": 3544,
    "recovered": 43,
    "latitude": 41.065877,
    "pop": 10290000,
    "longitude": -7.920053,
    "name": "Portugal",
    "country": "PT",
    "lastUpdated": "2020-03-27T00:43:04.640Z",
    "dead": 60,
    "sick": 3441
  },
  {
    "latitude": 40.3426,
    "pop": 9898000,
    "longitude": 47.93802,
    "name": "Azerbaijan",
    "country": "AZ",
    "lastUpdated": "2020-03-27T00:43:04.865Z",
    "dead": 3,
    "id": "4zqzRm2xHn0CDVOUQJ8p",
    "infected": 122,
    "recovered": 15,
    "sick": 104
  },
  {
    "lastUpdated": "2020-03-27T00:43:05.315Z",
    "dead": 0,
    "id": "5MHegCUO9L3LiAU7DDey",
    "infected": 9,
    "recovered": 1,
    "latitude": 25.025885,
    "pop": 395361,
    "longitude": -78.035889,
    "name": "Bahamas",
    "country": "BS",
    "sick": 8
  },
  {
    "recovered": 4,
    "latitude": -31.253218,
    "pop": 7544000,
    "longitude": 146.921097,
    "name": "New South Wales",
    "country": "AU",
    "lastUpdated": "2020-03-27T00:40:10.555Z",
    "dead": 7,
    "id": "5N16a2OXXRpsEFanw0TC",
    "infected": 1405,
    "sick": 1394
  },
  {
    "recovered": 0,
    "latitude": -20.9043045,
    "pop": 280460,
    "longitude": 165.618042,
    "name": "New Caledonia",
    "country": "NC",
    "lastUpdated": "2020-03-27T00:43:05.252Z",
    "dead": 0,
    "id": "5fg04eyDwFw3kEXnrxez",
    "infected": 14,
    "sick": 14
  },
  {
    "latitude": 28.394857,
    "pop": 29300000,
    "longitude": 84.124008,
    "name": "Nepal",
    "country": "NP",
    "lastUpdated": "2020-03-27T00:43:05.263Z",
    "dead": 0,
    "id": "5gXZIjRgAvd6xWN1LOv8",
    "infected": 3,
    "recovered": 1,
    "sick": 2
  },
  {
    "recovered": 28,
    "latitude": 12.879721,
    "pop": 104900000,
    "longitude": 121.774017,
    "name": "Philippines",
    "country": "PH",
    "lastUpdated": "2020-03-27T00:43:04.601Z",
    "dead": 45,
    "id": "5pwmh7aSdGRKqRbnuyc0",
    "infected": 707,
    "sick": 634
  },
  {
    "latitude": -17.824858,
    "pop": 14802190,
    "longitude": 31.053028,
    "name": "Zimbabwe",
    "country": "ZW",
    "lastUpdated": "2020-03-27T00:43:05.292Z",
    "dead": 1,
    "id": "5qtR9nx4BLwu1ODTniaY",
    "infected": 3,
    "recovered": 0,
    "sick": 2
  },
  {
    "latitude": 55.621011,
    "pop": 2794000,
    "longitude": 23.804991,
    "name": "Lithuania",
    "country": "LT",
    "lastUpdated": "2020-03-27T00:43:04.699Z",
    "dead": 4,
    "id": "694ON7d0mRJDeM1gHBTR",
    "infected": 299,
    "recovered": 1,
    "sick": 294
  },
  {
    "latitude": 22.396427,
    "pop": 7392000,
    "longitude": 114.109497,
    "name": "Hong Kong",
    "country": "HK",
    "lastUpdated": "2020-03-27T00:43:04.689Z",
    "dead": 4,
    "id": "6IcHIIH0zXpY0POmBZTv",
    "infected": 453,
    "recovered": 110,
    "sick": 339
  },
  {
    "recovered": 0,
    "latitude": 9.3077,
    "pop": 11180000,
    "longitude": 2.3158,
    "name": "Benin",
    "country": "BJ",
    "lastUpdated": "2020-03-27T00:43:05.056Z",
    "dead": 0,
    "id": "6SlpghTyB6lpMFvx3g9U",
    "infected": 6,
    "sick": 6
  },
  {
    "recovered": 7839,
    "latitude": 45.6667,
    "pop": 10040000,
    "longitude": 9.5,
    "name": "Lombardia",
    "country": "IT",
    "lastUpdated": "2020-03-27T00:46:02.344Z",
    "dead": 4861,
    "id": "6ZHcvMIzVWIaRnc4R3Qp",
    "infected": 34889,
    "sick": 22189
  },
  {
    "latitude": 46.0569,
    "pop": 2067000,
    "longitude": 14.5058,
    "name": "Slovenia",
    "country": "SI",
    "lastUpdated": "2020-03-27T00:43:04.632Z",
    "dead": 6,
    "id": "6ahNiyKDSDAftCctgLH3",
    "infected": 562,
    "recovered": 10,
    "sick": 546
  },
  {
    "lastUpdated": "2020-03-27T00:43:05.225Z",
    "dead": 1,
    "id": "6pBi38TUgYfFm0bry2uh",
    "infected": 7,
    "recovered": 0,
    "latitude": -0.8037,
    "pop": 2025000,
    "longitude": 11.6094,
    "name": "Gabon",
    "country": "GA",
    "sick": 6
  },
  {
    "recovered": 0,
    "latitude": 17.901672,
    "pop": 9131,
    "longitude": -62.818544,
    "name": "Saint-Barthélémy",
    "country": "FR",
    "lastUpdated": "2020-03-26T18:19:07.353Z",
    "dead": 0,
    "id": "78Ox26bNHDA2Pk2b3Uwn",
    "infected": 3,
    "sick": 3
  },
  {
    "latitude": 17.0608,
    "pop": 102012,
    "longitude": -61.7964,
    "name": "Antigua and Barbuda",
    "country": "AG",
    "lastUpdated": "2020-03-27T00:43:05.226Z",
    "dead": 0,
    "id": "7hVFcEV7nV0MrQr3LHrl",
    "infected": 7,
    "recovered": 0,
    "sick": 7
  },
  {
    "recovered": 99,
    "latitude": 48.7904,
    "pop": 13000000,
    "longitude": 11.4979,
    "name": "Bayern",
    "country": "DE",
    "lastUpdated": "2020-03-27T00:42:02.927Z",
    "dead": 52,
    "id": "7kCrrlOBE3jN6FtOVNUB",
    "infected": 8842,
    "sick": 8691
  },
  {
    "infected": 261,
    "recovered": 28,
    "latitude": 47.4979,
    "pop": 9773000,
    "longitude": 19.0402,
    "name": "Hungary",
    "country": "HU",
    "lastUpdated": "2020-03-27T00:43:04.800Z",
    "dead": 10,
    "id": "7rYC2iFB50c55Ihgbs4Q",
    "sick": 223
  },
  {
    "infected": 75,
    "recovered": 2,
    "latitude": 7.3697,
    "pop": 24050000,
    "longitude": 12.3547,
    "name": "Cameroon",
    "country": "CM",
    "lastUpdated": "2020-03-27T00:43:05.060Z",
    "dead": 1,
    "id": "8C0d7WVCjyUGtnc2gUAR",
    "sick": 72
  },
  {
    "id": "8RihJrXw4NQXPxaRxr1u",
    "infected": 61,
    "recovered": 0,
    "latitude": -16.2902,
    "pop": 11050000,
    "longitude": -63.5887,
    "name": "Bolivia",
    "country": "BO",
    "lastUpdated": "2020-03-27T00:43:05.130Z",
    "dead": 0,
    "sick": 61
  },
  {
    "latitude": 12.9843,
    "pop": 109897,
    "longitude": -61.2872,
    "name": "St. Vincent Grenadines",
    "country": "VC",
    "lastUpdated": "2020-03-27T00:43:05.309Z",
    "dead": 0,
    "id": "8ZTySQROQejkDAad0qxQ",
    "infected": 1,
    "recovered": 0,
    "sick": 1
  },
  {
    "latitude": 1.352083,
    "pop": 5621000,
    "longitude": 103.819839,
    "name": "Singapore",
    "country": "SG",
    "lastUpdated": "2020-03-27T00:43:04.897Z",
    "dead": 2,
    "id": "8pA3fM4xC2c2wv1b4TnE",
    "infected": 683,
    "recovered": 172,
    "sick": 509
  },
  {
    "latitude": 47.2184,
    "pop": 3787000,
    "longitude": -1.5536,
    "name": "Pays de la Loire",
    "country": "FR",
    "lastUpdated": "2020-03-26T18:19:06.948Z",
    "dead": 0,
    "id": "98hwAoohgWEOQVa3NlM5",
    "infected": 368,
    "recovered": 0,
    "sick": 368
  },
  {
    "latitude": 12.8628,
    "pop": 40530000,
    "longitude": 30.2176,
    "name": "Sudan",
    "country": "SD",
    "lastUpdated": "2020-03-27T00:43:05.099Z",
    "dead": 1,
    "id": "9DPOkpIqrFy9mR4e9fuv",
    "infected": 3,
    "recovered": 0,
    "sick": 2
  },
  {
    "infected": 1029,
    "recovered": 94,
    "latitude": 45.943161,
    "pop": 19530000,
    "longitude": 24.966761,
    "name": "Romania",
    "country": "RO",
    "lastUpdated": "2020-03-27T00:43:04.718Z",
    "dead": 23,
    "id": "9QcETqEcM2fTv9zRvx5T",
    "sick": 912
  },
  {
    "infected": 2,
    "recovered": 0,
    "latitude": 12.136389,
    "pop": 6218000,
    "longitude": -86.251389,
    "name": "Nicaragua",
    "country": "NI",
    "lastUpdated": "2020-03-27T00:43:05.198Z",
    "dead": 0,
    "id": "9Y5wmCqNCC6ZrenM31uA",
    "sick": 2
  },
  {
    "latitude": 61.92411,
    "pop": 5513000,
    "longitude": 25.748152,
    "name": "Finland",
    "country": "FI",
    "lastUpdated": "2020-03-27T00:43:04.795Z",
    "dead": 5,
    "id": "9p6OCdZbUUwBLA60Gk3W",
    "infected": 958,
    "recovered": 10,
    "sick": 943
  },
  {
    "latitude": 43.311643,
    "pop": 1356000,
    "longitude": -71.590315,
    "name": "New Hampshire",
    "country": "US",
    "lastUpdated": "2020-03-27T00:39:01.924Z",
    "dead": 1,
    "id": "A84CwQ52kA46Hr7pn6Bm",
    "infected": 137,
    "recovered": 0,
    "sick": 136
  },
  {
    "recovered": 0,
    "latitude": 41.823261,
    "pop": 1057000,
    "longitude": -71.412257,
    "name": "Rhode Island",
    "country": "US",
    "lastUpdated": "2020-03-26T22:39:01.396Z",
    "dead": 0,
    "id": "AEUWUHS65qvjEslew11c",
    "infected": 165,
    "sick": 165
  },
  {
    "infected": 10816,
    "recovered": 792,
    "latitude": 44.498955,
    "pop": 4453000,
    "longitude": 11.327591,
    "name": "Emilia Romagna",
    "country": "IT",
    "lastUpdated": "2020-03-27T00:46:02.526Z",
    "dead": 1174,
    "id": "AJ9jQ0iyKsafsmf5yHAR",
    "sick": 8850
  },
  {
    "lastUpdated": "2020-03-27T00:42:02.932Z",
    "dead": 3,
    "id": "AKjFRQGnzuuZQhv5Qwx7",
    "infected": 540,
    "recovered": 25,
    "latitude": 49.3964,
    "pop": 990509,
    "longitude": 7.023,
    "name": "Saarland",
    "country": "DE",
    "sick": 512
  },
  {
    "infected": 6,
    "recovered": 2,
    "latitude": 71.7069,
    "pop": 56171,
    "longitude": -42.6043,
    "name": "Greenland",
    "country": "GL",
    "lastUpdated": "2020-03-27T00:43:05.095Z",
    "dead": 0,
    "id": "APaZzlGCEeuoLBtzTJMe",
    "sick": 4
  },
  {
    "id": "AVCpxeh0fuH2WrHWNDYH",
    "infected": 73,
    "recovered": 0,
    "latitude": 45.65107,
    "pop": 971395,
    "longitude": -63.582687,
    "name": "Nova Scotia",
    "country": "CA",
    "lastUpdated": "2020-03-27T00:39:01.957Z",
    "dead": 0,
    "sick": 73
  },
  {
    "infected": 90,
    "recovered": 0,
    "latitude": 47.012918,
    "pop": 1062000,
    "longitude": -109.128641,
    "name": "Montana",
    "country": "US",
    "lastUpdated": "2020-03-27T00:39:01.820Z",
    "dead": 0,
    "id": "AcULcZBozObOhwuRKMjJ",
    "sick": 90
  },
  {
    "infected": 936,
    "recovered": 934,
    "latitude": 27.285971,
    "pop": 45200000,
    "longitude": 116.01609,
    "name": "Jiangxi",
    "country": "CN",
    "lastUpdated": "2020-03-27T00:47:49.633Z",
    "dead": 1,
    "id": "AmBYm5J6E9Cuez1FQjiN",
    "sick": 1
  },
  {
    "infected": 367,
    "recovered": 29,
    "latitude": 28.033886,
    "pop": 41320000,
    "longitude": 1.659626,
    "name": "Algeria",
    "country": "DZ",
    "lastUpdated": "2020-03-27T00:43:04.580Z",
    "dead": 25,
    "id": "AwN0CScPDApcLFgz6e3z",
    "sick": 313
  },
  {
    "id": "B82Ef45M8cDu4q7VsSHF",
    "infected": 495,
    "recovered": 22,
    "latitude": 45.099998,
    "pop": 4076000,
    "longitude": 15.2,
    "name": "Croatia",
    "country": "HR",
    "lastUpdated": "2020-03-27T00:43:04.609Z",
    "dead": 3,
    "sick": 470
  },
  {
    "infected": 10,
    "recovered": 0,
    "latitude": 17.6077881,
    "pop": 23716000,
    "longitude": 8.081666,
    "name": "Niger",
    "country": "NE",
    "lastUpdated": "2020-03-27T00:43:04.721Z",
    "dead": 1,
    "id": "BENubqQInFUJzhpZTsLT",
    "sick": 9
  },
  {
    "infected": 583,
    "recovered": 0,
    "latitude": 39.509109,
    "pop": 6043000,
    "longitude": -76.98432,
    "name": "Maryland",
    "country": "US",
    "lastUpdated": "2020-03-27T00:39:01.954Z",
    "dead": 4,
    "id": "BF51mWl51fgEcyBpCSzb",
    "sick": 579
  },
  {
    "longitude": 27.953388,
    "name": "Belarus",
    "country": "BY",
    "lastUpdated": "2020-03-27T00:43:05.039Z",
    "dead": 0,
    "id": "BGg6yVU5VP71B8NXU0oh",
    "infected": 86,
    "recovered": 29,
    "latitude": 53.709808,
    "pop": 9508000,
    "sick": 57
  },
  {
    "infected": 688,
    "recovered": 0,
    "latitude": 48.8799,
    "pop": 3319000,
    "longitude": 0.1713,
    "name": "Normandie",
    "country": "FR",
    "lastUpdated": "2020-03-26T18:19:06.840Z",
    "dead": 0,
    "id": "BGtoyzb7y54LVlJ91rbf",
    "sick": 688
  },
  {
    "latitude": 34.048927,
    "pop": 7172000,
    "longitude": -111.093735,
    "name": "Arizona",
    "country": "US",
    "lastUpdated": "2020-03-27T00:39:01.804Z",
    "dead": 8,
    "id": "BTEESCuD2ZbS1afunR2A",
    "infected": 508,
    "recovered": 0,
    "sick": 500
  },
  {
    "recovered": 0,
    "latitude": 40.719042,
    "pop": 19540000,
    "longitude": -73.982597,
    "name": "New York",
    "country": "US",
    "lastUpdated": "2020-03-27T00:39:01.616Z",
    "dead": 385,
    "id": "C3BCUzV80z9GfiuByIcr",
    "infected": 37877,
    "sick": 37492
  },
  {
    "lastUpdated": "2020-03-27T00:43:04.762Z",
    "dead": 9,
    "id": "C6S76AggdWVU8G22jFHQ",
    "infected": 1925,
    "recovered": 10,
    "latitude": 49.731626,
    "pop": 10650000,
    "longitude": 15.359413,
    "name": "Czechia",
    "country": "CZ",
    "sick": 1906
  },
  {
    "longitude": 50.557701,
    "name": "Bahrain",
    "country": "BH",
    "lastUpdated": "2020-03-27T00:43:04.723Z",
    "dead": 4,
    "id": "C7cj4nwRITs13KnaJrQ2",
    "infected": 458,
    "recovered": 204,
    "latitude": 26.0667,
    "pop": 1493000,
    "sick": 250
  },
  {
    "lastUpdated": "2020-03-27T00:41:02.165Z",
    "dead": 0,
    "id": "CKZCZTPlrcq5fbfUPA9k",
    "infected": 41,
    "recovered": 3,
    "latitude": 27.0238,
    "pop": 68890000,
    "longitude": 74.2179,
    "name": "Rajasthan",
    "country": "IN",
    "sick": 38
  },
  {
    "latitude": 13.803,
    "pop": 6378000,
    "longitude": -88.9053,
    "name": "El Salvador",
    "country": "SV",
    "lastUpdated": "2020-03-27T00:43:05.237Z",
    "dead": 0,
    "id": "Cgvmtle61ehMvCzRzYx7",
    "infected": 13,
    "recovered": 0,
    "sick": 13
  },
  {
    "infected": 11658,
    "recovered": 135,
    "latitude": 52.355518,
    "pop": 66440000,
    "longitude": -1.17432,
    "name": "United Kingdom",
    "country": "GB",
    "lastUpdated": "2020-03-27T00:43:04.889Z",
    "dead": 578,
    "id": "CrXu6i5Sqx11iwdfHfBs",
    "sick": 10945
  },
  {
    "infected": 290,
    "recovered": 18,
    "latitude": 40.259003,
    "pop": 2973000,
    "longitude": 44.818474,
    "name": "Armenia",
    "country": "AM",
    "lastUpdated": "2020-03-27T00:43:04.711Z",
    "dead": 1,
    "id": "DCJCtZoBTWQ4mzdDNljD",
    "sick": 271
  },
  {
    "latitude": 22.192039,
    "pop": 622567,
    "longitude": 113.551262,
    "name": "Macao",
    "country": "MO",
    "lastUpdated": "2020-03-27T00:43:05.120Z",
    "dead": 0,
    "id": "DdBt8qsG6A3g92oOR3ow",
    "infected": 31,
    "recovered": 10,
    "sick": 21
  },
  {
    "infected": 53,
    "recovered": 0,
    "latitude": 42.962334,
    "pop": 577737,
    "longitude": -107.534868,
    "name": "Wyoming",
    "country": "US",
    "lastUpdated": "2020-03-27T00:39:01.919Z",
    "dead": 0,
    "id": "DrGzziUglmBognCGY7R2",
    "sick": 53
  },
  {
    "id": "Dtr1lap1RpJpXJdXGJiW",
    "infected": 892,
    "recovered": 36,
    "latitude": 40.6401,
    "pop": 10740000,
    "longitude": 22.9444,
    "name": "Greece",
    "country": "GR",
    "lastUpdated": "2020-03-27T00:43:04.568Z",
    "dead": 27,
    "sick": 829
  },
  {
    "latitude": 25.03841,
    "pop": 23780000,
    "longitude": 121.563698,
    "name": "Taiwan",
    "country": "TW",
    "lastUpdated": "2020-03-27T00:43:04.887Z",
    "dead": 2,
    "id": "EKTfs8e7M6DXzI1HqyyX",
    "infected": 252,
    "recovered": 29,
    "sick": 221
  },
  {
    "infected": 231,
    "recovered": 2,
    "latitude": 10.327273,
    "pop": 4906000,
    "longitude": -84.387618,
    "name": "Costa Rica",
    "country": "CR",
    "lastUpdated": "2020-03-27T00:43:04.648Z",
    "dead": 2,
    "id": "EQzJvzVHKjs8kLmK7BMu",
    "sick": 227
  },
  {
    "infected": 43,
    "recovered": 0,
    "latitude": 22.2587,
    "pop": 62700000,
    "longitude": 71.1924,
    "name": "Gujarat",
    "country": "IN",
    "lastUpdated": "2020-03-27T00:41:02.182Z",
    "dead": 3,
    "id": "ERwk9R9en4m9WbdoMbIg",
    "sick": 40
  },
  {
    "infected": 7,
    "recovered": 0,
    "latitude": 30.7333,
    "pop": 1055000,
    "longitude": 76.7794,
    "name": "Chandigarh",
    "country": "IN",
    "lastUpdated": "2020-03-27T00:41:02.236Z",
    "dead": 0,
    "id": "Esl5UlCVB9s8pmGB5Ofr",
    "sick": 7
  },
  {
    "lastUpdated": "2020-03-27T00:39:01.913Z",
    "dead": 2,
    "id": "F4rPrEVGAIMM5rfPEMv4",
    "infected": 64,
    "recovered": 0,
    "latitude": 18.200178,
    "pop": 3195000,
    "longitude": -66.664513,
    "name": "Puerto Rico",
    "country": "PR",
    "sick": 62
  },
  {
    "latitude": 33.93911,
    "pop": 35530000,
    "longitude": 67.709953,
    "name": "Afghanistan",
    "country": "AF",
    "lastUpdated": "2020-03-27T00:43:04.893Z",
    "dead": 4,
    "id": "FCDmlmnIIswd8bQiUjfN",
    "infected": 94,
    "recovered": 2,
    "sick": 88
  },
  {
    "lastUpdated": "2020-03-27T00:48:26.302Z",
    "dead": 6,
    "id": "FErOU1m4Tj7jIkRam3vF",
    "infected": 578,
    "recovered": 570,
    "latitude": 29.431585,
    "pop": 30480000,
    "longitude": 106.912254,
    "name": "Chongqing",
    "country": "CN",
    "sick": 2
  },
  {
    "lastUpdated": "2020-03-27T00:43:04.685Z",
    "dead": 0,
    "id": "FZsUkhxBEgqsPb4eO0PN",
    "infected": 208,
    "recovered": 49,
    "latitude": 29.311661,
    "pop": 4137000,
    "longitude": 47.481766,
    "name": "Kuwait",
    "country": "KW",
    "sick": 159
  },
  {
    "longitude": 78.6569,
    "name": "Tamil Nadu",
    "country": "IN",
    "lastUpdated": "2020-03-27T00:41:02.198Z",
    "dead": 1,
    "id": "FeS45oMNC27pI17F0xEV",
    "infected": 26,
    "recovered": 1,
    "latitude": 11.1271,
    "pop": 67860000,
    "sick": 24
  },
  {
    "longitude": -70.430399,
    "name": "Dominican Republic",
    "country": "DO",
    "lastUpdated": "2020-03-27T00:43:04.559Z",
    "dead": 10,
    "id": "FuiVEJvWb0QMCpxJ3563",
    "infected": 488,
    "recovered": 3,
    "latitude": 18.947829,
    "pop": 10770000,
    "sick": 475
  },
  {
    "id": "FyC551oNwmENxbr9Yght",
    "infected": 44,
    "recovered": 1,
    "latitude": 18.1124,
    "pop": 35190000,
    "longitude": 79.0193,
    "name": "Telengana",
    "country": "IN",
    "lastUpdated": "2020-03-27T00:41:02.234Z",
    "dead": 0,
    "sick": 43
  },
  {
    "infected": 226,
    "recovered": 2,
    "latitude": 48.669,
    "pop": 5450000,
    "longitude": 19.699,
    "name": "Slovakia",
    "country": "SK",
    "lastUpdated": "2020-03-27T00:43:04.913Z",
    "dead": 0,
    "id": "FzIDXoqWnTI3nUfhPyT2",
    "sick": 224
  },
  {
    "id": "GAp7Wb6IMhdgbvEtMza9",
    "infected": 1201,
    "recovered": 21,
    "latitude": 30.37532,
    "pop": 197000000,
    "longitude": 69.345116,
    "name": "Pakistan",
    "country": "PK",
    "lastUpdated": "2020-03-27T00:43:04.708Z",
    "dead": 9,
    "sick": 1171
  },
  {
    "lastUpdated": "2020-03-27T00:41:02.207Z",
    "dead": 1,
    "id": "GGru8cG08mANO8XDDUtZ",
    "infected": 33,
    "recovered": 0,
    "latitude": 31.1471,
    "pop": 27980000,
    "longitude": 75.3412,
    "name": "Punjab",
    "country": "IN",
    "sick": 32
  },
  {
    "id": "GHzBIsHy2GiBc5JV2HMs",
    "infected": 333,
    "recovered": 52,
    "latitude": 23.424076,
    "pop": 9400000,
    "longitude": 53.847816,
    "name": "United Arab Emirates",
    "country": "AE",
    "lastUpdated": "2020-03-27T00:43:04.910Z",
    "dead": 2,
    "sick": 279
  },
  {
    "lastUpdated": "2020-03-27T00:39:01.926Z",
    "dead": 81,
    "id": "Gh46r6vuaY7fbGt3IboN",
    "infected": 3899,
    "recovered": 0,
    "latitude": 36.621981,
    "pop": 39560000,
    "longitude": -119.339046,
    "name": "California",
    "country": "US",
    "sick": 3818
  },
  {
    "recovered": 0,
    "latitude": 35.87189,
    "pop": 3943000,
    "longitude": -97.145514,
    "name": "Oklahoma",
    "country": "US",
    "lastUpdated": "2020-03-27T00:39:01.832Z",
    "dead": 7,
    "id": "GpF8ULuKOQiFDCUHN44h",
    "infected": 248,
    "sick": 241
  },
  {
    "infected": 906,
    "recovered": 67,
    "latitude": 46.5,
    "pop": 520891,
    "longitude": 11.35,
    "name": "P.A. Bolzano",
    "country": "IT",
    "lastUpdated": "2020-03-27T00:46:02.332Z",
    "dead": 48,
    "id": "Gzx6GX1qhBm714BkEC6l",
    "sick": 791
  },
  {
    "infected": 89,
    "recovered": 74,
    "latitude": 42.83263,
    "pop": 24710000,
    "longitude": 113.750972,
    "name": "Inner Mongolia",
    "country": "CN",
    "lastUpdated": "2020-03-27T00:45:15.467Z",
    "dead": 1,
    "id": "H3JeVigVbo5CSYfZG4WI",
    "sick": 14
  },
  {
    "infected": 420,
    "recovered": 0,
    "latitude": 39.74536,
    "pop": 3034000,
    "longitude": -116.724977,
    "name": "Nevada",
    "country": "US",
    "lastUpdated": "2020-03-26T22:39:01.376Z",
    "dead": 10,
    "id": "H3bDg4eV30up4WWrIDAS",
    "sick": 410
  },
  {
    "lastUpdated": "2020-03-27T00:41:02.201Z",
    "dead": 2,
    "id": "HN5mGmxlqlSeFSNeu1K5",
    "infected": 55,
    "recovered": 3,
    "latitude": 15.3173,
    "pop": 64060000,
    "longitude": 75.7139,
    "name": "Karnataka",
    "country": "IN",
    "sick": 50
  },
  {
    "latitude": 27.5142,
    "pop": 807610,
    "longitude": 90.4336,
    "name": "Bhutan",
    "country": "BT",
    "lastUpdated": "2020-03-27T00:43:05.298Z",
    "dead": 0,
    "id": "HRDpwyxpqW9RN0xLFyNu",
    "infected": 2,
    "recovered": 0,
    "sick": 2
  },
  {
    "infected": 75,
    "recovered": 0,
    "latitude": 41.3775,
    "pop": 32390000,
    "longitude": 64.5853,
    "name": "Uzbekistan",
    "country": "UZ",
    "lastUpdated": "2020-03-27T00:43:05.276Z",
    "dead": 0,
    "id": "HRTA10dtrruDEwjJEGMp",
    "sick": 75
  },
  {
    "infected": 113,
    "recovered": 0,
    "latitude": 34.138916,
    "pop": 2095000,
    "longitude": -105.576255,
    "name": "New Mexico",
    "country": "US",
    "lastUpdated": "2020-03-27T00:39:01.910Z",
    "dead": 1,
    "id": "HSSFomRju0doHhWgW8On",
    "sick": 112
  },
  {
    "id": "He1gSS1v50t06i3YrqvB",
    "infected": 265,
    "recovered": 5,
    "latitude": 53.6127,
    "pop": 1635000,
    "longitude": 12.4296,
    "name": "Mecklenburg-Vorpommern",
    "country": "DE",
    "lastUpdated": "2020-03-27T00:42:03.120Z",
    "dead": 0,
    "sick": 260
  },
  {
    "recovered": 4,
    "latitude": 23.634501,
    "pop": 129200000,
    "longitude": -102.552788,
    "name": "Mexico",
    "country": "MX",
    "lastUpdated": "2020-03-27T00:43:04.651Z",
    "dead": 6,
    "id": "I4OJ6z9Vjs1byOcbsJrd",
    "infected": 475,
    "sick": 465
  },
  {
    "latitude": 42.25,
    "pop": 1315000,
    "longitude": 13.75,
    "name": "Abruzzo",
    "country": "IT",
    "lastUpdated": "2020-03-27T00:46:02.336Z",
    "dead": 63,
    "id": "I9EqrZfbPnkioNU4wZGz",
    "infected": 946,
    "recovered": 23,
    "sick": 860
  },
  {
    "infected": 1448,
    "recovered": 1336,
    "latitude": 23.363855,
    "pop": 113460000,
    "longitude": 113.373448,
    "name": "Guangdong",
    "country": "CN",
    "lastUpdated": "2020-03-27T00:47:43.113Z",
    "dead": 8,
    "id": "IAX0OQLVnUwU7FX0ENF1",
    "sick": 104
  },
  {
    "lastUpdated": "2020-03-27T00:48:20.507Z",
    "dead": 22,
    "id": "IFuMrMvSjoiX5agYvllh",
    "infected": 1275,
    "recovered": 1250,
    "latitude": 33.875408,
    "pop": 94000000,
    "longitude": 113.484016,
    "name": "Henan",
    "country": "CN",
    "sick": 3
  },
  {
    "infected": 8,
    "recovered": 0,
    "latitude": 19.0558,
    "pop": 10980000,
    "longitude": -73.0513,
    "name": "Haiti",
    "country": "HT",
    "lastUpdated": "2020-03-27T00:43:05.108Z",
    "dead": 0,
    "id": "InZ38sIqyK7FN7XAOZoX",
    "sick": 8
  },
  {
    "recovered": 0,
    "latitude": 32.528564,
    "pop": 10520000,
    "longitude": -83.280125,
    "name": "Georgia (US)",
    "country": "US",
    "lastUpdated": "2020-03-27T00:39:01.865Z",
    "dead": 48,
    "id": "IvQkDJkTAsoIqPRAU25n",
    "infected": 1525,
    "sick": 1477
  },
  {
    "latitude": -42.8285,
    "pop": 4794000,
    "longitude": 172.488081,
    "name": "New Zealand",
    "country": "NZ",
    "lastUpdated": "2020-03-27T00:43:04.852Z",
    "dead": 0,
    "id": "IvVhpOoGpH6JVkGyUhXN",
    "infected": 368,
    "recovered": 37,
    "sick": 331
  },
  {
    "longitude": -66.5897,
    "name": "Venezuela",
    "country": "VE",
    "lastUpdated": "2020-03-27T00:43:04.832Z",
    "dead": 0,
    "id": "J3mZXlfEnnJx4CDZLvRG",
    "infected": 107,
    "recovered": 15,
    "latitude": 6.4238,
    "pop": 31980000,
    "sick": 92
  },
  {
    "longitude": 33.4299,
    "name": "Cyprus",
    "country": "CY",
    "lastUpdated": "2020-03-27T00:43:04.740Z",
    "dead": 3,
    "id": "JQByE4l2OA6sGOqIcWrM",
    "infected": 146,
    "recovered": 4,
    "latitude": 35.1264,
    "pop": 1170000,
    "sick": 139
  },
  {
    "recovered": 0,
    "latitude": 25.0961,
    "pop": 99020000,
    "longitude": 85.3131,
    "name": "Bihar",
    "country": "IN",
    "lastUpdated": "2020-03-27T00:41:02.215Z",
    "dead": 1,
    "id": "JR7hOGked7CZtIs2nCV5",
    "infected": 6,
    "sick": 5
  },
  {
    "infected": 25,
    "recovered": 4,
    "latitude": 14.628434,
    "pop": 16910000,
    "longitude": -90.522713,
    "name": "Guatemala",
    "country": "GT",
    "lastUpdated": "2020-03-27T00:43:05.283Z",
    "dead": 1,
    "id": "JUWE6bG3b5oL7fKQMSvv",
    "sick": 20
  },
  {
    "latitude": 49.8153,
    "pop": 602005,
    "longitude": 6.1296,
    "name": "Luxembourg",
    "country": "LU",
    "lastUpdated": "2020-03-27T00:43:04.833Z",
    "dead": 9,
    "id": "JcFsHSn2WvZ5LJW42ovG",
    "infected": 1453,
    "recovered": 6,
    "sick": 1438
  },
  {
    "longitude": 0.8248,
    "name": "Togo",
    "country": "TG",
    "lastUpdated": "2020-03-27T00:43:05.278Z",
    "dead": 0,
    "id": "JrBbirlBKGdWSdcDt7PF",
    "infected": 24,
    "recovered": 1,
    "latitude": 8.6195,
    "pop": 7798000,
    "sick": 23
  },
  {
    "infected": 264,
    "recovered": 8,
    "latitude": 42.7339,
    "pop": 7050000,
    "longitude": 25.4858,
    "name": "Bulgaria",
    "country": "BG",
    "lastUpdated": "2020-03-27T00:43:04.902Z",
    "dead": 3,
    "id": "JzZ8sbqzjutThVjkPKPL",
    "sick": 253
  },
  {
    "infected": 2567,
    "recovered": 260,
    "latitude": 44.5,
    "pop": 1557000,
    "longitude": 8.833,
    "name": "Liguria",
    "country": "IT",
    "lastUpdated": "2020-03-27T00:46:02.267Z",
    "dead": 280,
    "id": "KLXicxFogWnu0dLp4bNK",
    "sick": 2027
  },
  {
    "infected": 3226,
    "recovered": 95,
    "latitude": 43.4167,
    "pop": 3737000,
    "longitude": 11,
    "name": "Toscana",
    "country": "IT",
    "lastUpdated": "2020-03-27T00:46:02.436Z",
    "dead": 158,
    "id": "KrLrJbpDqqiXgUPGCCW9",
    "sick": 2973
  },
  {
    "lastUpdated": "2020-03-27T00:43:04.696Z",
    "dead": 0,
    "id": "KsWzJO06cf0d6LJ4ZNh9",
    "infected": 106,
    "recovered": 7,
    "latitude": 7.873054,
    "pop": 21440000,
    "longitude": 80.771797,
    "name": "Sri Lanka",
    "country": "LK",
    "sick": 99
  },
  {
    "recovered": 1,
    "latitude": 15.9129,
    "pop": 49670000,
    "longitude": 79.74,
    "name": "Andhra Pradesh",
    "country": "IN",
    "lastUpdated": "2020-03-27T00:41:02.189Z",
    "dead": 0,
    "id": "KtQIo2DoqjELtPAlyDVO",
    "infected": 11,
    "sick": 10
  },
  {
    "latitude": 61.52401,
    "pop": 144500000,
    "longitude": 105.318756,
    "name": "Russia",
    "country": "RU",
    "lastUpdated": "2020-03-27T00:43:04.896Z",
    "dead": 3,
    "id": "KwOuGBKSMRlmwftxAvLX",
    "infected": 840,
    "recovered": 38,
    "sick": 799
  },
  {
    "latitude": 18.0708,
    "pop": 32125,
    "longitude": -63.0501,
    "name": "Saint-Martin",
    "country": "FR",
    "lastUpdated": "2020-03-26T18:19:06.937Z",
    "dead": 0,
    "id": "LBUtrLDKJiupXjlUNTUe",
    "infected": 11,
    "recovered": 0,
    "sick": 11
  },
  {
    "longitude": 9.5554,
    "name": "Liechtenstein",
    "country": "LI",
    "lastUpdated": "2020-03-27T00:43:05.312Z",
    "dead": 0,
    "id": "LTGEU2E9MFkrCcFhZYVk",
    "infected": 56,
    "recovered": 0,
    "latitude": 47.166,
    "pop": 38557,
    "sick": 56
  },
  {
    "id": "LU2QWt5ao8IJa8evNYVV",
    "infected": 4,
    "recovered": 0,
    "latitude": 9.9456,
    "pop": 12720000,
    "longitude": -9.6966,
    "name": "Guinea",
    "country": "GN",
    "lastUpdated": "2020-03-27T00:43:05.115Z",
    "dead": 0,
    "sick": 4
  },
  {
    "latitude": 3.9193051,
    "pop": 563402,
    "longitude": -56.0277824,
    "name": "Suriname",
    "country": "SR",
    "lastUpdated": "2020-03-27T00:43:05.165Z",
    "dead": 0,
    "id": "LglKINHyQpYpFxjckbQ6",
    "infected": 8,
    "recovered": 0,
    "sick": 8
  },
  {
    "infected": 95,
    "recovered": 0,
    "latitude": 52.9399,
    "pop": 1174000,
    "longitude": -106.4509,
    "name": "Saskatchewan",
    "country": "CA",
    "lastUpdated": "2020-03-27T00:39:02.000Z",
    "dead": 0,
    "id": "LkIDKY0CMAqzbwBHyYCP",
    "sick": 95
  },
  {
    "latitude": 37.8393,
    "pop": 4468000,
    "longitude": -84.27,
    "name": "Kentucky",
    "country": "US",
    "lastUpdated": "2020-03-27T00:39:01.937Z",
    "dead": 5,
    "id": "MC8MXFw9iXYybnF8v7e6",
    "infected": 247,
    "recovered": 0,
    "sick": 242
  },
  {
    "infected": 645,
    "recovered": 0,
    "latitude": 40.2672,
    "pop": 6692000,
    "longitude": -86.1349,
    "name": "Indiana",
    "country": "US",
    "lastUpdated": "2020-03-27T00:39:01.966Z",
    "dead": 17,
    "id": "MOxDkmQ4wBi1CuAdVxDE",
    "sick": 628
  },
  {
    "lastUpdated": "2020-03-27T00:43:04.827Z",
    "dead": 0,
    "id": "MdQOfc1gNh2DOqwSP6UV",
    "infected": 96,
    "recovered": 3,
    "latitude": 7.54,
    "pop": 24290000,
    "longitude": -5.5471,
    "name": "Ivory Coast",
    "country": "CI",
    "sick": 93
  },
  {
    "infected": 10948,
    "recovered": 837,
    "latitude": 51.4332,
    "pop": 17910000,
    "longitude": 7.6616,
    "name": "Nordrhein-Westfalen",
    "country": "DE",
    "lastUpdated": "2020-03-27T00:42:03.137Z",
    "dead": 82,
    "id": "MjpYq3zQyAvSQlVVYjD2",
    "sick": 10029
  },
  {
    "recovered": 75,
    "latitude": 37.330509,
    "pop": 6301000,
    "longitude": 105.977203,
    "name": "Ningxia",
    "country": "CN",
    "lastUpdated": "2020-03-27T00:45:00.107Z",
    "dead": 0,
    "id": "MntmjjuHljarCdt6aIeE",
    "infected": 75,
    "sick": 0
  },
  {
    "latitude": 48.6616,
    "pop": 11020000,
    "longitude": 9.3501,
    "name": "Baden-Württemberg",
    "country": "DE",
    "lastUpdated": "2020-03-27T00:42:02.766Z",
    "dead": 76,
    "id": "N3XsRBwJSsNclkEf7Zz5",
    "infected": 8441,
    "recovered": 285,
    "sick": 8080
  },
  {
    "id": "N7c13sCQF0G789XAVazJ",
    "infected": 191,
    "recovered": 2,
    "latitude": 44.696652,
    "pop": 3507000,
    "longitude": 17.824332,
    "name": "Bosnia and Herzegovina",
    "country": "BA",
    "lastUpdated": "2020-03-27T00:43:04.868Z",
    "dead": 3,
    "sick": 186
  },
  {
    "infected": 135,
    "recovered": 133,
    "latitude": 37.242565,
    "pop": 36500000,
    "longitude": 111.856857,
    "name": "Shanxi",
    "country": "CN",
    "lastUpdated": "2020-03-27T00:45:20.756Z",
    "dead": 0,
    "id": "NBRIGIRrJB1Ry8prDNAC",
    "sick": 2
  },
  {
    "longitude": -79.0193,
    "name": "North Carolina",
    "country": "US",
    "lastUpdated": "2020-03-27T00:39:01.883Z",
    "dead": 3,
    "id": "NC64Qp5kTqAfiTuR27k8",
    "infected": 738,
    "recovered": 0,
    "latitude": 35.7596,
    "pop": 10380000,
    "sick": 735
  },
  {
    "infected": 579,
    "recovered": 9,
    "latitude": 52.4125,
    "pop": 2504000,
    "longitude": 12.5316,
    "name": "Brandenburg",
    "country": "DE",
    "lastUpdated": "2020-03-27T00:42:03.131Z",
    "dead": 1,
    "id": "NJjo2gfBvnbK4xatrsUz",
    "sick": 569
  },
  {
    "latitude": 30.0668,
    "pop": 10080000,
    "longitude": 79.0193,
    "name": "Uttarakhand",
    "country": "IN",
    "lastUpdated": "2020-03-27T00:41:02.244Z",
    "dead": 0,
    "id": "NMeZEcGToxXfpi16PfFV",
    "infected": 5,
    "recovered": 0,
    "sick": 5
  },
  {
    "latitude": 50.6521,
    "pop": 6243000,
    "longitude": 9.1624,
    "name": "Hessen",
    "country": "DE",
    "lastUpdated": "2020-03-27T00:42:02.849Z",
    "dead": 6,
    "id": "Nk5vPgUIXsWVfbWZf15O",
    "infected": 2170,
    "recovered": 19,
    "sick": 2145
  },
  {
    "lastUpdated": "2020-03-27T00:43:04.603Z",
    "dead": 0,
    "id": "NmmMKy0YqA8StHdGzB5N",
    "infected": 244,
    "recovered": 1,
    "latitude": 56.96776,
    "pop": 1920000,
    "longitude": 25.837107,
    "name": "Latvia",
    "country": "LV",
    "sick": 243
  },
  {
    "id": "O4g88K49HKEZLFXm5gxb",
    "infected": 3,
    "recovered": 0,
    "latitude": 6.4281,
    "pop": 4732000,
    "longitude": -9.4295,
    "name": "Liberia",
    "country": "LR",
    "lastUpdated": "2020-03-27T00:43:05.265Z",
    "dead": 0,
    "sick": 3
  },
  {
    "latitude": 34.003307,
    "pop": 5084000,
    "longitude": -80.525613,
    "name": "South Carolina",
    "country": "US",
    "lastUpdated": "2020-03-27T00:39:01.929Z",
    "dead": 9,
    "id": "ONU4CK8QjViFHKg2w5if",
    "infected": 424,
    "recovered": 0,
    "sick": 415
  },
  {
    "latitude": 33.51822,
    "pop": 2987000,
    "longitude": -89.582775,
    "name": "Mississippi",
    "country": "US",
    "lastUpdated": "2020-03-27T00:39:01.950Z",
    "dead": 6,
    "id": "OYa0jFzdbAgo8zUsRv6q",
    "infected": 485,
    "recovered": 0,
    "sick": 479
  },
  {
    "latitude": 45.2538,
    "pop": 1338000,
    "longitude": -69.4455,
    "name": "Maine",
    "country": "US",
    "lastUpdated": "2020-03-27T00:39:01.915Z",
    "dead": 0,
    "id": "OcXNp9kNVSwrRlG3bNVN",
    "infected": 155,
    "recovered": 0,
    "sick": 155
  },
  {
    "infected": 40,
    "recovered": 3,
    "latitude": -41.915264,
    "pop": 515000,
    "longitude": 146.725256,
    "name": "Tasmania",
    "country": "AU",
    "lastUpdated": "2020-03-27T00:40:10.559Z",
    "dead": 0,
    "id": "OnOseaqWdnuP18oruABW",
    "sick": 37
  },
  {
    "latitude": 19.3133,
    "pop": 61559,
    "longitude": -81.2546,
    "name": "Cayman Islands",
    "country": "KY",
    "lastUpdated": "2020-03-27T00:43:05.218Z",
    "dead": 1,
    "id": "P4mwRFLbrvT0t75uD8Wo",
    "infected": 8,
    "recovered": 0,
    "sick": 7
  },
  {
    "latitude": 16.7424984,
    "pop": 5900,
    "longitude": -62.1873665,
    "name": "Montserrat",
    "country": "MS",
    "lastUpdated": "2020-03-27T00:43:05.248Z",
    "dead": 0,
    "id": "PEDkeFMTOZpvHiSVxBk7",
    "infected": 5,
    "recovered": 0,
    "sick": 5
  },
  {
    "recovered": 0,
    "latitude": -1.9403,
    "pop": 12210000,
    "longitude": 29.8739,
    "name": "Rwanda",
    "country": "RW",
    "lastUpdated": "2020-03-27T00:43:05.048Z",
    "dead": 0,
    "id": "PEcgZGEkyhABztt1Ufgc",
    "infected": 50,
    "sick": 50
  },
  {
    "infected": 344,
    "recovered": 0,
    "latitude": 46.7296,
    "pop": 5611000,
    "longitude": -94.6859,
    "name": "Minnesota",
    "country": "US",
    "lastUpdated": "2020-03-27T00:39:01.841Z",
    "dead": 2,
    "id": "PJvVYosLIhbcRZYnKX1R",
    "sick": 342
  },
  {
    "infected": 2538,
    "recovered": 0,
    "latitude": 40.6331,
    "pop": 12740000,
    "longitude": -89.3985,
    "name": "Illinois",
    "country": "US",
    "lastUpdated": "2020-03-27T00:39:01.879Z",
    "dead": 26,
    "id": "PTwQr9ijo0TBBsPH2sdJ",
    "sick": 2512
  },
  {
    "longitude": -60.978893,
    "name": "Saint Lucia",
    "country": "LC",
    "lastUpdated": "2020-03-27T00:43:05.183Z",
    "dead": 0,
    "id": "PjLqCeFdyzdZNcZxMkK1",
    "infected": 3,
    "recovered": 1,
    "latitude": 13.909444,
    "pop": 178844,
    "sick": 2
  },
  {
    "lastUpdated": "2020-03-27T00:43:04.907Z",
    "dead": 6,
    "id": "Pr76V4raf108uSRoEXac",
    "infected": 197,
    "recovered": 2,
    "latitude": 34.201507,
    "pop": 11530000,
    "longitude": 9.460554,
    "name": "Tunisia",
    "country": "TN",
    "sick": 189
  },
  {
    "infected": 6,
    "recovered": 0,
    "latitude": -26.5225,
    "pop": 1367000,
    "longitude": 31.4659,
    "name": "Eswatini",
    "country": "SZ",
    "lastUpdated": "2020-03-27T00:43:05.132Z",
    "dead": 0,
    "id": "PuQgOd9KWiMzGZXm11sR",
    "sick": 6
  },
  {
    "recovered": 149,
    "latitude": -37.009609,
    "pop": 6359000,
    "longitude": 143.94853,
    "name": "Victoria",
    "country": "AU",
    "lastUpdated": "2020-03-27T00:49:26.079Z",
    "dead": 3,
    "id": "Q18mrGvFWTLX2BU9SqhQ",
    "infected": 520,
    "sick": 368
  },
  {
    "recovered": 3,
    "latitude": 54.2194,
    "pop": 2890000,
    "longitude": 9.6961,
    "name": "Schleswig-Holstein",
    "country": "DE",
    "lastUpdated": "2020-03-27T00:42:03.028Z",
    "dead": 4,
    "id": "Q39XkabIYxt15mHINzTa",
    "infected": 685,
    "sick": 678
  },
  {
    "lastUpdated": "2020-03-27T00:43:04.851Z",
    "dead": 1,
    "id": "QR9go2hQKXjty7JHUYe4",
    "infected": 538,
    "recovered": 8,
    "latitude": 58.595272,
    "pop": 1328000,
    "longitude": 25.013607,
    "name": "Estonia",
    "country": "EE",
    "sick": 529
  },
  {
    "recovered": 0,
    "latitude": -6.315,
    "pop": 8251000,
    "longitude": 143.9555,
    "name": "Papua New Guinea",
    "country": "PG",
    "lastUpdated": "2020-03-27T00:43:05.063Z",
    "dead": 0,
    "id": "QlZrE4nosm5WfdA2aCDg",
    "infected": 1,
    "sick": 1
  },
  {
    "lastUpdated": "2020-03-27T00:41:05.066Z",
    "dead": 0,
    "id": "QqhD3YDMKXojvQY3Yu41",
    "infected": 17,
    "recovered": 0,
    "latitude": 18.3358,
    "pop": 107268,
    "longitude": -64.8963,
    "name": "U.S. Virgin Islands",
    "country": "VI",
    "sick": 17
  },
  {
    "infected": 11,
    "recovered": 0,
    "latitude": 15.414999,
    "pop": 71937,
    "longitude": -61.3709755,
    "name": "Dominica",
    "country": "DM",
    "lastUpdated": "2020-03-27T00:43:05.196Z",
    "dead": 0,
    "id": "Qy2qW2ep5wltnYjPJBxh",
    "sick": 11
  },
  {
    "recovered": 2,
    "latitude": 8.538,
    "pop": 4099000,
    "longitude": -80.7821,
    "name": "Panama",
    "country": "PA",
    "lastUpdated": "2020-03-27T00:43:04.591Z",
    "dead": 9,
    "id": "R8YCgephnxTufvcPWMgx",
    "infected": 674,
    "sick": 663
  },
  {
    "infected": 52,
    "recovered": 0,
    "latitude": 15.2,
    "pop": 9265000,
    "longitude": -86.2419,
    "name": "Honduras",
    "country": "HN",
    "lastUpdated": "2020-03-27T00:43:05.034Z",
    "dead": 1,
    "id": "RA2SE0p2bVhqo0P2hzGY",
    "sick": 51
  },
  {
    "infected": 1223,
    "recovered": 197,
    "latitude": 45.633331,
    "pop": 1216000,
    "longitude": 13.8,
    "name": "Friuli Venezia Giulia",
    "country": "IT",
    "lastUpdated": "2020-03-27T00:46:02.438Z",
    "dead": 72,
    "id": "RCrDBCdBNYzgLNr0aB2H",
    "sick": 954
  },
  {
    "longitude": -93.0977,
    "name": "Iowa",
    "country": "US",
    "lastUpdated": "2020-03-27T00:39:01.887Z",
    "dead": 1,
    "id": "RX0KDu1AFrlCsrRso0nb",
    "infected": 179,
    "recovered": 0,
    "latitude": 41.878,
    "pop": 3156000,
    "sick": 178
  },
  {
    "latitude": 39.0119,
    "pop": 2912000,
    "longitude": -98.4842,
    "name": "Kansas",
    "country": "US",
    "lastUpdated": "2020-03-27T00:39:01.851Z",
    "dead": 3,
    "id": "Rf4uvBfP3GRDSHdZElRd",
    "infected": 172,
    "recovered": 0,
    "sick": 169
  },
  {
    "infected": 5479,
    "recovered": 0,
    "latitude": 48.6998,
    "pop": 5518000,
    "longitude": 6.1878,
    "name": "Grand Est",
    "country": "FR",
    "lastUpdated": "2020-03-26T18:19:07.345Z",
    "dead": 0,
    "id": "RmEgf1xeclWt7XCF9oiR",
    "sick": 5479
  },
  {
    "id": "Rx4TuyMpfGb3S8wYJX0x",
    "infected": 858,
    "recovered": 0,
    "latitude": 51.2538,
    "pop": 14570000,
    "longitude": -85.3232,
    "name": "Ontario",
    "country": "CA",
    "lastUpdated": "2020-03-27T00:39:01.813Z",
    "dead": 13,
    "sick": 845
  },
  {
    "recovered": 0,
    "latitude": 14.652027,
    "pop": 376480,
    "longitude": -61.011715,
    "name": "Martinique",
    "country": "FR",
    "lastUpdated": "2020-03-26T18:19:06.959Z",
    "dead": 0,
    "id": "SDdefnq1bc3ZNr7SpEsW",
    "infected": 66,
    "sick": 66
  },
  {
    "latitude": 7.9465,
    "pop": 28830000,
    "longitude": -1.0232,
    "name": "Ghana",
    "country": "GH",
    "lastUpdated": "2020-03-27T00:43:04.731Z",
    "dead": 4,
    "id": "SG9VWLOV3x2JsTkXmVSz",
    "infected": 132,
    "recovered": 1,
    "sick": 127
  },
  {
    "latitude": 46.818188,
    "pop": 8570000,
    "longitude": 8.227512,
    "name": "Switzerland",
    "country": "CH",
    "lastUpdated": "2020-03-27T00:43:04.824Z",
    "dead": 191,
    "id": "SGe9sCPayMqh6RsGFaBA",
    "infected": 11811,
    "recovered": 131,
    "sick": 11489
  },
  {
    "longitude": -71.208,
    "name": "Quebec",
    "country": "CA",
    "lastUpdated": "2020-03-27T00:39:01.800Z",
    "dead": 8,
    "id": "SHoOE3NiJgWAlDVBzwYH",
    "infected": 1632,
    "recovered": 0,
    "latitude": 46.8139,
    "pop": 8485000,
    "sick": 1624
  },
  {
    "id": "SMWvuMMuKp2QK7O2tNia",
    "infected": 86,
    "recovered": 1,
    "latitude": 42.6026,
    "pop": 1831000,
    "longitude": 20.903,
    "name": "Kosovo",
    "country": "XK",
    "lastUpdated": "2020-03-27T00:44:11.307Z",
    "dead": 1,
    "sick": 84
  },
  {
    "infected": 3,
    "recovered": 0,
    "latitude": 15.2993,
    "pop": 1817000,
    "longitude": 74.124,
    "name": "Goa",
    "country": "IN",
    "lastUpdated": "2020-03-27T00:41:02.193Z",
    "dead": 0,
    "id": "SPcujsH2YlUaoAr8AiWF",
    "sick": 3
  },
  {
    "longitude": 16.5,
    "name": "Calabria",
    "country": "IT",
    "lastUpdated": "2020-03-27T00:46:02.330Z",
    "dead": 14,
    "id": "SZdF624x0v1LlyzZjKFu",
    "infected": 393,
    "recovered": 7,
    "latitude": 39,
    "pop": 1957000,
    "sick": 372
  },
  {
    "infected": 74,
    "recovered": 0,
    "latitude": 41.4925,
    "pop": 1929000,
    "longitude": -99.9018,
    "name": "Nebraska",
    "country": "US",
    "lastUpdated": "2020-03-27T00:39:02.002Z",
    "dead": 0,
    "id": "SakhKQzKu1LRI8laqdQq",
    "sick": 74
  },
  {
    "lastUpdated": "2020-03-26T18:19:07.052Z",
    "dead": 0,
    "id": "SgHzWAAYK1j2sipovxM6",
    "infected": 94,
    "recovered": 0,
    "latitude": -21.1151,
    "pop": 859959,
    "longitude": 55.5364,
    "name": "La Réunion",
    "country": "FR",
    "sick": 94
  },
  {
    "recovered": 10,
    "latitude": 12.565679,
    "pop": 16010000,
    "longitude": 104.990967,
    "name": "Cambodia",
    "country": "KH",
    "lastUpdated": "2020-03-27T00:43:04.769Z",
    "dead": 0,
    "id": "SioMALgUbo7peXmbco2f",
    "infected": 96,
    "sick": 86
  },
  {
    "infected": 45,
    "recovered": 0,
    "latitude": 13.4443,
    "pop": 164229,
    "longitude": 144.7937,
    "name": "Guam",
    "country": "GU",
    "lastUpdated": "2020-03-27T00:39:01.863Z",
    "dead": 1,
    "id": "SsWhuEElU7dCTTuH5fdQ",
    "sick": 44
  },
  {
    "infected": 51,
    "recovered": 0,
    "latitude": -4.0383,
    "pop": 81340000,
    "longitude": 21.7587,
    "name": "DR Congo",
    "country": "CD",
    "lastUpdated": "2020-03-27T00:43:05.257Z",
    "dead": 3,
    "id": "T3iRf8mTUTAzbKrORTap",
    "sick": 48
  },
  {
    "latitude": 23.635796,
    "pop": 32940000,
    "longitude": 44.344334,
    "name": "Saudi Arabia",
    "country": "SA",
    "lastUpdated": "2020-03-27T00:43:04.744Z",
    "dead": 3,
    "id": "T7NffoeCgTUpAbOHvYwP",
    "infected": 1012,
    "recovered": 33,
    "sick": 976
  },
  {
    "id": "TQZmzsLhJqjtCSExAkCP",
    "infected": 114,
    "recovered": 5,
    "latitude": 4.506106,
    "pop": 428697,
    "longitude": 114.650692,
    "name": "Brunei",
    "country": "BN",
    "lastUpdated": "2020-03-27T00:43:04.830Z",
    "dead": 0,
    "sick": 109
  },
  {
    "infected": 2093,
    "recovered": 0,
    "latitude": 45.4471,
    "pop": 8027000,
    "longitude": 4.3853,
    "name": "Auvergne-Rhône-Alpes",
    "country": "FR",
    "lastUpdated": "2020-03-26T18:19:07.355Z",
    "dead": 0,
    "id": "TT0MKODSjrxHvG19xZCa",
    "sick": 2093
  },
  {
    "infected": 1088,
    "recovered": 0,
    "latitude": 39.318928,
    "pop": 5696000,
    "longitude": -105.461392,
    "name": "Colorado",
    "country": "US",
    "lastUpdated": "2020-03-26T22:39:01.495Z",
    "dead": 19,
    "id": "Th4dlpXXmSDgi1OHs36P",
    "sick": 1069
  },
  {
    "latitude": 12.2383,
    "pop": 19190000,
    "longitude": -1.5616,
    "name": "Burkina Faso",
    "country": "BF",
    "lastUpdated": "2020-03-27T00:43:04.855Z",
    "dead": 7,
    "id": "Tup6oDCHj6DgqZR3nQ3x",
    "infected": 152,
    "recovered": 10,
    "sick": 135
  },
  {
    "longitude": -61.670761,
    "name": "Grenada",
    "country": "GD",
    "lastUpdated": "2020-03-27T00:43:05.303Z",
    "dead": 0,
    "id": "TvqURPN5xzVBXsmGP46N",
    "infected": 7,
    "recovered": 0,
    "latitude": 12.104818,
    "pop": 112381,
    "sick": 7
  },
  {
    "infected": 1877,
    "recovered": 1,
    "latitude": 55.675758,
    "pop": 5603000,
    "longitude": 12.56902,
    "name": "Denmark",
    "country": "DK",
    "lastUpdated": "2020-03-27T00:43:04.877Z",
    "dead": 41,
    "id": "Ty1AY3VLPJcRZgdBIERx",
    "sick": 1835
  },
  {
    "id": "U0tkTJ9CGsBuFJ2Gdoum",
    "infected": 771,
    "recovered": 752,
    "latitude": 36.395859,
    "pop": 100472400,
    "longitude": 118.769882,
    "name": "Shandong",
    "country": "CN",
    "lastUpdated": "2020-03-27T00:45:51.872Z",
    "dead": 7,
    "sick": 12
  },
  {
    "latitude": 43.94236,
    "pop": 33400,
    "longitude": 12.457777,
    "name": "San Marino",
    "country": "SM",
    "lastUpdated": "2020-03-27T00:43:04.797Z",
    "dead": 21,
    "id": "U12rMD5GDW58Q0lIwrB1",
    "infected": 208,
    "recovered": 4,
    "sick": 183
  },
  {
    "infected": 1387,
    "recovered": 359,
    "latitude": 36.204823,
    "pop": 126800000,
    "longitude": 138.25293,
    "name": "Japan",
    "country": "JP",
    "lastUpdated": "2020-03-26T22:58:04.058Z",
    "dead": 47,
    "id": "U13Gy4BpRLAZ95bPmBXd",
    "sick": 981
  },
  {
    "longitude": 32.2903,
    "name": "Uganda",
    "country": "UG",
    "lastUpdated": "2020-03-27T00:43:05.113Z",
    "dead": 0,
    "id": "UCZXEgnHtxUoChWLR6fQ",
    "infected": 14,
    "recovered": 0,
    "latitude": 1.3733,
    "pop": 42860000,
    "sick": 14
  },
  {
    "latitude": -11.2027,
    "pop": 29780000,
    "longitude": 17.8739,
    "name": "Angola",
    "country": "AO",
    "lastUpdated": "2020-03-27T00:43:05.290Z",
    "dead": 0,
    "id": "UIbrFy6kiTTF0D37Kqmp",
    "infected": 4,
    "recovered": 0,
    "sick": 4
  },
  {
    "longitude": -2.9326,
    "name": "Bretagne",
    "country": "FR",
    "lastUpdated": "2020-03-26T18:19:06.755Z",
    "dead": 0,
    "id": "URKMlJ7OTNldjpaxFbjE",
    "infected": 603,
    "recovered": 0,
    "latitude": 48.202,
    "pop": 3329000,
    "sick": 603
  },
  {
    "lastUpdated": "2020-03-27T00:42:02.918Z",
    "dead": 1,
    "id": "UfFaUECHINUutv1M9tzq",
    "infected": 1614,
    "recovered": 1,
    "latitude": 53.5511,
    "pop": 1822000,
    "longitude": 9.9937,
    "name": "Hamburg",
    "country": "DE",
    "sick": 1612
  },
  {
    "longitude": 132.551,
    "name": "Northern Territory",
    "country": "AU",
    "lastUpdated": "2020-03-27T00:40:10.551Z",
    "dead": 0,
    "id": "UrF45V1VqMo6YBib2KlL",
    "infected": 8,
    "recovered": 0,
    "latitude": -19.4914,
    "pop": 211945,
    "sick": 8
  },
  {
    "infected": 3,
    "recovered": 0,
    "latitude": 18.0424805,
    "pop": 41109,
    "longitude": -63.0548286,
    "name": "Sint Maarten",
    "country": "SX",
    "lastUpdated": "2020-03-27T00:43:05.156Z",
    "dead": 0,
    "id": "UsxgpiuFCtlR2CW1UUFm",
    "sick": 3
  },
  {
    "latitude": 11.943179,
    "pop": 241773,
    "longitude": 79.808206,
    "name": "Puducherry",
    "country": "IN",
    "lastUpdated": "2020-03-27T00:41:02.128Z",
    "dead": 0,
    "id": "V1qE740s3EUGyKGr6SVv",
    "infected": 1,
    "recovered": 0,
    "sick": 1
  },
  {
    "latitude": 3.527606,
    "pop": 49070000,
    "longitude": -72.998674,
    "name": "Colombia",
    "country": "CO",
    "lastUpdated": "2020-03-27T00:43:04.622Z",
    "dead": 6,
    "id": "VAAmtxtDuCY0o55zRsOh",
    "infected": 491,
    "recovered": 8,
    "sick": 477
  },
  {
    "longitude": -77.7812,
    "name": "Cuba",
    "country": "CU",
    "lastUpdated": "2020-03-27T00:43:05.101Z",
    "dead": 2,
    "id": "VAG9AcMABTf8oIAfELPh",
    "infected": 67,
    "recovered": 1,
    "latitude": 21.5218,
    "pop": 11480000,
    "sick": 64
  },
  {
    "recovered": 172,
    "latitude": 25.181129,
    "pop": 45970000,
    "longitude": 101.864143,
    "name": "Yunnan",
    "country": "CN",
    "lastUpdated": "2020-03-27T00:47:02.784Z",
    "dead": 2,
    "id": "VIf8T8PD3ZzlzAm5eBCX",
    "infected": 178,
    "sick": 4
  },
  {
    "infected": 41,
    "recovered": 11,
    "latitude": 26.8467,
    "pop": 204200000,
    "longitude": 80.9462,
    "name": "Uttar Pradesh",
    "country": "IN",
    "lastUpdated": "2020-03-27T00:41:02.226Z",
    "dead": 0,
    "id": "VcKcLdCkC6YpPfIDnRVD",
    "sick": 30
  },
  {
    "infected": 1082,
    "recovered": 0,
    "latitude": 43.8927,
    "pop": 5893000,
    "longitude": 3.2828,
    "name": "Occitanie",
    "country": "FR",
    "lastUpdated": "2020-03-26T18:19:07.350Z",
    "dead": 0,
    "id": "WAnbFrEjtZDTCIYBt8rz",
    "sick": 1082
  },
  {
    "recovered": 0,
    "latitude": 40.5,
    "pop": 567118,
    "longitude": 16.5,
    "name": "Basilicata",
    "country": "IT",
    "lastUpdated": "2020-03-27T00:46:02.228Z",
    "dead": 1,
    "id": "WD502XimGXnWzqYg7zxL",
    "infected": 134,
    "sick": 133
  },
  {
    "infected": 1,
    "recovered": 0,
    "latitude": 24.6637,
    "pop": 2722000,
    "longitude": 93.9063,
    "name": "Manipur",
    "country": "IN",
    "lastUpdated": "2020-03-27T00:41:02.217Z",
    "dead": 0,
    "id": "WKsJQmcpWKxnp0nCwN77",
    "sick": 1
  },
  {
    "longitude": 22.9375,
    "name": "South Africa",
    "country": "ZA",
    "lastUpdated": "2020-03-27T00:43:04.788Z",
    "dead": 0,
    "id": "Whrue10NtwIObLvFFyBr",
    "infected": 927,
    "recovered": 12,
    "latitude": -30.5595,
    "pop": 56720000,
    "sick": 915
  },
  {
    "latitude": 13.443182,
    "pop": 2101000,
    "longitude": -15.3101387,
    "name": "Gambia",
    "country": "GM",
    "lastUpdated": "2020-03-27T00:43:05.295Z",
    "dead": 1,
    "id": "Wk811YwpQxsOCfz8As86",
    "infected": 3,
    "recovered": 0,
    "sick": 2
  },
  {
    "longitude": 90.3563,
    "name": "Bangladesh",
    "country": "BD",
    "lastUpdated": "2020-03-27T00:43:04.845Z",
    "dead": 5,
    "id": "WpLayPPLIJ7VcHZdQaoM",
    "infected": 44,
    "recovered": 11,
    "latitude": 23.685,
    "pop": 164700000,
    "sick": 28
  },
  {
    "id": "X2iRhHF6f9pUnJcxPc3J",
    "infected": 6935,
    "recovered": 508,
    "latitude": 45.5,
    "pop": 4905000,
    "longitude": 11.75,
    "name": "Veneto",
    "country": "IT",
    "lastUpdated": "2020-03-27T00:46:02.429Z",
    "dead": 287,
    "sick": 6140
  },
  {
    "longitude": 77.577049,
    "name": "Ladakh",
    "country": "IN",
    "lastUpdated": "2020-03-27T00:41:02.210Z",
    "dead": 0,
    "id": "X3PZqaJxtnlxcgP4tzya",
    "infected": 13,
    "recovered": 0,
    "latitude": 34.152588,
    "pop": 274289,
    "sick": 13
  },
  {
    "lastUpdated": "2020-03-27T00:47:36.003Z",
    "dead": 1,
    "id": "XBBw0iMPrmiEu3qogkbi",
    "infected": 328,
    "recovered": 295,
    "latitude": 25.92448,
    "pop": 38560000,
    "longitude": 118.278992,
    "name": "Fujian",
    "country": "CN",
    "sick": 32
  },
  {
    "infected": 238,
    "recovered": 0,
    "latitude": -32.5228,
    "pop": 3457000,
    "longitude": -55.7658,
    "name": "Uruguay",
    "country": "UY",
    "lastUpdated": "2020-03-27T00:43:04.904Z",
    "dead": 0,
    "id": "XrsuLstdybIqIvv0E0aJ",
    "sick": 238
  },
  {
    "longitude": 9.0129,
    "name": "Corse",
    "country": "FR",
    "lastUpdated": "2020-03-26T18:19:07.438Z",
    "dead": 0,
    "id": "YGXgIObKVabP2CYEdcb9",
    "infected": 225,
    "recovered": 0,
    "latitude": 42.0396,
    "pop": 339178,
    "sick": 225
  },
  {
    "recovered": 17,
    "latitude": 31.9522,
    "pop": 5052000,
    "longitude": 35.2332,
    "name": "Palestine",
    "country": "PS",
    "lastUpdated": "2020-03-27T00:43:05.026Z",
    "dead": 1,
    "id": "YMzKw0SnXG71VT7H1jff",
    "infected": 84,
    "sick": 66
  },
  {
    "infected": 56,
    "recovered": 0,
    "latitude": 64.2008,
    "pop": 737438,
    "longitude": -149.4937,
    "name": "Alaska",
    "country": "US",
    "lastUpdated": "2020-03-27T00:39:01.901Z",
    "dead": 1,
    "id": "YaCODTMD1KKRnrAlkg2u",
    "sick": 55
  },
  {
    "id": "Yw9uBekNlefXBcOCNMfP",
    "infected": 9241,
    "recovered": 4144,
    "latitude": 37.568291,
    "pop": 51470000,
    "longitude": 126.99778,
    "name": "South Korea",
    "country": "KR",
    "lastUpdated": "2020-03-27T00:43:04.756Z",
    "dead": 131,
    "sick": 4966
  },
  {
    "id": "YzZqZMJGvG6joQCdiuXC",
    "infected": 24,
    "recovered": 0,
    "latitude": 13.193887,
    "pop": 285719,
    "longitude": -59.543198,
    "name": "Barbados",
    "country": "BB",
    "lastUpdated": "2020-03-27T00:43:05.037Z",
    "dead": 0,
    "sick": 24
  },
  {
    "id": "ZAZNuCK1VweBaTLCFzCk",
    "infected": 1221,
    "recovered": 7,
    "latitude": 52.2297,
    "pop": 37980000,
    "longitude": 21.0122,
    "name": "Poland",
    "country": "PL",
    "lastUpdated": "2020-03-27T00:43:04.758Z",
    "dead": 16,
    "sick": 1198
  },
  {
    "infected": 5,
    "recovered": 0,
    "latitude": -17.713371,
    "pop": 905502,
    "longitude": 178.065033,
    "name": "Fiji",
    "country": "FJ",
    "lastUpdated": "2020-03-27T00:43:05.122Z",
    "dead": 0,
    "id": "ZmzOT0sJgfWXEpRImItC",
    "sick": 5
  },
  {
    "latitude": 41.6032,
    "pop": 3573000,
    "longitude": -73.0877,
    "name": "Connecticut",
    "country": "US",
    "lastUpdated": "2020-03-27T00:39:01.991Z",
    "dead": 21,
    "id": "Zqy0gftQzocR49jEJNMl",
    "infected": 1012,
    "recovered": 0,
    "sick": 991
  },
  {
    "latitude": 43.616943,
    "pop": 1532000,
    "longitude": 13.516667,
    "name": "Marche",
    "country": "IT",
    "lastUpdated": "2020-03-27T00:46:02.544Z",
    "dead": 310,
    "id": "Zwbjs4XN7P9s849Q3zFj",
    "infected": 3114,
    "recovered": 9,
    "sick": 2795
  },
  {
    "lastUpdated": "2020-03-27T00:42:03.127Z",
    "dead": 3,
    "id": "a9OgUWo6ZSWA3HyF0xnj",
    "infected": 572,
    "recovered": 72,
    "latitude": 51.011,
    "pop": 2137000,
    "longitude": 10.8453,
    "name": "Thüringen",
    "country": "DE",
    "sick": 497
  },
  {
    "recovered": 6,
    "latitude": -30.000233,
    "pop": 1677000,
    "longitude": 136.209152,
    "name": "South Australia",
    "country": "AU",
    "lastUpdated": "2020-03-27T00:40:10.534Z",
    "dead": 0,
    "id": "a9p9pAOsjg1WAjPGc2a6",
    "infected": 235,
    "sick": 229
  },
  {
    "latitude": 37.9643,
    "pop": 6126000,
    "longitude": -91.8318,
    "name": "Missouri",
    "country": "US",
    "lastUpdated": "2020-03-27T00:39:01.872Z",
    "dead": 9,
    "id": "aPubGfQ8ToSEuKJldKRT",
    "infected": 520,
    "recovered": 0,
    "sick": 511
  },
  {
    "id": "aTa8MiBjtH3iY0SRs2HQ",
    "infected": 254,
    "recovered": 250,
    "latitude": 23.64407,
    "pop": 48380000,
    "longitude": 108.26651,
    "name": "Guangxi",
    "country": "CN",
    "lastUpdated": "2020-03-27T00:47:28.347Z",
    "dead": 2,
    "sick": 2
  },
  {
    "longitude": 20.9394,
    "name": "CAR",
    "country": "CF",
    "lastUpdated": "2020-03-27T00:43:05.267Z",
    "dead": 0,
    "id": "adcBUeAYp6ey0ZXCzKNs",
    "infected": 3,
    "recovered": 0,
    "latitude": 6.6111,
    "pop": 4659000,
    "sick": 3
  },
  {
    "lastUpdated": "2020-03-27T00:39:01.845Z",
    "dead": 10,
    "id": "afeZTVC1J1SMMNFxkrcc",
    "infected": 466,
    "recovered": 0,
    "latitude": 37.4316,
    "pop": 8518000,
    "longitude": -78.6569,
    "name": "Virginia",
    "country": "US",
    "sick": 456
  },
  {
    "latitude": 39.904202,
    "pop": 21540000,
    "longitude": 116.407394,
    "name": "Beijing",
    "country": "CN",
    "lastUpdated": "2020-03-27T00:46:49.103Z",
    "dead": 8,
    "id": "alj4hkxg9cjrTxOzwFKt",
    "infected": 566,
    "recovered": 406,
    "sick": 152
  },
  {
    "latitude": 33.22319,
    "pop": 38270000,
    "longitude": 43.679291,
    "name": "Iraq",
    "country": "IQ",
    "lastUpdated": "2020-03-27T00:43:04.615Z",
    "dead": 36,
    "id": "b7TwXX46FA0EmH1CjHET",
    "infected": 382,
    "recovered": 105,
    "sick": 241
  },
  {
    "infected": 105,
    "recovered": 9,
    "latitude": 14.457474,
    "pop": 15850000,
    "longitude": -14.358636,
    "name": "Senegal",
    "country": "SN",
    "lastUpdated": "2020-03-27T00:43:04.857Z",
    "dead": 0,
    "id": "b9p1JhVml3GGC7iiPmKv",
    "sick": 96
  },
  {
    "lastUpdated": "2020-03-27T00:43:05.044Z",
    "dead": 1,
    "id": "bVHiTolbUJGHIeVht3eG",
    "infected": 31,
    "recovered": 1,
    "latitude": -0.0236,
    "pop": 49700000,
    "longitude": 37.9062,
    "name": "Kenya",
    "country": "KE",
    "sick": 29
  },
  {
    "id": "bYp4RRHv19M7lYtSzQeV",
    "infected": 6876,
    "recovered": 0,
    "latitude": 39.561889,
    "pop": 8909000,
    "longitude": -74.672169,
    "name": "New Jersey",
    "country": "US",
    "lastUpdated": "2020-03-27T00:39:01.811Z",
    "dead": 81,
    "sick": 6795
  },
  {
    "infected": 2031,
    "recovered": 215,
    "latitude": 3.139,
    "pop": 31620000,
    "longitude": 101.6869,
    "name": "Malaysia",
    "country": "MY",
    "lastUpdated": "2020-03-27T00:43:04.729Z",
    "dead": 23,
    "id": "bdqD4kpdqGgUaX70Tm2Q",
    "sick": 1793
  },
  {
    "latitude": 60.128162,
    "pop": 10120000,
    "longitude": 18.643501,
    "name": "Sweden",
    "country": "SE",
    "lastUpdated": "2020-03-27T00:43:04.748Z",
    "dead": 77,
    "id": "bignnyt2A8BBx8VNo32p",
    "infected": 2840,
    "recovered": 16,
    "sick": 2747
  },
  {
    "latitude": 40.973765,
    "pop": 2877000,
    "longitude": 20.010162,
    "name": "Albania",
    "country": "AL",
    "lastUpdated": "2020-03-27T00:43:04.693Z",
    "dead": 6,
    "id": "cCGmFmwHOoBrEpvG3qBP",
    "infected": 174,
    "recovered": 17,
    "sick": 151
  },
  {
    "recovered": 0,
    "latitude": 16.871311,
    "pop": 55901000,
    "longitude": 96.199379,
    "name": "Myanmar",
    "country": "MM",
    "lastUpdated": "2020-03-27T00:43:05.138Z",
    "dead": 0,
    "id": "cIbchhSBTuxXmXYgpkdB",
    "infected": 5,
    "sick": 5
  },
  {
    "latitude": -25.953724,
    "pop": 29670000,
    "longitude": 32.588711,
    "name": "Mozambique",
    "country": "MZ",
    "lastUpdated": "2020-03-27T00:43:05.187Z",
    "dead": 0,
    "id": "cO8TChMvQvAtoZMNurTQ",
    "infected": 7,
    "recovered": 0,
    "sick": 7
  },
  {
    "id": "cPxONYsVo6BgvCW9HUeQ",
    "infected": 11,
    "recovered": 0,
    "latitude": 46.8625,
    "pop": 3076000,
    "longitude": 103.8467,
    "name": "Mongolia",
    "country": "MN",
    "lastUpdated": "2020-03-27T00:43:05.134Z",
    "dead": 0,
    "sick": 11
  },
  {
    "recovered": 82,
    "latitude": 64.963051,
    "pop": 364260,
    "longitude": -19.020836,
    "name": "Iceland",
    "country": "IS",
    "lastUpdated": "2020-03-27T00:43:04.663Z",
    "dead": 2,
    "id": "cPxe7nsRnOf6aOPqHElJ",
    "infected": 802,
    "sick": 718
  },
  {
    "id": "cX891t0ONLNFj0MYq6La",
    "infected": 2693,
    "recovered": 68,
    "latitude": 31.046051,
    "pop": 8712000,
    "longitude": 34.851612,
    "name": "Israel",
    "country": "IL",
    "lastUpdated": "2020-03-27T00:43:04.917Z",
    "dead": 8,
    "sick": 2617
  },
  {
    "latitude": 4.749531,
    "pop": 290691,
    "longitude": -53.112909,
    "name": "Guyane",
    "country": "FR",
    "lastUpdated": "2020-03-26T18:19:07.041Z",
    "dead": 0,
    "id": "cc7s6hYGQ2MovBBBgkKb",
    "infected": 28,
    "recovered": 0,
    "sick": 28
  },
  {
    "id": "cgzd5EM8PZv5ziJtTz1w",
    "infected": 140,
    "recovered": 47,
    "latitude": 61.8926,
    "pop": 49290,
    "longitude": -6.9118,
    "name": "Faeroe Islands",
    "country": "FO",
    "lastUpdated": "2020-03-27T00:43:04.875Z",
    "dead": 0,
    "sick": 93
  },
  {
    "latitude": 41.2033,
    "pop": 12810000,
    "longitude": -77.1945,
    "name": "Pennsylvania",
    "country": "US",
    "lastUpdated": "2020-03-27T00:39:01.932Z",
    "dead": 18,
    "id": "chj2FF3zb4Xxcop9RHre",
    "infected": 1795,
    "recovered": 0,
    "sick": 1777
  },
  {
    "latitude": 45.7087,
    "pop": 5987000,
    "longitude": 0.6269,
    "name": "Nouvelle-Aquitaine",
    "country": "FR",
    "lastUpdated": "2020-03-26T18:19:06.752Z",
    "dead": 0,
    "id": "cpf3Y5PQTYywIm3PrpIQ",
    "infected": 912,
    "recovered": 0,
    "sick": 912
  },
  {
    "infected": 57786,
    "recovered": 7015,
    "latitude": 40.463669,
    "pop": 46660000,
    "longitude": -3.74922,
    "name": "Spain",
    "country": "ES",
    "lastUpdated": "2020-03-27T00:43:04.661Z",
    "dead": 4365,
    "id": "d0ExINgPaWUBm3l4ioJL",
    "sick": 46406
  },
  {
    "id": "dedMXSYR2k92wkSXNZqn",
    "infected": 224,
    "recovered": 1,
    "latitude": 42.50837,
    "pop": 76965,
    "longitude": 1.517155,
    "name": "Andorra",
    "country": "AD",
    "lastUpdated": "2020-03-27T00:43:04.691Z",
    "dead": 3,
    "sick": 220
  },
  {
    "infected": 130,
    "recovered": 0,
    "latitude": 38.831163,
    "pop": 967171,
    "longitude": -75.375673,
    "name": "Delaware",
    "country": "US",
    "lastUpdated": "2020-03-27T00:39:01.823Z",
    "dead": 1,
    "id": "dzCgqYduzyncjNKU9z6G",
    "sick": 129
  },
  {
    "lastUpdated": "2020-03-27T00:43:04.815Z",
    "dead": 75,
    "id": "dzIcCaUZlbIXuRw0SyDE",
    "infected": 3629,
    "recovered": 26,
    "latitude": 38.9637,
    "pop": 80810000,
    "longitude": 35.2433,
    "name": "Turkey",
    "country": "TR",
    "sick": 3528
  },
  {
    "latitude": 47.516232,
    "pop": 8822000,
    "longitude": 14.550072,
    "name": "Austria",
    "country": "AT",
    "lastUpdated": "2020-03-27T00:43:04.710Z",
    "dead": 49,
    "id": "e3BtI12qbqhE8jypOoZu",
    "infected": 6909,
    "recovered": 112,
    "sick": 6748
  },
  {
    "id": "e3CJgTO8wVbBQZaxqNze",
    "infected": 2726,
    "recovered": 234,
    "latitude": 52.6367,
    "pop": 7963000,
    "longitude": 9.8451,
    "name": "Niedersachsen",
    "country": "DE",
    "lastUpdated": "2020-03-27T00:42:03.058Z",
    "dead": 10,
    "sick": 2482
  },
  {
    "recovered": 124,
    "latitude": 41.097481,
    "pop": 43900000,
    "longitude": 122.310669,
    "name": "Liaoning",
    "country": "CN",
    "lastUpdated": "2020-03-27T00:46:36.388Z",
    "dead": 2,
    "id": "e7P83iImanpd9r36oXK3",
    "infected": 128,
    "sick": 2
  },
  {
    "latitude": 31.230391,
    "pop": 24240000,
    "longitude": 121.473701,
    "name": "Shanghai",
    "country": "CN",
    "lastUpdated": "2020-03-27T00:47:22.146Z",
    "dead": 5,
    "id": "e9pQqQa7CEblCYoDtfKo",
    "infected": 451,
    "recovered": 331,
    "sick": 115
  },
  {
    "latitude": 42.407211,
    "pop": 6902000,
    "longitude": -71.382439,
    "name": "Massachusetts",
    "country": "US",
    "lastUpdated": "2020-03-27T00:39:01.868Z",
    "dead": 25,
    "id": "eCKDGssww4pF7NrxOySu",
    "infected": 2417,
    "recovered": 0,
    "sick": 2392
  },
  {
    "latitude": 43.740451,
    "pop": 38695,
    "longitude": 7.432032,
    "name": "Monaco",
    "country": "MC",
    "lastUpdated": "2020-03-27T00:43:05.235Z",
    "dead": 0,
    "id": "eLgKPNUwYM5MNDAtF6ql",
    "infected": 33,
    "recovered": 1,
    "sick": 32
  },
  {
    "latitude": 47.2805,
    "pop": 2686000,
    "longitude": 4.9994,
    "name": "Bourgogne-Franche-Comté",
    "country": "FR",
    "lastUpdated": "2020-03-26T18:19:07.343Z",
    "dead": 0,
    "id": "ejrjMKfHexGnK52FS9Aa",
    "infected": 1569,
    "recovered": 0,
    "sick": 1569
  },
  {
    "infected": 111,
    "recovered": 2,
    "latitude": 48.0196,
    "pop": 18040000,
    "longitude": 66.9237,
    "name": "Kazakhstan",
    "country": "KZ",
    "lastUpdated": "2020-03-27T00:43:04.593Z",
    "dead": 1,
    "id": "etrmrftkQg6Kbd9seAga",
    "sick": 108
  },
  {
    "infected": 547,
    "recovered": 536,
    "latitude": 30.14208,
    "pop": 81100000,
    "longitude": 102.960701,
    "name": "Sichuan",
    "country": "CN",
    "lastUpdated": "2020-03-27T00:47:15.781Z",
    "dead": 3,
    "id": "eyK5bxFkwdoAouIBvLFM",
    "sick": 8
  },
  {
    "infected": 109,
    "recovered": 23,
    "latitude": 21.473534,
    "pop": 4636000,
    "longitude": 55.975414,
    "name": "Oman",
    "country": "OM",
    "lastUpdated": "2020-03-27T00:43:04.588Z",
    "dead": 0,
    "id": "f9kmlhYtc3WA3kjbWszW",
    "sick": 86
  },
  {
    "latitude": 51.1045,
    "pop": 4081000,
    "longitude": 13.2017,
    "name": "Sachsen",
    "country": "DE",
    "lastUpdated": "2020-03-27T00:42:03.035Z",
    "dead": 8,
    "id": "fGqVm2khm3IBRs709S1f",
    "infected": 1275,
    "recovered": 15,
    "sick": 1252
  },
  {
    "latitude": 47,
    "longitude": 2,
    "name": "Région non communiquée",
    "country": "FR",
    "dead": 1696,
    "lastUpdated": "2020-03-26T21:13:15.501Z",
    "id": "fIp76gl05LhZ0aOxUbhz",
    "infected": 3922,
    "recovered": 4948,
    "sick": 0
  },
  {
    "longitude": 18.7322,
    "name": "Chad",
    "country": "TD",
    "lastUpdated": "2020-03-27T00:43:05.176Z",
    "dead": 0,
    "id": "fJc9CaZGR1OCHaW8Tn4V",
    "infected": 3,
    "recovered": 0,
    "latitude": 15.4542,
    "pop": 14900000,
    "sick": 3
  },
  {
    "infected": 212,
    "recovered": 1,
    "latitude": 31.295929,
    "pop": 9702000,
    "longitude": 36.691952,
    "name": "Jordan",
    "country": "JO",
    "lastUpdated": "2020-03-27T00:43:04.803Z",
    "dead": 0,
    "id": "fK06AziL8wyrcoz7rsmJ",
    "sick": 211
  },
  {
    "recovered": 0,
    "latitude": 27.716933,
    "pop": 21300000,
    "longitude": -81.555239,
    "name": "Florida",
    "country": "US",
    "lastUpdated": "2020-03-27T00:39:01.970Z",
    "dead": 29,
    "id": "fNganaGVPifA4QahEQPS",
    "infected": 2357,
    "sick": 2328
  },
  {
    "id": "fNnE9CD0SttEVrCUo1Ym",
    "infected": 712,
    "recovered": 587,
    "latitude": 35.452016,
    "longitude": 139.664285,
    "name": "Diamond Princess (Cruise)",
    "country": "ZZ",
    "dead": 10,
    "lastUpdated": "2020-03-27T00:40:44.024Z",
    "sick": 115
  },
  {
    "infected": 1297,
    "recovered": 117,
    "latitude": 46.0679,
    "pop": 538223,
    "longitude": 11.1211,
    "name": "P.A. Trento",
    "country": "IT",
    "lastUpdated": "2020-03-27T00:46:02.441Z",
    "dead": 86,
    "id": "fOlU5JggPKOO8jbHh5GD",
    "sick": 1094
  },
  {
    "latitude": 52.52,
    "pop": 3748000,
    "longitude": 13.405,
    "name": "Berlin",
    "country": "DE",
    "lastUpdated": "2020-03-27T00:42:03.054Z",
    "dead": 5,
    "id": "ffKhENYKy3bwsyBLiYtE",
    "infected": 1937,
    "recovered": 6,
    "sick": 1926
  },
  {
    "longitude": 112.255402,
    "name": "Hubei",
    "country": "CN",
    "lastUpdated": "2020-03-27T00:48:14.252Z",
    "dead": 3169,
    "id": "fiJ14DCxw15e3SMemh8R",
    "infected": 67801,
    "recovered": 61201,
    "latitude": 31.160629,
    "pop": 58500000,
    "sick": 3431
  },
  {
    "latitude": 50.4501,
    "pop": 42220000,
    "longitude": 30.5234,
    "name": "Ukraine",
    "country": "UA",
    "lastUpdated": "2020-03-27T00:43:04.750Z",
    "dead": 5,
    "id": "flbZ2kaR5kBuV8XZ2Nsu",
    "infected": 196,
    "recovered": 1,
    "sick": 190
  },
  {
    "latitude": 41.2044,
    "pop": 6202000,
    "longitude": 74.7661,
    "name": "Kyrgyzstan",
    "country": "KG",
    "lastUpdated": "2020-03-27T00:43:05.151Z",
    "dead": 0,
    "id": "fst48lrFxiMJbQPf4nur",
    "infected": 44,
    "recovered": 0,
    "sick": 44
  },
  {
    "latitude": 52.132633,
    "pop": 17180000,
    "longitude": 5.291266,
    "name": "Netherlands",
    "country": "NL",
    "lastUpdated": "2020-03-27T00:43:04.669Z",
    "dead": 434,
    "id": "g0lRMtEJbucWIGqSPn0I",
    "infected": 7431,
    "recovered": 3,
    "sick": 6994
  },
  {
    "id": "gIdgxJZfTl2QOSYEwMAz",
    "infected": 335,
    "recovered": 0,
    "latitude": 34.69522,
    "pop": 3014000,
    "longitude": -92.288012,
    "name": "Arkansas",
    "country": "US",
    "lastUpdated": "2020-03-27T00:39:01.891Z",
    "dead": 2,
    "sick": 333
  },
  {
    "infected": 5,
    "recovered": 0,
    "latitude": 4.8604159,
    "pop": 777859,
    "longitude": -58.9301796,
    "name": "Guyana",
    "country": "GY",
    "lastUpdated": "2020-03-27T00:43:05.216Z",
    "dead": 1,
    "id": "gXd2X2PjmGP0XVwxpWqT",
    "sick": 4
  },
  {
    "id": "gYDsNgvuvtbg8t77w6FS",
    "infected": 46,
    "recovered": 0,
    "latitude": 43.9695,
    "pop": 882235,
    "longitude": -99.9018,
    "name": "South Dakota",
    "country": "US",
    "lastUpdated": "2020-03-27T00:39:01.859Z",
    "dead": 1,
    "sick": 45
  },
  {
    "lastUpdated": "2020-03-27T00:43:04.681Z",
    "dead": 0,
    "id": "h9UqxYZ5xC4JZrmdDz0q",
    "infected": 134,
    "recovered": 2,
    "latitude": 35.894231,
    "pop": 493559,
    "longitude": 14.432846,
    "name": "Malta",
    "country": "MT",
    "sick": 132
  },
  {
    "latitude": 28.7041,
    "pop": 18980000,
    "longitude": 77.1025,
    "name": "Delhi",
    "country": "IN",
    "lastUpdated": "2020-03-27T00:41:02.171Z",
    "dead": 1,
    "id": "hqwsh1rmvkWI3LFUVuMk",
    "infected": 36,
    "recovered": 6,
    "sick": 29
  },
  {
    "longitude": 104.28611,
    "name": "Gansu",
    "country": "CN",
    "lastUpdated": "2020-03-27T00:46:55.387Z",
    "dead": 2,
    "id": "iGkTscdD0XyHFSP23Qrp",
    "infected": 136,
    "recovered": 121,
    "latitude": 35.751835,
    "pop": 25580000,
    "sick": 13
  },
  {
    "latitude": 34.8021,
    "pop": 18270000,
    "longitude": 38.9968,
    "name": "Syria",
    "country": "SY",
    "lastUpdated": "2020-03-27T00:43:05.163Z",
    "dead": 0,
    "id": "iHf1IZQP3CA3sT2erzyh",
    "infected": 5,
    "recovered": 0,
    "sick": 5
  },
  {
    "latitude": 10.8505,
    "pop": 34800000,
    "longitude": 76.2711,
    "name": "Kerala",
    "country": "IN",
    "lastUpdated": "2020-03-27T00:41:02.204Z",
    "dead": 0,
    "id": "idymmgoqLHImnBdyC7r7",
    "infected": 118,
    "recovered": 6,
    "sick": 112
  },
  {
    "dead": 0,
    "lastUpdated": "2020-03-27T00:43:04.653Z",
    "id": "iwcBlwhnL6MDiXogzf8g",
    "infected": 0,
    "recovered": 170,
    "latitude": -25.2744,
    "longitude": 133.7751,
    "name": "Unknown Australian state",
    "country": "AU",
    "sick": 0
  },
  {
    "longitude": -61.551,
    "name": "Guadeloupe",
    "country": "FR",
    "lastUpdated": "2020-03-26T18:19:06.941Z",
    "dead": 0,
    "id": "j8eMjjqNAqHAJhAKdBYN",
    "infected": 76,
    "recovered": 0,
    "latitude": 16.265,
    "pop": 395700,
    "sick": 76
  },
  {
    "lastUpdated": "2020-03-27T00:42:03.117Z",
    "dead": 8,
    "id": "jKn2pIFlIBScjb47GjRX",
    "infected": 1873,
    "recovered": 7,
    "latitude": 50.1183,
    "pop": 4074000,
    "longitude": 7.309,
    "name": "Rheinland-Pfalz",
    "country": "DE",
    "sick": 1858
  },
  {
    "id": "jMlHjIOb7eMPSxFBrmG1",
    "infected": 151,
    "recovered": 133,
    "latitude": 39.343357,
    "pop": 15000000,
    "longitude": 117.361649,
    "name": "Tianjin",
    "country": "CN",
    "lastUpdated": "2020-03-27T00:46:22.051Z",
    "dead": 3,
    "sick": 15
  },
  {
    "longitude": -88.4976501,
    "name": "Belize",
    "country": "BZ",
    "lastUpdated": "2020-03-27T00:43:05.242Z",
    "dead": 0,
    "id": "jOc8JUDWxCmquh49oZxV",
    "infected": 2,
    "recovered": 0,
    "latitude": 17.1898766,
    "pop": 397000,
    "sick": 2
  },
  {
    "infected": 158,
    "recovered": 0,
    "latitude": 44.5588,
    "pop": 629299,
    "longitude": -72.5778,
    "name": "Vermont",
    "country": "US",
    "lastUpdated": "2020-03-27T00:39:01.855Z",
    "dead": 9,
    "id": "jPC0eOG50FWknCDe3K6P",
    "sick": 149
  },
  {
    "infected": 1819,
    "recovered": 5,
    "latitude": 53.3498,
    "pop": 4830000,
    "longitude": -6.2603,
    "name": "Ireland",
    "country": "IE",
    "lastUpdated": "2020-03-27T00:43:04.792Z",
    "dead": 19,
    "id": "jpVXEDCyfyq26gPoCtHL",
    "sick": 1795
  },
  {
    "latitude": 40.078072,
    "pop": 1648000,
    "longitude": 9.283447,
    "name": "Sardegna",
    "country": "IT",
    "lastUpdated": "2020-03-27T00:46:02.339Z",
    "dead": 19,
    "id": "kF99avagXvBfZTHv9ETi",
    "infected": 494,
    "recovered": 13,
    "sick": 462
  },
  {
    "latitude": 11.572076,
    "pop": 956985,
    "longitude": 43.145645,
    "name": "Djibouti",
    "country": "DJ",
    "lastUpdated": "2020-03-27T00:43:05.259Z",
    "dead": 0,
    "id": "l4nYeaqwy2yrEVqnijFj",
    "infected": 11,
    "recovered": 0,
    "sick": 11
  },
  {
    "recovered": 0,
    "latitude": 44.0682,
    "pop": 1754000,
    "longitude": -114.742,
    "name": "Idaho",
    "country": "US",
    "lastUpdated": "2020-03-27T00:39:01.857Z",
    "dead": 3,
    "id": "l7fHSKOmcaRX3tq9FCT6",
    "infected": 146,
    "sick": 143
  },
  {
    "id": "lAKH5Wfg4GhaM54VElFN",
    "infected": 1182,
    "recovered": 22,
    "latitude": 40.816666,
    "pop": 4048000,
    "longitude": 16.549999,
    "name": "Puglia",
    "country": "IT",
    "lastUpdated": "2020-03-27T00:46:02.434Z",
    "dead": 65,
    "sick": 1095
  },
  {
    "infected": 65,
    "recovered": 0,
    "latitude": 10.6918,
    "pop": 1369000,
    "longitude": -61.2225,
    "name": "Trinidad and Tobago",
    "country": "TT",
    "lastUpdated": "2020-03-27T00:43:05.046Z",
    "dead": 1,
    "id": "lfLdfRP7hyiA6MVnQqqn",
    "sick": 64
  },
  {
    "lastUpdated": "2020-03-27T00:43:05.105Z",
    "dead": 1,
    "id": "lgqPuia1S3ApA5Lsl2la",
    "infected": 5,
    "recovered": 0,
    "latitude": 16.5388,
    "pop": 546388,
    "longitude": -23.0418,
    "name": "Cape Verde",
    "country": "CV",
    "sick": 4
  },
  {
    "infected": 76,
    "recovered": 73,
    "latitude": 42.524635,
    "pop": 21810000,
    "longitude": 87.539589,
    "name": "Xinjiang",
    "country": "CN",
    "lastUpdated": "2020-03-27T00:44:54.317Z",
    "dead": 3,
    "id": "lhPjpn6CzqTRDN0RW8uE",
    "sick": 0
  },
  {
    "lastUpdated": "2020-03-27T00:43:05.287Z",
    "dead": 0,
    "id": "m45gI2UbWMuTrOnTtp9k",
    "infected": 13,
    "recovered": 8,
    "latitude": 3.2028,
    "pop": 436330,
    "longitude": 73.2207,
    "name": "Maldives",
    "country": "MV",
    "sick": 5
  },
  {
    "infected": 4,
    "recovered": 0,
    "latitude": 41.9029,
    "pop": 1000,
    "longitude": 12.4534,
    "name": "Vatican City",
    "country": "VA",
    "lastUpdated": "2020-03-27T00:43:05.092Z",
    "dead": 0,
    "id": "mF7rVMdVnazAuw8G22xs",
    "sick": 4
  },
  {
    "recovered": 1,
    "latitude": 19.7515,
    "pop": 114200000,
    "longitude": 75.7139,
    "name": "Maharashtra",
    "country": "IN",
    "lastUpdated": "2020-03-27T00:41:02.122Z",
    "dead": 3,
    "id": "mJtdLs4ub6CkcAOeMWUm",
    "infected": 124,
    "sick": 120
  },
  {
    "id": "mSACWVbCy5QE7ciLA93J",
    "infected": 1306,
    "recovered": 22,
    "latitude": -33.4489,
    "pop": 18050000,
    "longitude": -70.6693,
    "name": "Chile",
    "country": "CL",
    "lastUpdated": "2020-03-27T00:43:04.808Z",
    "dead": 4,
    "sick": 1280
  },
  {
    "latitude": -6.369,
    "pop": 57310000,
    "longitude": 34.8888,
    "name": "Tanzania",
    "country": "TZ",
    "lastUpdated": "2020-03-27T00:43:05.128Z",
    "dead": 0,
    "id": "mnew3ojzmWV0dWSPfCQ9",
    "infected": 13,
    "recovered": 0,
    "sick": 13
  },
  {
    "infected": 6,
    "recovered": 0,
    "latitude": 15.1794,
    "pop": 4475000,
    "longitude": 39.7823,
    "name": "Eritrea",
    "country": "ER",
    "lastUpdated": "2020-03-27T00:43:05.261Z",
    "dead": 0,
    "id": "n6OSwOVBdUie3xeZJmOf",
    "sick": 6
  },
  {
    "latitude": 35.693323,
    "pop": 6770000,
    "longitude": -86.605748,
    "name": "Tennessee",
    "country": "US",
    "lastUpdated": "2020-03-27T00:39:01.975Z",
    "dead": 3,
    "id": "nLhJXE2apq8yNNj363ai",
    "infected": 1097,
    "recovered": 0,
    "sick": 1094
  },
  {
    "infected": 7,
    "recovered": 0,
    "latitude": -4.6796,
    "pop": 95843,
    "longitude": 55.492,
    "name": "Seychelles",
    "country": "SC",
    "lastUpdated": "2020-03-27T00:43:05.250Z",
    "dead": 0,
    "id": "oB5fSyjWJ0FbNAkssuci",
    "sick": 7
  },
  {
    "id": "oJ5vSDE9vgXC2PG8LElp",
    "infected": 275,
    "recovered": 8,
    "latitude": 31.893778,
    "pop": 35740000,
    "longitude": -6.196132,
    "name": "Morocco",
    "country": "MA",
    "lastUpdated": "2020-03-27T00:43:04.678Z",
    "dead": 11,
    "sick": 256
  },
  {
    "infected": 1753,
    "recovered": 0,
    "latitude": 50.4801,
    "pop": 5978000,
    "longitude": 2.7937,
    "name": "Hauts-de-France",
    "country": "FR",
    "lastUpdated": "2020-03-26T18:19:06.837Z",
    "dead": 0,
    "id": "ofWLu9EuQoK2nHjwU1mA",
    "sick": 1753
  },
  {
    "infected": 3,
    "recovered": 0,
    "latitude": 31.1048,
    "pop": 6856000,
    "longitude": 77.1734,
    "name": "Himachal Pradesh",
    "country": "IN",
    "lastUpdated": "2020-03-27T00:41:02.223Z",
    "dead": 1,
    "id": "oqLEd2Z9P3FJeQsfIk8e",
    "sick": 2
  },
  {
    "latitude": -20.917574,
    "pop": 5071000,
    "longitude": 142.702789,
    "name": "Queensland",
    "country": "AU",
    "lastUpdated": "2020-03-27T00:49:18.119Z",
    "dead": 1,
    "id": "oxz2l1rJipCsfMfy8Mmk",
    "infected": 493,
    "recovered": 8,
    "sick": 484
  },
  {
    "latitude": 47.121647,
    "pop": 38310000,
    "longitude": 128.738235,
    "name": "Heilongjiang",
    "country": "CN",
    "lastUpdated": "2020-03-27T00:46:30.337Z",
    "dead": 13,
    "id": "p1aZboN4BtRJe7hPl8cw",
    "infected": 484,
    "recovered": 469,
    "sick": 2
  },
  {
    "id": "pFhBwPnGGpQ6DLppJ6YS",
    "infected": 990,
    "recovered": 984,
    "latitude": 32.026379,
    "pop": 62000000,
    "longitude": 117.252747,
    "name": "Anhui",
    "country": "CN",
    "lastUpdated": "2020-03-27T00:48:06.640Z",
    "dead": 6,
    "sick": 0
  },
  {
    "infected": 2,
    "recovered": 0,
    "latitude": 2.046934,
    "pop": 14740000,
    "longitude": 45.318161,
    "name": "Somalia",
    "country": "SO",
    "lastUpdated": "2020-03-27T00:43:05.245Z",
    "dead": 0,
    "id": "pHrUAOBW5WDdMsVWpEEi",
    "sick": 2
  },
  {
    "infected": 6,
    "recovered": 0,
    "latitude": 21.2787,
    "pop": 25550000,
    "longitude": 81.8661,
    "name": "Chhattisgarh",
    "country": "IN",
    "lastUpdated": "2020-03-27T00:41:02.148Z",
    "dead": 0,
    "id": "pu6AXEsDnpmmqnhajobN",
    "sick": 6
  },
  {
    "longitude": -77.0369,
    "name": "Washington, D.C.",
    "country": "US",
    "lastUpdated": "2020-03-27T00:39:01.982Z",
    "dead": 3,
    "id": "q5cfvHprVTraL1yXnhDx",
    "infected": 231,
    "recovered": 0,
    "latitude": 38.9072,
    "pop": 633427,
    "sick": 228
  },
  {
    "latitude": -26.190439,
    "pop": 2589000,
    "longitude": 123.325947,
    "name": "Western Australia",
    "country": "AU",
    "lastUpdated": "2020-03-27T00:49:05.903Z",
    "dead": 2,
    "id": "qnQ0dkxAxnDP01YpdZgk",
    "infected": 231,
    "recovered": 1,
    "sick": 228
  },
  {
    "lastUpdated": "2020-03-27T00:43:04.715Z",
    "dead": 220,
    "id": "qpAxVz0garcS0gNZxtOw",
    "infected": 6235,
    "recovered": 675,
    "latitude": 50.503887,
    "pop": 11400000,
    "longitude": 4.469936,
    "name": "Belgium",
    "country": "BE",
    "sick": 5340
  },
  {
    "infected": 52,
    "recovered": 0,
    "latitude": 39,
    "pop": 1806000,
    "longitude": -80.5,
    "name": "West Virginia",
    "country": "US",
    "lastUpdated": "2020-03-27T00:39:01.837Z",
    "dead": 0,
    "id": "qrYN2o4c4gAK3ffF5JIw",
    "sick": 52
  },
  {
    "infected": 1563,
    "recovered": 0,
    "latitude": 31,
    "pop": 28700000,
    "longitude": -100,
    "name": "Texas",
    "country": "US",
    "lastUpdated": "2020-03-27T00:39:01.896Z",
    "dead": 21,
    "id": "qsrWiq0qCmIG66hpWojP",
    "sick": 1542
  },
  {
    "lastUpdated": "2020-03-26T18:19:07.045Z",
    "dead": 0,
    "id": "qyX9xXEuKg3co8yKe3Fl",
    "infected": 1927,
    "recovered": 0,
    "latitude": 43.9352,
    "pop": 5059000,
    "longitude": 6.0679,
    "name": "Provence-Alpes-Côte d’Azur",
    "country": "FR",
    "sick": 1927
  },
  {
    "recovered": 0,
    "latitude": 30.9843,
    "pop": 4660000,
    "longitude": -91.9623,
    "name": "Louisiana",
    "country": "US",
    "lastUpdated": "2020-03-27T00:39:01.853Z",
    "dead": 83,
    "id": "qzuktS0qQVU4PEookjss",
    "infected": 2304,
    "sick": 2221
  },
  {
    "infected": 1,
    "recovered": 0,
    "latitude": 23.1645,
    "pop": 1116000,
    "longitude": 92.9376,
    "name": "Mizoram",
    "country": "IN",
    "lastUpdated": "2020-03-27T00:41:02.195Z",
    "dead": 0,
    "id": "r54PtV0VHsIOc0YPTyhd",
    "sick": 1
  },
  {
    "latitude": 12.5211,
    "pop": 105264,
    "longitude": -69.9683,
    "name": "Aruba",
    "country": "AW",
    "lastUpdated": "2020-03-27T00:43:05.280Z",
    "dead": 0,
    "id": "rKbrli0DkAmp1UpbrqHQ",
    "infected": 28,
    "recovered": 1,
    "sick": 27
  },
  {
    "recovered": 20,
    "latitude": 14.058324,
    "pop": 95540000,
    "longitude": 108.277199,
    "name": "Vietnam",
    "country": "VN",
    "lastUpdated": "2020-03-27T00:43:04.885Z",
    "dead": 0,
    "id": "rKnSEyG03ak4YmGzonlg",
    "infected": 153,
    "sick": 133
  },
  {
    "lastUpdated": "2020-03-27T00:43:05.058Z",
    "dead": 0,
    "id": "rS04qvFoAknfeZsL2w5f",
    "infected": 12,
    "recovered": 0,
    "latitude": 1.6508009,
    "pop": 1268000,
    "longitude": 10.2678947,
    "name": "Equatorial Guinea",
    "country": "GQ",
    "sick": 12
  },
  {
    "infected": 35,
    "recovered": 0,
    "latitude": -12.8275,
    "pop": 270372,
    "longitude": 45.1662,
    "name": "Mayotte",
    "country": "FR",
    "lastUpdated": "2020-03-26T18:19:06.849Z",
    "dead": 0,
    "id": "rUQ6Z3pmWTPVlqEUSmN7",
    "sick": 35
  },
  {
    "recovered": 1222,
    "latitude": 29.159849,
    "pop": 57370000,
    "longitude": 120.326447,
    "name": "Zhejiang",
    "country": "CN",
    "lastUpdated": "2020-03-27T00:47:09.391Z",
    "dead": 1,
    "id": "rgBVJ4hPofqjjchnroiY",
    "infected": 1243,
    "sick": 20
  },
  {
    "lastUpdated": "2020-03-27T00:46:02.269Z",
    "dead": 28,
    "id": "rqbHQdev461heM0vyE9L",
    "infected": 408,
    "recovered": 2,
    "latitude": 45.734955,
    "pop": 126202,
    "longitude": 7.313076,
    "name": "Valle d'Aosta",
    "country": "IT",
    "sick": 378
  },
  {
    "lastUpdated": "2020-03-27T00:43:04.772Z",
    "dead": 14,
    "id": "rxSafpWsyKhfkV0HTtb4",
    "infected": 3369,
    "recovered": 6,
    "latitude": 60.472023,
    "pop": 5368000,
    "longitude": 8.468946,
    "name": "Norway",
    "country": "NO",
    "sick": 3349
  },
  {
    "longitude": -116.5765,
    "name": "Alberta",
    "country": "CA",
    "lastUpdated": "2020-03-27T00:39:01.839Z",
    "dead": 2,
    "id": "sBFMOzZJdrdXdyLZpweO",
    "infected": 486,
    "recovered": 0,
    "latitude": 53.9333,
    "pop": 4371000,
    "sick": 484
  },
  {
    "id": "sKNhMvgXeyivpNFg02RA",
    "infected": 168,
    "recovered": 161,
    "latitude": 19.566395,
    "pop": 9258000,
    "longitude": 109.949684,
    "name": "Hainan",
    "country": "CN",
    "lastUpdated": "2020-03-27T00:46:41.836Z",
    "dead": 6,
    "sick": 1
  },
  {
    "infected": 580,
    "recovered": 14,
    "latitude": -10.33755,
    "pop": 32170000,
    "longitude": -75.630295,
    "name": "Peru",
    "country": "PE",
    "lastUpdated": "2020-03-27T00:43:04.618Z",
    "dead": 9,
    "id": "sLL1jETcJYjT6g5bfcEG",
    "sick": 557
  },
  {
    "lastUpdated": "2020-03-27T00:46:13.823Z",
    "dead": 6,
    "id": "sgsBhTwHxF1VVnqXbXXp",
    "infected": 319,
    "recovered": 310,
    "latitude": 37.89566,
    "pop": 74700000,
    "longitude": 114.904221,
    "name": "Hebei",
    "country": "CN",
    "sick": 3
  },
  {
    "id": "sjW9OwjFqrOvjVHRXWoR",
    "infected": 79,
    "recovered": 11,
    "latitude": 42.3154,
    "pop": 3717000,
    "longitude": 43.3569,
    "name": "Georgia",
    "country": "GE",
    "lastUpdated": "2020-03-27T00:43:05.273Z",
    "dead": 0,
    "sick": 68
  },
  {
    "infected": 41,
    "recovered": 0,
    "latitude": -23.4425,
    "pop": 6811000,
    "longitude": -58.4438,
    "name": "Paraguay",
    "country": "PY",
    "lastUpdated": "2020-03-27T00:43:05.016Z",
    "dead": 3,
    "id": "t2fq7L9UcXfhuXfQNVRj",
    "sick": 38
  },
  {
    "infected": 396,
    "recovered": 0,
    "latitude": 39.147061,
    "pop": 3161000,
    "longitude": -111.596466,
    "name": "Utah",
    "country": "US",
    "lastUpdated": "2020-03-27T00:39:01.881Z",
    "dead": 1,
    "id": "tSmr8vNsiDhhpXMSBsms",
    "sick": 395
  },
  {
    "latitude": 27.3818,
    "pop": 67370000,
    "longitude": 111.510681,
    "name": "Hunan",
    "country": "CN",
    "lastUpdated": "2020-03-27T00:47:58.311Z",
    "dead": 4,
    "id": "tdNRDDrgvBQqqwzdFGh4",
    "infected": 1018,
    "recovered": 1014,
    "sick": 0
  },
  {
    "infected": 146,
    "recovered": 144,
    "latitude": 26.842964,
    "pop": 34750000,
    "longitude": 107.290283,
    "name": "Guizhou",
    "country": "CN",
    "lastUpdated": "2020-03-27T00:45:08.249Z",
    "dead": 2,
    "id": "tyY4QSHWG9sXqSO9jm0Y",
    "sick": 0
  },
  {
    "lastUpdated": "2020-03-27T00:43:05.111Z",
    "dead": 2,
    "id": "uZg9Xtu4zR5tp12TMpOQ",
    "infected": 81,
    "recovered": 0,
    "latitude": -20.2067,
    "pop": 1265000,
    "longitude": 57.6755,
    "name": "Mauritius",
    "country": "MU",
    "sick": 79
  },
  {
    "infected": 30,
    "recovered": 11,
    "latitude": 29.0588,
    "pop": 25350000,
    "longitude": 76.0856,
    "name": "Haryana",
    "country": "IN",
    "lastUpdated": "2020-03-27T00:41:02.177Z",
    "dead": 0,
    "id": "ubUuY89n0cXVgahI4Ytp",
    "sick": 19
  },
  {
    "lastUpdated": "2020-03-27T00:46:02.138Z",
    "dead": 8,
    "id": "ueDdQxnY3NvbnoCcPaDH",
    "infected": 103,
    "recovered": 14,
    "latitude": 41.6667,
    "pop": 308493,
    "longitude": 14.5,
    "name": "Molise",
    "country": "IT",
    "sick": 81
  },
  {
    "infected": 640,
    "recovered": 631,
    "latitude": 32.93708,
    "pop": 80400000,
    "longitude": 119.151932,
    "name": "Jiangsu",
    "country": "CN",
    "lastUpdated": "2020-03-27T00:45:36.867Z",
    "dead": 0,
    "id": "uvxN28EpGmRq3K9REtBP",
    "sick": 9
  },
  {
    "infected": 500,
    "recovered": 21,
    "latitude": 51.9503,
    "pop": 2277000,
    "longitude": 11.6923,
    "name": "Sachsen-Anhalt",
    "country": "DE",
    "lastUpdated": "2020-03-27T00:42:03.041Z",
    "dead": 2,
    "id": "uxAceZxiizwmo60pyyGn",
    "sick": 477
  },
  {
    "infected": 13,
    "recovered": 1,
    "latitude": 33.7782,
    "pop": 12550000,
    "longitude": 76.5762,
    "name": "Jammu and Kashmir",
    "country": "IN",
    "lastUpdated": "2020-03-27T00:41:02.185Z",
    "dead": 1,
    "id": "v5wfBhxjYTpTMaKko6AW",
    "sick": 11
  },
  {
    "longitude": 30.802498,
    "name": "Egypt",
    "country": "EG",
    "lastUpdated": "2020-03-27T00:43:04.701Z",
    "dead": 24,
    "id": "v8JcH4FHH7BDpJlNNHjv",
    "infected": 495,
    "recovered": 102,
    "latitude": 26.820553,
    "pop": 97550000,
    "sick": 369
  },
  {
    "latitude": 47.288374,
    "pop": 7536000,
    "longitude": -119.928431,
    "name": "Washington",
    "country": "US",
    "lastUpdated": "2020-03-27T00:39:01.947Z",
    "dead": 150,
    "id": "vCUVQn7RK8pkw5y2rvYN",
    "infected": 3207,
    "recovered": 0,
    "sick": 3057
  },
  {
    "infected": 26,
    "recovered": 2,
    "latitude": 18.1096,
    "pop": 2890000,
    "longitude": -77.2975,
    "name": "Jamaica",
    "country": "JM",
    "lastUpdated": "2020-03-27T00:43:04.900Z",
    "dead": 1,
    "id": "vMGALmMJbagxGIbLyFfS",
    "sick": 23
  },
  {
    "lastUpdated": "2020-03-27T00:39:01.843Z",
    "dead": 1,
    "id": "vSMJR4m49MZM15umlC9B",
    "infected": 517,
    "recovered": 0,
    "latitude": 32.3182,
    "pop": 4888000,
    "longitude": -86.9023,
    "name": "Alabama",
    "country": "US",
    "sick": 516
  },
  {
    "infected": 7660,
    "recovered": 0,
    "latitude": 48.8499,
    "pop": 12210000,
    "longitude": 2.637,
    "name": "Ile-de-France",
    "country": "FR",
    "lastUpdated": "2020-03-26T18:19:07.043Z",
    "dead": 0,
    "id": "vSwFXxTSLgzsG25zOJUy",
    "sick": 7660
  },
  {
    "infected": 5,
    "recovered": 0,
    "latitude": 46.5107,
    "pop": 156947,
    "longitude": -63.4168,
    "name": "Prince Edward Island",
    "country": "CA",
    "lastUpdated": "2020-03-27T00:39:01.994Z",
    "dead": 0,
    "id": "vjK6292ALJl5wq8XHw3P",
    "sick": 5
  },
  {
    "recovered": 10457,
    "latitude": 32.42791,
    "pop": 81160000,
    "longitude": 53.688046,
    "name": "Iran",
    "country": "IR",
    "lastUpdated": "2020-03-27T00:43:04.805Z",
    "dead": 2234,
    "id": "vkkXVaqUswO5JsMZx0mX",
    "infected": 29406,
    "sick": 16715
  },
  {
    "latitude": 53.7609,
    "pop": 1369000,
    "longitude": -98.8139,
    "name": "Manitoba",
    "country": "CA",
    "lastUpdated": "2020-03-27T00:39:01.848Z",
    "dead": 0,
    "id": "wCnlOr8oX3DlF0otQrFc",
    "infected": 36,
    "recovered": 0,
    "sick": 36
  },
  {
    "latitude": -34.6037,
    "pop": 44270000,
    "longitude": -58.3816,
    "name": "Argentina",
    "country": "AR",
    "lastUpdated": "2020-03-27T00:43:04.733Z",
    "dead": 12,
    "id": "wEl0cjiA6OcZiI9kaSsF",
    "infected": 589,
    "recovered": 63,
    "sick": 514
  },
  {
    "infected": 2845,
    "recovered": 0,
    "latitude": 44.3148,
    "pop": 9996000,
    "longitude": -85.6024,
    "name": "Michigan",
    "country": "US",
    "lastUpdated": "2020-03-27T00:39:01.808Z",
    "dead": 61,
    "id": "wgRwpPMGBaKLAl1xo1C7",
    "sick": 2784
  },
  {
    "latitude": 21.287261,
    "pop": 1420000,
    "longitude": -157.838954,
    "name": "Hawaii",
    "country": "US",
    "lastUpdated": "2020-03-27T00:39:01.834Z",
    "dead": 0,
    "id": "wi47s9vKxiMqxfgurj3B",
    "infected": 95,
    "recovered": 0,
    "sick": 95
  },
  {
    "infected": 2096,
    "recovered": 155,
    "latitude": 41.9,
    "pop": 5897000,
    "longitude": 12.7167,
    "name": "Lazio",
    "country": "IT",
    "lastUpdated": "2020-03-27T00:46:02.225Z",
    "dead": 106,
    "id": "wj8SKMWy2gkQBhGU3R3L",
    "sick": 1835
  },
  {
    "id": "xFgM48q8JxVPfvQLQDNb",
    "infected": 368,
    "recovered": 23,
    "latitude": 34.08267,
    "pop": 6082000,
    "longitude": 35.918113,
    "name": "Lebanon",
    "country": "LB",
    "lastUpdated": "2020-03-27T00:43:04.706Z",
    "dead": 6,
    "sick": 339
  },
  {
    "infected": 65,
    "recovered": 2,
    "latitude": 9.081999,
    "pop": 190900000,
    "longitude": 8.675277,
    "name": "Nigeria",
    "country": "NG",
    "lastUpdated": "2020-03-27T00:43:05.029Z",
    "dead": 1,
    "id": "xHWPTTpNHEwWv6MqfxP5",
    "sick": 62
  },
  {
    "infected": 51,
    "recovered": 0,
    "latitude": 47.5515,
    "pop": 760077,
    "longitude": -101.002,
    "name": "North Dakota",
    "country": "US",
    "lastUpdated": "2020-03-27T00:39:01.916Z",
    "dead": 0,
    "id": "xQpNodSQfHNHAtG9Onnj",
    "sick": 51
  },
  {
    "latitude": 44.5,
    "pop": 5814000,
    "longitude": -89.5,
    "name": "Wisconsin",
    "country": "US",
    "lastUpdated": "2020-03-27T00:39:01.899Z",
    "dead": 10,
    "id": "xSHgaJlyPxHFWB6hhyng",
    "infected": 728,
    "recovered": 0,
    "sick": 718
  },
  {
    "infected": 12,
    "recovered": 0,
    "latitude": 9.145,
    "pop": 105000000,
    "longitude": 40.4897,
    "name": "Ethiopia",
    "country": "ET",
    "lastUpdated": "2020-03-27T00:43:05.254Z",
    "dead": 0,
    "id": "xY69Nr3VSiZCwD2Qp0SD",
    "sick": 12
  },
  {
    "lastUpdated": "2020-03-27T00:43:05.159Z",
    "dead": 0,
    "id": "xsmRrvV8VRC9SyYWK6ig",
    "infected": 23,
    "recovered": 0,
    "latitude": -18.7669468,
    "pop": 25570000,
    "longitude": 46.8691063,
    "name": "Madagascar",
    "country": "MG",
    "sick": 23
  },