[
  {
    "longitude": -81.7006,
    "name": "San Andrés",
    "latitude": 12.5847,
    "dead": 0,
    "lastUpdated": "2020-07-01T01:15:11.821Z",
    "recovered": 17,
    "infected": 24,
    "id": "01b09TY4vmuZwzVuiRFK",
    "pop": 72600,
    "country": "CO",
    "sick": 7,
    "invisible": false
  },
  {
    "lastUpdated": "2020-07-01T01:15:03.270Z",
    "recovered": 238,
    "infected": 252,
    "id": "0FOJefeLxQYXQ1CnJm9o",
    "pop": 63196,
    "country": "GG",
    "longitude": -2.5895,
    "name": "Guernsey",
    "alwaysShow": false,
    "latitude": 49.4482,
    "dead": 13,
    "sick": 1,
    "invisible": false
  },
  {
    "longitude": 14.333333,
    "name": "Campania",
    "latitude": 41.066666,
    "dead": 432,
    "lastUpdated": "2020-07-01T01:01:01.740Z",
    "recovered": 4077,
    "infected": 4690,
    "state": "72",
    "id": "0GJcws44NSPsDHAuxJhW",
    "pop": 5827000,
    "country": "IT",
    "sick": 181,
    "invisible": false
  },
  {
    "longitude": -70.14222,
    "name": "Tarapacá",
    "latitude": -20.2167,
    "dead": 91,
    "lastUpdated": "2020-07-01T00:51:10.471Z",
    "recovered": 0,
    "infected": 6049,
    "id": "0HDQbiHe462xMCUV5HiI",
    "pop": 383870,
    "country": "CL",
    "sick": 5958,
    "invisible": false
  },
  {
    "latitude": 20.9517,
    "dead": 32,
    "lastUpdated": "2020-07-01T01:11:01.565Z",
    "recovered": 5189,
    "infected": 7065,
    "id": "0VG7S6aaK4eSo59fL9JO",
    "pop": 45990000,
    "country": "IN",
    "longitude": 85.0985,
    "name": "Odisha",
    "sick": 1844,
    "invisible": false
  },
  {
    "recovered": 0,
    "infected": 3782,
    "id": "0XmCRqiK2ZaehoEJvfer",
    "pop": 2990300,
    "country": "MX",
    "longitude": -98.8582,
    "name": "Hidalgo",
    "latitude": 20.4737,
    "dead": 643,
    "lastUpdated": "2020-07-01T01:02:02.074Z",
    "sick": 3139,
    "invisible": false
  },
  {
    "recovered": 45,
    "infected": 97,
    "id": "0jStOpTUNRaQYJqgmRoK",
    "pop": 427246,
    "country": "IN",
    "longitude": 92.6586,
    "name": "Andaman and Nicobar Islands",
    "latitude": 11.7401,
    "dead": 0,
    "lastUpdated": "2020-07-01T01:11:01.567Z",
    "sick": 52,
    "invisible": false
  },
  {
    "latitude": 25.315058,
    "dead": 113,
    "lastUpdated": "2020-07-01T01:16:02.780Z",
    "recovered": 81564,
    "infected": 96088,
    "id": "0m4aECS0Z2DGFEr8ldgI",
    "pop": 2639000,
    "country": "QA",
    "longitude": 51.145517,
    "name": "Qatar",
    "sick": 14411,
    "invisible": false
  },
  {
    "name": "West Bengal",
    "latitude": 22.9868,
    "dead": 668,
    "lastUpdated": "2020-07-01T01:11:01.564Z",
    "recovered": 12130,
    "infected": 18559,
    "id": "0n54EMSDJcRoT1QEvw80",
    "pop": 90320000,
    "country": "IN",
    "longitude": 87.855,
    "sick": 5761,
    "invisible": false
  },
  {
    "latitude": 22.9734,
    "dead": 572,
    "lastUpdated": "2020-07-01T01:11:01.564Z",
    "recovered": 10395,
    "infected": 13593,
    "id": "0s18o5DrDAHjbu5MFcrj",
    "pop": 73340000,
    "country": "IN",
    "longitude": 78.6569,
    "name": "Madhya Pradesh",
    "sick": 2626,
    "invisible": false
  },
  {
    "id": "0tFoopNTs6e4tOoaltu2",
    "country": "US",
    "longitude": -95.7129,
    "invisible": true,
    "name": "Unknown US state",
    "latitude": 37.0902,
    "dead": 0,
    "lastUpdated": "2020-07-01T01:16:02.778Z",
    "recovered": 1143334,
    "infected": 0,
    "sick": 0
  },
  {
    "lastUpdated": "2020-07-01T00:38:10.883Z",
    "recovered": 308,
    "infected": 320,
    "id": "0x2HLhr5z5xAtEdO4iZm",
    "pop": 37330000,
    "country": "CN",
    "longitude": 108.472214,
    "name": "Shaanxi",
    "latitude": 35.64249,
    "dead": 3,
    "sick": 9,
    "invisible": false
  },
  {
    "latitude": 41.643351,
    "dead": 302,
    "lastUpdated": "2020-07-01T01:16:02.785Z",
    "recovered": 2475,
    "infected": 6334,
    "id": "19MvIhipqTyYv1H37Upw",
    "pop": 2077000,
    "country": "MK",
    "longitude": 21.668393,
    "name": "North Macedonia",
    "sick": 3557,
    "invisible": false
  },
  {
    "name": "Newfoundland and Labrador",
    "latitude": 53.1355,
    "dead": 3,
    "lastUpdated": "2020-07-01T01:10:01.420Z",
    "recovered": 0,
    "infected": 261,
    "state": "NL",
    "id": "1DOMOmCWDtva46OVSZLv",
    "pop": 521542,
    "country": "CA",
    "longitude": -57.6604,
    "sick": 258,
    "invisible": false
  },
  {
    "country": "CN",
    "longitude": 96.779286,
    "name": "Qinghai",
    "latitude": 35.801933,
    "dead": 0,
    "lastUpdated": "2020-07-01T00:38:10.886Z",
    "recovered": 18,
    "infected": 18,
    "id": "1Fap7rZu9SIRqf5TG9Dg",
    "pop": 5627000,
    "sick": 0,
    "invisible": false
  },
  {
    "name": "Unknown Mexico state",
    "latitude": 23.6345,
    "dead": 0,
    "lastUpdated": "2020-07-01T01:16:02.780Z",
    "recovered": 134957,
    "infected": 0,
    "id": "1YXQMlVL3fUeDZmcVfJw",
    "pop": 126200000,
    "country": "MX",
    "longitude": -102.5528,
    "invisible": true,
    "sick": 0
  },
  {
    "id": "1at5nIap9H51v32otlQl",
    "pop": 1960000,
    "country": "RU",
    "longitude": 73.3167,
    "name": "Omsk Oblast",
    "latitude": 55.0555,
    "dead": 30,
    "lastUpdated": "2020-07-01T01:00:09.873Z",
    "recovered": 2005,
    "infected": 3615,
    "sick": 1580,
    "invisible": false
  },
  {
    "lastUpdated": "2020-07-01T01:01:01.742Z",
    "recovered": 25836,
    "infected": 31349,
    "state": "21",
    "id": "1eTSQyfp8RoDPeFrIwun",
    "pop": 4376000,
    "country": "IT",
    "longitude": 8.206944,
    "name": "Piemonte",
    "latitude": 44.9,
    "dead": 4090,
    "sick": 1423,
    "invisible": false
  },
  {
    "latitude": 51.993,
    "dead": 0,
    "lastUpdated": "2020-07-01T01:03:01.993Z",
    "recovered": 0,
    "infected": 151,
    "id": "1j1OurxLTpZYuWIWwQ9F",
    "pop": 1003000,
    "country": "PL",
    "longitude": 15.461,
    "name": "Lubuskie",
    "sick": 151,
    "invisible": false
  },
  {
    "latitude": 47.4116,
    "dead": 545,
    "lastUpdated": "2020-07-01T01:16:02.783Z",
    "recovered": 9382,
    "infected": 16613,
    "id": "1qTPB8X3tyLyIdsb5TN3",
    "pop": 3550000,
    "country": "MD",
    "longitude": 28.3699,
    "name": "Moldova",
    "sick": 6686,
    "invisible": false
  },
  {
    "longitude": -95.7129,
    "invisible": true,
    "name": "Federal Bureau of Prisons",
    "latitude": 37.0902,
    "dead": 91,
    "lastUpdated": "2020-07-01T01:17:07.350Z",
    "recovered": 0,
    "infected": 7444,
    "id": "22PJOAThcDFKgSbyQIkD",
    "country": "US",
    "sick": 7353
  },
  {
    "longitude": 88.787865,
    "name": "Tibet",
    "latitude": 30.15336,
    "dead": 0,
    "lastUpdated": "2020-07-01T00:38:10.886Z",
    "recovered": 1,
    "infected": 1,
    "id": "25qIBtsW2nfQj3pwBKg9",
    "pop": 3180000,
    "country": "CN",
    "sick": 0,
    "invisible": false
  },
  {
    "lastUpdated": "2020-07-01T01:16:02.781Z",
    "recovered": 24806,
    "infected": 56385,
    "id": "2KHYUb5t3lwzVVmDjwNX",
    "pop": 264000000,
    "country": "ID",
    "longitude": 115.66779,
    "name": "Indonesia",
    "latitude": -1.572184,
    "dead": 2876,
    "sick": 28703,
    "invisible": false
  },
  {
    "state": "OR",
    "id": "2OrsssmGUs4XCzaZzvTv",
    "pop": 4191000,
    "country": "US",
    "longitude": -120.585594,
    "name": "Oregon",
    "latitude": 43.807191,
    "dead": 207,
    "lastUpdated": "2020-07-01T01:17:07.349Z",
    "recovered": 0,
    "infected": 8656,
    "sick": 8449,
    "invisible": false
  },
  {
    "id": "2c5HBZ1ffkCVXnMYUWnY",
    "pop": 425000,
    "country": "CL",
    "longitude": -70.400002,
    "name": "Antofagasta",
    "latitude": -23.65,
    "dead": 147,
    "lastUpdated": "2020-07-01T00:51:10.472Z",
    "recovered": 0,
    "infected": 8829,
    "sick": 8682,
    "invisible": false
  },
  {
    "name": "Amapá",
    "latitude": 0.035574,
    "dead": 417,
    "lastUpdated": "2020-07-01T01:15:01.559Z",
    "recovered": 0,
    "infected": 28492,
    "state": "AP",
    "id": "2dzhyWsBSPpENWlNew0b",
    "pop": 9029000,
    "country": "BR",
    "longitude": -51.070534,
    "sick": 28075,
    "invisible": false
  },
  {
    "recovered": 153,
    "infected": 155,
    "id": "2jxHvSsxdnom0nPNvOT8",
    "pop": 27460000,
    "country": "CN",
    "longitude": 126.548103,
    "name": "Jilin",
    "latitude": 43.851921,
    "dead": 2,
    "lastUpdated": "2020-07-01T00:38:10.885Z",
    "sick": 0,
    "invisible": false
  },
  {
    "latitude": 36.1408,
    "dead": 0,
    "lastUpdated": "2020-07-01T01:16:02.793Z",
    "recovered": 176,
    "infected": 177,
    "id": "2p11BjSAs3wVyymgqBOe",
    "pop": 34571,
    "country": "GI",
    "longitude": -5.3536,
    "name": "Gibraltar",
    "sick": 1,
    "invisible": false
  },
  {
    "latitude": 47.7516,
    "dead": 546,
    "lastUpdated": "2020-06-30T23:40:56.209Z",
    "recovered": 1943,
    "infected": 4449,
    "id": "2sLNkkHpyaHx7dD3aMDO",
    "pop": 2567000,
    "country": "FR",
    "longitude": 1.6751,
    "name": "Centre-Val de Loire",
    "sick": 1960,
    "invisible": false
  },
  {
    "recovered": 1351,
    "infected": 1441,
    "state": "55",
    "id": "319tiZOMczx1y0DfvOib",
    "pop": 884640,
    "country": "IT",
    "longitude": 12.643751,
    "name": "Umbria",
    "latitude": 42.565044,
    "dead": 80,
    "lastUpdated": "2020-07-01T01:01:01.742Z",
    "sick": 10,
    "invisible": false
  },
  {
    "latitude": 2.43823,
    "dead": 15,
    "lastUpdated": "2020-07-01T01:15:11.821Z",
    "recovered": 147,
    "infected": 359,
    "id": "38T96Q3XNjt5FSJygPed",
    "pop": 1355000,
    "country": "CO",
    "longitude": -76.6131592,
    "name": "Cauca",
    "sick": 197,
    "invisible": false
  },
  {
    "latitude": -13.133896,
    "dead": 24,
    "lastUpdated": "2020-07-01T01:16:02.788Z",
    "recovered": 1329,
    "infected": 1594,
    "id": "3IlPjAbP5qVMn1nlgLTJ",
    "pop": 17090000,
    "country": "ZM",
    "longitude": 27.849332,
    "name": "Zambia",
    "sick": 241,
    "invisible": false
  },
  {
    "lastUpdated": "2020-07-01T01:16:02.792Z",
    "recovered": 315,
    "infected": 548,
    "id": "3LstMSN5XMYBkxbe5HN7",
    "pop": 631219,
    "country": "ME",
    "longitude": 19.3958,
    "name": "Montenegro",
    "latitude": 42.7044,
    "dead": 12,
    "sick": 221,
    "invisible": false
  },
  {
    "recovered": 105,
    "infected": 108,
    "state": "ACT",
    "id": "3OZoQsKrzxZ18EKyfGE6",
    "pop": 418440,
    "country": "AU",
    "longitude": 149.0124,
    "name": "Australian Capital Territory",
    "latitude": -35.4735,
    "dead": 3,
    "lastUpdated": "2020-07-01T00:43:25.098Z",
    "sick": 0,
    "invisible": false
  },
  {
    "recovered": 3194,
    "infected": 4785,
    "id": "3PfzjWjvOkfgxc672BHQ",
    "pop": 608000,
    "country": "RU",
    "longitude": 38.8389,
    "name": "Yaroslavl Oblast",
    "latitude": 57.8992,
    "dead": 19,
    "lastUpdated": "2020-07-01T01:00:09.872Z",
    "sick": 1572,
    "invisible": false
  },
  {
    "id": "3PpqgIUJAtzxo1j7z56i",
    "pop": 321000,
    "country": "RU",
    "longitude": 95.626,
    "name": "Tuva",
    "latitude": 51.8873,
    "dead": 3,
    "lastUpdated": "2020-07-01T01:00:09.872Z",
    "recovered": 1149,
    "infected": 4486,
    "sick": 3334,
    "invisible": false
  },
  {
    "lastUpdated": "2020-07-01T01:11:01.565Z",
    "recovered": 5648,
    "infected": 8408,
    "id": "3cCbnJCsK7mKlTO08K1o",
    "pop": 30940000,
    "country": "IN",
    "longitude": 92.9376,
    "name": "Assam",
    "latitude": 26.2006,
    "dead": 12,
    "sick": 2748,
    "invisible": false
  },
  {
    "latitude": 40.4173,
    "dead": 2890,
    "lastUpdated": "2020-07-01T01:17:07.346Z",
    "recovered": 0,
    "infected": 52419,
    "state": "OH",
    "id": "3fC3bAyIRUquOQOEnQNe",
    "pop": 11690000,
    "country": "US",
    "longitude": -82.9071,
    "name": "Ohio",
    "sick": 49529,
    "invisible": false
  },
  {
    "recovered": 0,
    "infected": 8139,
    "id": "3kFCzJguabtBvXaHxgiu",
    "pop": 3066400,
    "country": "MX",
    "longitude": -107.5,
    "name": "Sinaloa",
    "latitude": 25,
    "dead": 1257,
    "lastUpdated": "2020-07-01T01:02:02.069Z",
    "sick": 6882,
    "invisible": false
  },
  {
    "lastUpdated": "2020-07-01T01:15:11.819Z",
    "recovered": 3691,
    "infected": 8223,
    "id": "3mC2LveOpXV8P1PmQGUj",
    "pop": 4708300,
    "country": "CO",
    "longitude": -76.522224,
    "name": "Valle del Cauca",
    "latitude": 3.420556,
    "dead": 312,
    "sick": 4220,
    "invisible": false
  },
  {
    "recovered": 1622,
    "infected": 4363,
    "id": "4NnFMekRK2m14IlnZZoj",
    "pop": 4420000,
    "country": "MR",
    "longitude": -10.9408,
    "name": "Mauritania",
    "latitude": 21.0079,
    "dead": 129,
    "lastUpdated": "2020-07-01T01:16:02.786Z",
    "sick": 2612,
    "invisible": false
  },
  {
    "latitude": 53.7267,
    "dead": 174,
    "lastUpdated": "2020-07-01T01:10:01.418Z",
    "recovered": 0,
    "infected": 2916,
    "state": "BC",
    "id": "4hfZRUoUgI4a3vrG0GBk",
    "pop": 5071000,
    "country": "CA",
    "longitude": -127.6476,
    "name": "British Columbia",
    "sick": 2742,
    "invisible": false
  },
  {
    "state": "RJ",
    "id": "4kq0z3kh5zt3YAUWxvtE",
    "pop": 17159960,
    "country": "BR",
    "longitude": -43.196388,
    "name": "Rio de Janeiro",
    "latitude": -22.908333,
    "dead": 10080,
    "lastUpdated": "2020-07-01T01:15:01.529Z",
    "recovered": 0,
    "infected": 112611,
    "sick": 102531,
    "invisible": false
  },
  {
    "state": "BA",
    "id": "4yDbkEyqsNzZJjfrciYV",
    "pop": 14812617,
    "country": "BR",
    "longitude": -41.280857,
    "name": "Bahia",
    "latitude": -11.409874,
    "dead": 1853,
    "lastUpdated": "2020-07-01T01:15:01.558Z",
    "recovered": 0,
    "infected": 73307,
    "sick": 71454,
    "invisible": false
  },
  {
    "lastUpdated": "2020-07-01T01:16:02.783Z",
    "recovered": 9715,
    "infected": 17524,
    "id": "4zqzRm2xHn0CDVOUQJ8p",
    "pop": 9898000,
    "country": "AZ",
    "longitude": 47.93802,
    "name": "Azerbaijan",
    "latitude": 40.3426,
    "dead": 213,
    "sick": 7596,
    "invisible": false
  },
  {
    "recovered": 0,
    "infected": 6523,
    "id": "54cfsdsRF76XVHWtZs19",
    "pop": 3672300,
    "country": "MX",
    "longitude": -97.861099,
    "name": "Tamaulipas",
    "latitude": 22.233105,
    "dead": 426,
    "lastUpdated": "2020-07-01T01:02:02.073Z",
    "sick": 6097,
    "invisible": false
  },
  {
    "recovered": 9320,
    "infected": 34442,
    "state": "VLG",
    "id": "57ydD48mLRD2YoyteJZj",
    "pop": 6596000,
    "country": "BE",
    "longitude": 3.7265,
    "name": "Flanders",
    "latitude": 51.0109,
    "dead": 4890,
    "lastUpdated": "2020-07-01T01:07:06.238Z",
    "sick": 20232,
    "invisible": false
  },
  {
    "name": "Bahamas",
    "latitude": 25.025885,
    "dead": 11,
    "lastUpdated": "2020-07-01T01:16:02.793Z",
    "recovered": 87,
    "infected": 104,
    "id": "5MHegCUO9L3LiAU7DDey",
    "pop": 395361,
    "country": "BS",
    "longitude": -78.035889,
    "sick": 6,
    "invisible": false
  },
  {
    "latitude": -31.253218,
    "dead": 49,
    "lastUpdated": "2020-07-01T00:43:25.099Z",
    "recovered": 2784,
    "infected": 3184,
    "state": "NSW",
    "id": "5N16a2OXXRpsEFanw0TC",
    "pop": 7544000,
    "country": "AU",
    "longitude": 146.921097,
    "name": "New South Wales",
    "sick": 351,
    "invisible": false
  },
  {
    "latitude": 6.8769908,
    "dead": 38,
    "lastUpdated": "2020-07-01T01:16:02.788Z",
    "recovered": 279,
    "infected": 2007,
    "id": "5N4PRxsCDzzwk7R200V1",
    "pop": 12580000,
    "country": "SS",
    "longitude": 31.3069782,
    "name": "South Sudan",
    "sick": 1690,
    "invisible": false
  },
  {
    "state": "VC",
    "id": "5Va9A7CXR8AXdUz4HTJj",
    "pop": 4975000,
    "country": "ES",
    "longitude": -0.7533,
    "name": "C. Valenciana",
    "latitude": 39.484,
    "dead": 1432,
    "lastUpdated": "2020-06-30T23:28:26.057Z",
    "recovered": 9970,
    "infected": 15389,
    "sick": 3987,
    "invisible": false
  },
  {
    "recovered": 21,
    "infected": 21,
    "id": "5fg04eyDwFw3kEXnrxez",
    "pop": 280460,
    "country": "NC",
    "longitude": 165.618042,
    "name": "New Caledonia",
    "latitude": -20.9043045,
    "dead": 0,
    "lastUpdated": "2020-07-01T01:16:02.795Z",
    "sick": 0,
    "invisible": false
  },
  {
    "latitude": 28.394857,
    "dead": 29,
    "lastUpdated": "2020-07-01T01:16:02.783Z",
    "recovered": 3194,
    "infected": 13564,
    "id": "5gXZIjRgAvd6xWN1LOv8",
    "pop": 29300000,
    "country": "NP",
    "longitude": 84.124008,
    "name": "Nepal",
    "sick": 10341,
    "invisible": false
  },
  {
    "recovered": 10233,
    "infected": 37514,
    "id": "5pwmh7aSdGRKqRbnuyc0",
    "pop": 104900000,
    "country": "PH",
    "longitude": 121.774017,
    "name": "Philippines",
    "latitude": 12.879721,
    "dead": 1266,
    "lastUpdated": "2020-07-01T01:16:02.782Z",
    "sick": 26015,
    "invisible": false
  },
  {
    "id": "5qtR9nx4BLwu1ODTniaY",
    "pop": 14802190,
    "country": "ZW",
    "longitude": 31.053028,
    "name": "Zimbabwe",
    "latitude": -17.824858,
    "dead": 7,
    "lastUpdated": "2020-07-01T01:16:02.791Z",
    "recovered": 162,
    "infected": 591,
    "sick": 422,
    "invisible": false
  },
  {
    "infected": 7532,
    "recovered": 0,
    "pop": 356890,
    "country": "US",
    "lastUpdated": "2020-07-01T01:17:07.350Z",
    "state": "NA",
    "id": "5vkKgxTaKq1IH0Go357L",
    "longitude": -109.188,
    "invisible": false,
    "name": "Navajo Nation",
    "dead": 363,
    "latitude": 36.0672,
    "sick": 7169
  },
  {
    "latitude": 19.432241,
    "dead": 6456,
    "lastUpdated": "2020-07-01T01:02:02.069Z",
    "recovered": 0,
    "infected": 47437,
    "id": "61E7TGjUwAo9xu6Y6gAH",
    "pop": 8781300,
    "country": "MX",
    "longitude": -99.177254,
    "name": "Ciudad de México",
    "sick": 40981,
    "invisible": false
  },
  {
    "latitude": 54.3873,
    "dead": 44,
    "lastUpdated": "2020-07-01T01:00:09.870Z",
    "recovered": 3590,
    "infected": 6018,
    "id": "63KYOuWe41mvqWQrJbr2",
    "pop": 1012000,
    "country": "RU",
    "longitude": 35.1889,
    "name": "Kaluga Oblast",
    "sick": 2384,
    "invisible": false
  },
  {
    "recovered": 1515,
    "infected": 1817,
    "id": "694ON7d0mRJDeM1gHBTR",
    "pop": 2794000,
    "country": "LT",
    "longitude": 23.804991,
    "name": "Lithuania",
    "latitude": 55.621011,
    "dead": 78,
    "lastUpdated": "2020-07-01T01:16:02.788Z",
    "sick": 224,
    "invisible": false
  },
  {
    "latitude": 51.1781,
    "dead": 0,
    "lastUpdated": "2020-07-01T01:13:23.651Z",
    "recovered": 0,
    "infected": 22850,
    "state": "EN",
    "id": "6IQAsvrmBv0HPdeTnh4x",
    "pop": 9175000,
    "country": "GB",
    "longitude": -0.5596,
    "name": "South East",
    "sick": 22850,
    "invisible": false
  },
  {
    "latitude": 22.396427,
    "dead": 7,
    "lastUpdated": "2020-07-01T01:16:02.789Z",
    "recovered": 1107,
    "infected": 1206,
    "id": "6IcHIIH0zXpY0POmBZTv",
    "pop": 7392000,
    "country": "HK",
    "longitude": 114.109497,
    "name": "Hong Kong",
    "sick": 92,
    "invisible": false
  },
  {
    "country": "BR",
    "longitude": -72.4,
    "name": "Acre",
    "latitude": -8.65,
    "dead": 365,
    "lastUpdated": "2020-07-01T01:15:01.559Z",
    "recovered": 0,
    "infected": 13253,
    "state": "AC",
    "id": "6LQesrx5bHJsVUi1TXBp",
    "pop": 869265,
    "sick": 12888,
    "invisible": false
  },
  {
    "latitude": 9.3077,
    "dead": 21,
    "lastUpdated": "2020-07-01T01:16:02.789Z",
    "recovered": 333,
    "infected": 1199,
    "id": "6SlpghTyB6lpMFvx3g9U",
    "pop": 11180000,
    "country": "BJ",
    "longitude": 2.3158,
    "name": "Benin",
    "sick": 845,
    "invisible": false
  },
  {
    "longitude": 9.5,
    "name": "Lombardia",
    "latitude": 45.6667,
    "dead": 16644,
    "lastUpdated": "2020-07-01T01:01:01.741Z",
    "recovered": 67197,
    "infected": 93901,
    "state": "25",
    "id": "6ZHcvMIzVWIaRnc4R3Qp",
    "pop": 10040000,
    "country": "IT",
    "sick": 10060,
    "invisible": false
  },
  {
    "longitude": 14.5058,
    "name": "Slovenia",
    "latitude": 46.0569,
    "dead": 111,
    "lastUpdated": "2020-07-01T01:16:02.788Z",
    "recovered": 1384,
    "infected": 1600,
    "id": "6ahNiyKDSDAftCctgLH3",
    "pop": 2067000,
    "country": "SI",
    "sick": 105,
    "invisible": false
  },
  {
    "name": "Atacama",
    "latitude": -27.3667908,
    "dead": 2,
    "lastUpdated": "2020-07-01T00:51:10.472Z",
    "recovered": 0,
    "infected": 1043,
    "id": "6nyns7UGGgkU7pxrHf8i",
    "pop": 300000,
    "country": "CL",
    "longitude": -70.331398,
    "sick": 1041,
    "invisible": false
  },
  {
    "longitude": 11.6094,
    "name": "Gabon",
    "latitude": -0.8037,
    "dead": 42,
    "lastUpdated": "2020-07-01T01:16:02.785Z",
    "recovered": 2420,
    "infected": 5394,
    "id": "6pBi38TUgYfFm0bry2uh",
    "pop": 2025000,
    "country": "GA",
    "sick": 2932,
    "invisible": false
  },
  {
    "longitude": -100.9792,
    "name": "San Luis Potosí",
    "latitude": 22.1498,
    "dead": 189,
    "lastUpdated": "2020-07-01T01:02:02.074Z",
    "recovered": 0,
    "infected": 3049,
    "id": "6vjIVg1gSANFZghV7xtS",
    "pop": 2831900,
    "country": "MX",
    "sick": 2860,
    "invisible": false
  },
  {
    "longitude": -62.818544,
    "name": "Saint-Barthélémy",
    "alwaysShow": true,
    "latitude": 17.901672,
    "dead": 0,
    "lastUpdated": "2020-07-01T01:16:02.796Z",
    "recovered": 6,
    "infected": 6,
    "id": "78Ox26bNHDA2Pk2b3Uwn",
    "pop": 9131,
    "country": "FR",
    "sick": 0,
    "invisible": false
  },
  {
    "country": "PL",
    "longitude": 18.633,
    "name": "Pomorskie",
    "latitude": 54.367,
    "dead": 38,
    "lastUpdated": "2020-07-01T01:03:01.992Z",
    "recovered": 0,
    "infected": 667,
    "id": "7JDx6UJiwGSJyL1fChaJ",
    "pop": 2305000,
    "sick": 629,
    "invisible": false
  },
  {
    "lastUpdated": "2020-06-30T23:30:29.978Z",
    "recovered": 125,
    "infected": 139,
    "state": "ML",
    "id": "7UASdZTZ1nPzzBwSTEA9",
    "pop": 84690,
    "country": "ES",
    "longitude": -2.9381,
    "name": "Melilla",
    "latitude": 35.2923,
    "dead": 2,
    "sick": 12,
    "invisible": false
  },
  {
    "name": "Antigua and Barbuda",
    "latitude": 17.0608,
    "dead": 3,
    "lastUpdated": "2020-07-01T01:16:02.794Z",
    "recovered": 22,
    "infected": 69,
    "id": "7hVFcEV7nV0MrQr3LHrl",
    "pop": 102012,
    "country": "AG",
    "longitude": -61.7964,
    "sick": 44,
    "invisible": false
  },
  {
    "lastUpdated": "2020-07-01T01:00:03.025Z",
    "recovered": 45203,
    "infected": 48736,
    "state": "BY",
    "id": "7kCrrlOBE3jN6FtOVNUB",
    "pop": 13000000,
    "country": "DE",
    "longitude": 11.4979,
    "name": "Bayern",
    "latitude": 48.7904,
    "dead": 2636,
    "sick": 897,
    "invisible": false
  },
  {
    "recovered": 2692,
    "infected": 4155,
    "id": "7rYC2iFB50c55Ihgbs4Q",
    "pop": 9773000,
    "country": "HU",
    "longitude": 19.0402,
    "name": "Hungary",
    "latitude": 47.4979,
    "dead": 585,
    "lastUpdated": "2020-07-01T01:16:02.786Z",
    "sick": 878,
    "invisible": false
  },
  {
    "id": "7tqLvLyXcBDK808nJv0m",
    "pop": 1206000,
    "country": "CO",
    "longitude": -74.7813,
    "name": "Barranquilla D.E.",
    "latitude": 10.9685,
    "dead": 645,
    "lastUpdated": "2020-07-01T01:15:11.820Z",
    "recovered": 3845,
    "infected": 12360,
    "sick": 7870,
    "invisible": false
  },
  {
    "lastUpdated": "2020-07-01T01:16:02.784Z",
    "recovered": 10100,
    "infected": 12592,
    "id": "8C0d7WVCjyUGtnc2gUAR",
    "pop": 24050000,
    "country": "CM",
    "longitude": 12.3547,
    "name": "Cameroon",
    "latitude": 7.3697,
    "dead": 313,
    "sick": 2179,
    "invisible": false
  },
  {
    "lastUpdated": "2020-07-01T01:07:06.238Z",
    "recovered": 2796,
    "infected": 6291,
    "state": "BRU",
    "id": "8DOZWbN6bDdgaLXVlUEu",
    "pop": 1209000,
    "country": "BE",
    "longitude": 4.3517,
    "name": "Brussels",
    "latitude": 50.8503,
    "dead": 1481,
    "sick": 2014,
    "invisible": false
  },
  {
    "lastUpdated": "2020-07-01T01:16:02.782Z",
    "recovered": 8928,
    "infected": 32125,
    "id": "8RihJrXw4NQXPxaRxr1u",
    "pop": 11050000,
    "country": "BO",
    "longitude": -63.5887,
    "name": "Bolivia",
    "latitude": -16.2902,
    "dead": 1071,
    "sick": 22126,
    "invisible": false
  },
  {
    "country": "VC",
    "longitude": -61.2872,
    "name": "St. Vincent Grenadines",
    "latitude": 12.9843,
    "dead": 0,
    "lastUpdated": "2020-07-01T01:16:02.794Z",
    "recovered": 29,
    "infected": 29,
    "id": "8ZTySQROQejkDAad0qxQ",
    "pop": 109897,
    "sick": 0,
    "invisible": false
  },
  {
    "name": "Singapore",
    "latitude": 1.352083,
    "dead": 26,
    "lastUpdated": "2020-07-01T01:16:02.782Z",
    "recovered": 38500,
    "infected": 43907,
    "id": "8pA3fM4xC2c2wv1b4TnE",
    "pop": 5621000,
    "country": "SG",
    "longitude": 103.819839,
    "sick": 5381,
    "invisible": false
  },
  {
    "recovered": 2073,
    "infected": 4122,
    "id": "98hwAoohgWEOQVa3NlM5",
    "pop": 3787000,
    "country": "FR",
    "longitude": -1.5536,
    "name": "Pays de la Loire",
    "latitude": 47.2184,
    "dead": 467,
    "lastUpdated": "2020-06-30T23:43:51.719Z",
    "sick": 1582,
    "invisible": false
  },
  {
    "latitude": 19.30754,
    "dead": 196,
    "lastUpdated": "2020-07-01T01:02:02.072Z",
    "recovered": 0,
    "infected": 1984,
    "id": "9DAvxOObTqIvMOU93nlY",
    "pop": 952300,
    "country": "MX",
    "longitude": -90.19885,
    "name": "Campeche",
    "sick": 1788,
    "invisible": false
  },
  {
    "latitude": 12.8628,
    "dead": 572,
    "lastUpdated": "2020-07-01T01:16:02.784Z",
    "recovered": 4014,
    "infected": 9257,
    "id": "9DPOkpIqrFy9mR4e9fuv",
    "pop": 40530000,
    "country": "SD",
    "longitude": 30.2176,
    "name": "Sudan",
    "sick": 4671,
    "invisible": false
  },
  {
    "latitude": 58.5501,
    "dead": 17,
    "lastUpdated": "2020-07-01T01:00:09.874Z",
    "recovered": 906,
    "infected": 1583,
    "id": "9JFYfvpcejMIgYlHpngA",
    "pop": 643000,
    "country": "RU",
    "longitude": 43.9541,
    "name": "Kostroma Oblast",
    "sick": 660,
    "invisible": false
  },
  {
    "name": "Romania",
    "latitude": 45.943161,
    "dead": 1651,
    "lastUpdated": "2020-07-01T01:16:02.782Z",
    "recovered": 19050,
    "infected": 26970,
    "id": "9QcETqEcM2fTv9zRvx5T",
    "pop": 19530000,
    "country": "RO",
    "longitude": 24.966761,
    "sick": 6269,
    "invisible": false
  },
  {
    "recovered": 1238,
    "infected": 2519,
    "id": "9Y5wmCqNCC6ZrenM31uA",
    "pop": 6218000,
    "country": "NI",
    "longitude": -86.251389,
    "name": "Nicaragua",
    "latitude": 12.136389,
    "dead": 83,
    "lastUpdated": "2020-07-01T01:16:02.787Z",
    "sick": 1198,
    "invisible": false
  },
  {
    "longitude": -3.996166,
    "name": "Mali",
    "latitude": 17.5706921,
    "dead": 116,
    "lastUpdated": "2020-07-01T01:16:02.788Z",
    "recovered": 1474,
    "infected": 2181,
    "id": "9dIzxqDSVqPyINkHqwGv",
    "pop": 18540000,
    "country": "ML",
    "sick": 591,
    "invisible": false
  },
  {
    "id": "9p6OCdZbUUwBLA60Gk3W",
    "pop": 5513000,
    "country": "FI",
    "longitude": 25.748152,
    "name": "Finland",
    "latitude": 61.92411,
    "dead": 328,
    "lastUpdated": "2020-07-01T01:16:02.784Z",
    "recovered": 6600,
    "infected": 7214,
    "sick": 286,
    "invisible": false
  },
  {
    "name": "Krasnoyarsk Krai",
    "latitude": 64.248,
    "dead": 120,
    "lastUpdated": "2020-07-01T01:00:09.869Z",
    "recovered": 3827,
    "infected": 8904,
    "id": "A6Us0fpQVCc85SoIqzg3",
    "pop": 2876000,
    "country": "RU",
    "longitude": 95.1104,
    "sick": 4957,
    "invisible": false
  },
  {
    "state": "NH",
    "id": "A84CwQ52kA46Hr7pn6Bm",
    "pop": 1356000,
    "country": "US",
    "longitude": -71.590315,
    "name": "New Hampshire",
    "latitude": 43.311643,
    "dead": 371,
    "lastUpdated": "2020-07-01T01:17:07.349Z",
    "recovered": 0,
    "infected": 5782,
    "sick": 5411,
    "invisible": false
  },
  {
    "recovered": 0,
    "infected": 16813,
    "state": "RI",
    "id": "AEUWUHS65qvjEslew11c",
    "pop": 1057000,
    "country": "US",
    "longitude": -71.412257,
    "name": "Rhode Island",
    "latitude": 41.823261,
    "dead": 950,
    "lastUpdated": "2020-07-01T01:17:07.348Z",
    "sick": 15863,
    "invisible": false
  },
  {
    "lastUpdated": "2020-07-01T01:01:01.740Z",
    "recovered": 23222,
    "infected": 28492,
    "state": "45",
    "id": "AJ9jQ0iyKsafsmf5yHAR",
    "pop": 4453000,
    "country": "IT",
    "longitude": 11.327591,
    "name": "Emilia-Romagna",
    "latitude": 44.498955,
    "dead": 4260,
    "sick": 1010,
    "invisible": false
  },
  {
    "longitude": 7.023,
    "name": "Saarland",
    "latitude": 49.3964,
    "dead": 176,
    "lastUpdated": "2020-07-01T01:00:03.027Z",
    "recovered": 2616,
    "infected": 2826,
    "state": "SL",
    "id": "AKjFRQGnzuuZQhv5Qwx7",
    "pop": 990509,
    "country": "DE",
    "sick": 34,
    "invisible": false
  },
  {
    "latitude": 54.4319,
    "dead": 88,
    "lastUpdated": "2020-07-01T01:00:09.870Z",
    "recovered": 3700,
    "infected": 7202,
    "id": "AOapJ3gElQApd8Gnt8EL",
    "pop": 3493000,
    "country": "RU",
    "longitude": 60.8789,
    "name": "Chelyabinsk Oblast",
    "sick": 3414,
    "invisible": false
  },
  {
    "name": "Maule",
    "latitude": -35.717,
    "dead": 48,
    "lastUpdated": "2020-07-01T00:51:10.472Z",
    "recovered": 0,
    "infected": 5549,
    "id": "APTPgjAsjFi0nsGyJV7M",
    "pop": 1125002,
    "country": "CL",
    "longitude": -71.167,
    "sick": 5501,
    "invisible": false
  },
  {
    "longitude": -42.6043,
    "name": "Greenland",
    "latitude": 71.7069,
    "dead": 0,
    "lastUpdated": "2020-07-01T01:16:02.795Z",
    "recovered": 13,
    "infected": 13,
    "id": "APaZzlGCEeuoLBtzTJMe",
    "pop": 56171,
    "country": "GL",
    "sick": 0,
    "invisible": false
  },
  {
    "name": "Buryatia",
    "latitude": 54.8331,
    "dead": 19,
    "lastUpdated": "2020-07-01T01:00:09.874Z",
    "recovered": 2001,
    "infected": 2924,
    "id": "ATxF6ZoDJ2ibdE6ZRYIX",
    "pop": 984000,
    "country": "RU",
    "longitude": 112.4061,
    "sick": 904,
    "invisible": false
  },
  {
    "name": "Nova Scotia",
    "latitude": 45.65107,
    "dead": 63,
    "lastUpdated": "2020-07-01T01:10:01.419Z",
    "recovered": 0,
    "infected": 1062,
    "state": "NS",
    "id": "AVCpxeh0fuH2WrHWNDYH",
    "pop": 971395,
    "country": "CA",
    "longitude": -63.582687,
    "sick": 999,
    "invisible": false
  },
  {
    "country": "US",
    "longitude": -109.128641,
    "name": "Montana",
    "latitude": 47.012918,
    "dead": 22,
    "lastUpdated": "2020-07-01T01:17:07.350Z",
    "recovered": 0,
    "infected": 967,
    "state": "MT",
    "id": "AcULcZBozObOhwuRKMjJ",
    "pop": 1062000,
    "sick": 945,
    "invisible": false
  },
  {
    "country": "TJ",
    "longitude": 71.2761,
    "name": "Tajikistan",
    "latitude": 38.861,
    "dead": 52,
    "lastUpdated": "2020-07-01T01:16:02.785Z",
    "recovered": 4506,
    "infected": 5900,
    "id": "AiIGs3ybYZZhm1ytVopr",
    "pop": 9275000,
    "sick": 1342,
    "invisible": false
  },
  {
    "longitude": 116.01609,
    "name": "Jiangxi",
    "latitude": 27.285971,
    "dead": 1,
    "lastUpdated": "2020-07-01T00:38:10.885Z",
    "recovered": 931,
    "infected": 932,
    "id": "AmBYm5J6E9Cuez1FQjiN",
    "pop": 45200000,
    "country": "CN",
    "sick": 0,
    "invisible": false
  },
  {
    "latitude": 52.1307,
    "dead": 1510,
    "lastUpdated": "2020-07-01T01:13:23.646Z",
    "recovered": 0,
    "infected": 15743,
    "state": "WA",
    "id": "AoLhHdTydeWTfmp9koEX",
    "pop": 3136000,
    "country": "GB",
    "longitude": -3.7837,
    "name": "Wales",
    "sick": 14233,
    "invisible": false
  },
  {
    "id": "Avls64fLKoEsBFH0Ol0b",
    "pop": 537000,
    "country": "RU",
    "longitude": 90.3982,
    "name": "Khakassia",
    "latitude": 53.0452,
    "dead": 15,
    "lastUpdated": "2020-07-01T01:00:09.874Z",
    "recovered": 1340,
    "infected": 1872,
    "sick": 517,
    "invisible": false
  },
  {
    "latitude": 28.033886,
    "dead": 912,
    "lastUpdated": "2020-07-01T01:16:02.783Z",
    "recovered": 9897,
    "infected": 13907,
    "id": "AwN0CScPDApcLFgz6e3z",
    "pop": 41320000,
    "country": "DZ",
    "longitude": 1.659626,
    "name": "Algeria",
    "sick": 3098,
    "invisible": false
  },
  {
    "name": "Croatia",
    "latitude": 45.099998,
    "dead": 107,
    "lastUpdated": "2020-07-01T01:16:02.787Z",
    "recovered": 2155,
    "infected": 2777,
    "id": "B82Ef45M8cDu4q7VsSHF",
    "pop": 4076000,
    "country": "HR",
    "longitude": 15.2,
    "sick": 515,
    "invisible": false
  },
  {
    "country": "NE",
    "longitude": 8.081666,
    "name": "Niger",
    "latitude": 17.6077881,
    "dead": 67,
    "lastUpdated": "2020-07-01T01:16:02.790Z",
    "recovered": 943,
    "infected": 1075,
    "id": "BENubqQInFUJzhpZTsLT",
    "pop": 23716000,
    "sick": 65,
    "invisible": false
  },
  {
    "lastUpdated": "2020-07-01T01:17:07.346Z",
    "recovered": 0,
    "infected": 67559,
    "state": "MD",
    "id": "BF51mWl51fgEcyBpCSzb",
    "pop": 6043000,
    "country": "US",
    "longitude": -76.98432,
    "name": "Maryland",
    "latitude": 39.509109,
    "dead": 3190,
    "sick": 64369,
    "invisible": false
  },
  {
    "country": "BY",
    "longitude": 27.953388,
    "name": "Belarus",
    "latitude": 53.709808,
    "dead": 392,
    "lastUpdated": "2020-07-01T01:16:02.781Z",
    "recovered": 46054,
    "infected": 62118,
    "id": "BGg6yVU5VP71B8NXU0oh",
    "pop": 9508000,
    "sick": 15672,
    "invisible": false
  },
  {
    "latitude": 48.8799,
    "dead": 433,
    "lastUpdated": "2020-06-30T23:43:22.136Z",
    "recovered": 1651,
    "infected": 3521,
    "id": "BGtoyzb7y54LVlJ91rbf",
    "pop": 3319000,
    "country": "FR",
    "longitude": 0.1713,
    "name": "Normandie",
    "sick": 1437,
    "invisible": false
  },
  {
    "latitude": 50.7772,
    "dead": 0,
    "lastUpdated": "2020-07-01T01:13:23.651Z",
    "recovered": 0,
    "infected": 7959,
    "state": "EN",
    "id": "BQqMOlPFD36ZEDTGd3WC",
    "pop": 5616000,
    "country": "GB",
    "longitude": -3.9995,
    "name": "South West",
    "sick": 7959,
    "invisible": false
  },
  {
    "lastUpdated": "2020-07-01T01:17:07.345Z",
    "recovered": 0,
    "infected": 79215,
    "state": "AZ",
    "id": "BTEESCuD2ZbS1afunR2A",
    "pop": 7172000,
    "country": "US",
    "longitude": -111.093735,
    "name": "Arizona",
    "latitude": 34.048927,
    "dead": 1632,
    "sick": 77583,
    "invisible": false
  },
  {
    "recovered": 2343,
    "infected": 4581,
    "id": "BUb7oDHcBM4lQ5cufNoG",
    "pop": 949000,
    "country": "RU",
    "longitude": 32.6677,
    "name": "Smolensk Oblast",
    "latitude": 54.9883,
    "dead": 65,
    "lastUpdated": "2020-07-01T01:00:09.872Z",
    "sick": 2173,
    "invisible": false
  },
  {
    "lastUpdated": "2020-07-01T01:00:09.873Z",
    "recovered": 2522,
    "infected": 3214,
    "id": "BWojXmuKU3szKlS7CE4k",
    "pop": 1283000,
    "country": "RU",
    "longitude": 50.2097,
    "name": "Kirov Oblast",
    "latitude": 58.4199,
    "dead": 35,
    "sick": 657,
    "invisible": false
  },
  {
    "id": "BZwZOAlDJ8AIiaRVLyC9",
    "pop": 1676000,
    "country": "PL",
    "longitude": 14.552812,
    "name": "Zachodniopomorskie",
    "latitude": 53.428543,
    "dead": 22,
    "lastUpdated": "2020-07-01T01:03:01.993Z",
    "recovered": 0,
    "infected": 611,
    "sick": 589,
    "invisible": false
  },
  {
    "longitude": -70.6693,
    "invisible": true,
    "name": "Unknown Chile region",
    "latitude": -33.4489,
    "dead": 0,
    "lastUpdated": "2020-07-01T01:16:02.779Z",
    "recovered": 241229,
    "infected": 0,
    "id": "BbiuZcm8oURX7cZwaa5U",
    "country": "CL",
    "sick": 0
  },
  {
    "recovered": 260,
    "infected": 1224,
    "id": "BfT8o5DaEixC6JIZ28kY",
    "pop": 18620000,
    "country": "MW",
    "longitude": 34.3015,
    "name": "Malawi",
    "latitude": -13.2543,
    "dead": 14,
    "lastUpdated": "2020-07-01T01:16:02.789Z",
    "sick": 950,
    "invisible": false
  },
  {
    "latitude": -3.3730559,
    "dead": 1,
    "lastUpdated": "2020-07-01T01:16:02.793Z",
    "recovered": 115,
    "infected": 170,
    "id": "BnpMamidC5yYzeK8tPUL",
    "pop": 10860000,
    "country": "BI",
    "longitude": 29.9188862,
    "name": "Burundi",
    "sick": 54,
    "invisible": false
  },
  {
    "lastUpdated": "2020-07-01T01:03:01.986Z",
    "recovered": 0,
    "infected": 5023,
    "id": "BrToMzyq8y2xdwXn75kM",
    "pop": 5385000,
    "country": "PL",
    "longitude": 21.002,
    "name": "Mazowieckie",
    "latitude": 52.257,
    "dead": 330,
    "sick": 4693,
    "invisible": false
  },
  {
    "latitude": -1.333845,
    "dead": 89,
    "lastUpdated": "2020-07-01T01:15:11.823Z",
    "recovered": 1914,
    "infected": 2276,
    "id": "C25xSDm4iYibX5RYML14",
    "pop": 74751,
    "country": "CO",
    "longitude": -71.347573,
    "name": "Amazonas (Colombia)",
    "sick": 273,
    "invisible": false
  },
  {
    "latitude": 40.719042,
    "dead": 32129,
    "lastUpdated": "2020-07-01T01:17:07.344Z",
    "recovered": 0,
    "infected": 417836,
    "state": "NY",
    "id": "C3BCUzV80z9GfiuByIcr",
    "pop": 19540000,
    "country": "US",
    "longitude": -73.982597,
    "name": "New York",
    "sick": 385707,
    "invisible": false
  },
  {
    "recovered": 2,
    "infected": 15,
    "id": "C5YXFiytAc1w9swtVGLz",
    "pop": 42800,
    "country": "CO",
    "longitude": -67.92389,
    "name": "Guainía",
    "latitude": 3.86528,
    "dead": 1,
    "lastUpdated": "2020-07-01T01:15:11.824Z",
    "sick": 12,
    "invisible": false
  },
  {
    "name": "Czechia",
    "latitude": 49.731626,
    "dead": 349,
    "lastUpdated": "2020-07-01T01:16:02.784Z",
    "recovered": 7771,
    "infected": 11954,
    "id": "C6S76AggdWVU8G22jFHQ",
    "pop": 10650000,
    "country": "CZ",
    "longitude": 15.359413,
    "sick": 3834,
    "invisible": false
  },
  {
    "name": "Bahrain",
    "latitude": 26.0667,
    "dead": 87,
    "lastUpdated": "2020-07-01T01:16:02.782Z",
    "recovered": 21331,
    "infected": 26758,
    "id": "C7cj4nwRITs13KnaJrQ2",
    "pop": 1493000,
    "country": "BH",
    "longitude": 50.557701,
    "sick": 5340,
    "invisible": false
  },
  {
    "recovered": 342,
    "infected": 810,
    "id": "CA9LaAl3bNaeAqBuozn4",
    "pop": 1285400,
    "country": "CO",
    "longitude": -74.4057,
    "name": "Magdalena",
    "latitude": 10.4113,
    "dead": 74,
    "lastUpdated": "2020-07-01T01:15:11.822Z",
    "sick": 394,
    "invisible": false
  },
  {
    "lastUpdated": "2020-07-01T01:02:02.072Z",
    "recovered": 0,
    "infected": 4270,
    "id": "CCUFp4urvgXPo5unfMGy",
    "pop": 3073500,
    "country": "MX",
    "longitude": -101.430756,
    "name": "Coahuila",
    "latitude": 26.909979,
    "dead": 215,
    "sick": 4055,
    "invisible": false
  },
  {
    "lastUpdated": "2020-07-01T01:11:01.564Z",
    "recovered": 14220,
    "infected": 18008,
    "id": "CKZCZTPlrcq5fbfUPA9k",
    "pop": 68890000,
    "country": "IN",
    "longitude": 74.2179,
    "name": "Rajasthan",
    "latitude": 27.0238,
    "dead": 413,
    "sick": 3375,
    "invisible": false
  },
  {
    "country": "RU",
    "longitude": 86.2199,
    "name": "Altai",
    "latitude": 50.6182,
    "dead": 0,
    "lastUpdated": "2020-07-01T01:00:09.876Z",
    "recovered": 285,
    "infected": 650,
    "id": "CX8z9U1iABNBhc1VK2Dy",
    "pop": 218000,
    "sick": 365,
    "invisible": false
  },
  {
    "recovered": 3770,
    "infected": 6438,
    "id": "Cgvmtle61ehMvCzRzYx7",
    "pop": 6378000,
    "country": "SV",
    "longitude": -88.9053,
    "name": "El Salvador",
    "latitude": 13.803,
    "dead": 174,
    "lastUpdated": "2020-07-01T01:16:02.785Z",
    "sick": 2494,
    "invisible": false
  },
  {
    "latitude": 62.6643,
    "dead": 4,
    "lastUpdated": "2020-07-01T01:00:09.875Z",
    "recovered": 361,
    "infected": 764,
    "id": "D4WkbqyUXY1pazbOxfKx",
    "pop": 144000,
    "country": "RU",
    "longitude": 153.915,
    "name": "Magadan Oblast",
    "sick": 399,
    "invisible": false
  },
  {
    "id": "DAp3PFow4BuCMYWWTo3i",
    "pop": 1078000,
    "country": "RU",
    "longitude": 82.6765,
    "name": "Tomsk Oblast",
    "latitude": 58.897,
    "dead": 14,
    "lastUpdated": "2020-07-01T01:00:09.874Z",
    "recovered": 1079,
    "infected": 2254,
    "sick": 1161,
    "invisible": false
  },
  {
    "latitude": 40.259003,
    "dead": 443,
    "lastUpdated": "2020-07-01T01:16:02.783Z",
    "recovered": 14048,
    "infected": 25542,
    "id": "DCJCtZoBTWQ4mzdDNljD",
    "pop": 2973000,
    "country": "AM",
    "longitude": 44.818474,
    "name": "Armenia",
    "sick": 11051,
    "invisible": false
  },
  {
    "name": "Boyacá",
    "latitude": 5.535,
    "dead": 11,
    "lastUpdated": "2020-07-01T01:15:11.821Z",
    "recovered": 216,
    "infected": 359,
    "id": "DJJraANgQbEqz1wBBtZz",
    "pop": 1278000,
    "country": "CO",
    "longitude": -73.368,
    "sick": 132,
    "invisible": false
  },
  {
    "name": "Mordovia",
    "latitude": 54.2369,
    "dead": 26,
    "lastUpdated": "2020-07-01T01:00:09.873Z",
    "recovered": 2200,
    "infected": 3394,
    "id": "DKwy7USk22oXUQGEvO42",
    "pop": 834000,
    "country": "RU",
    "longitude": 44.0684,
    "sick": 1168,
    "invisible": false
  },
  {
    "latitude": 53.6221,
    "dead": 0,
    "lastUpdated": "2020-07-01T01:13:23.651Z",
    "recovered": 0,
    "infected": 27303,
    "state": "EN",
    "id": "DPwBt2aJuwF0O71vwfM9",
    "pop": 7300000,
    "country": "GB",
    "longitude": -2.5945,
    "name": "North West",
    "sick": 27303,
    "invisible": false
  },
  {
    "lastUpdated": "2020-07-01T01:16:02.793Z",
    "recovered": 135,
    "infected": 146,
    "id": "DZyTD0Mu5WIcK6yTcJ91",
    "pop": 65440,
    "country": "BM",
    "longitude": -64.75737,
    "name": "Bermuda",
    "latitude": 32.3213844,
    "dead": 9,
    "sick": 2,
    "invisible": false
  },
  {
    "latitude": 21.694,
    "dead": 2,
    "lastUpdated": "2020-07-01T01:16:02.794Z",
    "recovered": 11,
    "infected": 41,
    "id": "DaMrRSIGJXIG36nW0Pnc",
    "pop": 35446,
    "country": "TC",
    "longitude": -71.7979,
    "name": "Turks and Caicos",
    "sick": 28,
    "invisible": false
  },
  {
    "longitude": -3.0977,
    "name": "Castilla La Mancha",
    "latitude": 39.2796,
    "dead": 3026,
    "lastUpdated": "2020-06-30T23:29:03.633Z",
    "recovered": 6392,
    "infected": 26792,
    "state": "CM",
    "id": "Dbng0NBTH41EEwBxhMzE",
    "pop": 2035000,
    "country": "ES",
    "sick": 17374,
    "invisible": false
  },
  {
    "longitude": 20.006,
    "name": "Malopolskie",
    "latitude": 50.023,
    "dead": 44,
    "lastUpdated": "2020-07-01T01:03:01.988Z",
    "recovered": 0,
    "infected": 1745,
    "id": "DcQ3D0WkacXEbv6iznRB",
    "pop": 3361000,
    "country": "PL",
    "sick": 1701,
    "invisible": false
  },
  {
    "recovered": 45,
    "infected": 46,
    "id": "DdBt8qsG6A3g92oOR3ow",
    "pop": 622567,
    "country": "MO",
    "longitude": 113.551262,
    "name": "Macao",
    "latitude": 22.192039,
    "dead": 0,
    "lastUpdated": "2020-07-01T01:16:02.794Z",
    "sick": 1,
    "invisible": false
  },
  {
    "longitude": 91.3662,
    "name": "Meghalaya",
    "latitude": 25.467,
    "dead": 1,
    "lastUpdated": "2020-07-01T01:11:01.567Z",
    "recovered": 42,
    "infected": 53,
    "id": "Dh0O1vmhrVfmsCsfZCUg",
    "pop": 2651000,
    "country": "IN",
    "sick": 10,
    "invisible": false
  },
  {
    "latitude": 47.6853,
    "dead": 125,
    "lastUpdated": "2020-07-01T01:00:09.868Z",
    "recovered": 5744,
    "infected": 9611,
    "id": "DqzAhNFTJFQVm88ma21P",
    "pop": 4220000,
    "country": "RU",
    "longitude": 41.8259,
    "name": "Rostov Oblast",
    "sick": 3742,
    "invisible": false
  },
  {
    "country": "US",
    "longitude": -107.534868,
    "name": "Wyoming",
    "latitude": 42.962334,
    "dead": 20,
    "lastUpdated": "2020-07-01T01:17:07.349Z",
    "recovered": 0,
    "infected": 1487,
    "state": "WY",
    "id": "DrGzziUglmBognCGY7R2",
    "pop": 577737,
    "sick": 1467,
    "invisible": false
  },
  {
    "recovered": 1374,
    "infected": 3409,
    "id": "Dtr1lap1RpJpXJdXGJiW",
    "pop": 10740000,
    "country": "GR",
    "longitude": 23.7275,
    "name": "Greece",
    "latitude": 37.9838,
    "dead": 192,
    "lastUpdated": "2020-07-01T01:16:02.787Z",
    "sick": 1843,
    "invisible": false
  },
  {
    "latitude": 58.8232,
    "dead": 78,
    "lastUpdated": "2020-07-01T01:00:09.873Z",
    "recovered": 2701,
    "infected": 3691,
    "id": "E8vIyXLVNtcY9dxLHICp",
    "pop": 2623000,
    "country": "RU",
    "longitude": 56.5872,
    "name": "Perm Krai",
    "sick": 912,
    "invisible": false
  },
  {
    "lastUpdated": "2020-07-01T01:00:09.873Z",
    "recovered": 1812,
    "infected": 3087,
    "id": "EHKZ6ivhrJUs3XqNDBOw",
    "pop": 3692000,
    "country": "RU",
    "longitude": 66.9483,
    "name": "Tyumen Oblast",
    "latitude": 56.9634,
    "dead": 17,
    "sick": 1258,
    "invisible": false
  },
  {
    "longitude": 121.563698,
    "name": "Taiwan",
    "latitude": 25.03841,
    "dead": 7,
    "lastUpdated": "2020-07-01T01:16:02.792Z",
    "recovered": 437,
    "infected": 447,
    "id": "EKTfs8e7M6DXzI1HqyyX",
    "pop": 23780000,
    "country": "TW",
    "sick": 3,
    "invisible": false
  },
  {
    "id": "EQzJvzVHKjs8kLmK7BMu",
    "pop": 4906000,
    "country": "CR",
    "longitude": -84.387618,
    "name": "Costa Rica",
    "latitude": 10.327273,
    "dead": 16,
    "lastUpdated": "2020-07-01T01:16:02.786Z",
    "recovered": 1436,
    "infected": 3459,
    "sick": 2007,
    "invisible": false
  },
  {
    "lastUpdated": "2020-07-01T01:11:01.564Z",
    "recovered": 23670,
    "infected": 32643,
    "id": "ERwk9R9en4m9WbdoMbIg",
    "pop": 62700000,
    "country": "IN",
    "longitude": 71.1924,
    "name": "Gujarat",
    "latitude": 22.2587,
    "dead": 1848,
    "sick": 7125,
    "invisible": false
  },
  {
    "recovered": 2688,
    "infected": 5556,
    "id": "EVMBsgCJedjHy91mDYEC",
    "pop": 1155000,
    "country": "RU",
    "longitude": 42.5884,
    "name": "Arkhangelsk Oblast",
    "latitude": 63.2853,
    "dead": 58,
    "lastUpdated": "2020-07-01T01:00:09.871Z",
    "sick": 2810,
    "invisible": false
  },
  {
    "recovered": 364,
    "infected": 440,
    "id": "Esl5UlCVB9s8pmGB5Ofr",
    "pop": 1055000,
    "country": "IN",
    "longitude": 76.7794,
    "name": "Chandigarh",
    "latitude": 30.7333,
    "dead": 6,
    "lastUpdated": "2020-07-01T01:11:01.566Z",
    "sick": 70,
    "invisible": false
  },
  {
    "name": "Lubelskie",
    "latitude": 51.24,
    "dead": 18,
    "lastUpdated": "2020-07-01T01:03:01.992Z",
    "recovered": 0,
    "infected": 651,
    "id": "Esy1La2CxwH5uB8bGVWZ",
    "pop": 2148000,
    "country": "PL",
    "longitude": 22.653,
    "sick": 633,
    "invisible": false
  },
  {
    "lastUpdated": "2020-07-01T01:17:07.350Z",
    "state": "PR",
    "id": "F4rPrEVGAIMM5rfPEMv4",
    "longitude": -66.664513,
    "name": "Puerto Rico",
    "alwaysShow": true,
    "dead": 153,
    "latitude": 18.200178,
    "infected": 7465,
    "recovered": 0,
    "pop": 3195000,
    "country": "US",
    "sick": 7312,
    "invisible": false
  },
  {
    "country": "CO",
    "longitude": -74.058655,
    "name": "Cundinamarca",
    "latitude": 4.862437,
    "dead": 55,
    "lastUpdated": "2020-07-01T01:15:11.820Z",
    "recovered": 1332,
    "infected": 2574,
    "id": "F7MED5VwEhi3JvJu6KjB",
    "pop": 2919000,
    "sick": 1187,
    "invisible": false
  },
  {
    "recovered": 200,
    "infected": 303,
    "id": "F8LnLqvuWoWh8awBqiw1",
    "pop": 832322,
    "country": "KM",
    "longitude": 43.3333,
    "name": "Comoros",
    "latitude": -11.6455,
    "dead": 7,
    "lastUpdated": "2020-07-01T01:16:02.792Z",
    "sick": 96,
    "invisible": false
  },
  {
    "longitude": 67.709953,
    "name": "Afghanistan",
    "latitude": 33.93911,
    "dead": 746,
    "lastUpdated": "2020-07-01T01:16:02.782Z",
    "recovered": 14131,
    "infected": 31517,
    "id": "FCDmlmnIIswd8bQiUjfN",
    "pop": 35530000,
    "country": "AF",
    "sick": 16640,
    "invisible": false
  },
  {
    "recovered": 573,
    "infected": 582,
    "id": "FErOU1m4Tj7jIkRam3vF",
    "pop": 30480000,
    "country": "CN",
    "longitude": 106.912254,
    "name": "Chongqing",
    "latitude": 29.431585,
    "dead": 6,
    "lastUpdated": "2020-07-01T00:38:10.884Z",
    "sick": 3,
    "invisible": false
  },
  {
    "latitude": 29.311661,
    "dead": 354,
    "lastUpdated": "2020-07-01T01:16:02.781Z",
    "recovered": 37030,
    "infected": 46195,
    "id": "FZsUkhxBEgqsPb4eO0PN",
    "pop": 4137000,
    "country": "KW",
    "longitude": 47.481766,
    "name": "Kuwait",
    "sick": 8811,
    "invisible": false
  },
  {
    "state": "SE",
    "id": "FboWeolpM62SZCLwdilT",
    "pop": 2278308,
    "country": "BR",
    "longitude": -37.0717,
    "name": "Sergipe",
    "latitude": -10.9111,
    "dead": 676,
    "lastUpdated": "2020-07-01T01:15:01.559Z",
    "recovered": 0,
    "infected": 25411,
    "sick": 24735,
    "invisible": false
  },
  {
    "country": "IN",
    "longitude": 78.6569,
    "name": "Tamil Nadu",
    "latitude": 11.1271,
    "dead": 1201,
    "lastUpdated": "2020-07-01T01:11:01.564Z",
    "recovered": 50074,
    "infected": 90167,
    "id": "FeS45oMNC27pI17F0xEV",
    "pop": 67860000,
    "sick": 38892,
    "invisible": false
  },
  {
    "longitude": -70.430399,
    "name": "Dominican Republic",
    "latitude": 18.947829,
    "dead": 747,
    "lastUpdated": "2020-07-01T01:16:02.782Z",
    "recovered": 17580,
    "infected": 32568,
    "id": "FuiVEJvWb0QMCpxJ3563",
    "pop": 10770000,
    "country": "DO",
    "sick": 14241,
    "invisible": false
  },
  {
    "recovered": 7294,
    "infected": 16339,
    "id": "FyC551oNwmENxbr9Yght",
    "pop": 35190000,
    "country": "IN",
    "longitude": 79.0193,
    "name": "Telengana",
    "latitude": 18.1124,
    "dead": 260,
    "lastUpdated": "2020-07-01T01:11:01.565Z",
    "sick": 8785,
    "invisible": false
  },
  {
    "id": "FzIDXoqWnTI3nUfhPyT2",
    "pop": 5450000,
    "country": "SK",
    "longitude": 19.699,
    "name": "Slovakia",
    "latitude": 48.669,
    "dead": 28,
    "lastUpdated": "2020-07-01T01:16:02.788Z",
    "recovered": 1464,
    "infected": 1667,
    "sick": 175,
    "invisible": false
  },
  {
    "longitude": 69.345116,
    "name": "Pakistan",
    "latitude": 30.37532,
    "dead": 4304,
    "lastUpdated": "2020-07-01T01:16:02.780Z",
    "recovered": 98503,
    "infected": 209337,
    "id": "GAp7Wb6IMhdgbvEtMza9",
    "pop": 197000000,
    "country": "PK",
    "sick": 106530,
    "invisible": false
  },
  {
    "longitude": 75.3412,
    "name": "Punjab",
    "latitude": 31.1471,
    "dead": 144,
    "lastUpdated": "2020-07-01T01:11:01.565Z",
    "recovered": 3867,
    "infected": 5568,
    "id": "GGru8cG08mANO8XDDUtZ",
    "pop": 27980000,
    "country": "IN",
    "sick": 1557,
    "invisible": false
  },
  {
    "recovered": 37566,
    "infected": 48667,
    "id": "GHzBIsHy2GiBc5JV2HMs",
    "pop": 9400000,
    "country": "AE",
    "longitude": 53.847816,
    "name": "United Arab Emirates",
    "latitude": 23.424076,
    "dead": 315,
    "lastUpdated": "2020-07-01T01:16:02.781Z",
    "sick": 10786,
    "invisible": false
  },
  {
    "country": "US",
    "longitude": -95.7129,
    "invisible": true,
    "name": "Grand Princess",
    "latitude": 37.0902,
    "dead": 3,
    "lastUpdated": "2020-07-01T01:17:07.351Z",
    "recovered": 0,
    "infected": 103,
    "id": "GLViSIjDjwvptOphedAu",
    "sick": 100
  },
  {
    "lastUpdated": "2020-07-01T01:13:23.650Z",
    "recovered": 0,
    "infected": 27670,
    "state": "EN",
    "id": "GPtoS0Yy2EnNafpmmTqY",
    "pop": 10100000,
    "country": "GB",
    "longitude": -0.1278,
    "name": "London",
    "latitude": 51.5074,
    "dead": 0,
    "sick": 27670,
    "invisible": false
  },
  {
    "name": "California",
    "latitude": 36.621981,
    "dead": 6081,
    "lastUpdated": "2020-07-01T01:17:07.344Z",
    "recovered": 0,
    "infected": 230891,
    "state": "CA",
    "id": "Gh46r6vuaY7fbGt3IboN",
    "pop": 39560000,
    "country": "US",
    "longitude": -119.339046,
    "sick": 224810,
    "invisible": false
  },
  {
    "latitude": 20.4283,
    "dead": 0,
    "lastUpdated": "2020-07-01T01:11:01.567Z",
    "recovered": 82,
    "infected": 213,
    "id": "GljWeVnun6o9DeW6rlEm",
    "pop": 343709,
    "country": "IN",
    "longitude": 72.8397,
    "name": "Dadra and Nagar Haveli",
    "sick": 131,
    "invisible": false
  },
  {
    "name": "Oklahoma",
    "latitude": 35.87189,
    "dead": 387,
    "lastUpdated": "2020-07-01T01:17:07.348Z",
    "recovered": 0,
    "infected": 13757,
    "state": "OK",
    "id": "GpF8ULuKOQiFDCUHN44h",
    "pop": 3943000,
    "country": "US",
    "longitude": -97.145514,
    "sick": 13370,
    "invisible": false
  },
  {
    "name": "Arauca",
    "latitude": 6.492,
    "dead": 0,
    "lastUpdated": "2020-07-01T01:15:11.823Z",
    "recovered": 4,
    "infected": 76,
    "id": "Gr09a1wn3BnMqjQbgEun",
    "pop": 256627,
    "country": "CO",
    "longitude": -71.557,
    "sick": 72,
    "invisible": false
  },
  {
    "latitude": 57.1057,
    "dead": 44,
    "lastUpdated": "2020-07-01T01:00:09.872Z",
    "recovered": 2923,
    "infected": 4691,
    "id": "GsecjBfopdgTOnyRgtCA",
    "pop": 1014000,
    "country": "RU",
    "longitude": 41.483,
    "name": "Ivanovo Oblast",
    "sick": 1724,
    "invisible": false
  },
  {
    "longitude": 11.35,
    "name": "P.A. Bolzano",
    "latitude": 46.5,
    "dead": 292,
    "lastUpdated": "2020-07-01T01:01:01.741Z",
    "recovered": 2263,
    "infected": 2639,
    "state": "BA",
    "id": "Gzx6GX1qhBm714BkEC6l",
    "pop": 520891,
    "country": "IT",
    "sick": 84,
    "invisible": false
  },
  {
    "name": "Inner Mongolia",
    "latitude": 42.83263,
    "dead": 1,
    "lastUpdated": "2020-07-01T00:38:10.885Z",
    "recovered": 237,
    "infected": 238,
    "id": "H3JeVigVbo5CSYfZG4WI",
    "pop": 24710000,
    "country": "CN",
    "longitude": 113.750972,
    "sick": 0,
    "invisible": false
  },
  {
    "latitude": 39.74536,
    "dead": 507,
    "lastUpdated": "2020-07-01T01:17:07.348Z",
    "recovered": 0,
    "infected": 18456,
    "state": "NV",
    "id": "H3bDg4eV30up4WWrIDAS",
    "pop": 3034000,
    "country": "US",
    "longitude": -116.724977,
    "name": "Nevada",
    "sick": 17949,
    "invisible": false
  },
  {
    "state": "CE",
    "id": "HEMWNnFxeFEoeOCBOLJD",
    "pop": 9075649,
    "country": "BR",
    "longitude": -38.526669,
    "name": "Ceará",
    "latitude": -3.731862,
    "dead": 6146,
    "lastUpdated": "2020-07-01T01:15:01.529Z",
    "recovered": 0,
    "infected": 108699,
    "sick": 102553,
    "invisible": false
  },
  {
    "recovered": 7920,
    "infected": 15242,
    "id": "HN5mGmxlqlSeFSNeu1K5",
    "pop": 64060000,
    "country": "IN",
    "longitude": 75.7139,
    "name": "Karnataka",
    "latitude": 15.3173,
    "dead": 246,
    "lastUpdated": "2020-07-01T01:11:01.565Z",
    "sick": 7076,
    "invisible": false
  },
  {
    "name": "Bhutan",
    "latitude": 27.5142,
    "dead": 0,
    "lastUpdated": "2020-07-01T01:16:02.794Z",
    "recovered": 44,
    "infected": 77,
    "id": "HRDpwyxpqW9RN0xLFyNu",
    "pop": 807610,
    "country": "BT",
    "longitude": 90.4336,
    "sick": 33,
    "invisible": false
  },
  {
    "country": "UZ",
    "longitude": 64.5853,
    "name": "Uzbekistan",
    "latitude": 41.3775,
    "dead": 26,
    "lastUpdated": "2020-07-01T01:16:02.784Z",
    "recovered": 5682,
    "infected": 8503,
    "id": "HRTA10dtrruDEwjJEGMp",
    "pop": 32390000,
    "sick": 2795,
    "invisible": false
  },
  {
    "longitude": -105.576255,
    "name": "New Mexico",
    "latitude": 34.138916,
    "dead": 497,
    "lastUpdated": "2020-07-01T01:17:07.348Z",
    "recovered": 0,
    "infected": 12147,
    "state": "NM",
    "id": "HSSFomRju0doHhWgW8On",
    "pop": 2095000,
    "country": "US",
    "sick": 11650,
    "invisible": false
  },
  {
    "longitude": -72.3311,
    "name": "Los Ríos",
    "latitude": -40.231,
    "dead": 10,
    "lastUpdated": "2020-07-01T00:51:10.473Z",
    "recovered": 0,
    "infected": 701,
    "id": "HZkACHjW7NlYjg8vEMj2",
    "pop": 412812,
    "country": "CL",
    "sick": 691,
    "invisible": false
  },
  {
    "lastUpdated": "2020-07-01T01:00:03.026Z",
    "recovered": 766,
    "infected": 808,
    "state": "MV",
    "id": "He1gSS1v50t06i3YrqvB",
    "pop": 1635000,
    "country": "DE",
    "longitude": 12.4296,
    "name": "Mecklenburg-Vorpommern",
    "latitude": 53.6127,
    "dead": 21,
    "sick": 21,
    "invisible": false
  },
  {
    "latitude": 42.25,
    "dead": 464,
    "lastUpdated": "2020-07-01T01:01:01.739Z",
    "recovered": 2626,
    "infected": 3287,
    "state": "65",
    "id": "I9EqrZfbPnkioNU4wZGz",
    "pop": 1315000,
    "country": "IT",
    "longitude": 13.75,
    "name": "Abruzzo",
    "sick": 197,
    "invisible": false
  },
  {
    "id": "IAX0OQLVnUwU7FX0ENF1",
    "pop": 113460000,
    "country": "CN",
    "longitude": 113.373448,
    "name": "Guangdong",
    "latitude": 23.363855,
    "dead": 8,
    "lastUpdated": "2020-07-01T00:38:10.883Z",
    "recovered": 1627,
    "infected": 1641,
    "sick": 6,
    "invisible": false
  },
  {
    "name": "Henan",
    "latitude": 33.875408,
    "dead": 22,
    "lastUpdated": "2020-07-01T00:38:10.884Z",
    "recovered": 1254,
    "infected": 1276,
    "id": "IFuMrMvSjoiX5agYvllh",
    "pop": 94000000,
    "country": "CN",
    "longitude": 113.484016,
    "sick": 0,
    "invisible": false
  },
  {
    "longitude": -8.16667,
    "name": "Algarve",
    "latitude": 37.2,
    "dead": 15,
    "lastUpdated": "2020-07-01T00:53:02.104Z",
    "recovered": 0,
    "infected": 618,
    "id": "IHqRHC8K3OZPN8gniM7V",
    "pop": 451000,
    "country": "PT",
    "sick": 603,
    "invisible": false
  },
  {
    "recovered": 700,
    "infected": 1405,
    "id": "IKWjRUo0SYgHQKdWjTvq",
    "pop": 333194,
    "country": "CO",
    "longitude": -77.0197,
    "name": "Buenaventura D.E.",
    "latitude": 3.883,
    "dead": 85,
    "lastUpdated": "2020-07-01T01:15:11.823Z",
    "sick": 620,
    "invisible": false
  },
  {
    "recovered": 0,
    "infected": 9944,
    "state": "EN",
    "id": "INyu1R48Ppv8cfW4Nuz4",
    "pop": 4811000,
    "country": "GB",
    "longitude": -0.995,
    "name": "East Midlands",
    "latitude": 52.87,
    "dead": 0,
    "lastUpdated": "2020-07-01T01:13:23.650Z",
    "sick": 9944,
    "invisible": false
  },
  {
    "latitude": 22.017,
    "dead": 152,
    "lastUpdated": "2020-07-01T01:02:02.075Z",
    "recovered": 0,
    "infected": 3050,
    "id": "ISRKMzEDojyrZ9iyWwex",
    "pop": 1342600,
    "country": "MX",
    "longitude": -102.317,
    "name": "Aguascalientes",
    "sick": 2898,
    "invisible": false
  },
  {
    "name": "Nuevo León",
    "latitude": 25.686613,
    "dead": 379,
    "lastUpdated": "2020-07-01T01:02:02.074Z",
    "recovered": 0,
    "infected": 11059,
    "id": "IdKbgzgKLpjBFh4UPOwu",
    "pop": 5321300,
    "country": "MX",
    "longitude": -100.316116,
    "sick": 10680,
    "invisible": false
  },
  {
    "country": "MX",
    "longitude": -106.069099,
    "name": "Chihuahua",
    "latitude": 28.632996,
    "dead": 647,
    "lastUpdated": "2020-07-01T01:02:02.069Z",
    "recovered": 0,
    "infected": 4485,
    "id": "IhhiYI6T0TX4CYVPcnmH",
    "pop": 3826900,
    "sick": 3838,
    "invisible": false
  },
  {
    "country": "CL",
    "longitude": -72.57,
    "name": "Ñuble",
    "latitude": -36.7,
    "dead": 32,
    "lastUpdated": "2020-07-01T00:51:10.472Z",
    "recovered": 0,
    "infected": 2397,
    "id": "ImnOiVx9Cb8Nw7cbRcQ7",
    "pop": 480600,
    "sick": 2365,
    "invisible": false
  },
  {
    "id": "InZ38sIqyK7FN7XAOZoX",
    "pop": 10980000,
    "country": "HT",
    "longitude": -73.0513,
    "name": "Haiti",
    "latitude": 19.0558,
    "dead": 105,
    "lastUpdated": "2020-07-01T01:16:02.785Z",
    "recovered": 839,
    "infected": 5933,
    "sick": 4989,
    "invisible": false
  },
  {
    "longitude": -83.280125,
    "name": "Georgia (US)",
    "latitude": 32.528564,
    "dead": 2805,
    "lastUpdated": "2020-07-01T01:17:07.345Z",
    "recovered": 0,
    "infected": 81291,
    "state": "GA",
    "id": "IvQkDJkTAsoIqPRAU25n",
    "pop": 10520000,
    "country": "US",
    "sick": 78486,
    "invisible": false
  },
  {
    "country": "NZ",
    "longitude": 172.488081,
    "name": "New Zealand",
    "latitude": -42.8285,
    "dead": 22,
    "lastUpdated": "2020-07-01T01:16:02.788Z",
    "recovered": 1484,
    "infected": 1528,
    "id": "IvVhpOoGpH6JVkGyUhXN",
    "pop": 4794000,
    "sick": 22,
    "invisible": false
  },
  {
    "recovered": 62,
    "infected": 191,
    "id": "IwYKiIVY18NGwdGQFGWW",
    "pop": 1255000,
    "country": "IN",
    "longitude": 94.7278,
    "name": "Arunachal Pradesh",
    "latitude": 28.218,
    "dead": 1,
    "lastUpdated": "2020-07-01T01:11:01.566Z",
    "sick": 128,
    "invisible": false
  },
  {
    "recovered": 1649,
    "infected": 5832,
    "id": "J3mZXlfEnnJx4CDZLvRG",
    "pop": 31980000,
    "country": "VE",
    "longitude": -66.5897,
    "name": "Venezuela",
    "latitude": 6.4238,
    "dead": 51,
    "lastUpdated": "2020-07-01T01:16:02.785Z",
    "sick": 4132,
    "invisible": false
  },
  {
    "latitude": 2.567,
    "dead": 0,
    "lastUpdated": "2020-07-01T01:15:11.824Z",
    "recovered": 6,
    "infected": 37,
    "id": "JEMCwkwXK39jd1lZ7VgJ",
    "pop": 107932,
    "country": "CO",
    "longitude": -72.633,
    "name": "Guaviare",
    "sick": 31,
    "invisible": false
  },
  {
    "name": "Adygea",
    "latitude": 44.8229,
    "dead": 14,
    "lastUpdated": "2020-07-01T01:00:09.874Z",
    "recovered": 1302,
    "infected": 1898,
    "id": "JOJVBvOnsLDJPVeYJaI2",
    "pop": 453000,
    "country": "RU",
    "longitude": 40.1754,
    "sick": 582,
    "invisible": false
  },
  {
    "longitude": 33.4299,
    "name": "Cyprus",
    "latitude": 35.1264,
    "dead": 19,
    "lastUpdated": "2020-07-01T01:16:02.790Z",
    "recovered": 833,
    "infected": 998,
    "id": "JQByE4l2OA6sGOqIcWrM",
    "pop": 1170000,
    "country": "CY",
    "sick": 146,
    "invisible": false
  },
  {
    "name": "Bihar",
    "latitude": 25.0961,
    "dead": 68,
    "lastUpdated": "2020-07-01T01:11:01.565Z",
    "recovered": 7544,
    "infected": 9988,
    "id": "JR7hOGked7CZtIs2nCV5",
    "pop": 99020000,
    "country": "IN",
    "longitude": 85.3131,
    "sick": 2376,
    "invisible": false
  },
  {
    "country": "GT",
    "longitude": -90.522713,
    "name": "Guatemala",
    "latitude": 14.628434,
    "dead": 773,
    "lastUpdated": "2020-07-01T01:16:02.783Z",
    "recovered": 3194,
    "infected": 18096,
    "id": "JUWE6bG3b5oL7fKQMSvv",
    "pop": 17250000,
    "sick": 14129,
    "invisible": false
  },
  {
    "longitude": 6.1296,
    "name": "Luxembourg",
    "latitude": 49.8153,
    "dead": 110,
    "lastUpdated": "2020-07-01T01:16:02.786Z",
    "recovered": 3998,
    "infected": 4299,
    "id": "JcFsHSn2WvZ5LJW42ovG",
    "pop": 602005,
    "country": "LU",
    "sick": 191,
    "invisible": false
  },
  {
    "name": "Bolívar",
    "latitude": 8.8,
    "dead": 41,
    "lastUpdated": "2020-07-01T01:15:11.822Z",
    "recovered": 305,
    "infected": 964,
    "id": "JmOyaFe25yZCIV64JbZj",
    "pop": 2049000,
    "country": "CO",
    "longitude": -74.167,
    "sick": 618,
    "invisible": false
  },
  {
    "latitude": 31.4,
    "dead": 1850,
    "lastUpdated": "2020-07-01T01:02:02.067Z",
    "recovered": 0,
    "infected": 8859,
    "id": "Jp9ePErcc8i1aOozEAMf",
    "pop": 3648100,
    "country": "MX",
    "longitude": -115.783,
    "name": "Baja California",
    "sick": 7009,
    "invisible": false
  },
  {
    "recovered": 212,
    "infected": 744,
    "id": "Jr8syCB0lydmPDXw8Q6N",
    "pop": 1786500,
    "country": "CO",
    "longitude": -75.8814316,
    "name": "Córdoba",
    "latitude": 8.7479801,
    "dead": 42,
    "lastUpdated": "2020-07-01T01:15:11.821Z",
    "sick": 490,
    "invisible": false
  },
  {
    "name": "Togo",
    "latitude": 8.6195,
    "dead": 14,
    "lastUpdated": "2020-07-01T01:16:02.791Z",
    "recovered": 402,
    "infected": 650,
    "id": "JrBbirlBKGdWSdcDt7PF",
    "pop": 7798000,
    "country": "TG",
    "longitude": 0.8248,
    "sick": 234,
    "invisible": false
  },
  {
    "recovered": 2676,
    "infected": 4989,
    "id": "JzZ8sbqzjutThVjkPKPL",
    "pop": 7050000,
    "country": "BG",
    "longitude": 25.4858,
    "name": "Bulgaria",
    "latitude": 42.7339,
    "dead": 230,
    "lastUpdated": "2020-07-01T01:16:02.785Z",
    "sick": 2083,
    "invisible": false
  },
  {
    "id": "KGrK7gafkeWjmU6sHQd2",
    "pop": 1263000,
    "country": "PL",
    "longitude": 20.709,
    "name": "Świętokrzyskie",
    "latitude": 50.823,
    "dead": 39,
    "lastUpdated": "2020-07-01T01:03:01.989Z",
    "recovered": 0,
    "infected": 798,
    "sick": 759,
    "invisible": false
  },
  {
    "latitude": 59.0077,
    "dead": 95,
    "lastUpdated": "2020-07-01T01:00:09.868Z",
    "recovered": 7459,
    "infected": 12792,
    "id": "KLBR5QHW6DePaGcFxlqH",
    "pop": 4325000,
    "country": "RU",
    "longitude": 61.9316,
    "name": "Sverdlovsk Oblast",
    "sick": 5238,
    "invisible": false
  },
  {
    "latitude": 44.5,
    "dead": 1558,
    "lastUpdated": "2020-07-01T01:01:01.741Z",
    "recovered": 8139,
    "infected": 9977,
    "state": "42",
    "id": "KLXicxFogWnu0dLp4bNK",
    "pop": 1557000,
    "country": "IT",
    "longitude": 8.833,
    "name": "Liguria",
    "sick": 280,
    "invisible": false
  },
  {
    "latitude": 56.4385,
    "dead": 23,
    "lastUpdated": "2020-07-01T01:00:09.873Z",
    "recovered": 2824,
    "infected": 2959,
    "id": "KUnAVGJH6fLwFetE8A2x",
    "pop": 682000,
    "country": "RU",
    "longitude": 47.9608,
    "name": "Mari El Republic",
    "sick": 112,
    "invisible": false
  },
  {
    "longitude": -73.2532,
    "name": "Cesar",
    "latitude": 10.4631,
    "dead": 22,
    "lastUpdated": "2020-07-01T01:15:11.821Z",
    "recovered": 410,
    "infected": 994,
    "id": "KpOz3WmiZkrXUMlUJNlV",
    "pop": 1201000,
    "country": "CO",
    "sick": 562,
    "invisible": false
  },
  {
    "name": "Toscana",
    "latitude": 43.4167,
    "dead": 1104,
    "lastUpdated": "2020-07-01T01:01:01.742Z",
    "recovered": 8817,
    "infected": 10250,
    "state": "52",
    "id": "KrLrJbpDqqiXgUPGCCW9",
    "pop": 3737000,
    "country": "IT",
    "longitude": 11,
    "sick": 329,
    "invisible": false
  },
  {
    "latitude": 7.873054,
    "dead": 11,
    "lastUpdated": "2020-07-01T01:16:02.788Z",
    "recovered": 1711,
    "infected": 2047,
    "id": "KsWzJO06cf0d6LJ4ZNh9",
    "pop": 21440000,
    "country": "LK",
    "longitude": 80.771797,
    "name": "Sri Lanka",
    "sick": 325,
    "invisible": false
  },
  {
    "name": "Andhra Pradesh",
    "latitude": 15.9129,
    "dead": 187,
    "lastUpdated": "2020-07-01T01:11:01.565Z",
    "recovered": 6511,
    "infected": 14595,
    "id": "KtQIo2DoqjELtPAlyDVO",
    "pop": 49670000,
    "country": "IN",
    "longitude": 79.74,
    "sick": 7897,
    "invisible": false
  },
  {
    "recovered": 37,
    "infected": 43,
    "id": "LBUtrLDKJiupXjlUNTUe",
    "pop": 32125,
    "country": "FR",
    "longitude": -63.0501,
    "name": "Saint-Martin",
    "alwaysShow": true,
    "latitude": 18.0708,
    "dead": 3,
    "lastUpdated": "2020-07-01T01:16:02.794Z",
    "sick": 3,
    "invisible": false
  },
  {
    "id": "LD8TNScpLrLRvgpQAn9T",
    "pop": 747000,
    "country": "RU",
    "longitude": 36.9242,
    "name": "Oryol Oblast",
    "latitude": 52.7856,
    "dead": 61,
    "lastUpdated": "2020-07-01T01:00:09.872Z",
    "recovered": 2823,
    "infected": 4513,
    "sick": 1629,
    "invisible": false
  },
  {
    "name": "Liechtenstein",
    "latitude": 47.166,
    "dead": 1,
    "lastUpdated": "2020-07-01T01:16:02.794Z",
    "recovered": 81,
    "infected": 82,
    "id": "LTGEU2E9MFkrCcFhZYVk",
    "pop": 38557,
    "country": "LI",
    "longitude": 9.5554,
    "sick": 0,
    "invisible": false
  },
  {
    "recovered": 4326,
    "infected": 5391,
    "id": "LU2QWt5ao8IJa8evNYVV",
    "pop": 12720000,
    "country": "GN",
    "longitude": -9.6966,
    "name": "Guinea",
    "latitude": 9.9456,
    "dead": 33,
    "lastUpdated": "2020-07-01T01:16:02.785Z",
    "sick": 1032,
    "invisible": false
  },
  {
    "name": "Sonora",
    "latitude": 29.6667,
    "dead": 870,
    "lastUpdated": "2020-07-01T01:02:02.069Z",
    "recovered": 0,
    "infected": 8533,
    "id": "LYCBHrA9ms6GcxpLGPCT",
    "pop": 3062000,
    "country": "MX",
    "longitude": -110.5,
    "sick": 7663,
    "invisible": false
  },
  {
    "name": "Suriname",
    "latitude": 3.9193051,
    "dead": 13,
    "lastUpdated": "2020-07-01T01:16:02.792Z",
    "recovered": 227,
    "infected": 515,
    "id": "LglKINHyQpYpFxjckbQ6",
    "pop": 563402,
    "country": "SR",
    "longitude": -56.0277824,
    "sick": 275,
    "invisible": false
  },
  {
    "country": "CA",
    "longitude": -106.4509,
    "name": "Saskatchewan",
    "latitude": 52.9399,
    "dead": 13,
    "lastUpdated": "2020-07-01T01:10:01.419Z",
    "recovered": 0,
    "infected": 785,
    "state": "SK",
    "id": "LkIDKY0CMAqzbwBHyYCP",
    "pop": 1174000,
    "sick": 772,
    "invisible": false
  },
  {
    "country": "EH",
    "longitude": -12.8858,
    "name": "Western Sahara",
    "latitude": 24.2155,
    "dead": 1,
    "lastUpdated": "2020-07-01T01:16:02.795Z",
    "recovered": 8,
    "infected": 10,
    "id": "LooNn6RuMiDhQnwa9svw",
    "pop": 636442,
    "sick": 1,
    "invisible": false
  },
  {
    "name": "Principado de Asturias",
    "latitude": 43.363129,
    "dead": 334,
    "lastUpdated": "2020-06-30T23:30:48.289Z",
    "recovered": 1063,
    "infected": 3420,
    "state": "AS",
    "id": "Lsga7AvYNnY0qQ5gEfV8",
    "pop": 1022000,
    "country": "ES",
    "longitude": -5.951843,
    "sick": 2023,
    "invisible": false
  },
  {
    "lastUpdated": "2020-06-30T23:30:01.457Z",
    "recovered": 2652,
    "infected": 4031,
    "state": "EX",
    "id": "LuEErlF7dVKI0eJsRjFm",
    "pop": 1065000,
    "country": "ES",
    "longitude": -6.0679,
    "name": "Extremadura",
    "latitude": 39.4937,
    "dead": 519,
    "sick": 860,
    "invisible": false
  },
  {
    "longitude": -101.2591,
    "name": "Guanajuato",
    "latitude": 21.0186,
    "dead": 550,
    "lastUpdated": "2020-07-01T01:02:02.072Z",
    "recovered": 0,
    "infected": 9032,
    "id": "M3wdiueFtwrUHiQ2rOXA",
    "pop": 5965000,
    "country": "MX",
    "sick": 8482,
    "invisible": false
  },
  {
    "lastUpdated": "2020-07-01T01:17:07.348Z",
    "recovered": 0,
    "infected": 15642,
    "state": "KY",
    "id": "MC8MXFw9iXYybnF8v7e6",
    "pop": 4468000,
    "country": "US",
    "longitude": -84.27,
    "name": "Kentucky",
    "latitude": 37.8393,
    "dead": 565,
    "sick": 15077,
    "invisible": false
  },
  {
    "recovered": 0,
    "infected": 122214,
    "id": "MEjlm8VYdGA28TTTnQmf",
    "country": "GB",
    "longitude": -3.436,
    "invisible": true,
    "name": "Unknown UK region or state",
    "latitude": 55.3781,
    "dead": 39187,
    "lastUpdated": "2020-07-01T01:13:23.652Z",
    "sick": 83027
  },
  {
    "longitude": -7.7441,
    "name": "Norte",
    "latitude": 41.3006,
    "dead": 818,
    "lastUpdated": "2020-07-01T00:53:02.103Z",
    "recovered": 0,
    "infected": 17521,
    "id": "MG4e9tulLJ010SZJvbYN",
    "pop": 3689000,
    "country": "PT",
    "sick": 16703,
    "invisible": false
  },
  {
    "latitude": 56.4907,
    "dead": 2482,
    "lastUpdated": "2020-07-01T01:13:23.649Z",
    "recovered": 0,
    "infected": 15822,
    "state": "SC",
    "id": "MObRYyIriHG337L8FyFC",
    "pop": 5450000,
    "country": "GB",
    "longitude": -4.2026,
    "name": "Scotland",
    "sick": 13340,
    "invisible": false
  },
  {
    "state": "IN",
    "id": "MOxDkmQ4wBi1CuAdVxDE",
    "pop": 6692000,
    "country": "US",
    "longitude": -86.1349,
    "name": "Indiana",
    "latitude": 40.2672,
    "dead": 2640,
    "lastUpdated": "2020-07-01T01:17:07.346Z",
    "recovered": 0,
    "infected": 45594,
    "sick": 42954,
    "invisible": false
  },
  {
    "latitude": 7.54,
    "dead": 68,
    "lastUpdated": "2020-07-01T01:16:02.784Z",
    "recovered": 4273,
    "infected": 9499,
    "id": "MdQOfc1gNh2DOqwSP6UV",
    "pop": 24290000,
    "country": "CI",
    "longitude": -5.5471,
    "name": "Ivory Coast",
    "sick": 5158,
    "invisible": false
  },
  {
    "country": "DE",
    "longitude": 7.6616,
    "name": "Nordrhein-Westfalen",
    "latitude": 51.4332,
    "dead": 1694,
    "lastUpdated": "2020-07-01T01:00:03.027Z",
    "recovered": 38556,
    "infected": 43245,
    "state": "NW",
    "id": "MjpYq3zQyAvSQlVVYjD2",
    "pop": 17910000,
    "sick": 2995,
    "invisible": false
  },
  {
    "latitude": 37.330509,
    "dead": 0,
    "lastUpdated": "2020-07-01T00:38:10.886Z",
    "recovered": 75,
    "infected": 75,
    "id": "MntmjjuHljarCdt6aIeE",
    "pop": 6301000,
    "country": "CN",
    "longitude": 105.977203,
    "name": "Ningxia",
    "sick": 0,
    "invisible": false
  },
  {
    "state": "PA",
    "id": "MuEB2UgkId5crsxi9zQT",
    "pop": 8513497,
    "country": "BR",
    "longitude": -52.203499186,
    "name": "Pará",
    "latitude": -3.20166586,
    "dead": 4920,
    "lastUpdated": "2020-07-01T01:15:01.558Z",
    "recovered": 0,
    "infected": 103206,
    "sick": 98286,
    "invisible": false
  },
  {
    "longitude": 39.2032,
    "name": "Lipetsk Oblast",
    "latitude": 52.5265,
    "dead": 16,
    "lastUpdated": "2020-07-01T01:00:09.873Z",
    "recovered": 2358,
    "infected": 3779,
    "id": "N0KGfqgROVOjAxWcd8wi",
    "pop": 1150000,
    "country": "RU",
    "sick": 1405,
    "invisible": false
  },
  {
    "state": "BW",
    "id": "N3XsRBwJSsNclkEf7Zz5",
    "pop": 11020000,
    "country": "DE",
    "longitude": 9.3501,
    "name": "Baden-Württemberg",
    "latitude": 48.6616,
    "dead": 1888,
    "lastUpdated": "2020-07-01T01:00:03.024Z",
    "recovered": 33342,
    "infected": 36103,
    "sick": 873,
    "invisible": false
  },
  {
    "country": "BA",
    "longitude": 17.824332,
    "name": "Bosnia and Herzegovina",
    "latitude": 44.696652,
    "dead": 186,
    "lastUpdated": "2020-07-01T01:16:02.786Z",
    "recovered": 2402,
    "infected": 4453,
    "id": "N7c13sCQF0G789XAVazJ",
    "pop": 3507000,
    "sick": 1865,
    "invisible": false
  },
  {
    "latitude": 37.242565,
    "dead": 0,
    "lastUpdated": "2020-07-01T00:38:10.885Z",
    "recovered": 198,
    "infected": 198,
    "id": "NBRIGIRrJB1Ry8prDNAC",
    "pop": 36500000,
    "country": "CN",
    "longitude": 111.856857,
    "name": "Shanxi",
    "sick": 0,
    "invisible": false
  },
  {
    "recovered": 0,
    "infected": 65397,
    "state": "NC",
    "id": "NC64Qp5kTqAfiTuR27k8",
    "pop": 10380000,
    "country": "US",
    "longitude": -79.0193,
    "name": "North Carolina",
    "latitude": 35.7596,
    "dead": 1376,
    "lastUpdated": "2020-07-01T01:17:07.346Z",
    "sick": 64021,
    "invisible": false
  },
  {
    "latitude": 52.4125,
    "dead": 175,
    "lastUpdated": "2020-07-01T01:00:03.026Z",
    "recovered": 3184,
    "infected": 3487,
    "state": "BB",
    "id": "NJjo2gfBvnbK4xatrsUz",
    "pop": 2504000,
    "country": "DE",
    "longitude": 12.5316,
    "name": "Brandenburg",
    "sick": 128,
    "invisible": false
  },
  {
    "state": "MP",
    "id": "NLLL6pJhJSw0lrDMD4uP",
    "longitude": 145.6739,
    "name": "Northern Mariana Islands",
    "alwaysShow": true,
    "dead": 2,
    "latitude": 15.0979,
    "infected": 31,
    "recovered": 0,
    "pop": 55144,
    "country": "US",
    "lastUpdated": "2020-07-01T01:17:07.350Z",
    "sick": 29,
    "invisible": false
  },
  {
    "recovered": 2231,
    "infected": 2881,
    "id": "NMeZEcGToxXfpi16PfFV",
    "pop": 10080000,
    "country": "IN",
    "longitude": 79.0193,
    "name": "Uttarakhand",
    "latitude": 30.0668,
    "dead": 41,
    "lastUpdated": "2020-07-01T01:11:01.566Z",
    "sick": 609,
    "invisible": false
  },
  {
    "recovered": 9933,
    "infected": 10847,
    "state": "HE",
    "id": "Nk5vPgUIXsWVfbWZf15O",
    "pop": 6243000,
    "country": "DE",
    "longitude": 9.1624,
    "name": "Hessen",
    "latitude": 50.6521,
    "dead": 514,
    "lastUpdated": "2020-07-01T01:00:03.026Z",
    "sick": 400,
    "invisible": false
  },
  {
    "id": "NmmMKy0YqA8StHdGzB5N",
    "pop": 1920000,
    "country": "LV",
    "longitude": 25.837107,
    "name": "Latvia",
    "latitude": 56.96776,
    "dead": 30,
    "lastUpdated": "2020-07-01T01:16:02.789Z",
    "recovered": 974,
    "infected": 1118,
    "sick": 114,
    "invisible": false
  },
  {
    "country": "BR",
    "longitude": -37.946777,
    "name": "Pernambuco",
    "latitude": -8.472372,
    "dead": 4829,
    "lastUpdated": "2020-07-01T01:15:01.558Z",
    "recovered": 0,
    "infected": 58858,
    "state": "PE",
    "id": "NyGlFL1gATK1Omv9qtcC",
    "pop": 9496294,
    "sick": 54029,
    "invisible": false
  },
  {
    "latitude": 6.4281,
    "dead": 36,
    "lastUpdated": "2020-07-01T01:16:02.791Z",
    "recovered": 324,
    "infected": 780,
    "id": "O4g88K49HKEZLFXm5gxb",
    "pop": 4732000,
    "country": "LR",
    "longitude": -9.4295,
    "name": "Liberia",
    "sick": 420,
    "invisible": false
  },
  {
    "country": "RU",
    "longitude": 82.6759,
    "name": "Altai Krai",
    "latitude": 51.7936,
    "dead": 33,
    "lastUpdated": "2020-07-01T01:00:09.873Z",
    "recovered": 2889,
    "infected": 3985,
    "id": "O5fNOGWKosps6JTrzkpn",
    "pop": 2350000,
    "sick": 1063,
    "invisible": false
  },
  {
    "longitude": 116.9677,
    "name": "Zabaykalsky Krai",
    "latitude": 53.0929,
    "dead": 42,
    "lastUpdated": "2020-07-01T01:00:09.873Z",
    "recovered": 2000,
    "infected": 3100,
    "id": "O6PDzAxKENYbLsLjPx2K",
    "pop": 1072000,
    "country": "RU",
    "sick": 1058,
    "invisible": false
  },
  {
    "lastUpdated": "2020-07-01T01:17:07.347Z",
    "recovered": 0,
    "infected": 36399,
    "state": "SC",
    "id": "ONU4CK8QjViFHKg2w5if",
    "pop": 5084000,
    "country": "US",
    "longitude": -80.525613,
    "name": "South Carolina",
    "latitude": 34.003307,
    "dead": 739,
    "sick": 35660,
    "invisible": false
  },
  {
    "country": "US",
    "longitude": -89.582775,
    "name": "Mississippi",
    "latitude": 33.51822,
    "dead": 1073,
    "lastUpdated": "2020-07-01T01:17:07.347Z",
    "recovered": 0,
    "infected": 27247,
    "state": "MS",
    "id": "OYa0jFzdbAgo8zUsRv6q",
    "pop": 2987000,
    "sick": 26174,
    "invisible": false
  },
  {
    "latitude": 45.2538,
    "dead": 105,
    "lastUpdated": "2020-07-01T01:17:07.349Z",
    "recovered": 0,
    "infected": 3253,
    "state": "ME",
    "id": "OcXNp9kNVSwrRlG3bNVN",
    "pop": 1338000,
    "country": "US",
    "longitude": -69.4455,
    "name": "Maine",
    "sick": 3148,
    "invisible": false
  },
  {
    "longitude": 44.8203,
    "name": "Ingushetia",
    "latitude": 43.4052,
    "dead": 68,
    "lastUpdated": "2020-07-01T01:00:09.873Z",
    "recovered": 2458,
    "infected": 3047,
    "id": "OlKS5SPydHY2TedStFuf",
    "pop": 488000,
    "country": "RU",
    "sick": 521,
    "invisible": false
  },
  {
    "latitude": -41.915264,
    "dead": 13,
    "lastUpdated": "2020-07-01T00:43:25.101Z",
    "recovered": 215,
    "infected": 228,
    "state": "TAS",
    "id": "OnOseaqWdnuP18oruABW",
    "pop": 515000,
    "country": "AU",
    "longitude": 146.725256,
    "name": "Tasmania",
    "sick": 0,
    "invisible": false
  },
  {
    "latitude": -16.35,
    "dead": 593,
    "lastUpdated": "2020-07-01T01:15:01.559Z",
    "recovered": 0,
    "infected": 15636,
    "state": "MT",
    "id": "P0GHFGUt1pkKTk5PM8uz",
    "pop": 3441998,
    "country": "BR",
    "longitude": -56.666668,
    "name": "Mato Grosso",
    "sick": 15043,
    "invisible": false
  },
  {
    "name": "Vladimir Oblast",
    "latitude": 56.1553,
    "dead": 64,
    "lastUpdated": "2020-07-01T01:00:09.872Z",
    "recovered": 2724,
    "infected": 4362,
    "id": "P2I90oqdFSoVk03AaGo4",
    "pop": 1378000,
    "country": "RU",
    "longitude": 40.5927,
    "sick": 1574,
    "invisible": false
  },
  {
    "country": "KY",
    "longitude": -81.2546,
    "name": "Cayman Islands",
    "latitude": 19.3133,
    "dead": 1,
    "lastUpdated": "2020-07-01T01:16:02.793Z",
    "recovered": 191,
    "infected": 200,
    "id": "P4mwRFLbrvT0t75uD8Wo",
    "pop": 61559,
    "sick": 8,
    "invisible": false
  },
  {
    "lastUpdated": "2020-07-01T01:16:02.795Z",
    "recovered": 10,
    "infected": 11,
    "id": "PEDkeFMTOZpvHiSVxBk7",
    "pop": 5900,
    "country": "MS",
    "longitude": -62.1873665,
    "name": "Montserrat",
    "latitude": 16.7424984,
    "dead": 1,
    "sick": 0,
    "invisible": false
  },
  {
    "recovered": 447,
    "infected": 1025,
    "id": "PEcgZGEkyhABztt1Ufgc",
    "pop": 12210000,
    "country": "RW",
    "longitude": 29.8739,
    "name": "Rwanda",
    "latitude": -1.9403,
    "dead": 2,
    "lastUpdated": "2020-07-01T01:16:02.790Z",
    "sick": 576,
    "invisible": false
  },
  {
    "name": "Bashkortostan",
    "latitude": 54.2312,
    "dead": 18,
    "lastUpdated": "2020-07-01T01:00:09.871Z",
    "recovered": 2995,
    "infected": 5361,
    "id": "PHlHdeqYd6KgxsJGfEz0",
    "pop": 4063000,
    "country": "RU",
    "longitude": 56.1645,
    "sick": 2348,
    "invisible": false
  },
  {
    "country": "US",
    "longitude": -94.6859,
    "name": "Minnesota",
    "latitude": 46.7296,
    "dead": 1476,
    "lastUpdated": "2020-07-01T01:17:07.347Z",
    "recovered": 0,
    "infected": 36303,
    "state": "MN",
    "id": "PJvVYosLIhbcRZYnKX1R",
    "pop": 5611000,
    "sick": 34827,
    "invisible": false
  },
  {
    "country": "US",
    "longitude": -89.3985,
    "name": "Illinois",
    "latitude": 40.6331,
    "dead": 7124,
    "lastUpdated": "2020-07-01T01:17:07.345Z",
    "recovered": 0,
    "infected": 144238,
    "state": "IL",
    "id": "PTwQr9ijo0TBBsPH2sdJ",
    "pop": 12740000,
    "sick": 137114,
    "invisible": false
  },
  {
    "latitude": 13.909444,
    "dead": 0,
    "lastUpdated": "2020-07-01T01:16:02.795Z",
    "recovered": 19,
    "infected": 19,
    "id": "PjLqCeFdyzdZNcZxMkK1",
    "pop": 178844,
    "country": "LC",
    "longitude": -60.978893,
    "name": "Saint Lucia",
    "sick": 0,
    "invisible": false
  },
  {
    "longitude": -1.6761,
    "name": "Comunidad Foral de Navarra",
    "latitude": 42.6954,
    "dead": 528,
    "lastUpdated": "2020-06-30T23:29:41.417Z",
    "recovered": 3905,
    "infected": 8620,
    "state": "NC",
    "id": "PmUlsNx2uFLU797wwU39",
    "pop": 649900,
    "country": "ES",
    "sick": 4187,
    "invisible": false
  },
  {
    "latitude": 34.201507,
    "dead": 50,
    "lastUpdated": "2020-07-01T01:16:02.789Z",
    "recovered": 1031,
    "infected": 1174,
    "id": "Pr76V4raf108uSRoEXac",
    "pop": 11530000,
    "country": "TN",
    "longitude": 9.460554,
    "name": "Tunisia",
    "sick": 93,
    "invisible": false
  },
  {
    "recovered": 408,
    "infected": 812,
    "id": "PuQgOd9KWiMzGZXm11sR",
    "pop": 1367000,
    "country": "SZ",
    "longitude": 31.4659,
    "name": "Eswatini",
    "latitude": -26.5225,
    "dead": 11,
    "lastUpdated": "2020-07-01T01:16:02.791Z",
    "sick": 393,
    "invisible": false
  },
  {
    "country": "AU",
    "longitude": 143.94853,
    "name": "Victoria",
    "latitude": -37.009609,
    "dead": 20,
    "lastUpdated": "2020-07-01T00:43:25.101Z",
    "recovered": 1816,
    "infected": 2099,
    "state": "VIC",
    "id": "Q18mrGvFWTLX2BU9SqhQ",
    "pop": 6359000,
    "sick": 263,
    "invisible": false
  },
  {
    "latitude": 54.2194,
    "dead": 157,
    "lastUpdated": "2020-07-01T01:00:03.028Z",
    "recovered": 2973,
    "infected": 3169,
    "state": "SH",
    "id": "Q39XkabIYxt15mHINzTa",
    "pop": 2890000,
    "country": "DE",
    "longitude": 9.6961,
    "name": "Schleswig-Holstein",
    "sick": 39,
    "invisible": false
  },
  {
    "lastUpdated": "2020-07-01T01:15:01.559Z",
    "recovered": 0,
    "infected": 26941,
    "state": "RS",
    "id": "QGpQNhuoVTUPHXvS7qcu",
    "pop": 11329605,
    "country": "BR",
    "longitude": -52.031696,
    "name": "Rio Grande do Sul",
    "latitude": -27.953491,
    "dead": 614,
    "sick": 26327,
    "invisible": false
  },
  {
    "country": "RU",
    "longitude": 46.9284,
    "name": "Chuvashia",
    "latitude": 55.5596,
    "dead": 31,
    "lastUpdated": "2020-07-01T01:00:09.871Z",
    "recovered": 2900,
    "infected": 5076,
    "id": "QGyuno7Bc4kwuvGFgMiO",
    "pop": 1231000,
    "sick": 2145,
    "invisible": false
  },
  {
    "lastUpdated": "2020-07-01T01:16:02.788Z",
    "recovered": 1829,
    "infected": 1989,
    "id": "QR9go2hQKXjty7JHUYe4",
    "pop": 1328000,
    "country": "EE",
    "longitude": 25.013607,
    "name": "Estonia",
    "latitude": 58.595272,
    "dead": 69,
    "sick": 91,
    "invisible": false
  },
  {
    "recovered": 1599,
    "infected": 3409,
    "id": "QTafh5fpbS8abcuyEjaL",
    "pop": 840000,
    "country": "RU",
    "longitude": 54.8313,
    "name": "Komi Republic",
    "latitude": 63.8631,
    "dead": 30,
    "lastUpdated": "2020-07-01T01:00:09.873Z",
    "sick": 1780,
    "invisible": false
  },
  {
    "name": "Espírito Santo",
    "latitude": -20.318,
    "dead": 1648,
    "lastUpdated": "2020-07-01T01:15:01.559Z",
    "recovered": 0,
    "infected": 46893,
    "state": "ES",
    "id": "QaWDLKH8SuwD0Qxq6c38",
    "pop": 3972388,
    "country": "BR",
    "longitude": -40.336,
    "sick": 45245,
    "invisible": false
  },
  {
    "lastUpdated": "2020-07-01T01:00:09.871Z",
    "recovered": 3529,
    "infected": 5211,
    "id": "Qh73PKA4KWeuPoqZfWXz",
    "pop": 795000,
    "country": "RU",
    "longitude": 35.0884,
    "name": "Murmansk Oblast",
    "latitude": 67.8443,
    "dead": 15,
    "sick": 1667,
    "invisible": false
  },
  {
    "country": "MX",
    "longitude": -103.6667,
    "name": "Jalisco",
    "latitude": 20.3333,
    "dead": 662,
    "lastUpdated": "2020-07-01T01:02:02.075Z",
    "recovered": 0,
    "infected": 12231,
    "id": "Qkho455pBwx88Gohs3hL",
    "pop": 8222700,
    "sick": 11569,
    "invisible": false
  },
  {
    "name": "Papua New Guinea",
    "latitude": -6.315,
    "dead": 0,
    "lastUpdated": "2020-07-01T01:16:02.795Z",
    "recovered": 8,
    "infected": 11,
    "id": "QlZrE4nosm5WfdA2aCDg",
    "pop": 8251000,
    "country": "PG",
    "longitude": 143.9555,
    "sick": 3,
    "invisible": false
  },
  {
    "state": "VI",
    "id": "QqhD3YDMKXojvQY3Yu41",
    "longitude": -64.8963,
    "name": "U.S. Virgin Islands",
    "alwaysShow": true,
    "dead": 6,
    "latitude": 18.3358,
    "infected": 84,
    "recovered": 0,
    "pop": 107268,
    "country": "US",
    "lastUpdated": "2020-07-01T01:17:07.350Z",
    "sick": 78,
    "invisible": false
  },
  {
    "longitude": -61.3709755,
    "name": "Dominica",
    "latitude": 15.414999,
    "dead": 0,
    "lastUpdated": "2020-07-01T01:16:02.795Z",
    "recovered": 18,
    "infected": 18,
    "id": "Qy2qW2ep5wltnYjPJBxh",
    "pop": 71937,
    "country": "DM",
    "sick": 0,
    "invisible": false
  },
  {
    "longitude": -72.167,
    "name": "Casanare",
    "latitude": 5.167,
    "dead": 0,
    "lastUpdated": "2020-07-01T01:15:11.821Z",
    "recovered": 45,
    "infected": 66,
    "id": "R3IHMWqIUhOJJTlrmbUZ",
    "pop": 344027,
    "country": "CO",
    "sick": 21,
    "invisible": false
  },
  {
    "lastUpdated": "2020-07-01T01:16:02.782Z",
    "recovered": 15745,
    "infected": 33550,
    "id": "R8YCgephnxTufvcPWMgx",
    "pop": 4099000,
    "country": "PA",
    "longitude": -80.7821,
    "name": "Panama",
    "latitude": 8.538,
    "dead": 631,
    "sick": 17174,
    "invisible": false
  },
  {
    "lastUpdated": "2020-07-01T01:16:02.783Z",
    "recovered": 1961,
    "infected": 18818,
    "id": "RA2SE0p2bVhqo0P2hzGY",
    "pop": 9265000,
    "country": "HN",
    "longitude": -86.2419,
    "name": "Honduras",
    "latitude": 15.2,
    "dead": 485,
    "sick": 16372,
    "invisible": false
  },
  {
    "latitude": -18.4745998,
    "dead": 20,
    "lastUpdated": "2020-07-01T00:51:10.467Z",
    "recovered": 0,
    "infected": 1713,
    "id": "RBt9RiwP7WUbMnJfD0lo",
    "pop": 224500,
    "country": "CL",
    "longitude": -70.2979202,
    "name": "Arica y Parinacota",
    "sick": 1693,
    "invisible": false
  },
  {
    "state": "36",
    "id": "RCrDBCdBNYzgLNr0aB2H",
    "pop": 1216000,
    "country": "IT",
    "longitude": 13.8,
    "name": "Friuli Venezia Giulia",
    "latitude": 45.633331,
    "dead": 345,
    "lastUpdated": "2020-07-01T01:01:01.741Z",
    "recovered": 2918,
    "infected": 3308,
    "sick": 45,
    "invisible": false
  },
  {
    "longitude": -93.0977,
    "name": "Iowa",
    "latitude": 41.878,
    "dead": 716,
    "lastUpdated": "2020-07-01T01:17:07.347Z",
    "recovered": 0,
    "infected": 29009,
    "state": "IA",
    "id": "RX0KDu1AFrlCsrRso0nb",
    "pop": 3156000,
    "country": "US",
    "sick": 28293,
    "invisible": false
  },
  {
    "lastUpdated": "2020-07-01T01:15:11.812Z",
    "recovered": 12255,
    "infected": 29320,
    "id": "RZ6PCe5TZsO15JjDObwO",
    "pop": 7413000,
    "country": "CO",
    "longitude": -74.063644,
    "name": "Bogotá D.C.",
    "latitude": 4.624335,
    "dead": 658,
    "sick": 16407,
    "invisible": false
  },
  {
    "recovered": 209,
    "infected": 824,
    "id": "RaJxbzlnRFTuj4B8IbpC",
    "pop": 6846000,
    "country": "LY",
    "longitude": 17.2283306,
    "name": "Libya",
    "latitude": 26.3351002,
    "dead": 24,
    "lastUpdated": "2020-07-01T01:16:02.791Z",
    "sick": 591,
    "invisible": false
  },
  {
    "country": "US",
    "longitude": -98.4842,
    "name": "Kansas",
    "latitude": 39.0119,
    "dead": 275,
    "lastUpdated": "2020-07-01T01:17:07.348Z",
    "recovered": 0,
    "infected": 14559,
    "state": "KS",
    "id": "Rf4uvBfP3GRDSHdZElRd",
    "pop": 2912000,
    "sick": 14284,
    "invisible": false
  },
  {
    "latitude": 48.6998,
    "dead": 3563,
    "lastUpdated": "2020-06-30T23:41:25.985Z",
    "recovered": 12113,
    "infected": 25679,
    "id": "RmEgf1xeclWt7XCF9oiR",
    "pop": 5518000,
    "country": "FR",
    "longitude": 6.1878,
    "name": "Grand Est",
    "sick": 10003,
    "invisible": false
  },
  {
    "state": "WAL",
    "id": "RryHraSohKQLAsdr1dHO",
    "pop": 3644000,
    "country": "BE",
    "longitude": 4.451,
    "name": "Wallonia",
    "latitude": 50.4176,
    "dead": 3376,
    "lastUpdated": "2020-07-01T01:07:06.239Z",
    "recovered": 4868,
    "infected": 19287,
    "sick": 11043,
    "invisible": false
  },
  {
    "name": "Ontario",
    "latitude": 51.2538,
    "dead": 2730,
    "lastUpdated": "2020-07-01T01:10:01.413Z",
    "recovered": 0,
    "infected": 36961,
    "state": "ON",
    "id": "Rx4TuyMpfGb3S8wYJX0x",
    "pop": 14570000,
    "country": "CA",
    "longitude": -85.3232,
    "sick": 34231,
    "invisible": false
  },
  {
    "recovered": 8716,
    "infected": 25976,
    "state": "CL",
    "id": "S8ewN4zaYp8mjtuqqOTw",
    "pop": 2408000,
    "country": "ES",
    "longitude": -4.723611,
    "name": "Castilla y León",
    "latitude": 41.652779,
    "dead": 2784,
    "lastUpdated": "2020-06-30T23:29:15.905Z",
    "sick": 14476,
    "invisible": false
  },
  {
    "longitude": -61.011715,
    "name": "Martinique",
    "alwaysShow": true,
    "latitude": 14.652027,
    "dead": 14,
    "lastUpdated": "2020-07-01T01:16:02.792Z",
    "recovered": 98,
    "infected": 242,
    "id": "SDdefnq1bc3ZNr7SpEsW",
    "pop": 376480,
    "country": "FR",
    "sick": 130,
    "invisible": false
  },
  {
    "longitude": -1.0232,
    "name": "Ghana",
    "latitude": 7.9465,
    "dead": 112,
    "lastUpdated": "2020-07-01T01:16:02.783Z",
    "recovered": 13268,
    "infected": 17741,
    "id": "SG9VWLOV3x2JsTkXmVSz",
    "pop": 28830000,
    "country": "GH",
    "sick": 4361,
    "invisible": false
  },
  {
    "country": "CH",
    "longitude": 8.227512,
    "name": "Switzerland",
    "latitude": 46.818188,
    "dead": 1963,
    "lastUpdated": "2020-07-01T01:16:02.782Z",
    "recovered": 29200,
    "infected": 31714,
    "id": "SGe9sCPayMqh6RsGFaBA",
    "pop": 8570000,
    "sick": 551,
    "invisible": false
  },
  {
    "longitude": 124.1238,
    "name": "Yakutia",
    "latitude": 66.7613,
    "dead": 30,
    "lastUpdated": "2020-07-01T01:00:09.872Z",
    "recovered": 2961,
    "infected": 4223,
    "id": "SGhKBmmh5hss7hrNR8hK",
    "pop": 964000,
    "country": "RU",
    "sick": 1232,
    "invisible": false
  },
  {
    "longitude": -71.208,
    "name": "Quebec",
    "latitude": 46.8139,
    "dead": 5503,
    "lastUpdated": "2020-07-01T01:10:01.413Z",
    "recovered": 0,
    "infected": 55458,
    "state": "QC",
    "id": "SHoOE3NiJgWAlDVBzwYH",
    "pop": 8485000,
    "country": "CA",
    "sick": 49955,
    "invisible": false
  },
  {
    "longitude": 20.903,
    "name": "Kosovo",
    "latitude": 42.6026,
    "dead": 51,
    "lastUpdated": "2020-07-01T00:55:01.787Z",
    "recovered": 1577,
    "infected": 2878,
    "id": "SMWvuMMuKp2QK7O2tNia",
    "pop": 1831000,
    "country": "XK",
    "sick": 1250,
    "invisible": false
  },
  {
    "recovered": 2745,
    "infected": 4306,
    "id": "SNWCQwRwqYfxX8HZndTA",
    "pop": 1913000,
    "country": "RU",
    "longitude": 135,
    "name": "Primorsky Krai",
    "latitude": 45.0526,
    "dead": 44,
    "lastUpdated": "2020-07-01T01:00:09.872Z",
    "sick": 1517,
    "invisible": false
  },
  {
    "name": "Goa",
    "latitude": 15.2993,
    "dead": 3,
    "lastUpdated": "2020-07-01T01:11:01.566Z",
    "recovered": 596,
    "infected": 1315,
    "id": "SPcujsH2YlUaoAr8AiWF",
    "pop": 1817000,
    "country": "IN",
    "longitude": 74.124,
    "sick": 716,
    "invisible": false
  },
  {
    "recovered": 0,
    "infected": 24381,
    "state": "GO",
    "id": "SV5AMF59J61Vt4cXWLgy",
    "pop": 6921161,
    "country": "BR",
    "longitude": -48.953403,
    "name": "Goiás",
    "latitude": -16.328547,
    "dead": 474,
    "lastUpdated": "2020-07-01T01:15:01.559Z",
    "sick": 23907,
    "invisible": false
  },
  {
    "recovered": 1,
    "infected": 1,
    "id": "SYFarIS62W0EW9bOaJmN",
    "pop": 75500,
    "country": "CO",
    "longitude": -68.436,
    "name": "Vichada",
    "latitude": 6.181,
    "dead": 0,
    "lastUpdated": "2020-07-01T01:15:11.824Z",
    "sick": 0,
    "invisible": false
  },
  {
    "state": "78",
    "id": "SZdF624x0v1LlyzZjKFu",
    "pop": 1957000,
    "country": "IT",
    "longitude": 16.5,
    "name": "Calabria",
    "latitude": 39,
    "dead": 97,
    "lastUpdated": "2020-07-01T01:01:01.740Z",
    "recovered": 1057,
    "infected": 1181,
    "sick": 27,
    "invisible": false
  },
  {
    "state": "NE",
    "id": "SakhKQzKu1LRI8laqdQq",
    "pop": 1929000,
    "country": "US",
    "longitude": -99.9018,
    "name": "Nebraska",
    "latitude": 41.4925,
    "dead": 274,
    "lastUpdated": "2020-07-01T01:17:07.348Z",
    "recovered": 0,
    "infected": 19177,
    "sick": 18903,
    "invisible": false
  },
  {
    "longitude": 55.5364,
    "name": "La Réunion",
    "alwaysShow": true,
    "latitude": -21.1151,
    "dead": 2,
    "lastUpdated": "2020-07-01T01:16:02.792Z",
    "recovered": 472,
    "infected": 526,
    "id": "SgHzWAAYK1j2sipovxM6",
    "pop": 859959,
    "country": "FR",
    "sick": 52,
    "invisible": false
  },
  {
    "name": "Cambodia",
    "latitude": 12.565679,
    "dead": 0,
    "lastUpdated": "2020-07-01T01:16:02.793Z",
    "recovered": 130,
    "infected": 141,
    "id": "SioMALgUbo7peXmbco2f",
    "pop": 16010000,
    "country": "KH",
    "longitude": 104.990967,
    "sick": 11,
    "invisible": false
  },
  {
    "state": "GU",
    "id": "SsWhuEElU7dCTTuH5fdQ",
    "longitude": 144.7937,
    "name": "Guam",
    "alwaysShow": true,
    "dead": 5,
    "latitude": 13.4443,
    "infected": 257,
    "recovered": 0,
    "pop": 164229,
    "country": "US",
    "lastUpdated": "2020-07-01T01:17:07.350Z",
    "sick": 252,
    "invisible": false
  },
  {
    "country": "PL",
    "longitude": 19.1344,
    "invisible": true,
    "name": "Unknown Poland region",
    "latitude": 51.9189,
    "dead": 0,
    "lastUpdated": "2020-07-01T01:16:02.782Z",
    "recovered": 21281,
    "infected": 0,
    "id": "SuCr5emUaJ9RHTll1P1p",
    "sick": 0
  },
  {
    "lastUpdated": "2020-07-01T01:00:09.875Z",
    "recovered": 1028,
    "infected": 1420,
    "id": "Sx03z01BJCAbrYkWhEaD",
    "pop": 1513000,
    "country": "RU",
    "longitude": 53.0278,
    "name": "Udmurtia",
    "latitude": 57.067,
    "dead": 16,
    "sick": 376,
    "invisible": false
  },
  {
    "longitude": 21.7587,
    "name": "DR Congo",
    "latitude": -4.0383,
    "dead": 170,
    "lastUpdated": "2020-07-01T01:16:02.785Z",
    "recovered": 1426,
    "infected": 7039,
    "id": "T3iRf8mTUTAzbKrORTap",
    "pop": 84070000,
    "country": "CD",
    "sick": 5443,
    "invisible": false
  },
  {
    "latitude": 23.635796,
    "dead": 1649,
    "lastUpdated": "2020-07-01T01:16:02.780Z",
    "recovered": 130766,
    "infected": 190823,
    "id": "T7NffoeCgTUpAbOHvYwP",
    "pop": 32940000,
    "country": "SA",
    "longitude": 44.344334,
    "name": "Saudi Arabia",
    "sick": 58408,
    "invisible": false
  },
  {
    "longitude": -2.5396,
    "name": "La Rioja",
    "latitude": 42.2871,
    "dead": 366,
    "lastUpdated": "2020-06-30T23:30:23.938Z",
    "recovered": 3107,
    "infected": 5471,
    "state": "RI",
    "id": "TNDTapyb0k3l7Mds9q9R",
    "pop": 315700,
    "country": "ES",
    "sick": 1998,
    "invisible": false
  },
  {
    "latitude": 20.400417,
    "dead": 448,
    "lastUpdated": "2020-07-01T01:02:02.071Z",
    "recovered": 0,
    "infected": 4265,
    "id": "TQCWbhIpJQBQxBjhCGVJ",
    "pop": 2207200,
    "country": "MX",
    "longitude": -89.134857,
    "name": "Yucatán",
    "sick": 3817,
    "invisible": false
  },
  {
    "longitude": 114.650692,
    "name": "Brunei",
    "latitude": 4.506106,
    "dead": 3,
    "lastUpdated": "2020-07-01T01:16:02.793Z",
    "recovered": 138,
    "infected": 141,
    "id": "TQZmzsLhJqjtCSExAkCP",
    "pop": 428697,
    "country": "BN",
    "sick": 0,
    "invisible": false
  },
  {
    "state": "",
    "id": "TT0MKODSjrxHvG19xZCa",
    "pop": 8027000,
    "country": "FR",
    "longitude": 4.3853,
    "name": "Auvergne-Rhône-Alpes",
    "latitude": 45.4471,
    "dead": 1737,
    "lastUpdated": "2020-06-30T23:40:24.666Z",
    "recovered": 7699,
    "infected": 15190,
    "sick": 5754,
    "invisible": false
  },
  {
    "name": "Alentejo",
    "latitude": 38.5667,
    "dead": 7,
    "lastUpdated": "2020-07-01T00:53:02.104Z",
    "recovered": 0,
    "infected": 484,
    "id": "TeoNTu4aw5riC04sTd73",
    "pop": 758700,
    "country": "PT",
    "longitude": -7.9,
    "sick": 477,
    "invisible": false
  },