[
  {
    "latitude": 20.9517,
    "pop": 45990000,
    "longitude": 85.0985,
    "name": "Odisha",
    "country": "IN",
    "lastUpdated": "2020-03-24T05:41:02.571Z",
    "dead": 0,
    "id": "0VG7S6aaK4eSo59fL9JO",
    "infected": 2,
    "recovered": 0,
    "sick": 2
  },
  {
    "latitude": 25.315058,
    "pop": 2639000,
    "longitude": 51.145517,
    "name": "Qatar",
    "country": "QA",
    "lastUpdated": "2020-03-24T05:43:03.271Z",
    "dead": 0,
    "id": "0m4aECS0Z2DGFEr8ldgI",
    "infected": 501,
    "recovered": 33,
    "sick": 468
  },
  {
    "infected": 7,
    "recovered": 0,
    "latitude": 22.9868,
    "pop": 90320000,
    "longitude": 87.855,
    "name": "West Bengal",
    "country": "IN",
    "lastUpdated": "2020-03-24T05:41:02.458Z",
    "dead": 1,
    "id": "0n54EMSDJcRoT1QEvw80",
    "sick": 6
  },
  {
    "infected": 7,
    "recovered": 0,
    "latitude": 22.9734,
    "pop": 73340000,
    "longitude": 78.6569,
    "name": "Madhya Pradesh",
    "country": "IN",
    "lastUpdated": "2020-03-24T05:41:02.476Z",
    "dead": 0,
    "id": "0s18o5DrDAHjbu5MFcrj",
    "sick": 7
  },
  {
    "dead": 0,
    "lastUpdated": "2020-03-24T05:43:03.064Z",
    "id": "0tFoopNTs6e4tOoaltu2",
    "infected": 0,
    "recovered": 295,
    "latitude": 37.0902,
    "longitude": -95.7129,
    "name": "Unknown US state",
    "country": "US",
    "sick": 0
  },
  {
    "id": "0x2HLhr5z5xAtEdO4iZm",
    "infected": 248,
    "recovered": 239,
    "latitude": 35.64249,
    "pop": 37330000,
    "longitude": 108.472214,
    "name": "Shaanxi",
    "country": "CN",
    "lastUpdated": "2020-03-24T01:03:42.061Z",
    "dead": 3,
    "sick": 6
  },
  {
    "latitude": 41.643351,
    "pop": 2077000,
    "longitude": 21.668393,
    "name": "North Macedonia",
    "country": "MK",
    "lastUpdated": "2020-03-24T05:43:03.135Z",
    "dead": 2,
    "id": "19MvIhipqTyYv1H37Upw",
    "infected": 136,
    "recovered": 1,
    "sick": 133
  },
  {
    "longitude": -57.6604,
    "name": "Newfoundland and Labrador",
    "country": "CA",
    "dead": 0,
    "lastUpdated": "2020-03-24T05:39:01.784Z",
    "id": "1DOMOmCWDtva46OVSZLv",
    "infected": 24,
    "recovered": 0,
    "latitude": 53.1355,
    "sick": 24
  },
  {
    "infected": 18,
    "recovered": 18,
    "latitude": 35.801933,
    "pop": 5627000,
    "longitude": 96.779286,
    "name": "Qinghai",
    "country": "CN",
    "lastUpdated": "2020-03-24T01:04:03.696Z",
    "dead": 0,
    "id": "1Fap7rZu9SIRqf5TG9Dg",
    "sick": 0
  },
  {
    "lastUpdated": "2020-03-24T05:43:03.245Z",
    "dead": 34,
    "id": "1f0YoV0vAcexEhpESyZc",
    "infected": 1924,
    "recovered": 2,
    "latitude": -14.235004,
    "pop": 209300000,
    "longitude": -51.925282,
    "name": "Brazil",
    "country": "BR",
    "sick": 1888
  },
  {
    "lastUpdated": "2020-03-24T05:43:03.275Z",
    "dead": 1,
    "id": "1qTPB8X3tyLyIdsb5TN3",
    "infected": 109,
    "recovered": 2,
    "latitude": 47.4116,
    "pop": 3550000,
    "longitude": 28.3699,
    "name": "Moldova",
    "country": "MD",
    "sick": 106
  },
  {
    "lastUpdated": "2020-03-24T01:03:03.546Z",
    "dead": 0,
    "id": "25qIBtsW2nfQj3pwBKg9",
    "infected": 1,
    "recovered": 1,
    "latitude": 30.15336,
    "pop": 3180000,
    "longitude": 88.787865,
    "name": "Tibet",
    "country": "CN",
    "sick": 0
  },
  {
    "infected": 579,
    "recovered": 30,
    "latitude": -1.572184,
    "pop": 264000000,
    "longitude": 115.66779,
    "name": "Indonesia",
    "country": "ID",
    "lastUpdated": "2020-03-24T05:43:03.236Z",
    "dead": 49,
    "id": "2KHYUb5t3lwzVVmDjwNX",
    "sick": 500
  },
  {
    "latitude": 43.807191,
    "pop": 4191000,
    "longitude": -120.585594,
    "name": "Oregon",
    "country": "US",
    "lastUpdated": "2020-03-24T05:39:01.727Z",
    "dead": 5,
    "id": "2OrsssmGUs4XCzaZzvTv",
    "infected": 191,
    "recovered": 0,
    "sick": 186
  },
  {
    "recovered": 92,
    "latitude": 43.851921,
    "pop": 27460000,
    "longitude": 126.548103,
    "name": "Jilin",
    "country": "CN",
    "lastUpdated": "2020-03-24T01:04:09.617Z",
    "dead": 1,
    "id": "2jxHvSsxdnom0nPNvOT8",
    "infected": 93,
    "sick": 0
  },
  {
    "recovered": 5,
    "latitude": 36.1408,
    "pop": 34571,
    "longitude": -5.3536,
    "name": "Gibraltar",
    "country": "GI",
    "lastUpdated": "2020-03-24T05:43:03.615Z",
    "dead": 0,
    "id": "2p11BjSAs3wVyymgqBOe",
    "infected": 15,
    "sick": 10
  },
  {
    "latitude": 47.7516,
    "pop": 2567000,
    "longitude": 1.6751,
    "name": "Centre-Val de Loire",
    "country": "FR",
    "lastUpdated": "2020-03-24T05:34:07.327Z",
    "dead": 0,
    "id": "2sLNkkHpyaHx7dD3aMDO",
    "infected": 361,
    "recovered": 0,
    "sick": 361
  },
  {
    "latitude": -13.133896,
    "pop": 17090000,
    "longitude": 27.849332,
    "name": "Zambia",
    "country": "ZM",
    "lastUpdated": "2020-03-24T05:43:03.644Z",
    "dead": 0,
    "id": "3IlPjAbP5qVMn1nlgLTJ",
    "infected": 3,
    "recovered": 0,
    "sick": 3
  },
  {
    "longitude": 19.3958,
    "name": "Montenegro",
    "country": "ME",
    "dead": 1,
    "lastUpdated": "2020-03-24T05:43:03.693Z",
    "id": "3LstMSN5XMYBkxbe5HN7",
    "infected": 27,
    "recovered": 0,
    "latitude": 42.7044,
    "sick": 26
  },
  {
    "longitude": 149.0124,
    "name": "Australian Capital Territory",
    "country": "AU",
    "dead": 0,
    "lastUpdated": "2020-03-24T05:40:03.535Z",
    "id": "3OZoQsKrzxZ18EKyfGE6",
    "infected": 32,
    "recovered": 0,
    "latitude": -35.4735,
    "sick": 32
  },
  {
    "latitude": 40.4173,
    "longitude": -82.9071,
    "name": "Ohio",
    "country": "US",
    "dead": 6,
    "lastUpdated": "2020-03-24T05:39:01.642Z",
    "id": "3fC3bAyIRUquOQOEnQNe",
    "infected": 443,
    "recovered": 0,
    "sick": 437
  },
  {
    "infected": 2,
    "recovered": 0,
    "latitude": 21.0079,
    "longitude": -10.9408,
    "name": "Mauritania",
    "country": "MR",
    "dead": 0,
    "lastUpdated": "2020-03-24T05:43:03.598Z",
    "id": "4NnFMekRK2m14IlnZZoj",
    "sick": 2
  },
  {
    "id": "4hfZRUoUgI4a3vrG0GBk",
    "infected": 472,
    "recovered": 0,
    "latitude": 53.7267,
    "pop": 5071000,
    "longitude": -127.6476,
    "name": "British Columbia",
    "country": "CA",
    "lastUpdated": "2020-03-24T05:39:01.675Z",
    "dead": 13,
    "sick": 459
  },
  {
    "latitude": 41.065877,
    "pop": 10290000,
    "longitude": -7.920053,
    "name": "Portugal",
    "country": "PT",
    "lastUpdated": "2020-03-24T05:43:03.227Z",
    "dead": 23,
    "id": "4rQLxUCMmQLpbi6E9tbH",
    "infected": 2060,
    "recovered": 14,
    "sick": 2023
  },
  {
    "infected": 72,
    "recovered": 10,
    "latitude": 40.3426,
    "pop": 9898000,
    "longitude": 47.93802,
    "name": "Azerbaijan",
    "country": "AZ",
    "lastUpdated": "2020-03-24T05:43:03.154Z",
    "dead": 1,
    "id": "4zqzRm2xHn0CDVOUQJ8p",
    "sick": 61
  },
  {
    "longitude": -78.035889,
    "name": "Bahamas",
    "country": "BS",
    "dead": 0,
    "lastUpdated": "2020-03-24T05:43:03.587Z",
    "id": "5MHegCUO9L3LiAU7DDey",
    "infected": 4,
    "recovered": 0,
    "latitude": 25.025885,
    "sick": 4
  },
  {
    "latitude": -31.253218,
    "pop": 7544000,
    "longitude": 146.921097,
    "name": "New South Wales",
    "country": "AU",
    "lastUpdated": "2020-03-24T05:40:03.728Z",
    "dead": 6,
    "id": "5N16a2OXXRpsEFanw0TC",
    "infected": 818,
    "recovered": 4,
    "sick": 808
  },
  {
    "latitude": -20.9043045,
    "longitude": 165.618042,
    "name": "New Caledonia",
    "country": "NC",
    "dead": 0,
    "lastUpdated": "2020-03-24T05:43:03.612Z",
    "id": "5fg04eyDwFw3kEXnrxez",
    "infected": 8,
    "recovered": 0,
    "sick": 8
  },
  {
    "pop": 29300000,
    "longitude": 84.124008,
    "name": "Nepal",
    "country": "NP",
    "lastUpdated": "2020-03-24T05:43:03.596Z",
    "dead": 0,
    "id": "5gXZIjRgAvd6xWN1LOv8",
    "infected": 2,
    "recovered": 1,
    "latitude": 28.394857,
    "sick": 1
  },
  {
    "recovered": 19,
    "latitude": 12.879721,
    "pop": 104900000,
    "longitude": 121.774017,
    "name": "Philippines",
    "country": "PH",
    "lastUpdated": "2020-03-24T05:43:03.281Z",
    "dead": 33,
    "id": "5pwmh7aSdGRKqRbnuyc0",
    "infected": 501,
    "sick": 449
  },
  {
    "lastUpdated": "2020-03-24T05:43:03.581Z",
    "dead": 1,
    "id": "5qtR9nx4BLwu1ODTniaY",
    "infected": 3,
    "recovered": 0,
    "latitude": -17.824858,
    "pop": 14802190,
    "longitude": 31.053028,
    "name": "Zimbabwe",
    "country": "ZW",
    "sick": 2
  },
  {
    "infected": 179,
    "recovered": 1,
    "latitude": 55.621011,
    "pop": 2794000,
    "longitude": 23.804991,
    "name": "Lithuania",
    "country": "LT",
    "lastUpdated": "2020-03-24T05:43:03.218Z",
    "dead": 1,
    "id": "694ON7d0mRJDeM1gHBTR",
    "sick": 177
  },
  {
    "latitude": 22.396427,
    "pop": 7392000,
    "longitude": 114.109497,
    "name": "Hong Kong",
    "country": "HK",
    "lastUpdated": "2020-03-24T05:43:03.143Z",
    "dead": 4,
    "id": "6IcHIIH0zXpY0POmBZTv",
    "infected": 357,
    "recovered": 100,
    "sick": 253
  },
  {
    "infected": 6,
    "recovered": 0,
    "latitude": 9.3077,
    "longitude": 2.3158,
    "name": "Benin",
    "country": "BJ",
    "dead": 0,
    "lastUpdated": "2020-03-24T05:43:03.575Z",
    "id": "6SlpghTyB6lpMFvx3g9U",
    "sick": 6
  },
  {
    "longitude": 14.5058,
    "name": "Slovenia",
    "country": "SI",
    "lastUpdated": "2020-03-24T05:43:03.183Z",
    "dead": 3,
    "id": "6ahNiyKDSDAftCctgLH3",
    "infected": 442,
    "recovered": 0,
    "latitude": 46.0569,
    "pop": 2067000,
    "sick": 439
  },
  {
    "recovered": 0,
    "latitude": -0.8037,
    "longitude": 11.6094,
    "name": "Gabon",
    "country": "GA",
    "dead": 1,
    "lastUpdated": "2020-03-24T05:43:03.584Z",
    "id": "6pBi38TUgYfFm0bry2uh",
    "infected": 6,
    "sick": 5
  },
  {
    "longitude": -62.818544,
    "name": "Saint-Barthélemy",
    "country": "FR",
    "lastUpdated": "2020-03-24T02:49:39.841Z",
    "dead": 0,
    "id": "78Ox26bNHDA2Pk2b3Uwn",
    "infected": 3,
    "recovered": 0,
    "latitude": 17.901672,
    "pop": 9131,
    "sick": 3
  },
  {
    "infected": 3,
    "recovered": 0,
    "latitude": 17.0608,
    "longitude": -61.7964,
    "name": "Antigua and Barbuda",
    "country": "AG",
    "dead": 0,
    "lastUpdated": "2020-03-24T05:43:03.658Z",
    "id": "7hVFcEV7nV0MrQr3LHrl",
    "sick": 3
  },
  {
    "infected": 5719,
    "recovered": 21,
    "latitude": 48.7904,
    "longitude": 11.4979,
    "name": "Bayern",
    "country": "DE",
    "dead": 27,
    "lastUpdated": "2020-03-24T05:42:02.801Z",
    "id": "7kCrrlOBE3jN6FtOVNUB",
    "sick": 5671
  },
  {
    "lastUpdated": "2020-03-24T05:43:03.303Z",
    "dead": 8,
    "id": "7rYC2iFB50c55Ihgbs4Q",
    "infected": 167,
    "recovered": 21,
    "latitude": 47.4979,
    "pop": 9773000,
    "longitude": 19.0402,
    "name": "Hungary",
    "country": "HU",
    "sick": 138
  },
  {
    "latitude": 7.3697,
    "pop": 24050000,
    "longitude": 12.3547,
    "name": "Cameroon",
    "country": "CM",
    "lastUpdated": "2020-03-24T05:43:03.699Z",
    "dead": 0,
    "id": "8C0d7WVCjyUGtnc2gUAR",
    "infected": 56,
    "recovered": 2,
    "sick": 54
  },
  {
    "dead": 0,
    "lastUpdated": "2020-03-24T05:43:03.600Z",
    "id": "8RihJrXw4NQXPxaRxr1u",
    "infected": 28,
    "recovered": 0,
    "latitude": -16.2902,
    "longitude": -63.5887,
    "name": "Bolivia",
    "country": "BO",
    "sick": 28
  },
  {
    "latitude": 12.9843,
    "pop": 109897,
    "longitude": -61.2872,
    "name": "St. Vincent Grenadines",
    "country": "VC",
    "lastUpdated": "2020-03-24T05:43:03.566Z",
    "dead": 0,
    "id": "8ZTySQROQejkDAad0qxQ",
    "infected": 1,
    "recovered": 0,
    "sick": 1
  },
  {
    "infected": 509,
    "recovered": 152,
    "latitude": 1.352083,
    "pop": 5621000,
    "longitude": 103.819839,
    "name": "Singapore",
    "country": "SG",
    "lastUpdated": "2020-03-24T05:43:03.254Z",
    "dead": 2,
    "id": "8pA3fM4xC2c2wv1b4TnE",
    "sick": 355
  },
  {
    "infected": 293,
    "recovered": 0,
    "latitude": 47.2184,
    "pop": 3787000,
    "longitude": -1.5536,
    "name": "Pays de la Loire",
    "country": "FR",
    "lastUpdated": "2020-03-24T05:34:07.227Z",
    "dead": 1,
    "id": "98hwAoohgWEOQVa3NlM5",
    "sick": 292
  },
  {
    "latitude": 12.8628,
    "pop": 40530000,
    "longitude": 30.2176,
    "name": "Sudan",
    "country": "SD",
    "lastUpdated": "2020-03-24T05:43:03.662Z",
    "dead": 1,
    "id": "9DPOkpIqrFy9mR4e9fuv",
    "infected": 2,
    "recovered": 0,
    "sick": 1
  },
  {
    "id": "9QcETqEcM2fTv9zRvx5T",
    "infected": 576,
    "recovered": 73,
    "latitude": 45.943161,
    "pop": 19530000,
    "longitude": 24.966761,
    "name": "Romania",
    "country": "RO",
    "lastUpdated": "2020-03-24T05:43:03.325Z",
    "dead": 7,
    "sick": 496
  },
  {
    "recovered": 0,
    "latitude": 12.136389,
    "longitude": -86.251389,
    "name": "Nicaragua",
    "country": "NI",
    "dead": 0,
    "lastUpdated": "2020-03-24T05:43:03.568Z",
    "id": "9Y5wmCqNCC6ZrenM31uA",
    "infected": 2,
    "sick": 2
  },
  {
    "lastUpdated": "2020-03-24T05:43:03.152Z",
    "dead": 1,
    "id": "9p6OCdZbUUwBLA60Gk3W",
    "infected": 700,
    "recovered": 10,
    "latitude": 61.92411,
    "pop": 5513000,
    "longitude": 25.748152,
    "name": "Finland",
    "country": "FI",
    "sick": 689
  },
  {
    "infected": 101,
    "recovered": 0,
    "latitude": 43.311643,
    "pop": 1356000,
    "longitude": -71.590315,
    "name": "New Hampshire",
    "country": "US",
    "lastUpdated": "2020-03-24T05:39:01.641Z",
    "dead": 1,
    "id": "A84CwQ52kA46Hr7pn6Bm",
    "sick": 100
  },
  {
    "lastUpdated": "2020-03-24T05:39:01.655Z",
    "dead": 0,
    "id": "AEUWUHS65qvjEslew11c",
    "infected": 106,
    "recovered": 0,
    "latitude": 41.823261,
    "pop": 1057000,
    "longitude": -71.412257,
    "name": "Rhode Island",
    "country": "US",
    "sick": 106
  },
  {
    "latitude": 49.3964,
    "longitude": 7.023,
    "name": "Saarland",
    "country": "DE",
    "dead": 1,
    "lastUpdated": "2020-03-24T05:42:02.961Z",
    "id": "AKjFRQGnzuuZQhv5Qwx7",
    "infected": 383,
    "recovered": 2,
    "sick": 380
  },
  {
    "longitude": -42.6043,
    "name": "Greenland",
    "country": "GL",
    "dead": 0,
    "lastUpdated": "2020-03-24T05:43:03.675Z",
    "id": "APaZzlGCEeuoLBtzTJMe",
    "infected": 4,
    "recovered": 0,
    "latitude": 71.7069,
    "sick": 4
  },
  {
    "longitude": -63.582687,
    "name": "Nova Scotia",
    "country": "CA",
    "dead": 0,
    "lastUpdated": "2020-03-24T05:39:01.861Z",
    "id": "AVCpxeh0fuH2WrHWNDYH",
    "infected": 41,
    "recovered": 0,
    "latitude": 45.65107,
    "sick": 41
  },
  {
    "dead": 0,
    "lastUpdated": "2020-03-24T05:39:01.652Z",
    "id": "AcULcZBozObOhwuRKMjJ",
    "infected": 46,
    "recovered": 0,
    "latitude": 47.012918,
    "longitude": -109.128641,
    "name": "Montana",
    "country": "US",
    "sick": 46
  },
  {
    "latitude": 27.285971,
    "pop": 45200000,
    "longitude": 116.01609,
    "name": "Jiangxi",
    "country": "CN",
    "lastUpdated": "2020-03-24T01:06:39.010Z",
    "dead": 1,
    "id": "AmBYm5J6E9Cuez1FQjiN",
    "infected": 936,
    "recovered": 934,
    "sick": 1
  },
  {
    "latitude": 28.033886,
    "pop": 41320000,
    "longitude": 1.659626,
    "name": "Algeria",
    "country": "DZ",
    "lastUpdated": "2020-03-24T05:43:03.308Z",
    "dead": 17,
    "id": "AwN0CScPDApcLFgz6e3z",
    "infected": 230,
    "recovered": 65,
    "sick": 148
  },
  {
    "infected": 315,
    "recovered": 5,
    "latitude": 45.099998,
    "pop": 4076000,
    "longitude": 15.2,
    "name": "Croatia",
    "country": "HR",
    "lastUpdated": "2020-03-24T05:43:03.296Z",
    "dead": 1,
    "id": "B82Ef45M8cDu4q7VsSHF",
    "sick": 309
  },
  {
    "latitude": 39.509109,
    "pop": 6043000,
    "longitude": -76.98432,
    "name": "Maryland",
    "country": "US",
    "lastUpdated": "2020-03-24T05:39:01.497Z",
    "dead": 3,
    "id": "BF51mWl51fgEcyBpCSzb",
    "infected": 290,
    "recovered": 0,
    "sick": 287
  },
  {
    "lastUpdated": "2020-03-24T05:43:03.132Z",
    "dead": 0,
    "id": "BGg6yVU5VP71B8NXU0oh",
    "infected": 81,
    "recovered": 22,
    "latitude": 53.709808,
    "pop": 9508000,
    "longitude": 27.953388,
    "name": "Belarus",
    "country": "BY",
    "sick": 59
  },
  {
    "infected": 511,
    "recovered": 0,
    "latitude": 48.8799,
    "pop": 3319000,
    "longitude": 0.1713,
    "name": "Normandie",
    "country": "FR",
    "lastUpdated": "2020-03-24T05:34:07.329Z",
    "dead": 9,
    "id": "BGtoyzb7y54LVlJ91rbf",
    "sick": 502
  },
  {
    "pop": 7172000,
    "longitude": -111.093735,
    "name": "Arizona",
    "country": "US",
    "lastUpdated": "2020-03-24T05:39:01.667Z",
    "dead": 3,
    "id": "BTEESCuD2ZbS1afunR2A",
    "infected": 235,
    "recovered": 0,
    "latitude": 34.048927,
    "sick": 232
  },
  {
    "id": "C3BCUzV80z9GfiuByIcr",
    "infected": 23230,
    "recovered": 0,
    "latitude": 40.719042,
    "pop": 19540000,
    "longitude": -73.982597,
    "name": "New York",
    "country": "US",
    "lastUpdated": "2020-03-24T03:54:01.745Z",
    "dead": 208,
    "sick": 23022
  },
  {
    "infected": 1236,
    "recovered": 7,
    "latitude": 49.731626,
    "pop": 10650000,
    "longitude": 15.359413,
    "name": "Czechia",
    "country": "CZ",
    "lastUpdated": "2020-03-24T05:43:03.121Z",
    "dead": 1,
    "id": "C6S76AggdWVU8G22jFHQ",
    "sick": 1228
  },
  {
    "lastUpdated": "2020-03-24T05:43:03.315Z",
    "dead": 2,
    "id": "C7cj4nwRITs13KnaJrQ2",
    "infected": 377,
    "recovered": 164,
    "latitude": 26.0667,
    "pop": 1493000,
    "longitude": 50.557701,
    "name": "Bahrain",
    "country": "BH",
    "sick": 211
  },
  {
    "pop": 68890000,
    "longitude": 74.2179,
    "name": "Rajasthan",
    "country": "IN",
    "lastUpdated": "2020-03-24T05:41:02.461Z",
    "dead": 0,
    "id": "CKZCZTPlrcq5fbfUPA9k",
    "infected": 33,
    "recovered": 3,
    "latitude": 27.0238,
    "sick": 30
  },
  {
    "latitude": 13.803,
    "longitude": -88.9053,
    "name": "El Salvador",
    "country": "SV",
    "dead": 0,
    "lastUpdated": "2020-03-24T05:43:03.670Z",
    "id": "Cgvmtle61ehMvCzRzYx7",
    "infected": 5,
    "recovered": 0,
    "sick": 5
  },
  {
    "longitude": -1.17432,
    "name": "United Kingdom",
    "country": "GB",
    "lastUpdated": "2020-03-24T05:43:03.159Z",
    "dead": 335,
    "id": "CrXu6i5Sqx11iwdfHfBs",
    "infected": 6650,
    "recovered": 135,
    "latitude": 52.355518,
    "pop": 66440000,
    "sick": 6180
  },
  {
    "infected": 235,
    "recovered": 2,
    "latitude": 40.259003,
    "pop": 2973000,
    "longitude": 44.818474,
    "name": "Armenia",
    "country": "AM",
    "lastUpdated": "2020-03-24T05:43:03.192Z",
    "dead": 0,
    "id": "DCJCtZoBTWQ4mzdDNljD",
    "sick": 233
  },
  {
    "infected": 25,
    "recovered": 10,
    "latitude": 22.192039,
    "pop": 622567,
    "longitude": 113.551262,
    "name": "Macao",
    "country": "MO",
    "lastUpdated": "2020-03-24T05:43:03.678Z",
    "dead": 0,
    "id": "DdBt8qsG6A3g92oOR3ow",
    "sick": 15
  },
  {
    "id": "DrGzziUglmBognCGY7R2",
    "infected": 28,
    "recovered": 0,
    "latitude": 42.962334,
    "pop": 577737,
    "longitude": -107.534868,
    "name": "Wyoming",
    "country": "US",
    "lastUpdated": "2020-03-24T05:39:01.682Z",
    "dead": 0,
    "sick": 28
  },
  {
    "latitude": 40.6401,
    "pop": 10740000,
    "longitude": 22.9444,
    "name": "Greece",
    "country": "GR",
    "lastUpdated": "2020-03-24T05:43:03.506Z",
    "dead": 17,
    "id": "Dtr1lap1RpJpXJdXGJiW",
    "infected": 695,
    "recovered": 29,
    "sick": 649
  },
  {
    "id": "EKTfs8e7M6DXzI1HqyyX",
    "infected": 195,
    "recovered": 29,
    "latitude": 25.03841,
    "pop": 23780000,
    "longitude": 121.563698,
    "name": "Taiwan",
    "country": "TW",
    "lastUpdated": "2020-03-24T02:47:44.705Z",
    "dead": 2,
    "sick": 164
  },
  {
    "id": "EQzJvzVHKjs8kLmK7BMu",
    "infected": 158,
    "recovered": 2,
    "latitude": 10.327273,
    "pop": 4906000,
    "longitude": -84.387618,
    "name": "Costa Rica",
    "country": "CR",
    "lastUpdated": "2020-03-24T05:43:03.276Z",
    "dead": 2,
    "sick": 154
  },
  {
    "latitude": 22.2587,
    "pop": 62700000,
    "longitude": 71.1924,
    "name": "Gujarat",
    "country": "IN",
    "lastUpdated": "2020-03-24T05:41:02.478Z",
    "dead": 1,
    "id": "ERwk9R9en4m9WbdoMbIg",
    "infected": 29,
    "recovered": 0,
    "sick": 28
  },
  {
    "infected": 6,
    "recovered": 0,
    "latitude": 30.7333,
    "longitude": 76.7794,
    "name": "Chandigarh",
    "country": "IN",
    "dead": 0,
    "lastUpdated": "2020-03-24T05:41:02.453Z",
    "id": "Esl5UlCVB9s8pmGB5Ofr",
    "sick": 6
  },
  {
    "id": "F4rPrEVGAIMM5rfPEMv4",
    "infected": 31,
    "recovered": 1,
    "latitude": 18.200178,
    "longitude": -66.664513,
    "name": "Puerto Rico",
    "country": "PR",
    "dead": 2,
    "lastUpdated": "2020-03-24T05:43:03.585Z",
    "sick": 28
  },
  {
    "latitude": 33.93911,
    "pop": 35530000,
    "longitude": 67.709953,
    "name": "Afghanistan",
    "country": "AF",
    "lastUpdated": "2020-03-24T05:43:03.673Z",
    "dead": 1,
    "id": "FCDmlmnIIswd8bQiUjfN",
    "infected": 42,
    "recovered": 1,
    "sick": 40
  },
  {
    "lastUpdated": "2020-03-24T01:07:16.771Z",
    "dead": 6,
    "id": "FErOU1m4Tj7jIkRam3vF",
    "infected": 578,
    "recovered": 570,
    "latitude": 29.431585,
    "pop": 30480000,
    "longitude": 106.912254,
    "name": "Chongqing",
    "country": "CN",
    "sick": 2
  },
  {
    "lastUpdated": "2020-03-24T05:43:03.225Z",
    "dead": 0,
    "id": "FZsUkhxBEgqsPb4eO0PN",
    "infected": 189,
    "recovered": 30,
    "latitude": 29.311661,
    "pop": 4137000,
    "longitude": 47.481766,
    "name": "Kuwait",
    "country": "KW",
    "sick": 159
  },
  {
    "infected": 12,
    "recovered": 1,
    "latitude": 11.1271,
    "pop": 67860000,
    "longitude": 78.6569,
    "name": "Tamil Nadu",
    "country": "IN",
    "lastUpdated": "2020-03-24T05:41:02.355Z",
    "dead": 0,
    "id": "FeS45oMNC27pI17F0xEV",
    "sick": 11
  },
  {
    "longitude": -70.430399,
    "name": "Dominican Republic",
    "country": "DO",
    "lastUpdated": "2020-03-24T05:43:03.186Z",
    "dead": 3,
    "id": "FuiVEJvWb0QMCpxJ3563",
    "infected": 245,
    "recovered": 3,
    "latitude": 18.947829,
    "pop": 10770000,
    "sick": 239
  },
  {
    "lastUpdated": "2020-03-24T02:51:21.864Z",
    "dead": 0,
    "id": "FyC551oNwmENxbr9Yght",
    "infected": 32,
    "recovered": 1,
    "latitude": 18.1124,
    "pop": 35190000,
    "longitude": 79.0193,
    "name": "Telangana",
    "country": "IN",
    "sick": 31
  },
  {
    "latitude": 48.669,
    "pop": 5450000,
    "longitude": 19.699,
    "name": "Slovakia",
    "country": "SK",
    "lastUpdated": "2020-03-24T05:43:03.133Z",
    "dead": 0,
    "id": "FzIDXoqWnTI3nUfhPyT2",
    "infected": 186,
    "recovered": 7,
    "sick": 179
  },
  {
    "latitude": 30.37532,
    "pop": 197000000,
    "longitude": 69.345116,
    "name": "Pakistan",
    "country": "PK",
    "lastUpdated": "2020-03-24T05:43:03.185Z",
    "dead": 6,
    "id": "GAp7Wb6IMhdgbvEtMza9",
    "infected": 875,
    "recovered": 13,
    "sick": 856
  },
  {
    "infected": 21,
    "recovered": 0,
    "latitude": 31.1471,
    "pop": 27980000,
    "longitude": 75.3412,
    "name": "Punjab",
    "country": "IN",
    "lastUpdated": "2020-03-24T05:41:02.464Z",
    "dead": 1,
    "id": "GGru8cG08mANO8XDDUtZ",
    "sick": 20
  },
  {
    "lastUpdated": "2020-03-24T05:43:03.305Z",
    "dead": 2,
    "id": "GHzBIsHy2GiBc5JV2HMs",
    "infected": 198,
    "recovered": 41,
    "latitude": 23.424076,
    "pop": 9400000,
    "longitude": 53.847816,
    "name": "United Arab Emirates",
    "country": "AE",
    "sick": 155
  },
  {
    "latitude": 36.621981,
    "pop": 39560000,
    "longitude": -119.339046,
    "name": "California",
    "country": "US",
    "lastUpdated": "2020-03-24T05:39:01.691Z",
    "dead": 43,
    "id": "Gh46r6vuaY7fbGt3IboN",
    "infected": 2212,
    "recovered": 0,
    "sick": 2169
  },
  {
    "latitude": 35.87189,
    "pop": 3943000,
    "longitude": -97.145514,
    "name": "Oklahoma",
    "country": "US",
    "lastUpdated": "2020-03-24T05:39:01.704Z",
    "dead": 2,
    "id": "GpF8ULuKOQiFDCUHN44h",
    "infected": 81,
    "recovered": 0,
    "sick": 79
  },
  {
    "id": "H3JeVigVbo5CSYfZG4WI",
    "infected": 75,
    "recovered": 74,
    "latitude": 42.83263,
    "pop": 24710000,
    "longitude": 113.750972,
    "name": "Inner Mongolia",
    "country": "CN",
    "lastUpdated": "2020-03-24T01:03:27.934Z",
    "dead": 1,
    "sick": 0
  },
  {
    "infected": 263,
    "recovered": 0,
    "latitude": 39.74536,
    "pop": 3034000,
    "longitude": -116.724977,
    "name": "Nevada",
    "country": "US",
    "lastUpdated": "2020-03-24T05:39:01.701Z",
    "dead": 4,
    "id": "H3bDg4eV30up4WWrIDAS",
    "sick": 259
  },
  {
    "lastUpdated": "2020-03-24T05:41:02.416Z",
    "dead": 1,
    "id": "HN5mGmxlqlSeFSNeu1K5",
    "infected": 37,
    "recovered": 2,
    "latitude": 15.3173,
    "pop": 64060000,
    "longitude": 75.7139,
    "name": "Karnataka",
    "country": "IN",
    "sick": 34
  },
  {
    "id": "HRDpwyxpqW9RN0xLFyNu",
    "infected": 2,
    "recovered": 0,
    "latitude": 27.5142,
    "pop": 807610,
    "longitude": 90.4336,
    "name": "Bhutan",
    "country": "BT",
    "lastUpdated": "2020-03-24T05:43:03.560Z",
    "dead": 0,
    "sick": 2
  },
  {
    "infected": 49,
    "recovered": 0,
    "latitude": 41.3775,
    "pop": 32390000,
    "longitude": 64.5853,
    "name": "Uzbekistan",
    "country": "UZ",
    "lastUpdated": "2020-03-24T05:43:03.569Z",
    "dead": 0,
    "id": "HRTA10dtrruDEwjJEGMp",
    "sick": 49
  },
  {
    "recovered": 0,
    "latitude": 34.138916,
    "longitude": -105.576255,
    "name": "New Mexico",
    "country": "US",
    "dead": 0,
    "lastUpdated": "2020-03-24T05:39:01.750Z",
    "id": "HSSFomRju0doHhWgW8On",
    "infected": 83,
    "sick": 83
  },
  {
    "dead": 0,
    "lastUpdated": "2020-03-24T05:42:02.678Z",
    "id": "He1gSS1v50t06i3YrqvB",
    "infected": 201,
    "recovered": 4,
    "latitude": 53.6127,
    "longitude": 12.4296,
    "name": "Mecklenburg-Vorpommern",
    "country": "DE",
    "sick": 197
  },
  {
    "infected": 367,
    "recovered": 4,
    "latitude": 23.634501,
    "pop": 129200000,
    "longitude": -102.552788,
    "name": "Mexico",
    "country": "MX",
    "lastUpdated": "2020-03-24T05:43:03.173Z",
    "dead": 4,
    "id": "I4OJ6z9Vjs1byOcbsJrd",
    "sick": 359
  },
  {
    "lastUpdated": "2020-03-24T01:06:32.007Z",
    "dead": 8,
    "id": "IAX0OQLVnUwU7FX0ENF1",
    "infected": 1415,
    "recovered": 1332,
    "latitude": 23.363855,
    "pop": 113460000,
    "longitude": 113.373448,
    "name": "Guangdong",
    "country": "CN",
    "sick": 75
  },
  {
    "infected": 1274,
    "recovered": 1250,
    "latitude": 33.875408,
    "pop": 94000000,
    "longitude": 113.484016,
    "name": "Henan",
    "country": "CN",
    "lastUpdated": "2020-03-24T01:07:09.877Z",
    "dead": 22,
    "id": "IFuMrMvSjoiX5agYvllh",
    "sick": 2
  },
  {
    "latitude": 19.0558,
    "longitude": -73.0513,
    "name": "Haiti",
    "country": "HT",
    "dead": 0,
    "lastUpdated": "2020-03-24T05:43:03.653Z",
    "id": "InZ38sIqyK7FN7XAOZoX",
    "infected": 6,
    "recovered": 0,
    "sick": 6
  },
  {
    "id": "IvQkDJkTAsoIqPRAU25n",
    "infected": 803,
    "recovered": 0,
    "latitude": 32.528564,
    "pop": 10520000,
    "longitude": -83.280125,
    "name": "Georgia (US)",
    "country": "US",
    "lastUpdated": "2020-03-24T05:39:01.746Z",
    "dead": 26,
    "sick": 777
  },
  {
    "latitude": -42.8285,
    "pop": 4794000,
    "longitude": 172.488081,
    "name": "New Zealand",
    "country": "NZ",
    "lastUpdated": "2020-03-24T05:43:03.242Z",
    "dead": 0,
    "id": "IvVhpOoGpH6JVkGyUhXN",
    "infected": 155,
    "recovered": 12,
    "sick": 143
  },
  {
    "id": "J3mZXlfEnnJx4CDZLvRG",
    "infected": 84,
    "recovered": 15,
    "latitude": 6.4238,
    "pop": 31980000,
    "longitude": -66.5897,
    "name": "Venezuela",
    "country": "VE",
    "lastUpdated": "2020-03-24T05:43:03.268Z",
    "dead": 0,
    "sick": 69
  },
  {
    "latitude": 35.1264,
    "longitude": 33.4299,
    "name": "Cyprus",
    "country": "CY",
    "dead": 1,
    "lastUpdated": "2020-03-24T05:43:03.239Z",
    "id": "JQByE4l2OA6sGOqIcWrM",
    "infected": 116,
    "recovered": 3,
    "sick": 112
  },
  {
    "recovered": 0,
    "latitude": 25.0961,
    "pop": 99020000,
    "longitude": 85.3131,
    "name": "Bihar",
    "country": "IN",
    "lastUpdated": "2020-03-24T05:41:02.389Z",
    "dead": 1,
    "id": "JR7hOGked7CZtIs2nCV5",
    "infected": 2,
    "sick": 1
  },
  {
    "longitude": -90.522713,
    "name": "Guatemala",
    "country": "GT",
    "dead": 1,
    "lastUpdated": "2020-03-24T05:43:03.667Z",
    "id": "JUWE6bG3b5oL7fKQMSvv",
    "infected": 20,
    "recovered": 0,
    "latitude": 14.628434,
    "sick": 19
  },
  {
    "recovered": 6,
    "latitude": 49.8153,
    "pop": 602005,
    "longitude": 6.1296,
    "name": "Luxembourg",
    "country": "LU",
    "lastUpdated": "2020-03-24T05:43:03.244Z",
    "dead": 8,
    "id": "JcFsHSn2WvZ5LJW42ovG",
    "infected": 875,
    "sick": 861
  },
  {
    "latitude": 8.6195,
    "pop": 7798000,
    "longitude": 0.8248,
    "name": "Togo",
    "country": "TG",
    "lastUpdated": "2020-03-24T05:43:03.558Z",
    "dead": 0,
    "id": "JrBbirlBKGdWSdcDt7PF",
    "infected": 18,
    "recovered": 0,
    "sick": 18
  },
  {
    "infected": 201,
    "recovered": 3,
    "latitude": 42.7339,
    "pop": 7050000,
    "longitude": 25.4858,
    "name": "Bulgaria",
    "country": "BG",
    "lastUpdated": "2020-03-24T05:43:03.265Z",
    "dead": 3,
    "id": "JzZ8sbqzjutThVjkPKPL",
    "sick": 195
  },
  {
    "infected": 97,
    "recovered": 2,
    "latitude": 7.873054,
    "pop": 21440000,
    "longitude": 80.771797,
    "name": "Sri Lanka",
    "country": "LK",
    "lastUpdated": "2020-03-24T05:43:03.156Z",
    "dead": 0,
    "id": "KsWzJO06cf0d6LJ4ZNh9",
    "sick": 95
  },
  {
    "lastUpdated": "2020-03-24T05:41:02.391Z",
    "dead": 0,
    "id": "KtQIo2DoqjELtPAlyDVO",
    "infected": 7,
    "recovered": 0,
    "latitude": 15.9129,
    "pop": 49670000,
    "longitude": 79.74,
    "name": "Andhra Pradesh",
    "country": "IN",
    "sick": 7
  },
  {
    "lastUpdated": "2020-03-24T05:43:03.195Z",
    "dead": 1,
    "id": "KwOuGBKSMRlmwftxAvLX",
    "infected": 438,
    "recovered": 17,
    "latitude": 61.52401,
    "pop": 144500000,
    "longitude": 105.318756,
    "name": "Russia",
    "country": "RU",
    "sick": 420
  },
  {
    "id": "LBUtrLDKJiupXjlUNTUe",
    "infected": 8,
    "recovered": 0,
    "latitude": 18.0708,
    "pop": 32125,
    "longitude": -63.0501,
    "name": "Saint-Martin",
    "country": "FR",
    "lastUpdated": "2020-03-24T05:34:07.140Z",
    "dead": 0,
    "sick": 8
  },
  {
    "latitude": 47.166,
    "pop": 38557,
    "longitude": 9.5554,
    "name": "Liechtenstein",
    "country": "LI",
    "lastUpdated": "2020-03-24T05:43:03.607Z",
    "dead": 0,
    "id": "LTGEU2E9MFkrCcFhZYVk",
    "infected": 51,
    "recovered": 0,
    "sick": 51
  },
  {
    "latitude": 9.9456,
    "longitude": -9.6966,
    "name": "Guinea",
    "country": "GN",
    "dead": 0,
    "lastUpdated": "2020-03-24T05:43:03.639Z",
    "id": "LU2QWt5ao8IJa8evNYVV",
    "infected": 4,
    "recovered": 0,
    "sick": 4
  },
  {
    "infected": 6,
    "recovered": 0,
    "latitude": 3.9193051,
    "pop": 563402,
    "longitude": -56.0277824,
    "name": "Suriname",
    "country": "SR",
    "lastUpdated": "2020-03-24T05:43:03.654Z",
    "dead": 0,
    "id": "LglKINHyQpYpFxjckbQ6",
    "sick": 6
  },
  {
    "longitude": -106.4509,
    "name": "Saskatchewan",
    "country": "CA",
    "dead": 0,
    "lastUpdated": "2020-03-24T05:39:01.811Z",
    "id": "LkIDKY0CMAqzbwBHyYCP",
    "infected": 66,
    "recovered": 0,
    "latitude": 52.9399,
    "sick": 66
  },
  {
    "infected": 123,
    "recovered": 0,
    "latitude": 37.8393,
    "pop": 4468000,
    "longitude": -84.27,
    "name": "Kentucky",
    "country": "US",
    "lastUpdated": "2020-03-24T05:39:01.737Z",
    "dead": 4,
    "id": "MC8MXFw9iXYybnF8v7e6",
    "sick": 119
  },
  {
    "longitude": -86.1349,
    "name": "Indiana",
    "country": "US",
    "lastUpdated": "2020-03-24T05:39:01.714Z",
    "dead": 7,
    "id": "MOxDkmQ4wBi1CuAdVxDE",
    "infected": 271,
    "recovered": 0,
    "latitude": 40.2672,
    "pop": 6692000,
    "sick": 264
  },
  {
    "recovered": 2,
    "latitude": 7.54,
    "longitude": -5.5471,
    "name": "Ivory Coast",
    "country": "CI",
    "dead": 0,
    "lastUpdated": "2020-03-24T05:43:03.595Z",
    "id": "MdQOfc1gNh2DOqwSP6UV",
    "infected": 25,
    "sick": 23
  },
  {
    "dead": 41,
    "lastUpdated": "2020-03-24T05:42:02.768Z",
    "id": "MjpYq3zQyAvSQlVVYjD2",
    "infected": 8224,
    "recovered": 187,
    "latitude": 51.4332,
    "longitude": 7.6616,
    "name": "Nordrhein-Westfalen",
    "country": "DE",
    "sick": 7996
  },
  {
    "lastUpdated": "2020-03-24T01:03:15.691Z",
    "dead": 0,
    "id": "MntmjjuHljarCdt6aIeE",
    "infected": 75,
    "recovered": 75,
    "latitude": 37.330509,
    "pop": 6301000,
    "longitude": 105.977203,
    "name": "Ningxia",
    "country": "CN",
    "sick": 0
  },
  {
    "infected": 5333,
    "recovered": 130,
    "latitude": 48.6616,
    "longitude": 9.3501,
    "name": "Baden-Württemberg",
    "country": "DE",
    "dead": 31,
    "lastUpdated": "2020-03-24T05:42:02.694Z",
    "id": "N3XsRBwJSsNclkEf7Zz5",
    "sick": 5172
  },
  {
    "pop": 3507000,
    "longitude": 17.824332,
    "name": "Bosnia and Herzegovina",
    "country": "BA",
    "lastUpdated": "2020-03-24T05:43:03.126Z",
    "dead": 1,
    "id": "N7c13sCQF0G789XAVazJ",
    "infected": 136,
    "recovered": 2,
    "latitude": 44.696652,
    "sick": 133
  },
  {
    "id": "NBRIGIRrJB1Ry8prDNAC",
    "infected": 134,
    "recovered": 133,
    "latitude": 37.242565,
    "pop": 36500000,
    "longitude": 111.856857,
    "name": "Shanxi",
    "country": "CN",
    "lastUpdated": "2020-03-24T01:03:35.302Z",
    "dead": 0,
    "sick": 1
  },
  {
    "longitude": -79.0193,
    "name": "North Carolina",
    "country": "US",
    "lastUpdated": "2020-03-24T05:39:01.649Z",
    "dead": 0,
    "id": "NC64Qp5kTqAfiTuR27k8",
    "infected": 420,
    "recovered": 0,
    "latitude": 35.7596,
    "pop": 10380000,
    "sick": 420
  },
  {
    "recovered": 1,
    "latitude": 52.4125,
    "longitude": 12.5316,
    "name": "Brandenburg",
    "country": "DE",
    "dead": 1,
    "lastUpdated": "2020-03-24T05:42:02.884Z",
    "id": "NJjo2gfBvnbK4xatrsUz",
    "infected": 385,
    "sick": 383
  },
  {
    "recovered": 0,
    "latitude": 30.0668,
    "pop": 10080000,
    "longitude": 79.0193,
    "name": "Uttarakhand",
    "country": "IN",
    "lastUpdated": "2020-03-24T05:41:02.437Z",
    "dead": 0,
    "id": "NMeZEcGToxXfpi16PfFV",
    "infected": 3,
    "sick": 3
  },
  {
    "infected": 1352,
    "recovered": 6,
    "latitude": 50.6521,
    "pop": 0,
    "longitude": 9.1624,
    "name": "Hessen",
    "country": "DE",
    "lastUpdated": "2020-03-24T05:42:02.870Z",
    "dead": 3,
    "id": "Nk5vPgUIXsWVfbWZf15O",
    "sick": 1343
  },
  {
    "longitude": 25.837107,
    "name": "Latvia",
    "country": "LV",
    "lastUpdated": "2020-03-24T05:43:03.288Z",
    "dead": 0,
    "id": "NmmMKy0YqA8StHdGzB5N",
    "infected": 180,
    "recovered": 1,
    "latitude": 56.96776,
    "pop": 1920000,
    "sick": 179
  },
  {
    "dead": 0,
    "lastUpdated": "2020-03-24T05:43:03.686Z",
    "id": "O4g88K49HKEZLFXm5gxb",
    "infected": 3,
    "recovered": 0,
    "latitude": 6.4281,
    "longitude": -9.4295,
    "name": "Liberia",
    "country": "LR",
    "sick": 3
  },
  {
    "infected": 298,
    "recovered": 0,
    "latitude": 34.003307,
    "pop": 5084000,
    "longitude": -80.525613,
    "name": "South Carolina",
    "country": "US",
    "lastUpdated": "2020-03-24T05:39:01.783Z",
    "dead": 5,
    "id": "ONU4CK8QjViFHKg2w5if",
    "sick": 293
  },
  {
    "infected": 249,
    "recovered": 0,
    "latitude": 33.51822,
    "longitude": -89.582775,
    "name": "Mississippi",
    "country": "US",
    "dead": 1,
    "lastUpdated": "2020-03-24T05:39:01.687Z",
    "id": "OYa0jFzdbAgo8zUsRv6q",
    "sick": 248
  },
  {
    "infected": 107,
    "recovered": 0,
    "latitude": 45.2538,
    "longitude": -69.4455,
    "name": "Maine",
    "country": "US",
    "dead": 0,
    "lastUpdated": "2020-03-24T05:39:01.730Z",
    "id": "OcXNp9kNVSwrRlG3bNVN",
    "sick": 107
  },
  {
    "lastUpdated": "2020-03-24T05:40:03.625Z",
    "dead": 0,
    "id": "OnOseaqWdnuP18oruABW",
    "infected": 21,
    "recovered": 3,
    "latitude": -41.915264,
    "pop": 515000,
    "longitude": 146.725256,
    "name": "Tasmania",
    "country": "AU",
    "sick": 18
  },
  {
    "latitude": 19.3133,
    "longitude": -81.2546,
    "name": "Cayman Islands",
    "country": "KY",
    "dead": 1,
    "lastUpdated": "2020-03-24T05:43:03.682Z",
    "id": "P4mwRFLbrvT0t75uD8Wo",
    "infected": 5,
    "recovered": 0,
    "sick": 4
  },
  {
    "longitude": -62.1873665,
    "name": "Montserrat",
    "country": "MS",
    "dead": 0,
    "lastUpdated": "2020-03-24T05:43:03.564Z",
    "id": "PEDkeFMTOZpvHiSVxBk7",
    "infected": 1,
    "recovered": 0,
    "latitude": 16.7424984,
    "sick": 1
  },
  {
    "latitude": -1.9403,
    "longitude": 29.8739,
    "name": "Rwanda",
    "country": "RW",
    "dead": 0,
    "lastUpdated": "2020-03-24T05:43:03.636Z",
    "id": "PEcgZGEkyhABztt1Ufgc",
    "infected": 36,
    "recovered": 0,
    "sick": 36
  },
  {
    "infected": 234,
    "recovered": 0,
    "latitude": 46.7296,
    "pop": 5611000,
    "longitude": -94.6859,
    "name": "Minnesota",
    "country": "US",
    "lastUpdated": "2020-03-24T05:39:01.741Z",
    "dead": 1,
    "id": "PJvVYosLIhbcRZYnKX1R",
    "sick": 233
  },
  {
    "longitude": -89.3985,
    "name": "Illinois",
    "country": "US",
    "lastUpdated": "2020-03-24T05:39:01.795Z",
    "dead": 12,
    "id": "PTwQr9ijo0TBBsPH2sdJ",
    "infected": 1285,
    "recovered": 0,
    "latitude": 40.6331,
    "pop": 12740000,
    "sick": 1273
  },
  {
    "recovered": 0,
    "latitude": 13.909444,
    "longitude": -60.978893,
    "name": "Saint Lucia",
    "country": "LC",
    "dead": 0,
    "lastUpdated": "2020-03-24T05:43:03.567Z",
    "id": "PjLqCeFdyzdZNcZxMkK1",
    "infected": 3,
    "sick": 3
  },
  {
    "pop": 11530000,
    "longitude": 9.460554,
    "name": "Tunisia",
    "country": "TN",
    "lastUpdated": "2020-03-24T05:43:03.117Z",
    "dead": 3,
    "id": "Pr76V4raf108uSRoEXac",
    "infected": 89,
    "recovered": 1,
    "latitude": 34.201507,
    "sick": 85
  },
  {
    "longitude": 31.4659,
    "name": "Eswatini",
    "country": "SZ",
    "dead": 0,
    "lastUpdated": "2020-03-24T05:43:03.646Z",
    "id": "PuQgOd9KWiMzGZXm11sR",
    "infected": 4,
    "recovered": 0,
    "latitude": -26.5225,
    "sick": 4
  },
  {
    "infected": 355,
    "recovered": 97,
    "latitude": -37.009609,
    "pop": 6359000,
    "longitude": 143.94853,
    "name": "Victoria",
    "country": "AU",
    "lastUpdated": "2020-03-24T05:40:03.635Z",
    "dead": 0,
    "id": "Q18mrGvFWTLX2BU9SqhQ",
    "sick": 258
  },
  {
    "longitude": 9.6961,
    "name": "Schleswig-Holstein",
    "country": "DE",
    "dead": 1,
    "lastUpdated": "2020-03-24T05:42:02.861Z",
    "id": "Q39XkabIYxt15mHINzTa",
    "infected": 467,
    "recovered": 1,
    "latitude": 54.2194,
    "sick": 465
  },
  {
    "latitude": 58.595272,
    "pop": 1328000,
    "longitude": 25.013607,
    "name": "Estonia",
    "country": "EE",
    "lastUpdated": "2020-03-24T05:43:03.279Z",
    "dead": 0,
    "id": "QR9go2hQKXjty7JHUYe4",
    "infected": 352,
    "recovered": 4,
    "sick": 348
  },
  {
    "recovered": 0,
    "latitude": -6.315,
    "longitude": 143.9555,
    "name": "Papua New Guinea",
    "country": "PG",
    "dead": 0,
    "lastUpdated": "2020-03-24T05:43:03.624Z",
    "id": "QlZrE4nosm5WfdA2aCDg",
    "infected": 1,
    "sick": 1
  },
  {
    "latitude": 18.3358,
    "pop": 107268,
    "longitude": -64.8963,
    "name": "U.S. Virgin Islands",
    "country": "VI",
    "lastUpdated": "2020-03-24T05:43:03.556Z",
    "dead": 0,
    "id": "QqhD3YDMKXojvQY3Yu41",
    "infected": 17,
    "recovered": 0,
    "sick": 17
  },
  {
    "infected": 2,
    "recovered": 0,
    "latitude": 15.414999,
    "pop": 71937,
    "longitude": -61.3709755,
    "name": "Dominica",
    "country": "DM",
    "lastUpdated": "2020-03-24T05:43:03.633Z",
    "dead": 0,
    "id": "Qy2qW2ep5wltnYjPJBxh",
    "sick": 2
  },
  {
    "infected": 345,
    "recovered": 1,
    "latitude": 8.538,
    "longitude": -80.7821,
    "name": "Panama",
    "country": "PA",
    "dead": 6,
    "lastUpdated": "2020-03-24T05:43:03.278Z",
    "id": "R8YCgephnxTufvcPWMgx",
    "sick": 338
  },
  {
    "id": "RA2SE0p2bVhqo0P2hzGY",
    "infected": 30,
    "recovered": 0,
    "latitude": 15.2,
    "pop": 9265000,
    "longitude": -86.2419,
    "name": "Honduras",
    "country": "HN",
    "lastUpdated": "2020-03-24T05:43:03.613Z",
    "dead": 0,
    "sick": 30
  },
  {
    "recovered": 0,
    "latitude": 41.878,
    "longitude": -93.0977,
    "name": "Iowa",
    "country": "US",
    "dead": 0,
    "lastUpdated": "2020-03-24T05:39:01.715Z",
    "id": "RX0KDu1AFrlCsrRso0nb",
    "infected": 105,
    "sick": 105
  },
  {
    "latitude": 39.0119,
    "longitude": -98.4842,
    "name": "Kansas",
    "country": "US",
    "dead": 2,
    "lastUpdated": "2020-03-24T05:39:01.695Z",
    "id": "Rf4uvBfP3GRDSHdZElRd",
    "infected": 85,
    "recovered": 0,
    "sick": 83
  },
  {
    "latitude": 48.6998,
    "pop": 5518000,
    "longitude": 6.1878,
    "name": "Grand Est",
    "country": "FR",
    "lastUpdated": "2020-03-24T05:34:07.138Z",
    "dead": 61,
    "id": "RmEgf1xeclWt7XCF9oiR",
    "infected": 4256,
    "recovered": 0,
    "sick": 4195
  },
  {
    "id": "Rx4TuyMpfGb3S8wYJX0x",
    "infected": 503,
    "recovered": 0,
    "latitude": 51.2538,
    "pop": 14570000,
    "longitude": -85.3232,
    "name": "Ontario",
    "country": "CA",
    "lastUpdated": "2020-03-24T05:39:01.720Z",
    "dead": 6,
    "sick": 497
  },
  {
    "recovered": 0,
    "latitude": 14.652027,
    "pop": 376480,
    "longitude": -61.011715,
    "name": "Martinique",
    "country": "FR",
    "lastUpdated": "2020-03-24T05:34:07.229Z",
    "dead": 1,
    "id": "SDdefnq1bc3ZNr7SpEsW",
    "infected": 53,
    "sick": 52
  },
  {
    "dead": 2,
    "lastUpdated": "2020-03-24T05:43:03.694Z",
    "id": "SG9VWLOV3x2JsTkXmVSz",
    "infected": 27,
    "recovered": 0,
    "latitude": 7.9465,
    "longitude": -1.0232,
    "name": "Ghana",
    "country": "GH",
    "sick": 25
  },
  {
    "latitude": 46.818188,
    "pop": 8570000,
    "longitude": 8.227512,
    "name": "Switzerland",
    "country": "CH",
    "lastUpdated": "2020-03-24T05:43:03.142Z",
    "dead": 120,
    "id": "SGe9sCPayMqh6RsGFaBA",
    "infected": 8795,
    "recovered": 131,
    "sick": 8544
  },
  {
    "infected": 219,
    "recovered": 0,
    "latitude": 46.8139,
    "pop": 37590000,
    "longitude": -71.208,
    "name": "Quebec",
    "country": "CA",
    "lastUpdated": "2020-03-23T14:01:01.785Z",
    "dead": 4,
    "id": "SHoOE3NiJgWAlDVBzwYH",
    "sick": 215
  },
  {
    "dead": 1,
    "lastUpdated": "2020-03-24T05:14:01.974Z",
    "id": "SMWvuMMuKp2QK7O2tNia",
    "infected": 61,
    "recovered": 0,
    "latitude": 42.6026,
    "longitude": 20.903,
    "name": "Kosovo",
    "country": "XK",
    "sick": 60
  },
  {
    "infected": 66,
    "recovered": 0,
    "latitude": 41.4925,
    "pop": 1929000,
    "longitude": -99.9018,
    "name": "Nebraska",
    "country": "US",
    "lastUpdated": "2020-03-24T05:24:01.476Z",
    "dead": 0,
    "id": "SakhKQzKu1LRI8laqdQq",
    "sick": 66
  },
  {
    "recovered": 0,
    "latitude": -21.1151,
    "longitude": 55.5364,
    "name": "La Réunion",
    "country": "FR",
    "dead": 0,
    "lastUpdated": "2020-03-24T05:34:07.231Z",
    "id": "SgHzWAAYK1j2sipovxM6",
    "infected": 71,
    "sick": 71
  },
  {
    "infected": 87,
    "recovered": 2,
    "latitude": 12.565679,
    "pop": 16010000,
    "longitude": 104.990967,
    "name": "Cambodia",
    "country": "KH",
    "lastUpdated": "2020-03-24T05:43:03.120Z",
    "dead": 0,
    "id": "SioMALgUbo7peXmbco2f",
    "sick": 85
  },
  {
    "dead": 1,
    "lastUpdated": "2020-03-24T05:43:03.561Z",
    "id": "SsWhuEElU7dCTTuH5fdQ",
    "infected": 33,
    "recovered": 0,
    "latitude": 13.4443,
    "longitude": 144.7937,
    "name": "Guam",
    "country": "GU",
    "sick": 32
  },
  {
    "latitude": -4.0383,
    "longitude": 21.7587,
    "name": "DR Congo",
    "country": "CD",
    "dead": 2,
    "lastUpdated": "2020-03-24T05:43:03.628Z",
    "id": "T3iRf8mTUTAzbKrORTap",
    "infected": 36,
    "recovered": 0,
    "sick": 34
  },
  {
    "id": "T7NffoeCgTUpAbOHvYwP",
    "infected": 562,
    "recovered": 19,
    "latitude": 23.635796,
    "pop": 32940000,
    "longitude": 44.344334,
    "name": "Saudi Arabia",
    "country": "SA",
    "lastUpdated": "2020-03-24T05:43:03.284Z",
    "dead": 0,
    "sick": 543
  },
  {
    "dead": 0,
    "lastUpdated": "2020-03-24T05:43:03.286Z",
    "id": "TQZmzsLhJqjtCSExAkCP",
    "infected": 91,
    "recovered": 2,
    "latitude": 4.506106,
    "longitude": 114.650692,
    "name": "Brunei",
    "country": "BN",
    "sick": 89
  },
  {
    "latitude": 45.4471,
    "pop": 8027000,
    "longitude": 4.3853,
    "name": "Auvergne-Rhône-Alpes",
    "country": "FR",
    "lastUpdated": "2020-03-24T05:34:07.241Z",
    "dead": 7,
    "id": "TT0MKODSjrxHvG19xZCa",
    "infected": 1730,
    "recovered": 18,
    "sick": 1705
  },
  {
    "latitude": 39.318928,
    "pop": 5696000,
    "longitude": -105.461392,
    "name": "Colorado",
    "country": "US",
    "lastUpdated": "2020-03-24T05:39:01.639Z",
    "dead": 7,
    "id": "Th4dlpXXmSDgi1OHs36P",
    "infected": 723,
    "recovered": 0,
    "sick": 716
  },
  {
    "longitude": -1.5616,
    "name": "Burkina Faso",
    "country": "BF",
    "dead": 4,
    "lastUpdated": "2020-03-24T05:43:03.129Z",
    "id": "Tup6oDCHj6DgqZR3nQ3x",
    "infected": 99,
    "recovered": 5,
    "latitude": 12.2383,
    "sick": 90
  },
  {
    "infected": 1,
    "recovered": 0,
    "latitude": 12.104818,
    "pop": 112381,
    "longitude": -61.670761,
    "name": "Grenada",
    "country": "GD",
    "lastUpdated": "2020-03-24T05:43:03.574Z",
    "dead": 0,
    "id": "TvqURPN5xzVBXsmGP46N",
    "sick": 1
  },
  {
    "id": "Ty1AY3VLPJcRZgdBIERx",
    "infected": 1460,
    "recovered": 1,
    "latitude": 55.675758,
    "pop": 5603000,
    "longitude": 12.56902,
    "name": "Denmark",
    "country": "DK",
    "lastUpdated": "2020-03-24T05:43:03.238Z",
    "dead": 24,
    "sick": 1435
  },
  {
    "lastUpdated": "2020-03-24T01:03:56.414Z",
    "dead": 7,
    "id": "U0tkTJ9CGsBuFJ2Gdoum",
    "infected": 768,
    "recovered": 752,
    "latitude": 36.395859,
    "pop": 100472400,
    "longitude": 118.769882,
    "name": "Shandong",
    "country": "CN",
    "sick": 9
  },
  {
    "lastUpdated": "2020-03-24T05:43:03.267Z",
    "dead": 20,
    "id": "U12rMD5GDW58Q0lIwrB1",
    "infected": 187,
    "recovered": 4,
    "latitude": 43.94236,
    "pop": 33400,
    "longitude": 12.457777,
    "name": "San Marino",
    "country": "SM",
    "sick": 163
  },
  {
    "infected": 1128,
    "recovered": 235,
    "latitude": 36.204823,
    "pop": 126800000,
    "longitude": 138.25293,
    "name": "Japan",
    "country": "JP",
    "lastUpdated": "2020-03-24T05:43:03.181Z",
    "dead": 42,
    "id": "U13Gy4BpRLAZ95bPmBXd",
    "sick": 851
  },
  {
    "infected": 9,
    "recovered": 0,
    "latitude": 1.3733,
    "pop": 42860000,
    "longitude": 32.2903,
    "name": "Uganda",
    "country": "UG",
    "lastUpdated": "2020-03-24T05:43:03.656Z",
    "dead": 0,
    "id": "UCZXEgnHtxUoChWLR6fQ",
    "sick": 9
  },
  {
    "latitude": -11.2027,
    "pop": 29780000,
    "longitude": 17.8739,
    "name": "Angola",
    "country": "AO",
    "lastUpdated": "2020-03-24T05:43:03.605Z",
    "dead": 0,
    "id": "UIbrFy6kiTTF0D37Kqmp",
    "infected": 3,
    "recovered": 0,
    "sick": 3
  },
  {
    "id": "URKMlJ7OTNldjpaxFbjE",
    "infected": 490,
    "recovered": 0,
    "latitude": 48.202,
    "pop": 3329000,
    "longitude": -2.9326,
    "name": "Bretagne",
    "country": "FR",
    "lastUpdated": "2020-03-24T05:34:07.331Z",
    "dead": 3,
    "sick": 487
  },
  {
    "infected": 989,
    "recovered": 1,
    "latitude": 53.5511,
    "longitude": 9.9937,
    "name": "Hamburg",
    "country": "DE",
    "dead": 1,
    "lastUpdated": "2020-03-24T05:42:02.971Z",
    "id": "UfFaUECHINUutv1M9tzq",
    "sick": 987
  },
  {
    "infected": 4,
    "recovered": 0,
    "latitude": -19.4914,
    "longitude": 132.551,
    "name": "Northern Territory",
    "country": "AU",
    "dead": 0,
    "lastUpdated": "2020-03-24T05:40:03.727Z",
    "id": "UrF45V1VqMo6YBib2KlL",
    "sick": 4
  },
  {
    "infected": 2,
    "recovered": 0,
    "latitude": 18.0424805,
    "longitude": -63.0548286,
    "name": "Sint Maarten",
    "country": "SX",
    "dead": 0,
    "lastUpdated": "2020-03-24T05:43:03.632Z",
    "id": "UsxgpiuFCtlR2CW1UUFm",
    "sick": 2
  },
  {
    "latitude": 11.943179,
    "longitude": 79.808206,
    "name": "Puducherry",
    "country": "IN",
    "dead": 0,
    "lastUpdated": "2020-03-24T05:41:02.474Z",
    "id": "V1qE740s3EUGyKGr6SVv",
    "infected": 1,
    "recovered": 0,
    "sick": 1
  },
  {
    "lastUpdated": "2020-03-24T05:43:03.136Z",
    "dead": 3,
    "id": "VAAmtxtDuCY0o55zRsOh",
    "infected": 306,
    "recovered": 6,
    "latitude": 3.527606,
    "pop": 49070000,
    "longitude": -72.998674,
    "name": "Colombia",
    "country": "CO",
    "sick": 297
  },
  {
    "latitude": 21.5218,
    "longitude": -77.7812,
    "name": "Cuba",
    "country": "CU",
    "dead": 1,
    "lastUpdated": "2020-03-24T05:43:03.674Z",
    "id": "VAG9AcMABTf8oIAfELPh",
    "infected": 40,
    "recovered": 0,
    "sick": 39
  },
  {
    "latitude": 25.181129,
    "pop": 45970000,
    "longitude": 101.864143,
    "name": "Yunnan",
    "country": "CN",
    "lastUpdated": "2020-03-24T01:05:01.692Z",
    "dead": 2,
    "id": "VIf8T8PD3ZzlzAm5eBCX",
    "infected": 176,
    "recovered": 172,
    "sick": 2
  },
  {
    "recovered": 9,
    "latitude": 26.8467,
    "pop": 204200000,
    "longitude": 80.9462,
    "name": "Uttar Pradesh",
    "country": "IN",
    "lastUpdated": "2020-03-24T05:41:02.472Z",
    "dead": 0,
    "id": "VcKcLdCkC6YpPfIDnRVD",
    "infected": 33,
    "sick": 24
  },
  {
    "recovered": 0,
    "latitude": 43.8927,
    "pop": 5893000,
    "longitude": 3.2828,
    "name": "Occitanie",
    "country": "FR",
    "lastUpdated": "2020-03-24T05:34:07.238Z",
    "dead": 10,
    "id": "WAnbFrEjtZDTCIYBt8rz",
    "infected": 767,
    "sick": 757
  },
  {
    "longitude": 22.9375,
    "name": "South Africa",
    "country": "ZA",
    "lastUpdated": "2020-03-24T05:43:03.188Z",
    "dead": 0,
    "id": "Whrue10NtwIObLvFFyBr",
    "infected": 402,
    "recovered": 4,
    "latitude": -30.5595,
    "pop": 56720000,
    "sick": 398
  },
  {
    "id": "Wk811YwpQxsOCfz8As86",
    "infected": 2,
    "recovered": 0,
    "latitude": 13.443182,
    "longitude": -15.3101387,
    "name": "Gambia",
    "country": "GM",
    "dead": 1,
    "lastUpdated": "2020-03-24T05:43:03.652Z",
    "sick": 1
  },
  {
    "latitude": 23.685,
    "pop": 164700000,
    "longitude": 90.3563,
    "name": "Bangladesh",
    "country": "BD",
    "lastUpdated": "2020-03-24T05:43:03.672Z",
    "dead": 3,
    "id": "WpLayPPLIJ7VcHZdQaoM",
    "infected": 33,
    "recovered": 5,
    "sick": 25
  },
  {
    "longitude": 77.577049,
    "name": "Ladakh",
    "country": "IN",
    "dead": 0,
    "lastUpdated": "2020-03-24T05:41:02.441Z",
    "id": "X3PZqaJxtnlxcgP4tzya",
    "infected": 13,
    "recovered": 0,
    "latitude": 34.152588,
    "sick": 13
  },
  {
    "latitude": 25.92448,
    "pop": 38560000,
    "longitude": 118.278992,
    "name": "Fujian",
    "country": "CN",
    "lastUpdated": "2020-03-24T01:06:24.286Z",
    "dead": 1,
    "id": "XBBw0iMPrmiEu3qogkbi",
    "infected": 313,
    "recovered": 295,
    "sick": 17
  },
  {
    "infected": 63927,
    "recovered": 7432,
    "latitude": 41.871941,
    "pop": 60480000,
    "longitude": 12.56738,
    "name": "Italy",
    "country": "IT",
    "lastUpdated": "2020-03-24T05:43:02.744Z",
    "dead": 6077,
    "id": "XdekMZcw1lJK2MWpBlNK",
    "sick": 50418
  },
  {
    "infected": 162,
    "recovered": 0,
    "latitude": -32.5228,
    "pop": 3457000,
    "longitude": -55.7658,
    "name": "Uruguay",
    "country": "UY",
    "lastUpdated": "2020-03-24T05:43:03.167Z",
    "dead": 0,
    "id": "XrsuLstdybIqIvv0E0aJ",
    "sick": 162
  },
  {
    "id": "YGXgIObKVabP2CYEdcb9",
    "infected": 194,
    "recovered": 0,
    "latitude": 42.0396,
    "pop": 339178,
    "longitude": 9.0129,
    "name": "Corse",
    "country": "FR",
    "lastUpdated": "2020-03-24T05:34:07.232Z",
    "dead": 7,
    "sick": 187
  },
  {
    "lastUpdated": "2020-03-24T05:43:03.713Z",
    "dead": 0,
    "id": "YMzKw0SnXG71VT7H1jff",
    "infected": 59,
    "recovered": 17,
    "latitude": 31.9522,
    "pop": 5052000,
    "longitude": 35.2332,
    "name": "Palestine",
    "country": "PS",
    "sick": 42
  },
  {
    "latitude": 64.2008,
    "longitude": -149.4937,
    "name": "Alaska",
    "country": "US",
    "dead": 0,
    "lastUpdated": "2020-03-24T05:39:01.753Z",
    "id": "YaCODTMD1KKRnrAlkg2u",
    "infected": 34,
    "recovered": 0,
    "sick": 34
  },
  {
    "longitude": 126.99778,
    "name": "South Korea",
    "country": "KR",
    "lastUpdated": "2020-03-24T05:43:03.292Z",
    "dead": 120,
    "id": "Yw9uBekNlefXBcOCNMfP",
    "infected": 9037,
    "recovered": 3507,
    "latitude": 37.568291,
    "pop": 51470000,
    "sick": 5410
  },
  {
    "infected": 17,
    "recovered": 0,
    "latitude": 13.193887,
    "longitude": -59.543198,
    "name": "Barbados",
    "country": "BB",
    "dead": 0,
    "lastUpdated": "2020-03-24T05:43:03.664Z",
    "id": "YzZqZMJGvG6joQCdiuXC",
    "sick": 17
  },
  {
    "latitude": 52.2297,
    "pop": 37980000,
    "longitude": 21.0122,
    "name": "Poland",
    "country": "PL",
    "lastUpdated": "2020-03-24T05:43:03.175Z",
    "dead": 8,
    "id": "ZAZNuCK1VweBaTLCFzCk",
    "infected": 749,
    "recovered": 13,
    "sick": 728
  },
  {
    "latitude": -17.713371,
    "longitude": 178.065033,
    "name": "Fiji",
    "country": "FJ",
    "dead": 0,
    "lastUpdated": "2020-03-24T05:43:03.626Z",
    "id": "ZmzOT0sJgfWXEpRImItC",
    "infected": 4,
    "recovered": 0,
    "sick": 4
  },
  {
    "dead": 10,
    "lastUpdated": "2020-03-24T05:39:01.747Z",
    "id": "Zqy0gftQzocR49jEJNMl",
    "infected": 415,
    "recovered": 0,
    "latitude": 41.6032,
    "longitude": -73.0877,
    "name": "Connecticut",
    "country": "US",
    "sick": 405
  },
  {
    "lastUpdated": "2020-03-24T05:42:02.904Z",
    "dead": 1,
    "id": "a9OgUWo6ZSWA3HyF0xnj",
    "infected": 377,
    "recovered": 33,
    "latitude": 51.011,
    "pop": 0,
    "longitude": 10.8453,
    "name": "Thüringen",
    "country": "DE",
    "sick": 343
  },
  {
    "pop": 1677000,
    "longitude": 136.209152,
    "name": "South Australia",
    "country": "AU",
    "lastUpdated": "2020-03-24T05:40:03.633Z",
    "dead": 0,
    "id": "a9p9pAOsjg1WAjPGc2a6",
    "infected": 134,
    "recovered": 6,
    "latitude": -30.000233,
    "sick": 128
  },
  {
    "latitude": 37.9643,
    "longitude": -91.8318,
    "name": "Missouri",
    "country": "US",
    "dead": 4,
    "lastUpdated": "2020-03-24T05:39:01.773Z",
    "id": "aPubGfQ8ToSEuKJldKRT",
    "infected": 216,
    "recovered": 0,
    "sick": 212
  },
  {
    "infected": 254,
    "recovered": 250,
    "latitude": 23.64407,
    "pop": 48380000,
    "longitude": 108.26651,
    "name": "Guangxi",
    "country": "CN",
    "lastUpdated": "2020-03-24T01:06:18.283Z",
    "dead": 2,
    "id": "aTa8MiBjtH3iY0SRs2HQ",
    "sick": 2
  },
  {
    "infected": 3,
    "recovered": 0,
    "latitude": 6.6111,
    "longitude": 20.9394,
    "name": "CAR",
    "country": "CF",
    "dead": 0,
    "lastUpdated": "2020-03-24T05:43:03.576Z",
    "id": "adcBUeAYp6ey0ZXCzKNs",
    "sick": 3
  },
  {
    "lastUpdated": "2020-03-24T05:39:01.661Z",
    "dead": 7,
    "id": "afeZTVC1J1SMMNFxkrcc",
    "infected": 254,
    "recovered": 0,
    "latitude": 37.4316,
    "pop": 8518000,
    "longitude": -78.6569,
    "name": "Virginia",
    "country": "US",
    "sick": 247
  },
  {
    "latitude": 39.904202,
    "pop": 21540000,
    "longitude": 116.407394,
    "name": "Beijing",
    "country": "CN",
    "lastUpdated": "2020-03-24T01:04:49.294Z",
    "dead": 8,
    "id": "alj4hkxg9cjrTxOzwFKt",
    "infected": 537,
    "recovered": 401,
    "sick": 128
  },
  {
    "pop": 38270000,
    "longitude": 43.679291,
    "name": "Iraq",
    "country": "IQ",
    "lastUpdated": "2020-03-24T05:43:03.124Z",
    "dead": 23,
    "id": "b7TwXX46FA0EmH1CjHET",
    "infected": 266,
    "recovered": 62,
    "latitude": 33.22319,
    "sick": 181
  },
  {
    "lastUpdated": "2020-03-24T05:43:03.253Z",
    "dead": 0,
    "id": "b9p1JhVml3GGC7iiPmKv",
    "infected": 79,
    "recovered": 8,
    "latitude": 14.457474,
    "pop": 15850000,
    "longitude": -14.358636,
    "name": "Senegal",
    "country": "SN",
    "sick": 71
  },
  {
    "latitude": -0.0236,
    "longitude": 37.9062,
    "name": "Kenya",
    "country": "KE",
    "dead": 0,
    "lastUpdated": "2020-03-24T05:43:03.676Z",
    "id": "bVHiTolbUJGHIeVht3eG",
    "infected": 16,
    "recovered": 0,
    "sick": 16
  },
  {
    "recovered": 0,
    "latitude": 39.561889,
    "pop": 8909000,
    "longitude": -74.672169,
    "name": "New Jersey",
    "country": "US",
    "lastUpdated": "2020-03-24T05:39:01.632Z",
    "dead": 27,
    "id": "bYp4RRHv19M7lYtSzQeV",
    "infected": 2844,
    "sick": 2817
  },
  {
    "latitude": 3.139,
    "pop": 31620000,
    "longitude": 101.6869,
    "name": "Malaysia",
    "country": "MY",
    "lastUpdated": "2020-03-24T05:43:03.170Z",
    "dead": 14,
    "id": "bdqD4kpdqGgUaX70Tm2Q",
    "infected": 1518,
    "recovered": 159,
    "sick": 1345
  },
  {
    "id": "bignnyt2A8BBx8VNo32p",
    "infected": 2046,
    "recovered": 16,
    "latitude": 60.128162,
    "pop": 10120000,
    "longitude": 18.643501,
    "name": "Sweden",
    "country": "SE",
    "lastUpdated": "2020-03-24T05:43:03.289Z",
    "dead": 27,
    "sick": 2003
  },
  {
    "dead": 4,
    "lastUpdated": "2020-03-24T05:43:03.312Z",
    "id": "cCGmFmwHOoBrEpvG3qBP",
    "infected": 104,
    "recovered": 2,
    "latitude": 40.973765,
    "longitude": 20.010162,
    "name": "Albania",
    "country": "AL",
    "sick": 98
  },
  {
    "dead": 0,
    "lastUpdated": "2020-03-24T05:43:03.685Z",
    "id": "cO8TChMvQvAtoZMNurTQ",
    "infected": 1,
    "recovered": 0,
    "latitude": -25.953724,
    "longitude": 32.588711,
    "name": "Mozambique",
    "country": "MZ",
    "sick": 1
  },
  {
    "recovered": 0,
    "latitude": 46.8625,
    "longitude": 103.8467,
    "name": "Mongolia",
    "country": "MN",
    "dead": 0,
    "lastUpdated": "2020-03-24T05:43:03.609Z",
    "id": "cPxONYsVo6BgvCW9HUeQ",
    "infected": 10,
    "sick": 10
  },
  {
    "infected": 588,
    "recovered": 51,
    "latitude": 64.963051,
    "pop": 364260,
    "longitude": -19.020836,
    "name": "Iceland",
    "country": "IS",
    "lastUpdated": "2020-03-24T05:43:03.127Z",
    "dead": 1,
    "id": "cPxe7nsRnOf6aOPqHElJ",
    "sick": 536
  },
  {
    "recovered": 41,
    "latitude": 31.046051,
    "pop": 8712000,
    "longitude": 34.851612,
    "name": "Israel",
    "country": "IL",
    "lastUpdated": "2020-03-24T05:43:03.306Z",
    "dead": 1,
    "id": "cX891t0ONLNFj0MYq6La",
    "infected": 1442,
    "sick": 1400
  },
  {
    "infected": 20,
    "recovered": 0,
    "latitude": 4.749531,
    "pop": 290691,
    "longitude": -53.112909,
    "name": "Guyane",
    "country": "FR",
    "lastUpdated": "2020-03-24T05:34:07.136Z",
    "dead": 0,
    "id": "cc7s6hYGQ2MovBBBgkKb",
    "sick": 20
  },
  {
    "lastUpdated": "2020-03-24T05:43:03.270Z",
    "dead": 0,
    "id": "cgzd5EM8PZv5ziJtTz1w",
    "infected": 118,
    "recovered": 23,
    "latitude": 61.8926,
    "pop": 49290,
    "longitude": -6.9118,
    "name": "Faeroe Islands",
    "country": "FO",
    "sick": 95
  },
  {
    "longitude": -77.1945,
    "name": "Pennsylvania",
    "country": "US",
    "lastUpdated": "2020-03-24T05:39:01.769Z",
    "dead": 6,
    "id": "chj2FF3zb4Xxcop9RHre",
    "infected": 698,
    "recovered": 0,
    "latitude": 41.2033,
    "pop": 12810000,
    "sick": 692
  },
  {
    "infected": 676,
    "recovered": 2,
    "latitude": 45.7087,
    "pop": 5987000,
    "longitude": 0.6269,
    "name": "Nouvelle-Aquitaine",
    "country": "FR",
    "lastUpdated": "2020-03-24T05:34:07.234Z",
    "dead": 2,
    "id": "cpf3Y5PQTYywIm3PrpIQ",
    "sick": 672
  },
  {
    "latitude": 40.463669,
    "pop": 46660000,
    "longitude": -3.74922,
    "name": "Spain",
    "country": "ES",
    "lastUpdated": "2020-03-24T05:43:03.510Z",
    "dead": 2311,
    "id": "d0ExINgPaWUBm3l4ioJL",
    "infected": 35136,
    "recovered": 3355,
    "sick": 29470
  },
  {
    "infected": 133,
    "recovered": 1,
    "latitude": 42.50837,
    "pop": 76965,
    "longitude": 1.517155,
    "name": "Andorra",
    "country": "AD",
    "lastUpdated": "2020-03-24T05:43:03.280Z",
    "dead": 1,
    "id": "dedMXSYR2k92wkSXNZqn",
    "sick": 131
  },
  {
    "id": "dzCgqYduzyncjNKU9z6G",
    "infected": 87,
    "recovered": 0,
    "latitude": 38.831163,
    "longitude": -75.375673,
    "name": "Delaware",
    "country": "US",
    "dead": 0,
    "lastUpdated": "2020-03-24T05:39:01.689Z",
    "sick": 87
  },
  {
    "recovered": 0,
    "latitude": 38.9637,
    "pop": 80810000,
    "longitude": 35.2433,
    "name": "Turkey",
    "country": "TR",
    "lastUpdated": "2020-03-24T05:43:03.232Z",
    "dead": 37,
    "id": "dzIcCaUZlbIXuRw0SyDE",
    "infected": 1529,
    "sick": 1492
  },
  {
    "latitude": 47.516232,
    "pop": 8822000,
    "longitude": 14.550072,
    "name": "Austria",
    "country": "AT",
    "lastUpdated": "2020-03-24T05:43:03.162Z",
    "dead": 21,
    "id": "e3BtI12qbqhE8jypOoZu",
    "infected": 4474,
    "recovered": 9,
    "sick": 4444
  },
  {
    "infected": 1779,
    "recovered": 28,
    "latitude": 52.6367,
    "longitude": 9.8451,
    "name": "Niedersachsen",
    "country": "DE",
    "dead": 6,
    "lastUpdated": "2020-03-24T05:42:02.676Z",
    "id": "e3CJgTO8wVbBQZaxqNze",
    "sick": 1745
  },
  {
    "lastUpdated": "2020-03-24T01:04:35.540Z",
    "dead": 2,
    "id": "e7P83iImanpd9r36oXK3",
    "infected": 127,
    "recovered": 124,
    "latitude": 41.097481,
    "pop": 43900000,
    "longitude": 122.310669,
    "name": "Liaoning",
    "country": "CN",
    "sick": 1
  },
  {
    "recovered": 329,
    "latitude": 31.230391,
    "pop": 24240000,
    "longitude": 121.473701,
    "name": "Shanghai",
    "country": "CN",
    "lastUpdated": "2020-03-24T01:06:11.727Z",
    "dead": 4,
    "id": "e9pQqQa7CEblCYoDtfKo",
    "infected": 404,
    "sick": 71
  },
  {
    "latitude": 42.407211,
    "pop": 6902000,
    "longitude": -71.382439,
    "name": "Massachusetts",
    "country": "US",
    "lastUpdated": "2020-03-24T05:39:01.759Z",
    "dead": 9,
    "id": "eCKDGssww4pF7NrxOySu",
    "infected": 777,
    "recovered": 0,
    "sick": 768
  },
  {
    "infected": 23,
    "recovered": 1,
    "latitude": 43.740451,
    "pop": 38695,
    "longitude": 7.432032,
    "name": "Monaco",
    "country": "MC",
    "lastUpdated": "2020-03-24T05:43:03.711Z",
    "dead": 0,
    "id": "eLgKPNUwYM5MNDAtF6ql",
    "sick": 22
  },
  {
    "infected": 1347,
    "recovered": 8,
    "latitude": 47.2805,
    "pop": 2686000,
    "longitude": 4.9994,
    "name": "Bourgogne-Franche-Comté",
    "country": "FR",
    "lastUpdated": "2020-03-24T05:34:07.239Z",
    "dead": 20,
    "id": "ejrjMKfHexGnK52FS9Aa",
    "sick": 1319
  },
  {
    "infected": 67,
    "recovered": 0,
    "latitude": 48.0196,
    "longitude": 66.9237,
    "name": "Kazakhstan",
    "country": "KZ",
    "dead": 0,
    "lastUpdated": "2020-03-24T05:43:03.119Z",
    "id": "etrmrftkQg6Kbd9seAga",
    "sick": 67
  },
  {
    "infected": 543,
    "recovered": 536,
    "latitude": 30.14208,
    "pop": 81100000,
    "longitude": 102.960701,
    "name": "Sichuan",
    "country": "CN",
    "lastUpdated": "2020-03-24T01:06:05.329Z",
    "dead": 3,
    "id": "eyK5bxFkwdoAouIBvLFM",
    "sick": 4
  },
  {
    "lastUpdated": "2020-03-24T05:43:03.191Z",
    "dead": 0,
    "id": "f9kmlhYtc3WA3kjbWszW",
    "infected": 66,
    "recovered": 17,
    "latitude": 21.473534,
    "pop": 4636000,
    "longitude": 55.975414,
    "name": "Oman",
    "country": "OM",
    "sick": 49
  },
  {
    "dead": 3,
    "lastUpdated": "2020-03-24T05:42:02.667Z",
    "id": "fGqVm2khm3IBRs709S1f",
    "infected": 865,
    "recovered": 2,
    "latitude": 51.1045,
    "longitude": 13.2017,
    "name": "Sachsen",
    "country": "DE",
    "sick": 860
  },
  {
    "recovered": 2200,
    "latitude": 47,
    "longitude": 2,
    "name": "Région non communiquée",
    "country": "FR",
    "dead": 674,
    "lastUpdated": "2020-03-24T05:43:03.324Z",
    "id": "fIp76gl05LhZ0aOxUbhz",
    "infected": 0,
    "sick": 0
  },
  {
    "latitude": 15.4542,
    "pop": 14900000,
    "longitude": 18.7322,
    "name": "Chad",
    "country": "TD",
    "lastUpdated": "2020-03-24T05:43:03.660Z",
    "dead": 0,
    "id": "fJc9CaZGR1OCHaW8Tn4V",
    "infected": 2,
    "recovered": 0,
    "sick": 2
  },
  {
    "id": "fK06AziL8wyrcoz7rsmJ",
    "infected": 127,
    "recovered": 1,
    "latitude": 31.295929,
    "pop": 9702000,
    "longitude": 36.691952,
    "name": "Jordan",
    "country": "JO",
    "lastUpdated": "2020-03-24T05:43:03.190Z",
    "dead": 0,
    "sick": 126
  },
  {
    "infected": 1227,
    "recovered": 0,
    "latitude": 27.716933,
    "pop": 21300000,
    "longitude": -81.555239,
    "name": "Florida",
    "country": "US",
    "lastUpdated": "2020-03-24T05:39:01.775Z",
    "dead": 18,
    "id": "fNganaGVPifA4QahEQPS",
    "sick": 1209
  },
  {
    "infected": 712,
    "recovered": 567,
    "latitude": 35.452016,
    "longitude": 139.664285,
    "name": "Diamond Princess (Cruise)",
    "country": "ZZ",
    "dead": 8,
    "lastUpdated": "2020-03-24T00:55:36.880Z",
    "id": "fNnE9CD0SttEVrCUo1Ym",
    "sick": 137
  },
  {
    "recovered": 6,
    "latitude": 52.52,
    "longitude": 13.405,
    "name": "Berlin",
    "country": "DE",
    "dead": 2,
    "lastUpdated": "2020-03-24T05:42:02.766Z",
    "id": "ffKhENYKy3bwsyBLiYtE",
    "infected": 1219,
    "sick": 1211
  },
  {
    "id": "fiJ14DCxw15e3SMemh8R",
    "infected": 67800,
    "recovered": 59882,
    "latitude": 31.160629,
    "pop": 58500000,
    "longitude": 112.255402,
    "name": "Hubei",
    "country": "CN",
    "lastUpdated": "2020-03-24T01:07:01.652Z",
    "dead": 3153,
    "sick": 4765
  },
  {
    "infected": 73,
    "recovered": 1,
    "latitude": 50.4501,
    "pop": 42220000,
    "longitude": 30.5234,
    "name": "Ukraine",
    "country": "UA",
    "lastUpdated": "2020-03-24T05:43:03.194Z",
    "dead": 3,
    "id": "flbZ2kaR5kBuV8XZ2Nsu",
    "sick": 69
  },
  {
    "infected": 16,
    "recovered": 0,
    "latitude": 41.2044,
    "longitude": 74.7661,
    "name": "Kyrgyzstan",
    "country": "KG",
    "dead": 0,
    "lastUpdated": "2020-03-24T05:43:03.691Z",
    "id": "fst48lrFxiMJbQPf4nur",
    "sick": 16
  },
  {
    "pop": 17180000,
    "longitude": 5.291266,
    "name": "Netherlands",
    "country": "NL",
    "lastUpdated": "2020-03-24T05:43:03.200Z",
    "dead": 213,
    "id": "g0lRMtEJbucWIGqSPn0I",
    "infected": 4749,
    "recovered": 2,
    "latitude": 52.132633,
    "sick": 4534
  },
  {
    "latitude": 34.69522,
    "longitude": -92.288012,
    "name": "Arkansas",
    "country": "US",
    "dead": 0,
    "lastUpdated": "2020-03-24T05:39:01.671Z",
    "id": "gIdgxJZfTl2QOSYEwMAz",
    "infected": 197,
    "recovered": 0,
    "sick": 197
  },
  {
    "dead": 1,
    "lastUpdated": "2020-03-24T05:43:03.715Z",
    "id": "gXd2X2PjmGP0XVwxpWqT",
    "infected": 20,
    "recovered": 0,
    "latitude": 4.8604159,
    "longitude": -58.9301796,
    "name": "Guyana",
    "country": "GY",
    "sick": 19
  },
  {
    "latitude": 43.9695,
    "pop": 882235,
    "longitude": -99.9018,
    "name": "South Dakota",
    "country": "US",
    "lastUpdated": "2020-03-24T05:39:01.801Z",
    "dead": 1,
    "id": "gYDsNgvuvtbg8t77w6FS",
    "infected": 28,
    "recovered": 0,
    "sick": 27
  },
  {
    "latitude": 35.894231,
    "pop": 493559,
    "longitude": 14.432846,
    "name": "Malta",
    "country": "MT",
    "lastUpdated": "2020-03-24T05:43:03.283Z",
    "dead": 0,
    "id": "h9UqxYZ5xC4JZrmdDz0q",
    "infected": 107,
    "recovered": 2,
    "sick": 105
  },
  {
    "infected": 31,
    "recovered": 6,
    "latitude": 28.7041,
    "longitude": 77.1025,
    "name": "Delhi",
    "country": "IN",
    "dead": 1,
    "lastUpdated": "2020-03-24T05:41:02.484Z",
    "id": "hqwsh1rmvkWI3LFUVuMk",
    "sick": 24
  },
  {
    "infected": 136,
    "recovered": 114,
    "latitude": 35.751835,
    "pop": 25580000,
    "longitude": 104.28611,
    "name": "Gansu",
    "country": "CN",
    "lastUpdated": "2020-03-24T01:04:55.462Z",
    "dead": 2,
    "id": "iGkTscdD0XyHFSP23Qrp",
    "sick": 20
  },
  {
    "infected": 1,
    "recovered": 0,
    "latitude": 34.8021,
    "pop": 18270000,
    "longitude": 38.9968,
    "name": "Syria",
    "country": "SY",
    "lastUpdated": "2020-03-24T05:43:03.616Z",
    "dead": 0,
    "id": "iHf1IZQP3CA3sT2erzyh",
    "sick": 1
  },
  {
    "id": "idymmgoqLHImnBdyC7r7",
    "infected": 95,
    "recovered": 4,
    "latitude": 10.8505,
    "pop": 34800000,
    "longitude": 76.2711,
    "name": "Kerala",
    "country": "IN",
    "lastUpdated": "2020-03-24T05:41:02.470Z",
    "dead": 0,
    "sick": 91
  },
  {
    "latitude": -25.2744,
    "longitude": 133.7751,
    "name": "Unknown Australian state",
    "country": "AU",
    "dead": 0,
    "lastUpdated": "2020-03-24T05:43:03.180Z",
    "id": "iwcBlwhnL6MDiXogzf8g",
    "infected": 0,
    "recovered": 118,
    "sick": 0
  },
  {
    "latitude": 16.265,
    "pop": 395700,
    "longitude": -61.551,
    "name": "Guadeloupe",
    "country": "FR",
    "lastUpdated": "2020-03-24T05:34:07.029Z",
    "dead": 1,
    "id": "j8eMjjqNAqHAJhAKdBYN",
    "infected": 62,
    "recovered": 0,
    "sick": 61
  },
  {
    "recovered": 5,
    "latitude": 50.1183,
    "longitude": 7.309,
    "name": "Rheinland-Pfalz",
    "country": "DE",
    "dead": 4,
    "lastUpdated": "2020-03-24T05:42:02.887Z",
    "id": "jKn2pIFlIBScjb47GjRX",
    "infected": 1285,
    "sick": 1276
  },
  {
    "latitude": 39.343357,
    "pop": 15000000,
    "longitude": 117.361649,
    "name": "Tianjin",
    "country": "CN",
    "lastUpdated": "2020-03-24T01:04:22.022Z",
    "dead": 3,
    "id": "jMlHjIOb7eMPSxFBrmG1",
    "infected": 141,
    "recovered": 133,
    "sick": 5
  },
  {
    "latitude": 44.5588,
    "pop": 629299,
    "longitude": -72.5778,
    "name": "Vermont",
    "country": "US",
    "lastUpdated": "2020-03-24T05:39:01.779Z",
    "dead": 5,
    "id": "jPC0eOG50FWknCDe3K6P",
    "infected": 75,
    "recovered": 0,
    "sick": 70
  },
  {
    "latitude": 53.3498,
    "pop": 4830000,
    "longitude": -6.2603,
    "name": "Ireland",
    "country": "IE",
    "lastUpdated": "2020-03-24T05:43:03.164Z",
    "dead": 6,
    "id": "jpVXEDCyfyq26gPoCtHL",
    "infected": 1125,
    "recovered": 5,
    "sick": 1114
  },
  {
    "infected": 3,
    "recovered": 0,
    "latitude": 11.572076,
    "longitude": 43.145645,
    "name": "Djibouti",
    "country": "DJ",
    "dead": 0,
    "lastUpdated": "2020-03-24T05:43:03.640Z",
    "id": "l4nYeaqwy2yrEVqnijFj",
    "sick": 3
  },
  {
    "infected": 68,
    "recovered": 0,
    "latitude": 44.0682,
    "pop": 1754000,
    "longitude": -114.742,
    "name": "Idaho",
    "country": "US",
    "lastUpdated": "2020-03-24T05:39:01.777Z",
    "dead": 0,
    "id": "l7fHSKOmcaRX3tq9FCT6",
    "sick": 68
  },
  {
    "latitude": 10.6918,
    "pop": 1369000,
    "longitude": -61.2225,
    "name": "Trinidad and Tobago",
    "country": "TT",
    "lastUpdated": "2020-03-24T05:43:03.680Z",
    "dead": 0,
    "id": "lfLdfRP7hyiA6MVnQqqn",
    "infected": 52,
    "recovered": 0,
    "sick": 52
  },
  {
    "longitude": -23.0418,
    "name": "Cape Verde",
    "country": "CV",
    "dead": 0,
    "lastUpdated": "2020-03-24T05:43:03.611Z",
    "id": "lgqPuia1S3ApA5Lsl2la",
    "infected": 3,
    "recovered": 0,
    "latitude": 16.5388,
    "sick": 3
  },
  {
    "lastUpdated": "2020-03-24T01:03:09.380Z",
    "dead": 3,
    "id": "lhPjpn6CzqTRDN0RW8uE",
    "infected": 76,
    "recovered": 73,
    "latitude": 42.524635,
    "pop": 21810000,
    "longitude": 87.539589,
    "name": "Xinjiang",
    "country": "CN",
    "sick": 0
  },
  {
    "recovered": 5,
    "latitude": 3.2028,
    "longitude": 73.2207,
    "name": "Maldives",
    "country": "MV",
    "dead": 0,
    "lastUpdated": "2020-03-24T05:43:03.665Z",
    "id": "m45gI2UbWMuTrOnTtp9k",
    "infected": 13,
    "sick": 8
  },
  {
    "lastUpdated": "2020-03-24T05:43:03.593Z",
    "dead": 0,
    "id": "mF7rVMdVnazAuw8G22xs",
    "infected": 1,
    "recovered": 0,
    "latitude": 41.9029,
    "pop": 1000,
    "longitude": 12.4534,
    "name": "Vatican City",
    "country": "VA",
    "sick": 1
  },
  {
    "infected": 87,
    "recovered": 0,
    "latitude": 19.7515,
    "pop": 114200000,
    "longitude": 75.7139,
    "name": "Maharashtra",
    "country": "IN",
    "lastUpdated": "2020-03-24T05:41:02.432Z",
    "dead": 2,
    "id": "mJtdLs4ub6CkcAOeMWUm",
    "sick": 85
  },
  {
    "latitude": -33.4489,
    "pop": 18050000,
    "longitude": -70.6693,
    "name": "Chile",
    "country": "CL",
    "lastUpdated": "2020-03-24T05:43:03.178Z",
    "dead": 2,
    "id": "mSACWVbCy5QE7ciLA93J",
    "infected": 746,
    "recovered": 11,
    "sick": 733
  },
  {
    "pop": 57310000,
    "longitude": 34.8888,
    "name": "Tanzania",
    "country": "TZ",
    "lastUpdated": "2020-03-24T05:43:03.663Z",
    "dead": 0,
    "id": "mnew3ojzmWV0dWSPfCQ9",
    "infected": 12,
    "recovered": 0,
    "latitude": -6.369,
    "sick": 12
  },
  {
    "latitude": 15.1794,
    "pop": 4475000,
    "longitude": 39.7823,
    "name": "Eritrea",
    "country": "ER",
    "lastUpdated": "2020-03-24T05:43:03.586Z",
    "dead": 0,
    "id": "n6OSwOVBdUie3xeZJmOf",
    "infected": 1,
    "recovered": 0,
    "sick": 1
  },
  {
    "lastUpdated": "2020-03-24T05:39:01.657Z",
    "dead": 2,
    "id": "nLhJXE2apq8yNNj363ai",
    "infected": 614,
    "recovered": 0,
    "latitude": 35.693323,
    "pop": 6770000,
    "longitude": -86.605748,
    "name": "Tennessee",
    "country": "US",
    "sick": 612
  },
  {
    "infected": 7,
    "recovered": 0,
    "latitude": -4.6796,
    "longitude": 55.492,
    "name": "Seychelles",
    "country": "SC",
    "dead": 0,
    "lastUpdated": "2020-03-24T05:43:03.642Z",
    "id": "oB5fSyjWJ0FbNAkssuci",
    "sick": 7
  },
  {
    "latitude": 31.893778,
    "pop": 35740000,
    "longitude": -6.196132,
    "name": "Morocco",
    "country": "MA",
    "lastUpdated": "2020-03-24T05:43:03.273Z",
    "dead": 4,
    "id": "oJ5vSDE9vgXC2PG8LElp",
    "infected": 143,
    "recovered": 5,
    "sick": 134
  },
  {
    "id": "ofWLu9EuQoK2nHjwU1mA",
    "infected": 1269,
    "recovered": 0,
    "latitude": 50.4801,
    "pop": 5978000,
    "longitude": 2.7937,
    "name": "Hauts-de-France",
    "country": "FR",
    "lastUpdated": "2020-03-24T05:34:07.243Z",
    "dead": 46,
    "sick": 1223
  },
  {
    "infected": 3,
    "recovered": 0,
    "latitude": 31.1048,
    "pop": 6856000,
    "longitude": 77.1734,
    "name": "Himachal Pradesh",
    "country": "IN",
    "lastUpdated": "2020-03-24T05:41:02.396Z",
    "dead": 1,
    "id": "oqLEd2Z9P3FJeQsfIk8e",
    "sick": 2
  },
  {
    "infected": 319,
    "recovered": 8,
    "latitude": -20.917574,
    "pop": 5071000,
    "longitude": 142.702789,
    "name": "Queensland",
    "country": "AU",
    "lastUpdated": "2020-03-24T05:40:03.724Z",
    "dead": 0,
    "id": "oxz2l1rJipCsfMfy8Mmk",
    "sick": 311
  },
  {
    "id": "p1aZboN4BtRJe7hPl8cw",
    "infected": 484,
    "recovered": 465,
    "latitude": 47.121647,
    "pop": 38310000,
    "longitude": 128.738235,
    "name": "Heilongjiang",
    "country": "CN",
    "lastUpdated": "2020-03-24T01:04:28.891Z",
    "dead": 13,
    "sick": 6
  },
  {
    "infected": 990,
    "recovered": 984,
    "latitude": 32.026379,
    "pop": 62000000,
    "longitude": 117.252747,
    "name": "Anhui",
    "country": "CN",
    "lastUpdated": "2020-03-24T01:06:52.925Z",
    "dead": 6,
    "id": "pFhBwPnGGpQ6DLppJ6YS",
    "sick": 0
  },
  {
    "infected": 1,
    "recovered": 0,
    "latitude": 2.046934,
    "longitude": 45.318161,
    "name": "Somalia",
    "country": "SO",
    "dead": 0,
    "lastUpdated": "2020-03-24T05:43:03.635Z",
    "id": "pHrUAOBW5WDdMsVWpEEi",
    "sick": 1
  },
  {
    "id": "pu6AXEsDnpmmqnhajobN",
    "infected": 1,
    "recovered": 0,
    "latitude": 21.2787,
    "pop": 25550000,
    "longitude": 81.8661,
    "name": "Chhattisgarh",
    "country": "IN",
    "lastUpdated": "2020-03-24T05:41:02.387Z",
    "dead": 0,
    "sick": 1
  },
  {
    "infected": 141,
    "recovered": 0,
    "latitude": 38.9072,
    "pop": 633427,
    "longitude": -77.0369,
    "name": "Washington, D.C.",
    "country": "US",
    "lastUpdated": "2020-03-24T05:39:01.796Z",
    "dead": 2,
    "id": "q5cfvHprVTraL1yXnhDx",
    "sick": 139
  },
  {
    "latitude": -26.190439,
    "pop": 2589000,
    "longitude": 123.325947,
    "name": "Western Australia",
    "country": "AU",
    "lastUpdated": "2020-03-24T05:40:03.631Z",
    "dead": 1,
    "id": "qnQ0dkxAxnDP01YpdZgk",
    "infected": 140,
    "recovered": 1,
    "sick": 138
  },
  {
    "infected": 3743,
    "recovered": 401,
    "latitude": 50.503887,
    "pop": 11400000,
    "longitude": 4.469936,
    "name": "Belgium",
    "country": "BE",
    "lastUpdated": "2020-03-24T05:43:03.302Z",
    "dead": 88,
    "id": "qpAxVz0garcS0gNZxtOw",
    "sick": 3254
  },
  {
    "pop": 1806000,
    "longitude": -80.5,
    "name": "West Virginia",
    "country": "US",
    "lastUpdated": "2020-03-24T05:39:01.803Z",
    "dead": 0,
    "id": "qrYN2o4c4gAK3ffF5JIw",
    "infected": 20,
    "recovered": 0,
    "latitude": 39,
    "sick": 20
  },
  {
    "infected": 799,
    "recovered": 0,
    "latitude": 31,
    "pop": 28700000,
    "longitude": -100,
    "name": "Texas",
    "country": "US",
    "lastUpdated": "2020-03-24T05:39:01.764Z",
    "dead": 9,
    "id": "qsrWiq0qCmIG66hpWojP",
    "sick": 790
  },
  {
    "infected": 1510,
    "recovered": 1,
    "latitude": 43.9352,
    "pop": 5059000,
    "longitude": 6.0679,
    "name": "Provence-Alpes-Côte d’Azur",
    "country": "FR",
    "lastUpdated": "2020-03-24T05:34:07.134Z",
    "dead": 7,
    "id": "qyX9xXEuKg3co8yKe3Fl",
    "sick": 1502
  },
  {
    "longitude": -91.9623,
    "name": "Louisiana",
    "country": "US",
    "dead": 35,
    "lastUpdated": "2020-03-24T05:39:01.785Z",
    "id": "qzuktS0qQVU4PEookjss",
    "infected": 1172,
    "recovered": 0,
    "latitude": 30.9843,
    "sick": 1137
  },
  {
    "longitude": -69.9683,
    "name": "Aruba",
    "country": "AW",
    "dead": 0,
    "lastUpdated": "2020-03-24T05:43:03.684Z",
    "id": "rKbrli0DkAmp1UpbrqHQ",
    "infected": 12,
    "recovered": 1,
    "latitude": 12.5211,
    "sick": 11
  },
  {
    "longitude": 108.277199,
    "name": "Vietnam",
    "country": "VN",
    "lastUpdated": "2020-03-24T05:43:03.256Z",
    "dead": 0,
    "id": "rKnSEyG03ak4YmGzonlg",
    "infected": 123,
    "recovered": 17,
    "latitude": 14.058324,
    "pop": 95540000,
    "sick": 106
  },
  {
    "dead": 0,
    "lastUpdated": "2020-03-24T05:43:03.709Z",
    "id": "rS04qvFoAknfeZsL2w5f",
    "infected": 9,
    "recovered": 0,
    "latitude": 1.6508009,
    "longitude": 10.2678947,
    "name": "Equatorial Guinea",
    "country": "GQ",
    "sick": 9
  },
  {
    "infected": 24,
    "recovered": 0,
    "latitude": -12.8275,
    "pop": 270372,
    "longitude": 45.1662,
    "name": "Mayotte",
    "country": "FR",
    "lastUpdated": "2020-03-24T05:34:07.236Z",
    "dead": 0,
    "id": "rUQ6Z3pmWTPVlqEUSmN7",
    "sick": 24
  },
  {
    "latitude": 29.159849,
    "pop": 57370000,
    "longitude": 120.326447,
    "name": "Zhejiang",
    "country": "CN",
    "lastUpdated": "2020-03-24T01:05:09.094Z",
    "dead": 1,
    "id": "rgBVJ4hPofqjjchnroiY",
    "infected": 1238,
    "recovered": 1221,
    "sick": 16
  },
  {
    "id": "rxSafpWsyKhfkV0HTtb4",
    "infected": 2625,
    "recovered": 6,
    "latitude": 60.472023,
    "pop": 5368000,
    "longitude": 8.468946,
    "name": "Norway",
    "country": "NO",
    "lastUpdated": "2020-03-24T05:43:03.290Z",
    "dead": 10,
    "sick": 2609
  },
  {
    "infected": 301,
    "recovered": 0,
    "latitude": 53.9333,
    "pop": 4371000,
    "longitude": -116.5765,
    "name": "Alberta",
    "country": "CA",
    "lastUpdated": "2020-03-24T05:39:01.762Z",
    "dead": 1,
    "id": "sBFMOzZJdrdXdyLZpweO",
    "sick": 300
  },
  {
    "infected": 168,
    "recovered": 161,
    "latitude": 19.566395,
    "pop": 9258000,
    "longitude": 109.949684,
    "name": "Hainan",
    "country": "CN",
    "lastUpdated": "2020-03-24T01:04:42.340Z",
    "dead": 6,
    "id": "sKNhMvgXeyivpNFg02RA",
    "sick": 1
  },
  {
    "infected": 395,
    "recovered": 1,
    "latitude": -10.33755,
    "pop": 32170000,
    "longitude": -75.630295,
    "name": "Peru",
    "country": "PE",
    "lastUpdated": "2020-03-24T05:43:03.169Z",
    "dead": 5,
    "id": "sLL1jETcJYjT6g5bfcEG",
    "sick": 389
  },
  {
    "latitude": 37.89566,
    "pop": 74700000,
    "longitude": 114.904221,
    "name": "Hebei",
    "country": "CN",
    "lastUpdated": "2020-03-24T01:04:15.932Z",
    "dead": 6,
    "id": "sgsBhTwHxF1VVnqXbXXp",
    "infected": 319,
    "recovered": 310,
    "sick": 3
  },
  {
    "infected": 61,
    "recovered": 8,
    "latitude": 42.3154,
    "pop": 3717000,
    "longitude": 43.3569,
    "name": "Georgia",
    "country": "GE",
    "lastUpdated": "2020-03-24T05:43:03.220Z",
    "dead": 0,
    "id": "sjW9OwjFqrOvjVHRXWoR",
    "sick": 53
  },
  {
    "infected": 27,
    "recovered": 0,
    "latitude": -23.4425,
    "longitude": -58.4438,
    "name": "Paraguay",
    "country": "PY",
    "dead": 2,
    "lastUpdated": "2020-03-24T05:43:03.623Z",
    "id": "t2fq7L9UcXfhuXfQNVRj",
    "sick": 25
  },
  {
    "infected": 257,
    "recovered": 0,
    "latitude": 39.147061,
    "pop": 3161000,
    "longitude": -111.596466,
    "name": "Utah",
    "country": "US",
    "lastUpdated": "2020-03-24T05:39:01.664Z",
    "dead": 1,
    "id": "tSmr8vNsiDhhpXMSBsms",
    "sick": 256
  },
  {
    "lastUpdated": "2020-03-24T01:06:45.123Z",
    "dead": 4,
    "id": "tdNRDDrgvBQqqwzdFGh4",
    "infected": 1018,
    "recovered": 1014,
    "latitude": 27.3818,
    "pop": 67370000,
    "longitude": 111.510681,
    "name": "Hunan",
    "country": "CN",
    "sick": 0
  },
  {
    "infected": 146,
    "recovered": 144,
    "latitude": 26.842964,
    "pop": 34750000,
    "longitude": 107.290283,
    "name": "Guizhou",
    "country": "CN",
    "lastUpdated": "2020-03-24T01:03:22.419Z",
    "dead": 2,
    "id": "tyY4QSHWG9sXqSO9jm0Y",
    "sick": 0
  },
  {
    "longitude": 57.6755,
    "name": "Mauritius",
    "country": "MU",
    "dead": 2,
    "lastUpdated": "2020-03-24T05:43:03.681Z",
    "id": "uZg9Xtu4zR5tp12TMpOQ",
    "infected": 36,
    "recovered": 0,
    "latitude": -20.2067,
    "sick": 34
  },
  {
    "infected": 26,
    "recovered": 11,
    "latitude": 29.0588,
    "pop": 25350000,
    "longitude": 76.0856,
    "name": "Haryana",
    "country": "IN",
    "lastUpdated": "2020-03-24T05:41:02.428Z",
    "dead": 0,
    "id": "ubUuY89n0cXVgahI4Ytp",
    "sick": 15
  },
  {
    "lastUpdated": "2020-03-24T01:03:48.580Z",
    "dead": 0,
    "id": "uvxN28EpGmRq3K9REtBP",
    "infected": 633,
    "recovered": 631,
    "latitude": 32.93708,
    "pop": 80400000,
    "longitude": 119.151932,
    "name": "Jiangsu",
    "country": "CN",
    "sick": 2
  },
  {
    "longitude": 11.6923,
    "name": "Sachsen-Anhalt",
    "country": "DE",
    "dead": 1,
    "lastUpdated": "2020-03-24T05:42:02.906Z",
    "id": "uxAceZxiizwmo60pyyGn",
    "infected": 303,
    "recovered": 0,
    "latitude": 51.9503,
    "sick": 302
  },
  {
    "longitude": 76.5762,
    "name": "Jammu and Kashmir",
    "country": "IN",
    "dead": 0,
    "lastUpdated": "2020-03-24T05:41:02.466Z",
    "id": "v5wfBhxjYTpTMaKko6AW",
    "infected": 4,
    "recovered": 0,
    "latitude": 33.7782,
    "sick": 4
  },
  {
    "infected": 366,
    "recovered": 68,
    "latitude": 26.820553,
    "pop": 97550000,
    "longitude": 30.802498,
    "name": "Egypt",
    "country": "EG",
    "lastUpdated": "2020-03-24T05:43:03.171Z",
    "dead": 19,
    "id": "v8JcH4FHH7BDpJlNNHjv",
    "sick": 279
  },
  {
    "lastUpdated": "2020-03-24T05:39:01.799Z",
    "dead": 111,
    "id": "vCUVQn7RK8pkw5y2rvYN",
    "infected": 2221,
    "recovered": 0,
    "latitude": 47.288374,
    "pop": 7536000,
    "longitude": -119.928431,
    "name": "Washington",
    "country": "US",
    "sick": 2110
  },
  {
    "dead": 1,
    "lastUpdated": "2020-03-24T05:43:03.707Z",
    "id": "vMGALmMJbagxGIbLyFfS",
    "infected": 19,
    "recovered": 2,
    "latitude": 18.1096,
    "longitude": -77.2975,
    "name": "Jamaica",
    "country": "JM",
    "sick": 16
  },
  {
    "infected": 196,
    "recovered": 0,
    "latitude": 32.3182,
    "longitude": -86.9023,
    "name": "Alabama",
    "country": "US",
    "dead": 0,
    "lastUpdated": "2020-03-24T05:39:01.807Z",
    "id": "vSMJR4m49MZM15umlC9B",
    "sick": 196
  },
  {
    "recovered": 5,
    "latitude": 48.8499,
    "pop": 12210000,
    "longitude": 2.637,
    "name": "Ile-de-France",
    "country": "FR",
    "lastUpdated": "2020-03-24T05:34:07.235Z",
    "dead": 11,
    "id": "vSwFXxTSLgzsG25zOJUy",
    "infected": 6211,
    "sick": 6195
  },
  {
    "latitude": 46.5107,
    "longitude": -63.4168,
    "name": "Prince Edward Island",
    "country": "CA",
    "dead": 0,
    "lastUpdated": "2020-03-24T05:39:01.716Z",
    "id": "vjK6292ALJl5wq8XHw3P",
    "infected": 3,
    "recovered": 0,
    "sick": 3
  },
  {
    "latitude": 32.42791,
    "pop": 81160000,
    "longitude": 53.688046,
    "name": "Iran",
    "country": "IR",
    "lastUpdated": "2020-03-24T05:43:03.247Z",
    "dead": 1812,
    "id": "vkkXVaqUswO5JsMZx0mX",
    "infected": 23049,
    "recovered": 8376,
    "sick": 12861
  },
  {
    "latitude": 53.7609,
    "longitude": -98.8139,
    "name": "Manitoba",
    "country": "CA",
    "dead": 0,
    "lastUpdated": "2020-03-24T05:39:01.766Z",
    "id": "wCnlOr8oX3DlF0otQrFc",
    "infected": 20,
    "recovered": 0,
    "sick": 20
  },
  {
    "latitude": -34.6037,
    "pop": 44270000,
    "longitude": -58.3816,
    "name": "Argentina",
    "country": "AR",
    "lastUpdated": "2020-03-24T05:43:03.263Z",
    "dead": 4,
    "id": "wEl0cjiA6OcZiI9kaSsF",
    "infected": 301,
    "recovered": 51,
    "sick": 246
  },
  {
    "latitude": 44.3148,
    "longitude": -85.6024,
    "name": "Michigan",
    "country": "US",
    "dead": 15,
    "lastUpdated": "2020-03-24T05:39:01.790Z",
    "id": "wgRwpPMGBaKLAl1xo1C7",
    "infected": 1329,
    "recovered": 0,
    "sick": 1314
  },
  {
    "latitude": 21.287261,
    "pop": 1420000,
    "longitude": -157.838954,
    "name": "Hawaii",
    "country": "US",
    "lastUpdated": "2020-03-24T05:39:01.680Z",
    "dead": 0,
    "id": "wi47s9vKxiMqxfgurj3B",
    "infected": 77,
    "recovered": 0,
    "sick": 77
  },
  {
    "latitude": 34.08267,
    "pop": 6082000,
    "longitude": 35.918113,
    "name": "Lebanon",
    "country": "LB",
    "lastUpdated": "2020-03-24T05:43:03.145Z",
    "dead": 4,
    "id": "xFgM48q8JxVPfvQLQDNb",
    "infected": 267,
    "recovered": 8,
    "sick": 255
  },
  {
    "id": "xHWPTTpNHEwWv6MqfxP5",
    "infected": 40,
    "recovered": 2,
    "latitude": 9.081999,
    "pop": 190900000,
    "longitude": 8.675277,
    "name": "Nigeria",
    "country": "NG",
    "lastUpdated": "2020-03-24T05:43:03.579Z",
    "dead": 1,
    "sick": 37
  },
  {
    "infected": 33,
    "recovered": 0,
    "latitude": 47.5515,
    "longitude": -101.002,
    "name": "North Dakota",
    "country": "US",
    "dead": 0,
    "lastUpdated": "2020-03-24T05:39:01.634Z",
    "id": "xQpNodSQfHNHAtG9Onnj",
    "sick": 33
  },
  {
    "infected": 425,
    "recovered": 0,
    "latitude": 44.5,
    "pop": 5814000,
    "longitude": -89.5,
    "name": "Wisconsin",
    "country": "US",
    "lastUpdated": "2020-03-24T05:39:01.692Z",
    "dead": 5,
    "id": "xSHgaJlyPxHFWB6hhyng",
    "sick": 420
  },
  {
    "longitude": 40.4897,
    "name": "Ethiopia",
    "country": "ET",
    "dead": 0,
    "lastUpdated": "2020-03-24T05:43:03.618Z",
    "id": "xY69Nr3VSiZCwD2Qp0SD",
    "infected": 11,
    "recovered": 0,
    "latitude": 9.145,
    "sick": 11
  },
  {
    "recovered": 0,
    "latitude": -18.7669468,
    "longitude": 46.8691063,
    "name": "Madagascar",
    "country": "MG",
    "dead": 0,
    "lastUpdated": "2020-03-24T05:43:03.582Z",
    "id": "xsmRrvV8VRC9SyYWK6ig",
    "infected": 17,
    "sick": 17
  },
  {
    "latitude": -22.95763,
    "longitude": 18.4904,
    "name": "Namibia",
    "country": "NA",
    "dead": 0,
    "lastUpdated": "2020-03-24T05:43:03.573Z",
    "id": "xtX46kxBlEapOMdD1Emh",
    "infected": 4,
    "recovered": 0,
    "sick": 4
  },
  {
    "latitude": 53.0793,
    "longitude": 8.8017,
    "name": "Bremen",
    "country": "DE",
    "dead": 0,
    "lastUpdated": "2020-03-24T05:42:02.696Z",
    "id": "y0d3PQgXJXdKsxweTIWv",
    "infected": 175,
    "recovered": 26,
    "sick": 149
  },
  {
    "infected": 23,
    "recovered": 0,
    "latitude": -17.6797,
    "longitude": -149.4068,
    "name": "Polynésie française",
    "country": "PF",
    "dead": 0,
    "lastUpdated": "2020-03-24T05:43:03.695Z",
    "id": "yOfFKDRrscqcZ85WMRqF",
    "sick": 23
  },
  {
    "id": "z0KDu61I2qPILneW2Lih",
    "infected": 4,
    "recovered": 0,
    "latitude": 12.1696,
    "longitude": -68.99,
    "name": "Curaçao",
    "country": "CW",
    "dead": 1,
    "lastUpdated": "2020-03-24T05:43:03.571Z",
    "sick": 3
  },
  {
    "dead": 0,
    "lastUpdated": "2020-03-24T05:39:01.809Z",
    "id": "z1Vx0y33oMGoeJSuS8Ui",
    "infected": 17,
    "recovered": 0,
    "latitude": 46.5653,
    "longitude": -66.4619,
    "name": "New Brunswick",
    "country": "CA",
    "sick": 17
  },
  {
    "longitude": -78.183403,
    "name": "Ecuador",
    "country": "EC",
    "lastUpdated": "2020-03-24T05:43:03.262Z",
    "dead": 18,
    "id": "zC03Urt1iJJb2Tf6p0jd",
    "infected": 981,
    "recovered": 3,
    "latitude": -1.831239,
    "pop": 16620000,
    "sick": 960
  },
  {
    "infected": 827,
    "recovered": 52,
    "latitude": 15.870032,
    "pop": 69040000,
    "longitude": 100.992538,
    "name": "Thailand",
    "country": "TH",
    "lastUpdated": "2020-03-24T05:43:03.229Z",
    "dead": 4,
    "id": "zvdC0u72Bk5YKNaazZFZ",
    "sick": 771
  },
  {
    "latitude": 44.0165,
    "pop": 7022000,
    "longitude": 21.0059,
    "name": "Serbia",
    "country": "RS",
    "lastUpdated": "2020-03-24T05:43:03.160Z",
    "dead": 3,
    "id": "zyxFwuiyCJHhRyNEg60C",
    "infected": 249,
    "recovered": 3,
    "sick": 243
  }
]