[
  {
    "country": "CO",
    "longitude": -81.7006,
    "name": "San Andrés",
    "latitude": 12.5847,
    "dead": 0,
    "lastUpdated": "2020-07-22T13:21:13.825Z",
    "recovered": 23,
    "infected": 30,
    "id": "01b09TY4vmuZwzVuiRFK",
    "pop": 72600,
    "sick": 7,
    "invisible": false
  },
  {
    "recovered": 238,
    "infected": 252,
    "id": "0FOJefeLxQYXQ1CnJm9o",
    "pop": 63196,
    "country": "GG",
    "longitude": -2.5895,
    "name": "Guernsey",
    "alwaysShow": false,
    "latitude": 49.4482,
    "dead": 13,
    "lastUpdated": "2020-07-22T12:31:10.988Z",
    "sick": 1,
    "invisible": false
  },
  {
    "longitude": 14.333333,
    "name": "Campania",
    "latitude": 41.066666,
    "dead": 434,
    "lastUpdated": "2020-07-22T13:01:02.589Z",
    "recovered": 4108,
    "infected": 4839,
    "state": "72",
    "id": "0GJcws44NSPsDHAuxJhW",
    "pop": 5827000,
    "country": "IT",
    "sick": 297,
    "invisible": false
  },
  {
    "id": "0HDQbiHe462xMCUV5HiI",
    "pop": 383870,
    "country": "CL",
    "longitude": -70.14222,
    "name": "Tarapacá",
    "latitude": -20.2167,
    "dead": 144,
    "lastUpdated": "2020-07-22T13:20:04.770Z",
    "recovered": 0,
    "infected": 7820,
    "sick": 7676,
    "invisible": false
  },
  {
    "id": "0VG7S6aaK4eSo59fL9JO",
    "pop": 45990000,
    "country": "IN",
    "longitude": 85.0985,
    "name": "Odisha",
    "latitude": 20.9517,
    "dead": 139,
    "lastUpdated": "2020-07-22T13:11:01.452Z",
    "recovered": 13310,
    "infected": 19835,
    "sick": 6386,
    "invisible": false
  },
  {
    "name": "Hidalgo",
    "latitude": 20.4737,
    "dead": 884,
    "lastUpdated": "2020-07-22T13:02:09.500Z",
    "recovered": 0,
    "infected": 5599,
    "id": "0XmCRqiK2ZaehoEJvfer",
    "pop": 2990300,
    "country": "MX",
    "longitude": -98.8582,
    "sick": 4715,
    "invisible": false
  },
  {
    "name": "Andaman and Nicobar Islands",
    "latitude": 11.7401,
    "dead": 0,
    "lastUpdated": "2020-07-22T13:11:01.454Z",
    "recovered": 159,
    "infected": 212,
    "id": "0jStOpTUNRaQYJqgmRoK",
    "pop": 427246,
    "country": "IN",
    "longitude": 92.6586,
    "sick": 53,
    "invisible": false
  },
  {
    "lastUpdated": "2020-07-22T13:16:03.288Z",
    "recovered": 104641,
    "infected": 107871,
    "id": "0m4aECS0Z2DGFEr8ldgI",
    "pop": 2639000,
    "country": "QA",
    "longitude": 51.145517,
    "name": "Qatar",
    "latitude": 25.315058,
    "dead": 163,
    "sick": 3067,
    "invisible": false
  },
  {
    "longitude": 87.855,
    "name": "West Bengal",
    "latitude": 22.9868,
    "dead": 1182,
    "lastUpdated": "2020-07-22T13:11:01.452Z",
    "recovered": 28035,
    "infected": 47030,
    "id": "0n54EMSDJcRoT1QEvw80",
    "pop": 90320000,
    "country": "IN",
    "sick": 17813,
    "invisible": false
  },
  {
    "longitude": 78.6569,
    "name": "Madhya Pradesh",
    "latitude": 22.9734,
    "dead": 756,
    "lastUpdated": "2020-07-22T13:11:01.452Z",
    "recovered": 16257,
    "infected": 24095,
    "id": "0s18o5DrDAHjbu5MFcrj",
    "pop": 73340000,
    "country": "IN",
    "sick": 7082,
    "invisible": false
  },
  {
    "lastUpdated": "2020-07-22T13:16:03.287Z",
    "recovered": 1887486,
    "infected": 0,
    "id": "0tFoopNTs6e4tOoaltu2",
    "country": "US",
    "longitude": -95.7129,
    "invisible": true,
    "name": "Unknown US state",
    "latitude": 37.0902,
    "dead": 0,
    "sick": 0
  },
  {
    "id": "0x2HLhr5z5xAtEdO4iZm",
    "pop": 37330000,
    "country": "CN",
    "longitude": 108.472214,
    "name": "Shaanxi",
    "latitude": 35.64249,
    "dead": 3,
    "lastUpdated": "2020-07-22T13:23:10.184Z",
    "recovered": 316,
    "infected": 322,
    "sick": 3,
    "invisible": false
  },
  {
    "recovered": 4940,
    "infected": 9412,
    "id": "19MvIhipqTyYv1H37Upw",
    "pop": 2077000,
    "country": "MK",
    "longitude": 21.668393,
    "name": "North Macedonia",
    "latitude": 41.643351,
    "dead": 432,
    "lastUpdated": "2020-07-22T13:16:03.294Z",
    "sick": 4040,
    "invisible": false
  },
  {
    "state": "NL",
    "id": "1DOMOmCWDtva46OVSZLv",
    "pop": 521542,
    "country": "CA",
    "longitude": -57.6604,
    "name": "Newfoundland and Labrador",
    "latitude": 53.1355,
    "dead": 3,
    "lastUpdated": "2020-07-22T13:07:09.462Z",
    "recovered": 259,
    "infected": 263,
    "sick": 1,
    "invisible": false
  },
  {
    "recovered": 18,
    "infected": 18,
    "id": "1Fap7rZu9SIRqf5TG9Dg",
    "pop": 5627000,
    "country": "CN",
    "longitude": 96.779286,
    "name": "Qinghai",
    "latitude": 35.801933,
    "dead": 0,
    "lastUpdated": "2020-07-22T13:23:10.186Z",
    "sick": 0,
    "invisible": false
  },
  {
    "country": "MX",
    "longitude": -102.5528,
    "invisible": true,
    "name": "Unknown Mexico state",
    "latitude": 23.6345,
    "dead": 0,
    "lastUpdated": "2020-07-22T13:16:03.287Z",
    "recovered": 227165,
    "infected": 0,
    "id": "1YXQMlVL3fUeDZmcVfJw",
    "pop": 126200000,
    "sick": 0
  },
  {
    "lastUpdated": "2020-07-22T13:00:07.764Z",
    "recovered": 3420,
    "infected": 5725,
    "id": "1at5nIap9H51v32otlQl",
    "pop": 1960000,
    "country": "RU",
    "longitude": 73.3167,
    "name": "Omsk Oblast",
    "latitude": 55.0555,
    "dead": 54,
    "sick": 2251,
    "invisible": false
  },
  {
    "state": "21",
    "id": "1eTSQyfp8RoDPeFrIwun",
    "pop": 4376000,
    "country": "IT",
    "longitude": 8.206944,
    "name": "Piemonte",
    "latitude": 44.9,
    "dead": 4123,
    "lastUpdated": "2020-07-22T13:01:02.590Z",
    "recovered": 26609,
    "infected": 31545,
    "sick": 813,
    "invisible": false
  },
  {
    "id": "1j1OurxLTpZYuWIWwQ9F",
    "pop": 1003000,
    "country": "PL",
    "longitude": 15.461,
    "name": "Lubuskie",
    "latitude": 51.993,
    "dead": 2,
    "lastUpdated": "2020-07-22T13:03:09.851Z",
    "recovered": 0,
    "infected": 332,
    "sick": 330,
    "invisible": false
  },
  {
    "country": "MD",
    "longitude": 28.3699,
    "name": "Moldova",
    "latitude": 47.4116,
    "dead": 708,
    "lastUpdated": "2020-07-22T13:16:03.292Z",
    "recovered": 14856,
    "infected": 21442,
    "id": "1qTPB8X3tyLyIdsb5TN3",
    "pop": 3550000,
    "sick": 5878,
    "invisible": false
  },
  {
    "recovered": 0,
    "infected": 10811,
    "id": "22PJOAThcDFKgSbyQIkD",
    "country": "US",
    "longitude": -95.7129,
    "invisible": true,
    "name": "Federal Bureau of Prisons",
    "latitude": 37.0902,
    "dead": 99,
    "lastUpdated": "2020-07-22T13:17:02.670Z",
    "sick": 10712
  },
  {
    "longitude": 88.787865,
    "name": "Tibet",
    "latitude": 30.15336,
    "dead": 0,
    "lastUpdated": "2020-07-22T13:23:10.186Z",
    "recovered": 1,
    "infected": 1,
    "id": "25qIBtsW2nfQj3pwBKg9",
    "pop": 3180000,
    "country": "CN",
    "sick": 0,
    "invisible": false
  },
  {
    "latitude": -1.572184,
    "dead": 4459,
    "lastUpdated": "2020-07-22T13:16:03.289Z",
    "recovered": 50255,
    "infected": 91751,
    "id": "2KHYUb5t3lwzVVmDjwNX",
    "pop": 264000000,
    "country": "ID",
    "longitude": 115.66779,
    "name": "Indonesia",
    "sick": 37037,
    "invisible": false
  },
  {
    "country": "US",
    "longitude": -120.585594,
    "name": "Oregon",
    "latitude": 43.807191,
    "dead": 269,
    "lastUpdated": "2020-07-22T13:17:02.664Z",
    "recovered": 0,
    "infected": 15139,
    "state": "OR",
    "id": "2OrsssmGUs4XCzaZzvTv",
    "pop": 4191000,
    "sick": 14870,
    "invisible": false
  },
  {
    "name": "Antofagasta",
    "latitude": -23.65,
    "dead": 293,
    "lastUpdated": "2020-07-22T13:20:04.770Z",
    "recovered": 0,
    "infected": 13309,
    "id": "2c5HBZ1ffkCVXnMYUWnY",
    "pop": 425000,
    "country": "CL",
    "longitude": -70.400002,
    "sick": 13016,
    "invisible": false
  },
  {
    "longitude": -51.070534,
    "name": "Amapá",
    "latitude": 0.035574,
    "dead": 533,
    "lastUpdated": "2020-07-22T13:27:01.944Z",
    "recovered": 0,
    "infected": 34405,
    "state": "AP",
    "id": "2dzhyWsBSPpENWlNew0b",
    "pop": 9029000,
    "country": "BR",
    "sick": 33872,
    "invisible": false
  },
  {
    "latitude": 43.851921,
    "dead": 2,
    "lastUpdated": "2020-07-22T13:23:10.186Z",
    "recovered": 153,
    "infected": 155,
    "id": "2jxHvSsxdnom0nPNvOT8",
    "pop": 27460000,
    "country": "CN",
    "longitude": 126.548103,
    "name": "Jilin",
    "sick": 0,
    "invisible": false
  },
  {
    "latitude": 36.1408,
    "dead": 0,
    "lastUpdated": "2020-07-22T13:16:03.302Z",
    "recovered": 180,
    "infected": 182,
    "id": "2p11BjSAs3wVyymgqBOe",
    "pop": 34571,
    "country": "GI",
    "longitude": -5.3536,
    "name": "Gibraltar",
    "sick": 2,
    "invisible": false
  },
  {
    "country": "FR",
    "longitude": 1.6751,
    "name": "Centre-Val de Loire",
    "latitude": 47.7516,
    "dead": 555,
    "lastUpdated": "2020-07-21T23:32:20.612Z",
    "recovered": 2057,
    "infected": 4675,
    "id": "2sLNkkHpyaHx7dD3aMDO",
    "pop": 2567000,
    "sick": 2063,
    "invisible": false
  },
  {
    "state": "55",
    "id": "319tiZOMczx1y0DfvOib",
    "pop": 884640,
    "country": "IT",
    "longitude": 12.643751,
    "name": "Umbria",
    "latitude": 42.565044,
    "dead": 80,
    "lastUpdated": "2020-07-22T13:01:02.592Z",
    "recovered": 1365,
    "infected": 1459,
    "sick": 14,
    "invisible": false
  },
  {
    "id": "38T96Q3XNjt5FSJygPed",
    "pop": 1355000,
    "country": "CO",
    "longitude": -76.6131592,
    "name": "Cauca",
    "latitude": 2.43823,
    "dead": 36,
    "lastUpdated": "2020-07-22T13:21:13.825Z",
    "recovered": 410,
    "infected": 1175,
    "sick": 729,
    "invisible": false
  },
  {
    "recovered": 1677,
    "infected": 3583,
    "id": "3IlPjAbP5qVMn1nlgLTJ",
    "pop": 17090000,
    "country": "ZM",
    "longitude": 27.849332,
    "name": "Zambia",
    "latitude": -13.133896,
    "dead": 128,
    "lastUpdated": "2020-07-22T13:16:03.295Z",
    "sick": 1778,
    "invisible": false
  },
  {
    "latitude": 42.7044,
    "dead": 35,
    "lastUpdated": "2020-07-22T13:16:03.297Z",
    "recovered": 426,
    "infected": 2381,
    "id": "3LstMSN5XMYBkxbe5HN7",
    "pop": 631219,
    "country": "ME",
    "longitude": 19.3958,
    "name": "Montenegro",
    "sick": 1920,
    "invisible": false
  },
  {
    "state": "ACT",
    "id": "3OZoQsKrzxZ18EKyfGE6",
    "pop": 418440,
    "country": "AU",
    "longitude": 149.0124,
    "name": "Australian Capital Territory",
    "latitude": -35.4735,
    "dead": 3,
    "lastUpdated": "2020-07-22T12:43:28.433Z",
    "recovered": 107,
    "infected": 113,
    "sick": 3,
    "invisible": false
  },
  {
    "country": "RU",
    "longitude": 38.8389,
    "name": "Yaroslavl Oblast",
    "latitude": 57.8992,
    "dead": 24,
    "lastUpdated": "2020-07-22T13:00:07.764Z",
    "recovered": 5055,
    "infected": 5677,
    "id": "3PfzjWjvOkfgxc672BHQ",
    "pop": 608000,
    "sick": 598,
    "invisible": false
  },
  {
    "longitude": 95.626,
    "name": "Tuva",
    "latitude": 51.8873,
    "dead": 46,
    "lastUpdated": "2020-07-22T13:00:07.764Z",
    "recovered": 3139,
    "infected": 5812,
    "id": "3PpqgIUJAtzxo1j7z56i",
    "pop": 321000,
    "country": "RU",
    "sick": 2627,
    "invisible": false
  },
  {
    "latitude": 26.2006,
    "dead": 69,
    "lastUpdated": "2020-07-22T13:11:01.452Z",
    "recovered": 18034,
    "infected": 26773,
    "id": "3cCbnJCsK7mKlTO08K1o",
    "pop": 30940000,
    "country": "IN",
    "longitude": 92.9376,
    "name": "Assam",
    "sick": 8670,
    "invisible": false
  },
  {
    "state": "OH",
    "id": "3fC3bAyIRUquOQOEnQNe",
    "pop": 11690000,
    "country": "US",
    "longitude": -82.9071,
    "name": "Ohio",
    "latitude": 40.4173,
    "dead": 3223,
    "lastUpdated": "2020-07-22T13:17:02.661Z",
    "recovered": 0,
    "infected": 77269,
    "sick": 74046,
    "invisible": false
  },
  {
    "name": "Sinaloa",
    "latitude": 25,
    "dead": 1898,
    "lastUpdated": "2020-07-22T13:02:09.498Z",
    "recovered": 0,
    "infected": 11712,
    "id": "3kFCzJguabtBvXaHxgiu",
    "pop": 3066400,
    "country": "MX",
    "longitude": -107.5,
    "sick": 9814,
    "invisible": false
  },
  {
    "id": "3mC2LveOpXV8P1PmQGUj",
    "pop": 4708300,
    "country": "CO",
    "longitude": -76.522224,
    "name": "Valle del Cauca",
    "latitude": 3.420556,
    "dead": 572,
    "lastUpdated": "2020-07-22T13:21:13.823Z",
    "recovered": 8197,
    "infected": 16516,
    "sick": 7747,
    "invisible": false
  },
  {
    "latitude": 21.0079,
    "dead": 155,
    "lastUpdated": "2020-07-22T13:16:03.295Z",
    "recovered": 3826,
    "infected": 5985,
    "id": "4NnFMekRK2m14IlnZZoj",
    "pop": 4420000,
    "country": "MR",
    "longitude": -10.9408,
    "name": "Mauritania",
    "sick": 2004,
    "invisible": false
  },
  {
    "longitude": -127.6476,
    "name": "British Columbia",
    "latitude": 53.7267,
    "dead": 189,
    "lastUpdated": "2020-07-22T13:07:09.460Z",
    "recovered": 2873,
    "infected": 3328,
    "state": "BC",
    "id": "4hfZRUoUgI4a3vrG0GBk",
    "pop": 5071000,
    "country": "CA",
    "sick": 266,
    "invisible": false
  },
  {
    "recovered": 0,
    "infected": 145121,
    "state": "RJ",
    "id": "4kq0z3kh5zt3YAUWxvtE",
    "pop": 17159960,
    "country": "BR",
    "longitude": -43.196388,
    "name": "Rio de Janeiro",
    "latitude": -22.908333,
    "dead": 12293,
    "lastUpdated": "2020-07-22T13:27:01.943Z",
    "sick": 132828,
    "invisible": false
  },
  {
    "name": "Bahia",
    "latitude": -11.409874,
    "dead": 2936,
    "lastUpdated": "2020-07-22T13:27:01.943Z",
    "recovered": 0,
    "infected": 126844,
    "state": "BA",
    "id": "4yDbkEyqsNzZJjfrciYV",
    "pop": 14812617,
    "country": "BR",
    "longitude": -41.280857,
    "sick": 123908,
    "invisible": false
  },
  {
    "latitude": 40.3426,
    "dead": 376,
    "lastUpdated": "2020-07-22T13:16:03.291Z",
    "recovered": 19939,
    "infected": 28242,
    "id": "4zqzRm2xHn0CDVOUQJ8p",
    "pop": 9898000,
    "country": "AZ",
    "longitude": 47.93802,
    "name": "Azerbaijan",
    "sick": 7927,
    "invisible": false
  },
  {
    "name": "Tamaulipas",
    "latitude": 22.233105,
    "dead": 818,
    "lastUpdated": "2020-07-22T13:02:09.499Z",
    "recovered": 0,
    "infected": 12857,
    "id": "54cfsdsRF76XVHWtZs19",
    "pop": 3672300,
    "country": "MX",
    "longitude": -97.861099,
    "sick": 12039,
    "invisible": false
  },
  {
    "lastUpdated": "2020-07-22T13:07:05.764Z",
    "recovered": 9532,
    "infected": 36306,
    "state": "VLG",
    "id": "57ydD48mLRD2YoyteJZj",
    "pop": 6596000,
    "country": "BE",
    "longitude": 3.7265,
    "name": "Flanders",
    "latitude": 51.0109,
    "dead": 4913,
    "sick": 21861,
    "invisible": false
  },
  {
    "country": "BS",
    "longitude": -78.035889,
    "name": "Bahamas",
    "latitude": 25.025885,
    "dead": 11,
    "lastUpdated": "2020-07-22T13:16:03.302Z",
    "recovered": 91,
    "infected": 194,
    "id": "5MHegCUO9L3LiAU7DDey",
    "pop": 395361,
    "sick": 92,
    "invisible": false
  },
  {
    "state": "NSW",
    "id": "5N16a2OXXRpsEFanw0TC",
    "pop": 7544000,
    "country": "AU",
    "longitude": 146.921097,
    "name": "New South Wales",
    "latitude": -31.253218,
    "dead": 49,
    "lastUpdated": "2020-07-22T12:43:28.442Z",
    "recovered": 2988,
    "infected": 3614,
    "sick": 577,
    "invisible": false
  },
  {
    "id": "5N4PRxsCDzzwk7R200V1",
    "pop": 12580000,
    "country": "SS",
    "longitude": 31.3069782,
    "name": "South Sudan",
    "latitude": 6.8769908,
    "dead": 45,
    "lastUpdated": "2020-07-22T13:16:03.297Z",
    "recovered": 1175,
    "infected": 2211,
    "sick": 991,
    "invisible": false
  },
  {
    "longitude": -0.7533,
    "name": "C. Valenciana",
    "latitude": 39.484,
    "dead": 1433,
    "lastUpdated": "2020-07-21T23:17:53.070Z",
    "recovered": 9970,
    "infected": 15992,
    "state": "VC",
    "id": "5Va9A7CXR8AXdUz4HTJj",
    "pop": 4975000,
    "country": "ES",
    "sick": 4589,
    "invisible": false
  },
  {
    "name": "New Caledonia",
    "latitude": -20.9043045,
    "dead": 0,
    "lastUpdated": "2020-07-22T13:16:03.311Z",
    "recovered": 21,
    "infected": 22,
    "id": "5fg04eyDwFw3kEXnrxez",
    "pop": 280460,
    "country": "NC",
    "longitude": 165.618042,
    "sick": 1,
    "invisible": false
  },
  {
    "country": "NP",
    "longitude": 84.124008,
    "name": "Nepal",
    "latitude": 28.394857,
    "dead": 42,
    "lastUpdated": "2020-07-22T13:16:03.292Z",
    "recovered": 12684,
    "infected": 18094,
    "id": "5gXZIjRgAvd6xWN1LOv8",
    "pop": 29300000,
    "sick": 5368,
    "invisible": false
  },
  {
    "lastUpdated": "2020-07-22T13:16:03.289Z",
    "recovered": 23623,
    "infected": 72269,
    "id": "5pwmh7aSdGRKqRbnuyc0",
    "pop": 104900000,
    "country": "PH",
    "longitude": 121.774017,
    "name": "Philippines",
    "latitude": 12.879721,
    "dead": 1843,
    "sick": 46803,
    "invisible": false
  },
  {
    "latitude": -17.824858,
    "dead": 26,
    "lastUpdated": "2020-07-22T13:16:03.298Z",
    "recovered": 488,
    "infected": 1820,
    "id": "5qtR9nx4BLwu1ODTniaY",
    "pop": 14802190,
    "country": "ZW",
    "longitude": 31.053028,
    "name": "Zimbabwe",
    "sick": 1306,
    "invisible": false
  },
  {
    "country": "US",
    "lastUpdated": "2020-07-22T13:17:02.670Z",
    "state": "NA",
    "id": "5vkKgxTaKq1IH0Go357L",
    "longitude": -109.188,
    "invisible": false,
    "name": "Navajo Nation",
    "dead": 425,
    "latitude": 36.0672,
    "infected": 8639,
    "recovered": 0,
    "pop": 356890,
    "sick": 8214
  },
  {
    "latitude": 19.432241,
    "dead": 8354,
    "lastUpdated": "2020-07-22T13:02:09.499Z",
    "recovered": 0,
    "infected": 64431,
    "id": "61E7TGjUwAo9xu6Y6gAH",
    "pop": 8781300,
    "country": "MX",
    "longitude": -99.177254,
    "name": "Ciudad de México",
    "sick": 56077,
    "invisible": false
  },
  {
    "name": "Kaluga Oblast",
    "latitude": 54.3873,
    "dead": 56,
    "lastUpdated": "2020-07-22T13:00:07.762Z",
    "recovered": 5529,
    "infected": 6987,
    "id": "63KYOuWe41mvqWQrJbr2",
    "pop": 1012000,
    "country": "RU",
    "longitude": 35.1889,
    "sick": 1402,
    "invisible": false
  },
  {
    "latitude": 55.621011,
    "dead": 80,
    "lastUpdated": "2020-07-22T13:16:03.298Z",
    "recovered": 1607,
    "infected": 1951,
    "id": "694ON7d0mRJDeM1gHBTR",
    "pop": 2794000,
    "country": "LT",
    "longitude": 23.804991,
    "name": "Lithuania",
    "sick": 264,
    "invisible": false
  },
  {
    "name": "South East",
    "latitude": 51.1781,
    "dead": 0,
    "lastUpdated": "2020-07-22T12:13:21.155Z",
    "recovered": 0,
    "infected": 34734,
    "state": "EN",
    "id": "6IQAsvrmBv0HPdeTnh4x",
    "pop": 9175000,
    "country": "GB",
    "longitude": -0.5596,
    "sick": 34734,
    "invisible": false
  },
  {
    "latitude": 22.396427,
    "dead": 14,
    "lastUpdated": "2020-07-22T13:16:03.297Z",
    "recovered": 1344,
    "infected": 2132,
    "id": "6IcHIIH0zXpY0POmBZTv",
    "pop": 7392000,
    "country": "HK",
    "longitude": 114.109497,
    "name": "Hong Kong",
    "sick": 774,
    "invisible": false
  },
  {
    "latitude": -8.65,
    "dead": 469,
    "lastUpdated": "2020-07-22T13:27:01.945Z",
    "recovered": 0,
    "infected": 17700,
    "state": "AC",
    "id": "6LQesrx5bHJsVUi1TXBp",
    "pop": 869265,
    "country": "BR",
    "longitude": -72.4,
    "name": "Acre",
    "sick": 17231,
    "invisible": false
  },
  {
    "latitude": 9.3077,
    "dead": 31,
    "lastUpdated": "2020-07-22T13:16:03.298Z",
    "recovered": 782,
    "infected": 1602,
    "id": "6SlpghTyB6lpMFvx3g9U",
    "pop": 11180000,
    "country": "BJ",
    "longitude": 2.3158,
    "name": "Benin",
    "sick": 789,
    "invisible": false
  },
  {
    "lastUpdated": "2020-07-22T13:01:02.590Z",
    "recovered": 71775,
    "infected": 95582,
    "state": "25",
    "id": "6ZHcvMIzVWIaRnc4R3Qp",
    "pop": 10040000,
    "country": "IT",
    "longitude": 9.5,
    "name": "Lombardia",
    "latitude": 45.6667,
    "dead": 16797,
    "sick": 7010,
    "invisible": false
  },
  {
    "name": "Slovenia",
    "latitude": 46.0569,
    "dead": 115,
    "lastUpdated": "2020-07-22T13:16:03.298Z",
    "recovered": 1648,
    "infected": 2006,
    "id": "6ahNiyKDSDAftCctgLH3",
    "pop": 2067000,
    "country": "SI",
    "longitude": 14.5058,
    "sick": 243,
    "invisible": false
  },
  {
    "lastUpdated": "2020-07-22T13:20:04.770Z",
    "recovered": 0,
    "infected": 1958,
    "id": "6nyns7UGGgkU7pxrHf8i",
    "pop": 300000,
    "country": "CL",
    "longitude": -70.331398,
    "name": "Atacama",
    "latitude": -27.3667908,
    "dead": 9,
    "sick": 1949,
    "invisible": false
  },
  {
    "name": "Gabon",
    "latitude": -0.8037,
    "dead": 46,
    "lastUpdated": "2020-07-22T13:16:03.295Z",
    "recovered": 4034,
    "infected": 6433,
    "id": "6pBi38TUgYfFm0bry2uh",
    "pop": 2025000,
    "country": "GA",
    "longitude": 11.6094,
    "sick": 2353,
    "invisible": false
  },
  {
    "id": "6vjIVg1gSANFZghV7xtS",
    "pop": 2831900,
    "country": "MX",
    "longitude": -100.9792,
    "name": "San Luis Potosí",
    "latitude": 22.1498,
    "dead": 369,
    "lastUpdated": "2020-07-22T13:02:09.500Z",
    "recovered": 0,
    "infected": 6228,
    "sick": 5859,
    "invisible": false
  },
  {
    "lastUpdated": "2020-07-22T13:16:03.312Z",
    "recovered": 6,
    "infected": 6,
    "id": "78Ox26bNHDA2Pk2b3Uwn",
    "pop": 9131,
    "country": "FR",
    "longitude": -62.818544,
    "name": "Saint-Barthélémy",
    "alwaysShow": true,
    "latitude": 17.901672,
    "dead": 0,
    "sick": 0,
    "invisible": false
  },
  {
    "latitude": 54.367,
    "dead": 39,
    "lastUpdated": "2020-07-22T13:03:09.850Z",
    "recovered": 0,
    "infected": 774,
    "id": "7JDx6UJiwGSJyL1fChaJ",
    "pop": 2305000,
    "country": "PL",
    "longitude": 18.633,
    "name": "Pomorskie",
    "sick": 735,
    "invisible": false
  },
  {
    "country": "ES",
    "longitude": -2.9381,
    "name": "Melilla",
    "latitude": 35.2923,
    "dead": 2,
    "lastUpdated": "2020-07-21T23:20:07.338Z",
    "recovered": 125,
    "infected": 142,
    "state": "ML",
    "id": "7UASdZTZ1nPzzBwSTEA9",
    "pop": 84690,
    "sick": 15,
    "invisible": false
  },
  {
    "country": "AG",
    "longitude": -61.7964,
    "name": "Antigua and Barbuda",
    "latitude": 17.0608,
    "dead": 3,
    "lastUpdated": "2020-07-22T13:16:03.304Z",
    "recovered": 57,
    "infected": 76,
    "id": "7hVFcEV7nV0MrQr3LHrl",
    "pop": 102012,
    "sick": 16,
    "invisible": false
  },
  {
    "name": "Bayern",
    "latitude": 48.7904,
    "dead": 2660,
    "lastUpdated": "2020-07-22T13:00:03.792Z",
    "recovered": 46393,
    "infected": 50262,
    "state": "BY",
    "id": "7kCrrlOBE3jN6FtOVNUB",
    "pop": 13000000,
    "country": "DE",
    "longitude": 11.4979,
    "sick": 1209,
    "invisible": false
  },
  {
    "latitude": 47.4979,
    "dead": 596,
    "lastUpdated": "2020-07-22T13:16:03.295Z",
    "recovered": 3283,
    "infected": 4366,
    "id": "7rYC2iFB50c55Ihgbs4Q",
    "pop": 9773000,
    "country": "HU",
    "longitude": 19.0402,
    "name": "Hungary",
    "sick": 487,
    "invisible": false
  },
  {
    "name": "Barranquilla D.E.",
    "latitude": 10.9685,
    "dead": 1325,
    "lastUpdated": "2020-07-22T13:21:13.824Z",
    "recovered": 14993,
    "infected": 26054,
    "id": "7tqLvLyXcBDK808nJv0m",
    "pop": 1206000,
    "country": "CO",
    "longitude": -74.7813,
    "sick": 9736,
    "invisible": false
  },
  {
    "name": "Cameroon",
    "latitude": 7.3697,
    "dead": 382,
    "lastUpdated": "2020-07-22T13:16:03.292Z",
    "recovered": 13728,
    "infected": 16522,
    "id": "8C0d7WVCjyUGtnc2gUAR",
    "pop": 24050000,
    "country": "CM",
    "longitude": 12.3547,
    "sick": 2412,
    "invisible": false
  },
  {
    "name": "Brussels",
    "latitude": 50.8503,
    "dead": 1497,
    "lastUpdated": "2020-07-22T13:07:05.765Z",
    "recovered": 2839,
    "infected": 6655,
    "state": "BRU",
    "id": "8DOZWbN6bDdgaLXVlUEu",
    "pop": 1209000,
    "country": "BE",
    "longitude": 4.3517,
    "sick": 2319,
    "invisible": false
  },
  {
    "latitude": -16.2902,
    "dead": 2273,
    "lastUpdated": "2020-07-22T13:16:03.289Z",
    "recovered": 19290,
    "infected": 62357,
    "id": "8RihJrXw4NQXPxaRxr1u",
    "pop": 11050000,
    "country": "BO",
    "longitude": -63.5887,
    "name": "Bolivia",
    "sick": 40794,
    "invisible": false
  },
  {
    "recovered": 29,
    "infected": 50,
    "id": "8ZTySQROQejkDAad0qxQ",
    "pop": 109897,
    "country": "VC",
    "longitude": -61.2872,
    "name": "St. Vincent Grenadines",
    "latitude": 12.9843,
    "dead": 0,
    "lastUpdated": "2020-07-22T13:16:03.304Z",
    "sick": 21,
    "invisible": false
  },
  {
    "lastUpdated": "2020-07-22T13:16:03.290Z",
    "recovered": 44584,
    "infected": 48744,
    "id": "8pA3fM4xC2c2wv1b4TnE",
    "pop": 5621000,
    "country": "SG",
    "longitude": 103.819839,
    "name": "Singapore",
    "latitude": 1.352083,
    "dead": 27,
    "sick": 4133,
    "invisible": false
  },
  {
    "longitude": -1.5536,
    "name": "Pays de la Loire",
    "latitude": 47.2184,
    "dead": 474,
    "lastUpdated": "2020-07-21T23:30:02.077Z",
    "recovered": 2158,
    "infected": 4417,
    "id": "98hwAoohgWEOQVa3NlM5",
    "pop": 3787000,
    "country": "FR",
    "sick": 1785,
    "invisible": false
  },
  {
    "latitude": 19.30754,
    "dead": 374,
    "lastUpdated": "2020-07-22T13:02:09.499Z",
    "recovered": 0,
    "infected": 3748,
    "id": "9DAvxOObTqIvMOU93nlY",
    "pop": 952300,
    "country": "MX",
    "longitude": -90.19885,
    "name": "Campeche",
    "sick": 3374,
    "invisible": false
  },
  {
    "longitude": 30.2176,
    "name": "Sudan",
    "latitude": 12.8628,
    "dead": 693,
    "lastUpdated": "2020-07-22T13:16:03.293Z",
    "recovered": 5707,
    "infected": 10992,
    "id": "9DPOkpIqrFy9mR4e9fuv",
    "pop": 40530000,
    "country": "SD",
    "sick": 4592,
    "invisible": false
  },
  {
    "country": "RU",
    "longitude": 43.9541,
    "name": "Kostroma Oblast",
    "latitude": 58.5501,
    "dead": 25,
    "lastUpdated": "2020-07-22T13:00:07.767Z",
    "recovered": 1366,
    "infected": 2016,
    "id": "9JFYfvpcejMIgYlHpngA",
    "pop": 643000,
    "sick": 625,
    "invisible": false
  },
  {
    "latitude": 45.943161,
    "dead": 2101,
    "lastUpdated": "2020-07-22T13:16:03.290Z",
    "recovered": 24663,
    "infected": 40163,
    "id": "9QcETqEcM2fTv9zRvx5T",
    "pop": 19530000,
    "country": "RO",
    "longitude": 24.966761,
    "name": "Romania",
    "sick": 13399,
    "invisible": false
  },
  {
    "latitude": 12.136389,
    "dead": 108,
    "lastUpdated": "2020-07-22T13:16:03.295Z",
    "recovered": 2492,
    "infected": 3439,
    "id": "9Y5wmCqNCC6ZrenM31uA",
    "pop": 6218000,
    "country": "NI",
    "longitude": -86.251389,
    "name": "Nicaragua",
    "sick": 839,
    "invisible": false
  },
  {
    "id": "9dIzxqDSVqPyINkHqwGv",
    "pop": 18540000,
    "country": "ML",
    "longitude": -3.996166,
    "name": "Mali",
    "latitude": 17.5706921,
    "dead": 122,
    "lastUpdated": "2020-07-22T13:16:03.297Z",
    "recovered": 1856,
    "infected": 2477,
    "sick": 499,
    "invisible": false
  },
  {
    "latitude": 61.92411,
    "dead": 328,
    "lastUpdated": "2020-07-22T13:16:03.294Z",
    "recovered": 6920,
    "infected": 7362,
    "id": "9p6OCdZbUUwBLA60Gk3W",
    "pop": 5513000,
    "country": "FI",
    "longitude": 25.748152,
    "name": "Finland",
    "sick": 114,
    "invisible": false
  },
  {
    "country": "RU",
    "longitude": 95.1104,
    "name": "Krasnoyarsk Krai",
    "latitude": 64.248,
    "dead": 290,
    "lastUpdated": "2020-07-22T13:00:07.760Z",
    "recovered": 9532,
    "infected": 11790,
    "id": "A6Us0fpQVCc85SoIqzg3",
    "pop": 2876000,
    "sick": 1968,
    "invisible": false
  },
  {
    "recovered": 0,
    "infected": 6262,
    "state": "NH",
    "id": "A84CwQ52kA46Hr7pn6Bm",
    "pop": 1356000,
    "country": "US",
    "longitude": -71.590315,
    "name": "New Hampshire",
    "latitude": 43.311643,
    "dead": 400,
    "lastUpdated": "2020-07-22T13:17:02.664Z",
    "sick": 5862,
    "invisible": false
  },
  {
    "lastUpdated": "2020-07-22T13:17:02.664Z",
    "recovered": 0,
    "infected": 17986,
    "state": "RI",
    "id": "AEUWUHS65qvjEslew11c",
    "pop": 1057000,
    "country": "US",
    "longitude": -71.412257,
    "name": "Rhode Island",
    "latitude": 41.823261,
    "dead": 996,
    "sick": 16990,
    "invisible": false
  },
  {
    "lastUpdated": "2020-07-22T13:01:02.589Z",
    "recovered": 23662,
    "infected": 29238,
    "state": "45",
    "id": "AJ9jQ0iyKsafsmf5yHAR",
    "pop": 4453000,
    "country": "IT",
    "longitude": 11.327591,
    "name": "Emilia-Romagna",
    "latitude": 44.498955,
    "dead": 4279,
    "sick": 1297,
    "invisible": false
  },
  {
    "country": "DE",
    "longitude": 7.023,
    "name": "Saarland",
    "latitude": 49.3964,
    "dead": 178,
    "lastUpdated": "2020-07-22T13:00:03.795Z",
    "recovered": 2630,
    "infected": 2861,
    "state": "SL",
    "id": "AKjFRQGnzuuZQhv5Qwx7",
    "pop": 990509,
    "sick": 53,
    "invisible": false
  },
  {
    "id": "AOapJ3gElQApd8Gnt8EL",
    "pop": 3493000,
    "country": "RU",
    "longitude": 60.8789,
    "name": "Chelyabinsk Oblast",
    "latitude": 54.4319,
    "dead": 89,
    "lastUpdated": "2020-07-22T13:00:07.761Z",
    "recovered": 5774,
    "infected": 10078,
    "sick": 4215,
    "invisible": false
  },
  {
    "name": "Maule",
    "latitude": -35.717,
    "dead": 131,
    "lastUpdated": "2020-07-22T13:20:04.774Z",
    "recovered": 0,
    "infected": 8009,
    "id": "APTPgjAsjFi0nsGyJV7M",
    "pop": 1125002,
    "country": "CL",
    "longitude": -71.167,
    "sick": 7878,
    "invisible": false
  },
  {
    "id": "APaZzlGCEeuoLBtzTJMe",
    "pop": 56171,
    "country": "GL",
    "longitude": -42.6043,
    "name": "Greenland",
    "latitude": 71.7069,
    "dead": 0,
    "lastUpdated": "2020-07-22T13:16:03.312Z",
    "recovered": 13,
    "infected": 13,
    "sick": 0,
    "invisible": false
  },
  {
    "longitude": 112.4061,
    "name": "Buryatia",
    "latitude": 54.8331,
    "dead": 36,
    "lastUpdated": "2020-07-22T13:00:07.766Z",
    "recovered": 2904,
    "infected": 3767,
    "id": "ATxF6ZoDJ2ibdE6ZRYIX",
    "pop": 984000,
    "country": "RU",
    "sick": 827,
    "invisible": false
  },
  {
    "country": "CA",
    "longitude": -63.582687,
    "name": "Nova Scotia",
    "latitude": 45.65107,
    "dead": 63,
    "lastUpdated": "2020-07-22T13:07:09.462Z",
    "recovered": 1003,
    "infected": 1067,
    "state": "NS",
    "id": "AVCpxeh0fuH2WrHWNDYH",
    "pop": 971395,
    "sick": 1,
    "invisible": false
  },
  {
    "latitude": 47.012918,
    "dead": 40,
    "lastUpdated": "2020-07-22T13:17:02.669Z",
    "recovered": 0,
    "infected": 2712,
    "state": "MT",
    "id": "AcULcZBozObOhwuRKMjJ",
    "pop": 1062000,
    "country": "US",
    "longitude": -109.128641,
    "name": "Montana",
    "sick": 2672,
    "invisible": false
  },
  {
    "lastUpdated": "2020-07-22T13:16:03.294Z",
    "recovered": 5683,
    "infected": 6967,
    "id": "AiIGs3ybYZZhm1ytVopr",
    "pop": 9275000,
    "country": "TJ",
    "longitude": 71.2761,
    "name": "Tajikistan",
    "latitude": 38.861,
    "dead": 57,
    "sick": 1227,
    "invisible": false
  },
  {
    "latitude": 27.285971,
    "dead": 1,
    "lastUpdated": "2020-07-22T13:23:10.185Z",
    "recovered": 931,
    "infected": 932,
    "id": "AmBYm5J6E9Cuez1FQjiN",
    "pop": 45200000,
    "country": "CN",
    "longitude": 116.01609,
    "name": "Jiangxi",
    "sick": 0,
    "invisible": false
  },
  {
    "lastUpdated": "2020-07-22T12:13:21.153Z",
    "recovered": 0,
    "infected": 16965,
    "state": "WA",
    "id": "AoLhHdTydeWTfmp9koEX",
    "pop": 3136000,
    "country": "GB",
    "longitude": -3.7837,
    "name": "Wales",
    "latitude": 52.1307,
    "dead": 1547,
    "sick": 15418,
    "invisible": false
  },
  {
    "lastUpdated": "2020-07-22T13:00:07.767Z",
    "recovered": 2179,
    "infected": 2668,
    "id": "Avls64fLKoEsBFH0Ol0b",
    "pop": 537000,
    "country": "RU",
    "longitude": 90.3982,
    "name": "Khakassia",
    "latitude": 53.0452,
    "dead": 28,
    "sick": 461,
    "invisible": false
  },
  {
    "recovered": 16646,
    "infected": 24278,
    "id": "AwN0CScPDApcLFgz6e3z",
    "pop": 41320000,
    "country": "DZ",
    "longitude": 1.659626,
    "name": "Algeria",
    "latitude": 28.033886,
    "dead": 1100,
    "lastUpdated": "2020-07-22T13:16:03.291Z",
    "sick": 6532,
    "invisible": false
  },
  {
    "longitude": 15.2,
    "name": "Croatia",
    "latitude": 45.099998,
    "dead": 125,
    "lastUpdated": "2020-07-22T13:16:03.295Z",
    "recovered": 3278,
    "infected": 4530,
    "id": "B82Ef45M8cDu4q7VsSHF",
    "pop": 4076000,
    "country": "HR",
    "sick": 1127,
    "invisible": false
  },
  {
    "name": "Niger",
    "latitude": 17.6077881,
    "dead": 69,
    "lastUpdated": "2020-07-22T13:16:03.299Z",
    "recovered": 1018,
    "infected": 1113,
    "id": "BENubqQInFUJzhpZTsLT",
    "pop": 23716000,
    "country": "NE",
    "longitude": 8.081666,
    "sick": 26,
    "invisible": false
  },
  {
    "country": "US",
    "longitude": -76.98432,
    "name": "Maryland",
    "latitude": 39.509109,
    "dead": 3402,
    "lastUpdated": "2020-07-22T13:17:02.660Z",
    "recovered": 0,
    "infected": 79545,
    "state": "MD",
    "id": "BF51mWl51fgEcyBpCSzb",
    "pop": 6043000,
    "sick": 76143,
    "invisible": false
  },
  {
    "latitude": 53.709808,
    "dead": 513,
    "lastUpdated": "2020-07-22T13:16:03.289Z",
    "recovered": 59061,
    "infected": 66521,
    "id": "BGg6yVU5VP71B8NXU0oh",
    "pop": 9508000,
    "country": "BY",
    "longitude": 27.953388,
    "name": "Belarus",
    "sick": 6947,
    "invisible": false
  },
  {
    "latitude": 48.8799,
    "dead": 440,
    "lastUpdated": "2020-07-21T23:30:46.168Z",
    "recovered": 1727,
    "infected": 3769,
    "id": "BGtoyzb7y54LVlJ91rbf",
    "pop": 3319000,
    "country": "FR",
    "longitude": 0.1713,
    "name": "Normandie",
    "sick": 1602,
    "invisible": false
  },
  {
    "longitude": -3.9995,
    "name": "South West",
    "latitude": 50.7772,
    "dead": 0,
    "lastUpdated": "2020-07-22T12:13:21.155Z",
    "recovered": 0,
    "infected": 12978,
    "state": "EN",
    "id": "BQqMOlPFD36ZEDTGd3WC",
    "pop": 5616000,
    "country": "GB",
    "sick": 12978,
    "invisible": false
  },
  {
    "state": "AZ",
    "id": "BTEESCuD2ZbS1afunR2A",
    "pop": 7172000,
    "country": "US",
    "longitude": -111.093735,
    "name": "Arizona",
    "latitude": 34.048927,
    "dead": 2918,
    "lastUpdated": "2020-07-22T13:17:02.660Z",
    "recovered": 0,
    "infected": 148683,
    "sick": 145765,
    "invisible": false
  },
  {
    "recovered": 3438,
    "infected": 5454,
    "id": "BUb7oDHcBM4lQ5cufNoG",
    "pop": 949000,
    "country": "RU",
    "longitude": 32.6677,
    "name": "Smolensk Oblast",
    "latitude": 54.9883,
    "dead": 89,
    "lastUpdated": "2020-07-22T13:00:07.765Z",
    "sick": 1927,
    "invisible": false
  },
  {
    "name": "Kirov Oblast",
    "latitude": 58.4199,
    "dead": 56,
    "lastUpdated": "2020-07-22T13:00:07.766Z",
    "recovered": 4059,
    "infected": 4302,
    "id": "BWojXmuKU3szKlS7CE4k",
    "pop": 1283000,
    "country": "RU",
    "longitude": 50.2097,
    "sick": 187,
    "invisible": false
  },
  {
    "latitude": 53.428543,
    "dead": 23,
    "lastUpdated": "2020-07-22T13:03:09.851Z",
    "recovered": 0,
    "infected": 673,
    "id": "BZwZOAlDJ8AIiaRVLyC9",
    "pop": 1676000,
    "country": "PL",
    "longitude": 14.552812,
    "name": "Zachodniopomorskie",
    "sick": 650,
    "invisible": false
  },
  {
    "lastUpdated": "2020-07-22T13:16:03.287Z",
    "recovered": 306816,
    "infected": 0,
    "id": "BbiuZcm8oURX7cZwaa5U",
    "country": "CL",
    "longitude": -70.6693,
    "invisible": true,
    "name": "Unknown Chile region",
    "latitude": -33.4489,
    "dead": 0,
    "sick": 0
  },
  {
    "id": "BfT8o5DaEixC6JIZ28kY",
    "pop": 18620000,
    "country": "MW",
    "longitude": 34.3015,
    "name": "Malawi",
    "latitude": -13.2543,
    "dead": 71,
    "lastUpdated": "2020-07-22T13:16:03.296Z",
    "recovered": 1256,
    "infected": 3149,
    "sick": 1822,
    "invisible": false
  },
  {
    "latitude": -3.3730559,
    "dead": 1,
    "lastUpdated": "2020-07-22T13:16:03.302Z",
    "recovered": 207,
    "infected": 328,
    "id": "BnpMamidC5yYzeK8tPUL",
    "pop": 10860000,
    "country": "BI",
    "longitude": 29.9188862,
    "name": "Burundi",
    "sick": 120,
    "invisible": false
  },
  {
    "country": "PL",
    "longitude": 21.002,
    "name": "Mazowieckie",
    "latitude": 52.257,
    "dead": 370,
    "lastUpdated": "2020-07-22T13:03:09.849Z",
    "recovered": 0,
    "infected": 5809,
    "id": "BrToMzyq8y2xdwXn75kM",
    "pop": 5385000,
    "sick": 5439,
    "invisible": false
  },
  {
    "longitude": -71.347573,
    "name": "Amazonas (Colombia)",
    "latitude": -1.333845,
    "dead": 101,
    "lastUpdated": "2020-07-22T13:21:13.826Z",
    "recovered": 2279,
    "infected": 2458,
    "id": "C25xSDm4iYibX5RYML14",
    "pop": 74751,
    "country": "CO",
    "sick": 78,
    "invisible": false
  },
  {
    "longitude": -73.982597,
    "name": "New York",
    "latitude": 40.719042,
    "dead": 32602,
    "lastUpdated": "2020-07-22T13:17:02.659Z",
    "recovered": 0,
    "infected": 435753,
    "state": "NY",
    "id": "C3BCUzV80z9GfiuByIcr",
    "pop": 19540000,
    "country": "US",
    "sick": 403151,
    "invisible": false
  },
  {
    "id": "C5YXFiytAc1w9swtVGLz",
    "pop": 42800,
    "country": "CO",
    "longitude": -67.92389,
    "name": "Guainía",
    "latitude": 3.86528,
    "dead": 1,
    "lastUpdated": "2020-07-22T13:21:13.826Z",
    "recovered": 13,
    "infected": 14,
    "sick": 0,
    "invisible": false
  },
  {
    "recovered": 8918,
    "infected": 14324,
    "id": "C6S76AggdWVU8G22jFHQ",
    "pop": 10650000,
    "country": "CZ",
    "longitude": 15.359413,
    "name": "Czechia",
    "latitude": 49.731626,
    "dead": 360,
    "lastUpdated": "2020-07-22T13:16:03.292Z",
    "sick": 5046,
    "invisible": false
  },
  {
    "recovered": 33455,
    "infected": 37316,
    "id": "C7cj4nwRITs13KnaJrQ2",
    "pop": 1493000,
    "country": "BH",
    "longitude": 50.557701,
    "name": "Bahrain",
    "latitude": 26.0667,
    "dead": 130,
    "lastUpdated": "2020-07-22T13:16:03.291Z",
    "sick": 3731,
    "invisible": false
  },
  {
    "lastUpdated": "2020-07-22T13:21:13.825Z",
    "recovered": 802,
    "infected": 1658,
    "id": "CA9LaAl3bNaeAqBuozn4",
    "pop": 1285400,
    "country": "CO",
    "longitude": -74.4057,
    "name": "Magdalena",
    "latitude": 10.4113,
    "dead": 168,
    "sick": 688,
    "invisible": false
  },
  {
    "lastUpdated": "2020-07-22T13:02:09.499Z",
    "recovered": 0,
    "infected": 9300,
    "id": "CCUFp4urvgXPo5unfMGy",
    "pop": 3073500,
    "country": "MX",
    "longitude": -101.430756,
    "name": "Coahuila",
    "latitude": 26.909979,
    "dead": 487,
    "sick": 8813,
    "invisible": false
  },
  {
    "name": "Rajasthan",
    "latitude": 27.0238,
    "dead": 581,
    "lastUpdated": "2020-07-22T13:11:01.452Z",
    "recovered": 22889,
    "infected": 31599,
    "id": "CKZCZTPlrcq5fbfUPA9k",
    "pop": 68890000,
    "country": "IN",
    "longitude": 74.2179,
    "sick": 8129,
    "invisible": false
  },
  {
    "longitude": 86.2199,
    "name": "Altai",
    "latitude": 50.6182,
    "dead": 1,
    "lastUpdated": "2020-07-22T13:00:07.768Z",
    "recovered": 854,
    "infected": 1331,
    "id": "CX8z9U1iABNBhc1VK2Dy",
    "pop": 218000,
    "country": "RU",
    "sick": 476,
    "invisible": false
  },
  {
    "longitude": -88.9053,
    "name": "El Salvador",
    "latitude": 13.803,
    "dead": 363,
    "lastUpdated": "2020-07-22T13:16:03.292Z",
    "recovered": 7119,
    "infected": 12975,
    "id": "Cgvmtle61ehMvCzRzYx7",
    "pop": 6378000,
    "country": "SV",
    "sick": 5493,
    "invisible": false
  },
  {
    "latitude": 62.6643,
    "dead": 7,
    "lastUpdated": "2020-07-22T13:00:07.768Z",
    "recovered": 794,
    "infected": 1186,
    "id": "D4WkbqyUXY1pazbOxfKx",
    "pop": 144000,
    "country": "RU",
    "longitude": 153.915,
    "name": "Magadan Oblast",
    "sick": 385,
    "invisible": false
  },
  {
    "id": "DAp3PFow4BuCMYWWTo3i",
    "pop": 1078000,
    "country": "RU",
    "longitude": 82.6765,
    "name": "Tomsk Oblast",
    "latitude": 58.897,
    "dead": 28,
    "lastUpdated": "2020-07-22T13:00:07.766Z",
    "recovered": 2092,
    "infected": 3661,
    "sick": 1541,
    "invisible": false
  },
  {
    "lastUpdated": "2020-07-22T13:16:03.291Z",
    "recovered": 24766,
    "infected": 35693,
    "id": "DCJCtZoBTWQ4mzdDNljD",
    "pop": 2973000,
    "country": "AM",
    "longitude": 44.818474,
    "name": "Armenia",
    "latitude": 40.259003,
    "dead": 678,
    "sick": 10249,
    "invisible": false
  },
  {
    "name": "Boyacá",
    "latitude": 5.535,
    "dead": 22,
    "lastUpdated": "2020-07-22T13:21:13.825Z",
    "recovered": 350,
    "infected": 659,
    "id": "DJJraANgQbEqz1wBBtZz",
    "pop": 1278000,
    "country": "CO",
    "longitude": -73.368,
    "sick": 287,
    "invisible": false
  },
  {
    "longitude": 44.0684,
    "name": "Mordovia",
    "latitude": 54.2369,
    "dead": 32,
    "lastUpdated": "2020-07-22T13:00:07.766Z",
    "recovered": 3087,
    "infected": 4192,
    "id": "DKwy7USk22oXUQGEvO42",
    "pop": 834000,
    "country": "RU",
    "sick": 1073,
    "invisible": false
  },
  {
    "lastUpdated": "2020-07-22T12:13:21.155Z",
    "recovered": 0,
    "infected": 44410,
    "state": "EN",
    "id": "DPwBt2aJuwF0O71vwfM9",
    "pop": 7300000,
    "country": "GB",
    "longitude": -2.5945,
    "name": "North West",
    "latitude": 53.6221,
    "dead": 0,
    "sick": 44410,
    "invisible": false
  },
  {
    "lastUpdated": "2020-07-22T13:16:03.302Z",
    "recovered": 137,
    "infected": 153,
    "id": "DZyTD0Mu5WIcK6yTcJ91",
    "pop": 65440,
    "country": "BM",
    "longitude": -64.75737,
    "name": "Bermuda",
    "latitude": 32.3213844,
    "dead": 9,
    "sick": 7,
    "invisible": false
  },
  {
    "name": "Turks and Caicos",
    "latitude": 21.694,
    "dead": 2,
    "lastUpdated": "2020-07-22T13:16:03.304Z",
    "recovered": 22,
    "infected": 81,
    "id": "DaMrRSIGJXIG36nW0Pnc",
    "pop": 35446,
    "country": "TC",
    "longitude": -71.7979,
    "sick": 57,
    "invisible": false
  },
  {
    "name": "Castilla La Mancha",
    "latitude": 39.2796,
    "dead": 3033,
    "lastUpdated": "2020-07-21T23:18:21.053Z",
    "recovered": 6392,
    "infected": 27118,
    "state": "CM",
    "id": "Dbng0NBTH41EEwBxhMzE",
    "pop": 2035000,
    "country": "ES",
    "longitude": -3.0977,
    "sick": 17693,
    "invisible": false
  },
  {
    "lastUpdated": "2020-07-22T13:03:09.850Z",
    "recovered": 0,
    "infected": 2646,
    "id": "DcQ3D0WkacXEbv6iznRB",
    "pop": 3361000,
    "country": "PL",
    "longitude": 20.006,
    "name": "Malopolskie",
    "latitude": 50.023,
    "dead": 49,
    "sick": 2597,
    "invisible": false
  },
  {
    "longitude": 113.551262,
    "name": "Macao",
    "latitude": 22.192039,
    "dead": 0,
    "lastUpdated": "2020-07-22T13:16:03.304Z",
    "recovered": 46,
    "infected": 46,
    "id": "DdBt8qsG6A3g92oOR3ow",
    "pop": 622567,
    "country": "MO",
    "sick": 0,
    "invisible": false
  },
  {
    "latitude": 25.467,
    "dead": 4,
    "lastUpdated": "2020-07-22T13:11:01.454Z",
    "recovered": 77,
    "infected": 514,
    "id": "Dh0O1vmhrVfmsCsfZCUg",
    "pop": 2651000,
    "country": "IN",
    "longitude": 91.3662,
    "name": "Meghalaya",
    "sick": 433,
    "invisible": false
  },
  {
    "recovered": 9288,
    "infected": 11778,
    "id": "DqzAhNFTJFQVm88ma21P",
    "pop": 4220000,
    "country": "RU",
    "longitude": 41.8259,
    "name": "Rostov Oblast",
    "latitude": 47.6853,
    "dead": 192,
    "lastUpdated": "2020-07-22T13:00:07.760Z",
    "sick": 2298,
    "invisible": false
  },
  {
    "state": "WY",
    "id": "DrGzziUglmBognCGY7R2",
    "pop": 577737,
    "country": "US",
    "longitude": -107.534868,
    "name": "Wyoming",
    "latitude": 42.962334,
    "dead": 25,
    "lastUpdated": "2020-07-22T13:17:02.669Z",
    "recovered": 0,
    "infected": 2238,
    "sick": 2213,
    "invisible": false
  },
  {
    "country": "GR",
    "longitude": 23.7275,
    "name": "Greece",
    "latitude": 37.9838,
    "dead": 197,
    "lastUpdated": "2020-07-22T13:16:03.295Z",
    "recovered": 1374,
    "infected": 4048,
    "id": "Dtr1lap1RpJpXJdXGJiW",
    "pop": 10740000,
    "sick": 2477,
    "invisible": false
  },
  {
    "id": "E8vIyXLVNtcY9dxLHICp",
    "pop": 2623000,
    "country": "RU",
    "longitude": 56.5872,
    "name": "Perm Krai",
    "latitude": 58.8232,
    "dead": 113,
    "lastUpdated": "2020-07-22T13:00:07.765Z",
    "recovered": 4073,
    "infected": 5211,
    "sick": 1025,
    "invisible": false
  },
  {
    "name": "Tyumen Oblast",
    "latitude": 56.9634,
    "dead": 22,
    "lastUpdated": "2020-07-22T13:00:07.765Z",
    "recovered": 3367,
    "infected": 4987,
    "id": "EHKZ6ivhrJUs3XqNDBOw",
    "pop": 3692000,
    "country": "RU",
    "longitude": 66.9483,
    "sick": 1598,
    "invisible": false
  },
  {
    "name": "Taiwan",
    "latitude": 25.03841,
    "dead": 7,
    "lastUpdated": "2020-07-22T13:16:03.301Z",
    "recovered": 440,
    "infected": 455,
    "id": "EKTfs8e7M6DXzI1HqyyX",
    "pop": 23780000,
    "country": "TW",
    "longitude": 121.563698,
    "sick": 8,
    "invisible": false
  },
  {
    "name": "Costa Rica",
    "latitude": 10.327273,
    "dead": 68,
    "lastUpdated": "2020-07-22T13:16:03.293Z",
    "recovered": 3194,
    "infected": 11811,
    "id": "EQzJvzVHKjs8kLmK7BMu",
    "pop": 4906000,
    "country": "CR",
    "longitude": -84.387618,
    "sick": 8549,
    "invisible": false
  },
  {
    "recovered": 36504,
    "infected": 50465,
    "id": "ERwk9R9en4m9WbdoMbIg",
    "pop": 62700000,
    "country": "IN",
    "longitude": 71.1924,
    "name": "Gujarat",
    "latitude": 22.2587,
    "dead": 2200,
    "lastUpdated": "2020-07-22T13:11:01.451Z",
    "sick": 11761,
    "invisible": false
  },
  {
    "latitude": 63.2853,
    "dead": 133,
    "lastUpdated": "2020-07-22T13:00:07.761Z",
    "recovered": 6077,
    "infected": 8081,
    "id": "EVMBsgCJedjHy91mDYEC",
    "pop": 1155000,
    "country": "RU",
    "longitude": 42.5884,
    "name": "Arkhangelsk Oblast",
    "sick": 1871,
    "invisible": false
  },
  {
    "country": "IN",
    "longitude": 76.7794,
    "name": "Chandigarh",
    "latitude": 30.7333,
    "dead": 12,
    "lastUpdated": "2020-07-22T13:11:01.453Z",
    "recovered": 518,
    "infected": 751,
    "id": "Esl5UlCVB9s8pmGB5Ofr",
    "pop": 1055000,
    "sick": 221,
    "invisible": false
  },
  {
    "country": "PL",
    "longitude": 22.653,
    "name": "Lubelskie",
    "latitude": 51.24,
    "dead": 20,
    "lastUpdated": "2020-07-22T13:03:09.850Z",
    "recovered": 0,
    "infected": 891,
    "id": "Esy1La2CxwH5uB8bGVWZ",
    "pop": 2148000,
    "sick": 871,
    "invisible": false
  },
  {
    "infected": 13038,
    "recovered": 0,
    "pop": 3195000,
    "country": "US",
    "lastUpdated": "2020-07-22T13:17:02.669Z",
    "state": "PR",
    "id": "F4rPrEVGAIMM5rfPEMv4",
    "longitude": -66.664513,
    "name": "Puerto Rico",
    "alwaysShow": true,
    "dead": 185,
    "latitude": 18.200178,
    "sick": 12853,
    "invisible": false
  },
  {
    "longitude": -74.058655,
    "name": "Cundinamarca",
    "latitude": 4.862437,
    "dead": 145,
    "lastUpdated": "2020-07-22T13:21:13.824Z",
    "recovered": 2900,
    "infected": 6153,
    "id": "F7MED5VwEhi3JvJu6KjB",
    "pop": 2919000,
    "country": "CO",
    "sick": 3108,
    "invisible": false
  },
  {
    "name": "Comoros",
    "latitude": -11.6455,
    "dead": 7,
    "lastUpdated": "2020-07-22T13:16:03.302Z",
    "recovered": 319,
    "infected": 337,
    "id": "F8LnLqvuWoWh8awBqiw1",
    "pop": 832322,
    "country": "KM",
    "longitude": 43.3333,
    "sick": 11,
    "invisible": false
  },
  {
    "id": "FCDmlmnIIswd8bQiUjfN",
    "pop": 35530000,
    "country": "AF",
    "longitude": 67.709953,
    "name": "Afghanistan",
    "latitude": 33.93911,
    "dead": 1190,
    "lastUpdated": "2020-07-22T13:16:03.291Z",
    "recovered": 23924,
    "infected": 35727,
    "sick": 10613,
    "invisible": false
  },
  {
    "latitude": 29.431585,
    "dead": 6,
    "lastUpdated": "2020-07-22T13:23:10.185Z",
    "recovered": 576,
    "infected": 583,
    "id": "FErOU1m4Tj7jIkRam3vF",
    "pop": 30480000,
    "country": "CN",
    "longitude": 106.912254,
    "name": "Chongqing",
    "sick": 1,
    "invisible": false
  },
  {
    "latitude": 29.311661,
    "dead": 417,
    "lastUpdated": "2020-07-22T13:16:03.289Z",
    "recovered": 51520,
    "infected": 61185,
    "id": "FZsUkhxBEgqsPb4eO0PN",
    "pop": 4137000,
    "country": "KW",
    "longitude": 47.481766,
    "name": "Kuwait",
    "sick": 9248,
    "invisible": false
  },
  {
    "state": "SE",
    "id": "FboWeolpM62SZCLwdilT",
    "pop": 2278308,
    "country": "BR",
    "longitude": -37.0717,
    "name": "Sergipe",
    "latitude": -10.9111,
    "dead": 1182,
    "lastUpdated": "2020-07-22T13:27:01.944Z",
    "recovered": 0,
    "infected": 47110,
    "sick": 45928,
    "invisible": false
  },
  {
    "id": "FeS45oMNC27pI17F0xEV",
    "pop": 67860000,
    "country": "IN",
    "longitude": 78.6569,
    "name": "Tamil Nadu",
    "latitude": 11.1271,
    "dead": 2626,
    "lastUpdated": "2020-07-22T13:11:01.451Z",
    "recovered": 126670,
    "infected": 180643,
    "sick": 51347,
    "invisible": false
  },
  {
    "latitude": 18.947829,
    "dead": 999,
    "lastUpdated": "2020-07-22T13:16:03.290Z",
    "recovered": 25976,
    "infected": 54797,
    "id": "FuiVEJvWb0QMCpxJ3563",
    "pop": 10770000,
    "country": "DO",
    "longitude": -70.430399,
    "name": "Dominican Republic",
    "sick": 27822,
    "invisible": false
  },
  {
    "longitude": 79.0193,
    "name": "Telengana",
    "latitude": 18.1124,
    "dead": 429,
    "lastUpdated": "2020-07-22T13:11:01.452Z",
    "recovered": 36385,
    "infected": 47704,
    "id": "FyC551oNwmENxbr9Yght",
    "pop": 35190000,
    "country": "IN",
    "sick": 10890,
    "invisible": false
  },
  {
    "lastUpdated": "2020-07-22T13:16:03.298Z",
    "recovered": 1556,
    "infected": 2058,
    "id": "FzIDXoqWnTI3nUfhPyT2",
    "pop": 5450000,
    "country": "SK",
    "longitude": 19.699,
    "name": "Slovakia",
    "latitude": 48.669,
    "dead": 28,
    "sick": 474,
    "invisible": false
  },
  {
    "latitude": 30.37532,
    "dead": 5677,
    "lastUpdated": "2020-07-22T13:16:03.288Z",
    "recovered": 210468,
    "infected": 267428,
    "id": "GAp7Wb6IMhdgbvEtMza9",
    "pop": 197000000,
    "country": "PK",
    "longitude": 69.345116,
    "name": "Pakistan",
    "sick": 51283,
    "invisible": false
  },
  {
    "latitude": 31.1471,
    "dead": 263,
    "lastUpdated": "2020-07-22T13:11:01.452Z",
    "recovered": 7389,
    "infected": 10889,
    "id": "GGru8cG08mANO8XDDUtZ",
    "pop": 27980000,
    "country": "IN",
    "longitude": 75.3412,
    "name": "Punjab",
    "sick": 3237,
    "invisible": false
  },
  {
    "lastUpdated": "2020-07-22T13:16:03.290Z",
    "recovered": 49964,
    "infected": 57498,
    "id": "GHzBIsHy2GiBc5JV2HMs",
    "pop": 9400000,
    "country": "AE",
    "longitude": 53.847816,
    "name": "United Arab Emirates",
    "latitude": 23.424076,
    "dead": 341,
    "sick": 7193,
    "invisible": false
  },
  {
    "lastUpdated": "2020-07-22T13:17:02.670Z",
    "recovered": 0,
    "infected": 103,
    "id": "GLViSIjDjwvptOphedAu",
    "country": "US",
    "longitude": -95.7129,
    "invisible": true,
    "name": "Grand Princess",
    "latitude": 37.0902,
    "dead": 3,
    "sick": 100
  },
  {
    "name": "London",
    "latitude": 51.5074,
    "dead": 0,
    "lastUpdated": "2020-07-22T12:13:21.155Z",
    "recovered": 0,
    "infected": 34648,
    "state": "EN",
    "id": "GPtoS0Yy2EnNafpmmTqY",
    "pop": 10100000,
    "country": "GB",
    "longitude": -0.1278,
    "sick": 34648,
    "invisible": false
  },
  {
    "longitude": -119.339046,
    "name": "California",
    "latitude": 36.621981,
    "dead": 7891,
    "lastUpdated": "2020-07-22T13:17:02.659Z",
    "recovered": 0,
    "infected": 410176,
    "state": "CA",
    "id": "Gh46r6vuaY7fbGt3IboN",
    "pop": 39560000,
    "country": "US",
    "sick": 402285,
    "invisible": false
  },
  {
    "id": "GljWeVnun6o9DeW6rlEm",
    "pop": 343709,
    "country": "IN",
    "longitude": 72.8397,
    "name": "Dadra and Nagar Haveli",
    "latitude": 20.4283,
    "dead": 2,
    "lastUpdated": "2020-07-22T13:11:01.453Z",
    "recovered": 475,
    "infected": 739,
    "sick": 262,
    "invisible": false
  },
  {
    "latitude": 35.87189,
    "dead": 461,
    "lastUpdated": "2020-07-22T13:17:02.663Z",
    "recovered": 0,
    "infected": 27147,
    "state": "OK",
    "id": "GpF8ULuKOQiFDCUHN44h",
    "pop": 3943000,
    "country": "US",
    "longitude": -97.145514,
    "name": "Oklahoma",
    "sick": 26686,
    "invisible": false
  },
  {
    "lastUpdated": "2020-07-22T13:21:13.826Z",
    "recovered": 85,
    "infected": 171,
    "id": "Gr09a1wn3BnMqjQbgEun",
    "pop": 256627,
    "country": "CO",
    "longitude": -71.557,
    "name": "Arauca",
    "latitude": 6.492,
    "dead": 1,
    "sick": 85,
    "invisible": false
  },
  {
    "id": "GsecjBfopdgTOnyRgtCA",
    "pop": 1014000,
    "country": "RU",
    "longitude": 41.483,
    "name": "Ivanovo Oblast",
    "latitude": 57.1057,
    "dead": 65,
    "lastUpdated": "2020-07-22T13:00:07.763Z",
    "recovered": 4470,
    "infected": 6116,
    "sick": 1581,
    "invisible": false
  },
  {
    "recovered": 2294,
    "infected": 2685,
    "state": "BA",
    "id": "Gzx6GX1qhBm714BkEC6l",
    "pop": 520891,
    "country": "IT",
    "longitude": 11.35,
    "name": "P.A. Bolzano",
    "latitude": 46.5,
    "dead": 292,
    "lastUpdated": "2020-07-22T13:01:02.590Z",
    "sick": 99,
    "invisible": false
  },
  {
    "id": "H3JeVigVbo5CSYfZG4WI",
    "pop": 24710000,
    "country": "CN",
    "longitude": 113.750972,
    "name": "Inner Mongolia",
    "latitude": 42.83263,
    "dead": 1,
    "lastUpdated": "2020-07-22T13:23:10.184Z",
    "recovered": 240,
    "infected": 250,
    "sick": 9,
    "invisible": false
  },
  {
    "lastUpdated": "2020-07-22T13:17:02.663Z",
    "recovered": 0,
    "infected": 37528,
    "state": "NV",
    "id": "H3bDg4eV30up4WWrIDAS",
    "pop": 3034000,
    "country": "US",
    "longitude": -116.724977,
    "name": "Nevada",
    "latitude": 39.74536,
    "dead": 676,
    "sick": 36852,
    "invisible": false
  },
  {
    "name": "Ceará",
    "latitude": -3.731862,
    "dead": 7284,
    "lastUpdated": "2020-07-22T13:27:01.943Z",
    "recovered": 0,
    "infected": 148986,
    "state": "CE",
    "id": "HEMWNnFxeFEoeOCBOLJD",
    "pop": 9075649,
    "country": "BR",
    "longitude": -38.526669,
    "sick": 141702,
    "invisible": false
  },
  {
    "id": "HN5mGmxlqlSeFSNeu1K5",
    "pop": 64060000,
    "country": "IN",
    "longitude": 75.7139,
    "name": "Karnataka",
    "latitude": 15.3173,
    "dead": 1469,
    "lastUpdated": "2020-07-22T13:11:01.451Z",
    "recovered": 25460,
    "infected": 71069,
    "sick": 44140,
    "invisible": false
  },
  {
    "latitude": 27.5142,
    "dead": 0,
    "lastUpdated": "2020-07-22T13:16:03.304Z",
    "recovered": 83,
    "infected": 92,
    "id": "HRDpwyxpqW9RN0xLFyNu",
    "pop": 807610,
    "country": "BT",
    "longitude": 90.4336,
    "name": "Bhutan",
    "sick": 9,
    "invisible": false
  },
  {
    "latitude": 41.3775,
    "dead": 97,
    "lastUpdated": "2020-07-22T13:16:03.292Z",
    "recovered": 9554,
    "infected": 18324,
    "id": "HRTA10dtrruDEwjJEGMp",
    "pop": 32390000,
    "country": "UZ",
    "longitude": 64.5853,
    "name": "Uzbekistan",
    "sick": 8673,
    "invisible": false
  },
  {
    "country": "US",
    "longitude": -105.576255,
    "name": "New Mexico",
    "latitude": 34.138916,
    "dead": 588,
    "lastUpdated": "2020-07-22T13:17:02.664Z",
    "recovered": 0,
    "infected": 17517,
    "state": "NM",
    "id": "HSSFomRju0doHhWgW8On",
    "pop": 2095000,
    "sick": 16929,
    "invisible": false
  },
  {
    "longitude": -72.3311,
    "name": "Los Ríos",
    "latitude": -40.231,
    "dead": 13,
    "lastUpdated": "2020-07-22T13:20:04.775Z",
    "recovered": 0,
    "infected": 847,
    "id": "HZkACHjW7NlYjg8vEMj2",
    "pop": 412812,
    "country": "CL",
    "sick": 834,
    "invisible": false
  },
  {
    "latitude": 53.6127,
    "dead": 21,
    "lastUpdated": "2020-07-22T13:00:03.794Z",
    "recovered": 786,
    "infected": 813,
    "state": "MV",
    "id": "He1gSS1v50t06i3YrqvB",
    "pop": 1635000,
    "country": "DE",
    "longitude": 12.4296,
    "name": "Mecklenburg-Vorpommern",
    "sick": 6,
    "invisible": false
  },
  {
    "state": "65",
    "id": "I9EqrZfbPnkioNU4wZGz",
    "pop": 1315000,
    "country": "IT",
    "longitude": 13.75,
    "name": "Abruzzo",
    "latitude": 42.25,
    "dead": 470,
    "lastUpdated": "2020-07-22T13:01:02.581Z",
    "recovered": 2758,
    "infected": 3344,
    "sick": 116,
    "invisible": false
  },
  {
    "id": "IAX0OQLVnUwU7FX0ENF1",
    "pop": 113460000,
    "country": "CN",
    "longitude": 113.373448,
    "name": "Guangdong",
    "latitude": 23.363855,
    "dead": 8,
    "lastUpdated": "2020-07-22T13:23:10.184Z",
    "recovered": 1637,
    "infected": 1661,
    "sick": 16,
    "invisible": false
  },
  {
    "id": "IFuMrMvSjoiX5agYvllh",
    "pop": 94000000,
    "country": "CN",
    "longitude": 113.484016,
    "name": "Henan",
    "latitude": 33.875408,
    "dead": 22,
    "lastUpdated": "2020-07-22T13:23:10.185Z",
    "recovered": 1254,
    "infected": 1276,
    "sick": 0,
    "invisible": false
  },
  {
    "latitude": 37.2,
    "dead": 15,
    "lastUpdated": "2020-07-22T13:23:01.660Z",
    "recovered": 0,
    "infected": 792,
    "id": "IHqRHC8K3OZPN8gniM7V",
    "pop": 451000,
    "country": "PT",
    "longitude": -8.16667,
    "name": "Algarve",
    "sick": 777,
    "invisible": false
  },
  {
    "id": "IKWjRUo0SYgHQKdWjTvq",
    "pop": 333194,
    "country": "CO",
    "longitude": -77.0197,
    "name": "Buenaventura D.E.",
    "latitude": 3.883,
    "dead": 126,
    "lastUpdated": "2020-07-22T13:21:13.826Z",
    "recovered": 1323,
    "infected": 1925,
    "sick": 476,
    "invisible": false
  },
  {
    "recovered": 0,
    "infected": 22682,
    "state": "EN",
    "id": "INyu1R48Ppv8cfW4Nuz4",
    "pop": 4811000,
    "country": "GB",
    "longitude": -0.995,
    "name": "East Midlands",
    "latitude": 52.87,
    "dead": 0,
    "lastUpdated": "2020-07-22T12:13:21.154Z",
    "sick": 22682,
    "invisible": false
  },
  {
    "name": "Aguascalientes",
    "latitude": 22.017,
    "dead": 236,
    "lastUpdated": "2020-07-22T13:02:09.500Z",
    "recovered": 0,
    "infected": 4442,
    "id": "ISRKMzEDojyrZ9iyWwex",
    "pop": 1342600,
    "country": "MX",
    "longitude": -102.317,
    "sick": 4206,
    "invisible": false
  },
  {
    "latitude": 25.686613,
    "dead": 834,
    "lastUpdated": "2020-07-22T13:02:09.500Z",
    "recovered": 0,
    "infected": 25478,
    "id": "IdKbgzgKLpjBFh4UPOwu",
    "pop": 5321300,
    "country": "MX",
    "longitude": -100.316116,
    "name": "Nuevo León",
    "sick": 24644,
    "invisible": false
  },
  {
    "recovered": 0,
    "infected": 6841,
    "id": "IhhiYI6T0TX4CYVPcnmH",
    "pop": 3826900,
    "country": "MX",
    "longitude": -106.069099,
    "name": "Chihuahua",
    "latitude": 28.632996,
    "dead": 825,
    "lastUpdated": "2020-07-22T13:02:09.498Z",
    "sick": 6016,
    "invisible": false
  },
  {
    "longitude": -72.57,
    "name": "Ñuble",
    "latitude": -36.7,
    "dead": 54,
    "lastUpdated": "2020-07-22T13:20:04.774Z",
    "recovered": 0,
    "infected": 3273,
    "id": "ImnOiVx9Cb8Nw7cbRcQ7",
    "pop": 480600,
    "country": "CL",
    "sick": 3219,
    "invisible": false
  },
  {
    "lastUpdated": "2020-07-22T13:16:03.294Z",
    "recovered": 4095,
    "infected": 7146,
    "id": "InZ38sIqyK7FN7XAOZoX",
    "pop": 10980000,
    "country": "HT",
    "longitude": -73.0513,
    "name": "Haiti",
    "latitude": 19.0558,
    "dead": 154,
    "sick": 2897,
    "invisible": false
  },
  {
    "latitude": 32.528564,
    "dead": 3254,
    "lastUpdated": "2020-07-22T13:17:02.660Z",
    "recovered": 0,
    "infected": 148988,
    "state": "GA",
    "id": "IvQkDJkTAsoIqPRAU25n",
    "pop": 10520000,
    "country": "US",
    "longitude": -83.280125,
    "name": "Georgia (US)",
    "sick": 145734,
    "invisible": false
  },
  {
    "latitude": -42.8285,
    "dead": 22,
    "lastUpdated": "2020-07-22T13:16:03.298Z",
    "recovered": 1506,
    "infected": 1555,
    "id": "IvVhpOoGpH6JVkGyUhXN",
    "pop": 4794000,
    "country": "NZ",
    "longitude": 172.488081,
    "name": "New Zealand",
    "sick": 27,
    "invisible": false
  },
  {
    "longitude": 94.7278,
    "name": "Arunachal Pradesh",
    "latitude": 28.218,
    "dead": 3,
    "lastUpdated": "2020-07-22T13:11:01.453Z",
    "recovered": 303,
    "infected": 858,
    "id": "IwYKiIVY18NGwdGQFGWW",
    "pop": 1255000,
    "country": "IN",
    "sick": 552,
    "invisible": false
  },
  {
    "id": "J3mZXlfEnnJx4CDZLvRG",
    "pop": 28870000,
    "country": "VE",
    "longitude": -66.5897,
    "name": "Venezuela",
    "latitude": 6.4238,
    "dead": 120,
    "lastUpdated": "2020-07-22T13:16:03.293Z",
    "recovered": 6983,
    "infected": 12774,
    "sick": 5671,
    "invisible": false
  },
  {
    "latitude": 2.567,
    "dead": 0,
    "lastUpdated": "2020-07-22T13:21:13.826Z",
    "recovered": 39,
    "infected": 50,
    "id": "JEMCwkwXK39jd1lZ7VgJ",
    "pop": 107932,
    "country": "CO",
    "longitude": -72.633,
    "name": "Guaviare",
    "sick": 11,
    "invisible": false
  },
  {
    "recovered": 1944,
    "infected": 2436,
    "id": "JOJVBvOnsLDJPVeYJaI2",
    "pop": 453000,
    "country": "RU",
    "longitude": 40.1754,
    "name": "Adygea",
    "latitude": 44.8229,
    "dead": 17,
    "lastUpdated": "2020-07-22T13:00:07.767Z",
    "sick": 475,
    "invisible": false
  },
  {
    "lastUpdated": "2020-07-22T13:16:03.299Z",
    "recovered": 847,
    "infected": 1040,
    "id": "JQByE4l2OA6sGOqIcWrM",
    "pop": 1170000,
    "country": "CY",
    "longitude": 33.4299,
    "name": "Cyprus",
    "latitude": 35.1264,
    "dead": 19,
    "sick": 174,
    "invisible": false
  },
  {
    "latitude": 25.0961,
    "dead": 198,
    "lastUpdated": "2020-07-22T13:11:01.452Z",
    "recovered": 18741,
    "infected": 28564,
    "id": "JR7hOGked7CZtIs2nCV5",
    "pop": 99020000,
    "country": "IN",
    "longitude": 85.3131,
    "name": "Bihar",
    "sick": 9625,
    "invisible": false
  },
  {
    "latitude": 14.628434,
    "dead": 1531,
    "lastUpdated": "2020-07-22T13:16:03.290Z",
    "recovered": 26685,
    "infected": 40229,
    "id": "JUWE6bG3b5oL7fKQMSvv",
    "pop": 17250000,
    "country": "GT",
    "longitude": -90.522713,
    "name": "Guatemala",
    "sick": 12013,
    "invisible": false
  },
  {
    "id": "JcFsHSn2WvZ5LJW42ovG",
    "pop": 602005,
    "country": "LU",
    "longitude": 6.1296,
    "name": "Luxembourg",
    "latitude": 49.8153,
    "dead": 111,
    "lastUpdated": "2020-07-22T13:16:03.295Z",
    "recovered": 4479,
    "infected": 5725,
    "sick": 1135,
    "invisible": false
  },
  {
    "id": "JmOyaFe25yZCIV64JbZj",
    "pop": 2049000,
    "country": "CO",
    "longitude": -74.167,
    "name": "Bolívar",
    "latitude": 8.8,
    "dead": 84,
    "lastUpdated": "2020-07-22T13:21:13.825Z",
    "recovered": 984,
    "infected": 1806,
    "sick": 738,
    "invisible": false
  },
  {
    "longitude": -115.783,
    "name": "Baja California",
    "latitude": 31.4,
    "dead": 2424,
    "lastUpdated": "2020-07-22T13:02:09.498Z",
    "recovered": 0,
    "infected": 12155,
    "id": "Jp9ePErcc8i1aOozEAMf",
    "pop": 3648100,
    "country": "MX",
    "sick": 9731,
    "invisible": false
  },
  {
    "latitude": 8.7479801,
    "dead": 338,
    "lastUpdated": "2020-07-22T13:21:13.825Z",
    "recovered": 742,
    "infected": 2967,
    "id": "Jr8syCB0lydmPDXw8Q6N",
    "pop": 1786500,
    "country": "CO",
    "longitude": -75.8814316,
    "name": "Córdoba",
    "sick": 1887,
    "invisible": false
  },
  {
    "longitude": 0.8248,
    "name": "Togo",
    "latitude": 8.6195,
    "dead": 15,
    "lastUpdated": "2020-07-22T13:16:03.300Z",
    "recovered": 560,
    "infected": 790,
    "id": "JrBbirlBKGdWSdcDt7PF",
    "pop": 7798000,
    "country": "TG",
    "sick": 215,
    "invisible": false
  },
  {
    "recovered": 4521,
    "infected": 9254,
    "id": "JzZ8sbqzjutThVjkPKPL",
    "pop": 7050000,
    "country": "BG",
    "longitude": 25.4858,
    "name": "Bulgaria",
    "latitude": 42.7339,
    "dead": 313,
    "lastUpdated": "2020-07-22T13:16:03.294Z",
    "sick": 4420,
    "invisible": false
  },
  {
    "lastUpdated": "2020-07-22T13:03:09.850Z",
    "recovered": 0,
    "infected": 926,
    "id": "KGrK7gafkeWjmU6sHQd2",
    "pop": 1263000,
    "country": "PL",
    "longitude": 20.709,
    "name": "Świętokrzyskie",
    "latitude": 50.823,
    "dead": 45,
    "sick": 881,
    "invisible": false
  },
  {
    "lastUpdated": "2020-07-22T13:00:07.760Z",
    "recovered": 12921,
    "infected": 18484,
    "id": "KLBR5QHW6DePaGcFxlqH",
    "pop": 4325000,
    "country": "RU",
    "longitude": 61.9316,
    "name": "Sverdlovsk Oblast",
    "latitude": 59.0077,
    "dead": 210,
    "sick": 5353,
    "invisible": false
  },
  {
    "name": "Liguria",
    "latitude": 44.5,
    "dead": 1565,
    "lastUpdated": "2020-07-22T13:01:02.589Z",
    "recovered": 8362,
    "infected": 10117,
    "state": "42",
    "id": "KLXicxFogWnu0dLp4bNK",
    "pop": 1557000,
    "country": "IT",
    "longitude": 8.833,
    "sick": 190,
    "invisible": false
  },
  {
    "latitude": 56.4385,
    "dead": 31,
    "lastUpdated": "2020-07-22T13:00:07.766Z",
    "recovered": 3009,
    "infected": 3574,
    "id": "KUnAVGJH6fLwFetE8A2x",
    "pop": 682000,
    "country": "RU",
    "longitude": 47.9608,
    "name": "Mari El Republic",
    "sick": 534,
    "invisible": false
  },
  {
    "latitude": 10.4631,
    "dead": 41,
    "lastUpdated": "2020-07-22T13:21:13.825Z",
    "recovered": 1153,
    "infected": 2126,
    "id": "KpOz3WmiZkrXUMlUJNlV",
    "pop": 1201000,
    "country": "CO",
    "longitude": -73.2532,
    "name": "Cesar",
    "sick": 932,
    "invisible": false
  },
  {
    "name": "Toscana",
    "latitude": 43.4167,
    "dead": 1131,
    "lastUpdated": "2020-07-22T13:01:02.592Z",
    "recovered": 8927,
    "infected": 10384,
    "state": "52",
    "id": "KrLrJbpDqqiXgUPGCCW9",
    "pop": 3737000,
    "country": "IT",
    "longitude": 11,
    "sick": 326,
    "invisible": false
  },
  {
    "latitude": 7.873054,
    "dead": 11,
    "lastUpdated": "2020-07-22T13:16:03.297Z",
    "recovered": 2064,
    "infected": 2730,
    "id": "KsWzJO06cf0d6LJ4ZNh9",
    "pop": 21440000,
    "country": "LK",
    "longitude": 80.771797,
    "name": "Sri Lanka",
    "sick": 655,
    "invisible": false
  },
  {
    "name": "Andhra Pradesh",
    "latitude": 15.9129,
    "dead": 808,
    "lastUpdated": "2020-07-22T12:11:01.822Z",
    "recovered": 29959,
    "infected": 64762,
    "id": "KtQIo2DoqjELtPAlyDVO",
    "pop": 49670000,
    "country": "IN",
    "longitude": 79.74,
    "sick": 33995,
    "invisible": false
  },
  {
    "name": "Saint-Martin",
    "alwaysShow": true,
    "latitude": 18.0708,
    "dead": 3,
    "lastUpdated": "2020-07-22T13:16:03.304Z",
    "recovered": 39,
    "infected": 46,
    "id": "LBUtrLDKJiupXjlUNTUe",
    "pop": 32125,
    "country": "FR",
    "longitude": -63.0501,
    "sick": 4,
    "invisible": false
  },
  {
    "longitude": 36.9242,
    "name": "Oryol Oblast",
    "latitude": 52.7856,
    "dead": 80,
    "lastUpdated": "2020-07-22T13:00:07.765Z",
    "recovered": 4014,
    "infected": 5403,
    "id": "LD8TNScpLrLRvgpQAn9T",
    "pop": 747000,
    "country": "RU",
    "sick": 1309,
    "invisible": false
  },
  {
    "longitude": 9.5554,
    "name": "Liechtenstein",
    "latitude": 47.166,
    "dead": 1,
    "lastUpdated": "2020-07-22T13:16:03.304Z",
    "recovered": 81,
    "infected": 86,
    "id": "LTGEU2E9MFkrCcFhZYVk",
    "pop": 38557,
    "country": "LI",
    "sick": 4,
    "invisible": false
  },
  {
    "recovered": 5771,
    "infected": 6652,
    "id": "LU2QWt5ao8IJa8evNYVV",
    "pop": 12720000,
    "country": "GN",
    "longitude": -9.6966,
    "name": "Guinea",
    "latitude": 9.9456,
    "dead": 41,
    "lastUpdated": "2020-07-22T13:16:03.294Z",
    "sick": 840,
    "invisible": false
  },
  {
    "country": "MX",
    "longitude": -110.5,
    "name": "Sonora",
    "latitude": 29.6667,
    "dead": 1524,
    "lastUpdated": "2020-07-22T13:02:09.499Z",
    "recovered": 0,
    "infected": 15676,
    "id": "LYCBHrA9ms6GcxpLGPCT",
    "pop": 3062000,
    "sick": 14152,
    "invisible": false
  },
  {
    "id": "LglKINHyQpYpFxjckbQ6",
    "pop": 563402,
    "country": "SR",
    "longitude": -56.0277824,
    "name": "Suriname",
    "latitude": 3.9193051,
    "dead": 21,
    "lastUpdated": "2020-07-22T13:16:03.299Z",
    "recovered": 705,
    "infected": 1131,
    "sick": 405,
    "invisible": false
  },
  {
    "recovered": 813,
    "infected": 970,
    "state": "SK",
    "id": "LkIDKY0CMAqzbwBHyYCP",
    "pop": 1174000,
    "country": "CA",
    "longitude": -106.4509,
    "name": "Saskatchewan",
    "latitude": 52.9399,
    "dead": 15,
    "lastUpdated": "2020-07-22T13:07:09.461Z",
    "sick": 142,
    "invisible": false
  },
  {
    "latitude": 24.2155,
    "dead": 1,
    "lastUpdated": "2020-07-22T13:16:03.312Z",
    "recovered": 8,
    "infected": 10,
    "id": "LooNn6RuMiDhQnwa9svw",
    "pop": 636442,
    "country": "EH",
    "longitude": -12.8858,
    "name": "Western Sahara",
    "sick": 1,
    "invisible": false
  },
  {
    "lastUpdated": "2020-07-21T23:20:29.705Z",
    "recovered": 1063,
    "infected": 3432,
    "state": "AS",
    "id": "Lsga7AvYNnY0qQ5gEfV8",
    "pop": 1022000,
    "country": "ES",
    "longitude": -5.951843,
    "name": "Principado de Asturias",
    "latitude": 43.363129,
    "dead": 334,
    "sick": 2035,
    "invisible": false
  },
  {
    "latitude": 39.4937,
    "dead": 519,
    "lastUpdated": "2020-07-21T23:19:30.822Z",
    "recovered": 2652,
    "infected": 4279,
    "state": "EX",
    "id": "LuEErlF7dVKI0eJsRjFm",
    "pop": 1065000,
    "country": "ES",
    "longitude": -6.0679,
    "name": "Extremadura",
    "sick": 1108,
    "invisible": false
  },
  {
    "id": "M3wdiueFtwrUHiQ2rOXA",
    "pop": 5965000,
    "country": "MX",
    "longitude": -101.2591,
    "name": "Guanajuato",
    "latitude": 21.0186,
    "dead": 1025,
    "lastUpdated": "2020-07-22T13:02:09.499Z",
    "recovered": 0,
    "infected": 17384,
    "sick": 16359,
    "invisible": false
  },
  {
    "state": "KY",
    "id": "MC8MXFw9iXYybnF8v7e6",
    "pop": 4468000,
    "country": "US",
    "longitude": -84.27,
    "name": "Kentucky",
    "latitude": 37.8393,
    "dead": 674,
    "lastUpdated": "2020-07-22T13:17:02.664Z",
    "recovered": 0,
    "infected": 24060,
    "sick": 23386,
    "invisible": false
  },
  {
    "longitude": -3.436,
    "invisible": true,
    "name": "Unknown UK region or state",
    "latitude": 55.3781,
    "dead": 40828,
    "lastUpdated": "2020-07-22T12:13:21.156Z",
    "recovered": 0,
    "infected": 8380,
    "id": "MEjlm8VYdGA28TTTnQmf",
    "country": "GB",
    "sick": 0
  },
  {
    "latitude": 41.3006,
    "dead": 827,
    "lastUpdated": "2020-07-22T13:23:01.660Z",
    "recovered": 0,
    "infected": 18372,
    "id": "MG4e9tulLJ010SZJvbYN",
    "pop": 3689000,
    "country": "PT",
    "longitude": -7.7441,
    "name": "Norte",
    "sick": 17545,
    "invisible": false
  },
  {
    "country": "GB",
    "longitude": -4.2026,
    "name": "Scotland",
    "latitude": 56.4907,
    "dead": 2491,
    "lastUpdated": "2020-07-22T12:13:21.154Z",
    "recovered": 0,
    "infected": 18474,
    "state": "SC",
    "id": "MObRYyIriHG337L8FyFC",
    "pop": 5450000,
    "sick": 15983,
    "invisible": false
  },
  {
    "recovered": 0,
    "infected": 57916,
    "state": "IN",
    "id": "MOxDkmQ4wBi1CuAdVxDE",
    "pop": 6692000,
    "country": "US",
    "longitude": -86.1349,
    "name": "Indiana",
    "latitude": 40.2672,
    "dead": 2846,
    "lastUpdated": "2020-07-22T13:17:02.661Z",
    "sick": 55070,
    "invisible": false
  },
  {
    "latitude": 7.54,
    "dead": 93,
    "lastUpdated": "2020-07-22T13:16:03.292Z",
    "recovered": 8857,
    "infected": 14531,
    "id": "MdQOfc1gNh2DOqwSP6UV",
    "pop": 24290000,
    "country": "CI",
    "longitude": -5.5471,
    "name": "Ivory Coast",
    "sick": 5581,
    "invisible": false
  },
  {
    "lastUpdated": "2020-07-22T13:00:03.795Z",
    "recovered": 42707,
    "infected": 46501,
    "state": "NW",
    "id": "MjpYq3zQyAvSQlVVYjD2",
    "pop": 17910000,
    "country": "DE",
    "longitude": 7.6616,
    "name": "Nordrhein-Westfalen",
    "latitude": 51.4332,
    "dead": 1732,
    "sick": 2062,
    "invisible": false
  },
  {
    "id": "MntmjjuHljarCdt6aIeE",
    "pop": 6301000,
    "country": "CN",
    "longitude": 105.977203,
    "name": "Ningxia",
    "latitude": 37.330509,
    "dead": 0,
    "lastUpdated": "2020-07-22T13:23:10.186Z",
    "recovered": 75,
    "infected": 75,
    "sick": 0,
    "invisible": false
  },
  {
    "recovered": 0,
    "infected": 140388,
    "state": "PA",
    "id": "MuEB2UgkId5crsxi9zQT",
    "pop": 8513497,
    "country": "BR",
    "longitude": -52.203499186,
    "name": "Pará",
    "latitude": -3.20166586,
    "dead": 5553,
    "lastUpdated": "2020-07-22T13:27:01.943Z",
    "sick": 134835,
    "invisible": false
  },
  {
    "id": "N0KGfqgROVOjAxWcd8wi",
    "pop": 1150000,
    "country": "RU",
    "longitude": 39.2032,
    "name": "Lipetsk Oblast",
    "latitude": 52.5265,
    "dead": 20,
    "lastUpdated": "2020-07-22T13:00:07.765Z",
    "recovered": 3425,
    "infected": 4435,
    "sick": 990,
    "invisible": false
  },
  {
    "longitude": 9.3501,
    "name": "Baden-Württemberg",
    "latitude": 48.6616,
    "dead": 1896,
    "lastUpdated": "2020-07-22T13:00:03.788Z",
    "recovered": 34041,
    "infected": 36927,
    "state": "BW",
    "id": "N3XsRBwJSsNclkEf7Zz5",
    "pop": 11020000,
    "country": "DE",
    "sick": 990,
    "invisible": false
  },
  {
    "name": "Bosnia and Herzegovina",
    "latitude": 44.696652,
    "dead": 268,
    "lastUpdated": "2020-07-22T13:16:03.294Z",
    "recovered": 4159,
    "infected": 9115,
    "id": "N7c13sCQF0G789XAVazJ",
    "pop": 3507000,
    "country": "BA",
    "longitude": 17.824332,
    "sick": 4688,
    "invisible": false
  },
  {
    "latitude": 37.242565,
    "dead": 0,
    "lastUpdated": "2020-07-22T13:23:10.185Z",
    "recovered": 200,
    "infected": 201,
    "id": "NBRIGIRrJB1Ry8prDNAC",
    "pop": 36500000,
    "country": "CN",
    "longitude": 111.856857,
    "name": "Shanxi",
    "sick": 1,
    "invisible": false
  },
  {
    "lastUpdated": "2020-07-22T13:17:02.660Z",
    "recovered": 0,
    "infected": 102920,
    "state": "NC",
    "id": "NC64Qp5kTqAfiTuR27k8",
    "pop": 10380000,
    "country": "US",
    "longitude": -79.0193,
    "name": "North Carolina",
    "latitude": 35.7596,
    "dead": 1699,
    "sick": 101221,
    "invisible": false
  },
  {
    "lastUpdated": "2020-07-22T13:00:03.793Z",
    "recovered": 3280,
    "infected": 3553,
    "state": "BB",
    "id": "NJjo2gfBvnbK4xatrsUz",
    "pop": 2504000,
    "country": "DE",
    "longitude": 12.5316,
    "name": "Brandenburg",
    "latitude": 52.4125,
    "dead": 177,
    "sick": 96,
    "invisible": false
  },
  {
    "lastUpdated": "2020-07-22T13:17:02.669Z",
    "state": "MP",
    "id": "NLLL6pJhJSw0lrDMD4uP",
    "longitude": 145.6739,
    "name": "Northern Mariana Islands",
    "alwaysShow": true,
    "dead": 2,
    "latitude": 15.0979,
    "infected": 38,
    "recovered": 0,
    "pop": 55144,
    "country": "US",
    "sick": 36,
    "invisible": false
  },
  {
    "id": "NMeZEcGToxXfpi16PfFV",
    "pop": 10080000,
    "country": "IN",
    "longitude": 79.0193,
    "name": "Uttarakhand",
    "latitude": 30.0668,
    "dead": 55,
    "lastUpdated": "2020-07-22T13:11:01.453Z",
    "recovered": 3297,
    "infected": 4849,
    "sick": 1497,
    "invisible": false
  },
  {
    "longitude": 9.1624,
    "name": "Hessen",
    "latitude": 50.6521,
    "dead": 522,
    "lastUpdated": "2020-07-22T13:00:03.794Z",
    "recovered": 10579,
    "infected": 11495,
    "state": "HE",
    "id": "Nk5vPgUIXsWVfbWZf15O",
    "pop": 6243000,
    "country": "DE",
    "sick": 394,
    "invisible": false
  },
  {
    "lastUpdated": "2020-07-22T13:16:03.299Z",
    "recovered": 1045,
    "infected": 1197,
    "id": "NmmMKy0YqA8StHdGzB5N",
    "pop": 1920000,
    "country": "LV",
    "longitude": 25.837107,
    "name": "Latvia",
    "latitude": 56.96776,
    "dead": 31,
    "sick": 121,
    "invisible": false
  },
  {
    "latitude": -8.472372,
    "dead": 6089,
    "lastUpdated": "2020-07-22T13:27:01.944Z",
    "recovered": 0,
    "infected": 80441,
    "state": "PE",
    "id": "NyGlFL1gATK1Omv9qtcC",
    "pop": 9496294,
    "country": "BR",
    "longitude": -37.946777,
    "name": "Pernambuco",
    "sick": 74352,
    "invisible": false
  },
  {
    "latitude": 6.4281,
    "dead": 70,
    "lastUpdated": "2020-07-22T13:16:03.299Z",
    "recovered": 575,
    "infected": 1108,
    "id": "O4g88K49HKEZLFXm5gxb",
    "pop": 4732000,
    "country": "LR",
    "longitude": -9.4295,
    "name": "Liberia",
    "sick": 463,
    "invisible": false
  },
  {
    "lastUpdated": "2020-07-22T13:00:07.761Z",
    "recovered": 5339,
    "infected": 7941,
    "id": "O5fNOGWKosps6JTrzkpn",
    "pop": 2350000,
    "country": "RU",
    "longitude": 82.6759,
    "name": "Altai Krai",
    "latitude": 51.7936,
    "dead": 57,
    "sick": 2545,
    "invisible": false
  },
  {
    "latitude": 53.0929,
    "dead": 47,
    "lastUpdated": "2020-07-22T13:00:07.766Z",
    "recovered": 3327,
    "infected": 3971,
    "id": "O6PDzAxKENYbLsLjPx2K",
    "pop": 1072000,
    "country": "RU",
    "longitude": 116.9677,
    "name": "Zabaykalsky Krai",
    "sick": 597,
    "invisible": false
  },
  {
    "latitude": 34.003307,
    "dead": 1221,
    "lastUpdated": "2020-07-22T13:17:02.661Z",
    "recovered": 0,
    "infected": 73337,
    "state": "SC",
    "id": "ONU4CK8QjViFHKg2w5if",
    "pop": 5084000,
    "country": "US",
    "longitude": -80.525613,
    "name": "South Carolina",
    "sick": 72116,
    "invisible": false
  },
  {
    "state": "MS",
    "id": "OYa0jFzdbAgo8zUsRv6q",
    "pop": 2987000,
    "country": "US",
    "longitude": -89.582775,
    "name": "Mississippi",
    "latitude": 33.51822,
    "dead": 1389,
    "lastUpdated": "2020-07-22T13:17:02.662Z",
    "recovered": 0,
    "infected": 45524,
    "sick": 44135,
    "invisible": false
  },
  {
    "latitude": 45.2538,
    "dead": 118,
    "lastUpdated": "2020-07-22T13:17:02.669Z",
    "recovered": 0,
    "infected": 3723,
    "state": "ME",
    "id": "OcXNp9kNVSwrRlG3bNVN",
    "pop": 1338000,
    "country": "US",
    "longitude": -69.4455,
    "name": "Maine",
    "sick": 3605,
    "invisible": false
  },
  {
    "name": "Ingushetia",
    "latitude": 43.4052,
    "dead": 72,
    "lastUpdated": "2020-07-22T13:00:07.766Z",
    "recovered": 2657,
    "infected": 3481,
    "id": "OlKS5SPydHY2TedStFuf",
    "pop": 488000,
    "country": "RU",
    "longitude": 44.8203,
    "sick": 752,
    "invisible": false
  },
  {
    "latitude": -41.915264,
    "dead": 13,
    "lastUpdated": "2020-07-22T12:43:28.443Z",
    "recovered": 215,
    "infected": 229,
    "state": "TAS",
    "id": "OnOseaqWdnuP18oruABW",
    "pop": 515000,
    "country": "AU",
    "longitude": 146.725256,
    "name": "Tasmania",
    "sick": 1,
    "invisible": false
  },
  {
    "latitude": -16.35,
    "dead": 1400,
    "lastUpdated": "2020-07-22T13:27:01.944Z",
    "recovered": 0,
    "infected": 37077,
    "state": "MT",
    "id": "P0GHFGUt1pkKTk5PM8uz",
    "pop": 3441998,
    "country": "BR",
    "longitude": -56.666668,
    "name": "Mato Grosso",
    "sick": 35677,
    "invisible": false
  },
  {
    "lastUpdated": "2020-07-22T13:00:07.765Z",
    "recovered": 4774,
    "infected": 5333,
    "id": "P2I90oqdFSoVk03AaGo4",
    "pop": 1378000,
    "country": "RU",
    "longitude": 40.5927,
    "name": "Vladimir Oblast",
    "latitude": 56.1553,
    "dead": 116,
    "sick": 443,
    "invisible": false
  },
  {
    "longitude": -81.2546,
    "name": "Cayman Islands",
    "latitude": 19.3133,
    "dead": 1,
    "lastUpdated": "2020-07-22T13:16:03.302Z",
    "recovered": 201,
    "infected": 203,
    "id": "P4mwRFLbrvT0t75uD8Wo",
    "pop": 61559,
    "country": "KY",
    "sick": 1,
    "invisible": false
  },
  {
    "id": "PEDkeFMTOZpvHiSVxBk7",
    "pop": 5900,
    "country": "MS",
    "longitude": -62.1873665,
    "name": "Montserrat",
    "latitude": 16.7424984,
    "dead": 1,
    "lastUpdated": "2020-07-22T13:16:03.312Z",
    "recovered": 10,
    "infected": 12,
    "sick": 1,
    "invisible": false
  },
  {
    "latitude": -1.9403,
    "dead": 5,
    "lastUpdated": "2020-07-22T13:16:03.298Z",
    "recovered": 848,
    "infected": 1655,
    "id": "PEcgZGEkyhABztt1Ufgc",
    "pop": 12210000,
    "country": "RW",
    "longitude": 29.8739,
    "name": "Rwanda",
    "sick": 802,
    "invisible": false
  },
  {
    "name": "Bashkortostan",
    "latitude": 54.2312,
    "dead": 21,
    "lastUpdated": "2020-07-22T13:00:07.762Z",
    "recovered": 4763,
    "infected": 6426,
    "id": "PHlHdeqYd6KgxsJGfEz0",
    "pop": 4063000,
    "country": "RU",
    "longitude": 56.1645,
    "sick": 1642,
    "invisible": false
  },
  {
    "lastUpdated": "2020-07-22T13:17:02.662Z",
    "recovered": 0,
    "infected": 47457,
    "state": "MN",
    "id": "PJvVYosLIhbcRZYnKX1R",
    "pop": 5611000,
    "country": "US",
    "longitude": -94.6859,
    "name": "Minnesota",
    "latitude": 46.7296,
    "dead": 1588,
    "sick": 45869,
    "invisible": false
  },
  {
    "name": "Illinois",
    "latitude": 40.6331,
    "dead": 7517,
    "lastUpdated": "2020-07-22T13:17:02.660Z",
    "recovered": 0,
    "infected": 164878,
    "state": "IL",
    "id": "PTwQr9ijo0TBBsPH2sdJ",
    "pop": 12740000,
    "country": "US",
    "longitude": -89.3985,
    "sick": 157361,
    "invisible": false
  },
  {
    "lastUpdated": "2020-07-22T13:16:03.311Z",
    "recovered": 19,
    "infected": 23,
    "id": "PjLqCeFdyzdZNcZxMkK1",
    "pop": 178844,
    "country": "LC",
    "longitude": -60.978893,
    "name": "Saint Lucia",
    "latitude": 13.909444,
    "dead": 0,
    "sick": 4,
    "invisible": false
  },
  {
    "recovered": 3905,
    "infected": 9113,
    "state": "NC",
    "id": "PmUlsNx2uFLU797wwU39",
    "pop": 649900,
    "country": "ES",
    "longitude": -1.6761,
    "name": "Comunidad Foral de Navarra",
    "latitude": 42.6954,
    "dead": 529,
    "lastUpdated": "2020-07-21T23:19:06.000Z",
    "sick": 4679,
    "invisible": false
  },
  {
    "id": "Pr76V4raf108uSRoEXac",
    "pop": 11530000,
    "country": "TN",
    "longitude": 9.460554,
    "name": "Tunisia",
    "latitude": 34.201507,
    "dead": 50,
    "lastUpdated": "2020-07-22T13:16:03.299Z",
    "recovered": 1103,
    "infected": 1389,
    "sick": 236,
    "invisible": false
  },
  {
    "recovered": 855,
    "infected": 1894,
    "id": "PuQgOd9KWiMzGZXm11sR",
    "pop": 1367000,
    "country": "SZ",
    "longitude": 31.4659,
    "name": "Eswatini",
    "latitude": -26.5225,
    "dead": 24,
    "lastUpdated": "2020-07-22T13:16:03.298Z",
    "sick": 1015,
    "invisible": false
  },
  {
    "name": "Victoria",
    "latitude": -37.009609,
    "dead": 44,
    "lastUpdated": "2020-07-22T12:43:28.443Z",
    "recovered": 3184,
    "infected": 6739,
    "state": "VIC",
    "id": "Q18mrGvFWTLX2BU9SqhQ",
    "pop": 6359000,
    "country": "AU",
    "longitude": 143.94853,
    "sick": 3511,
    "invisible": false
  },
  {
    "state": "SH",
    "id": "Q39XkabIYxt15mHINzTa",
    "pop": 2890000,
    "country": "DE",
    "longitude": 9.6961,
    "name": "Schleswig-Holstein",
    "latitude": 54.2194,
    "dead": 159,
    "lastUpdated": "2020-07-22T13:00:03.796Z",
    "recovered": 3052,
    "infected": 3279,
    "sick": 68,
    "invisible": false
  },
  {
    "lastUpdated": "2020-07-22T13:27:01.944Z",
    "recovered": 0,
    "infected": 49840,
    "state": "RS",
    "id": "QGpQNhuoVTUPHXvS7qcu",
    "pop": 11329605,
    "country": "BR",
    "longitude": -52.031696,
    "name": "Rio Grande do Sul",
    "latitude": -27.953491,
    "dead": 1349,
    "sick": 48491,
    "invisible": false
  },
  {
    "name": "Chuvashia",
    "latitude": 55.5596,
    "dead": 50,
    "lastUpdated": "2020-07-22T13:00:07.762Z",
    "recovered": 3430,
    "infected": 6352,
    "id": "QGyuno7Bc4kwuvGFgMiO",
    "pop": 1231000,
    "country": "RU",
    "longitude": 46.9284,
    "sick": 2872,
    "invisible": false
  },
  {
    "latitude": 58.595272,
    "dead": 69,
    "lastUpdated": "2020-07-22T13:16:03.298Z",
    "recovered": 1912,
    "infected": 2025,
    "id": "QR9go2hQKXjty7JHUYe4",
    "pop": 1328000,
    "country": "EE",
    "longitude": 25.013607,
    "name": "Estonia",
    "sick": 44,
    "invisible": false
  },
  {
    "name": "Komi Republic",
    "latitude": 63.8631,
    "dead": 40,
    "lastUpdated": "2020-07-22T13:00:07.765Z",
    "recovered": 2963,
    "infected": 4866,
    "id": "QTafh5fpbS8abcuyEjaL",
    "pop": 840000,
    "country": "RU",
    "longitude": 54.8313,
    "sick": 1863,
    "invisible": false
  },
  {
    "name": "Espírito Santo",
    "latitude": -20.318,
    "dead": 2280,
    "lastUpdated": "2020-07-22T13:27:01.944Z",
    "recovered": 0,
    "infected": 72601,
    "state": "ES",
    "id": "QaWDLKH8SuwD0Qxq6c38",
    "pop": 3972388,
    "country": "BR",
    "longitude": -40.336,
    "sick": 70321,
    "invisible": false
  },
  {
    "id": "Qh73PKA4KWeuPoqZfWXz",
    "pop": 795000,
    "country": "RU",
    "longitude": 35.0884,
    "name": "Murmansk Oblast",
    "latitude": 67.8443,
    "dead": 57,
    "lastUpdated": "2020-07-22T13:00:07.761Z",
    "recovered": 4655,
    "infected": 8799,
    "sick": 4087,
    "invisible": false
  },
  {
    "name": "Jalisco",
    "latitude": 20.3333,
    "dead": 1289,
    "lastUpdated": "2020-07-22T13:02:09.500Z",
    "recovered": 0,
    "infected": 23396,
    "id": "Qkho455pBwx88Gohs3hL",
    "pop": 8222700,
    "country": "MX",
    "longitude": -103.6667,
    "sick": 22107,
    "invisible": false
  },
  {
    "name": "Papua New Guinea",
    "latitude": -6.315,
    "dead": 1,
    "lastUpdated": "2020-07-22T05:01:02.824Z",
    "recovered": 8,
    "infected": 27,
    "id": "QlZrE4nosm5WfdA2aCDg",
    "pop": 8251000,
    "country": "PG",
    "longitude": 143.9555,
    "sick": 18,
    "invisible": false
  },
  {
    "lastUpdated": "2020-07-22T13:17:02.669Z",
    "state": "VI",
    "id": "QqhD3YDMKXojvQY3Yu41",
    "longitude": -64.8963,
    "name": "U.S. Virgin Islands",
    "alwaysShow": true,
    "dead": 6,
    "latitude": 18.3358,
    "infected": 304,
    "recovered": 0,
    "pop": 107268,
    "country": "US",
    "sick": 298,
    "invisible": false
  },
  {
    "longitude": -61.3709755,
    "name": "Dominica",
    "latitude": 15.414999,
    "dead": 0,
    "lastUpdated": "2020-07-22T13:16:03.312Z",
    "recovered": 18,
    "infected": 18,
    "id": "Qy2qW2ep5wltnYjPJBxh",
    "pop": 71937,
    "country": "DM",
    "sick": 0,
    "invisible": false
  },
  {
    "country": "CO",
    "longitude": -72.167,
    "name": "Casanare",
    "latitude": 5.167,
    "dead": 2,
    "lastUpdated": "2020-07-22T13:21:13.825Z",
    "recovered": 82,
    "infected": 185,
    "id": "R3IHMWqIUhOJJTlrmbUZ",
    "pop": 344027,
    "sick": 101,
    "invisible": false
  },
  {
    "recovered": 30075,
    "infected": 55153,
    "id": "R8YCgephnxTufvcPWMgx",
    "pop": 4099000,
    "country": "PA",
    "longitude": -80.7821,
    "name": "Panama",
    "latitude": 8.538,
    "dead": 1159,
    "lastUpdated": "2020-07-22T13:16:03.290Z",
    "sick": 23919,
    "invisible": false
  },
  {
    "country": "HN",
    "longitude": -86.2419,
    "name": "Honduras",
    "latitude": 15.2,
    "dead": 988,
    "lastUpdated": "2020-07-22T13:16:03.291Z",
    "recovered": 4144,
    "infected": 35345,
    "id": "RA2SE0p2bVhqo0P2hzGY",
    "pop": 9265000,
    "sick": 30213,
    "invisible": false
  },
  {
    "id": "RBt9RiwP7WUbMnJfD0lo",
    "pop": 224500,
    "country": "CL",
    "longitude": -70.2979202,
    "name": "Arica y Parinacota",
    "latitude": -18.4745998,
    "dead": 40,
    "lastUpdated": "2020-07-22T13:20:04.770Z",
    "recovered": 0,
    "infected": 3291,
    "sick": 3251,
    "invisible": false
  },
  {
    "name": "Friuli Venezia Giulia",
    "latitude": 45.633331,
    "dead": 345,
    "lastUpdated": "2020-07-22T13:01:02.589Z",
    "recovered": 2914,
    "infected": 3358,
    "state": "36",
    "id": "RCrDBCdBNYzgLNr0aB2H",
    "pop": 1216000,
    "country": "IT",
    "longitude": 13.8,
    "sick": 99,
    "invisible": false
  },
  {
    "recovered": 0,
    "infected": 39793,
    "state": "IA",
    "id": "RX0KDu1AFrlCsrRso0nb",
    "pop": 3156000,
    "country": "US",
    "longitude": -93.0977,
    "name": "Iowa",
    "latitude": 41.878,
    "dead": 808,
    "lastUpdated": "2020-07-22T13:17:02.662Z",
    "sick": 38985,
    "invisible": false
  },
  {
    "lastUpdated": "2020-07-22T13:21:13.817Z",
    "recovered": 26411,
    "infected": 67843,
    "id": "RZ6PCe5TZsO15JjDObwO",
    "pop": 7413000,
    "country": "CO",
    "longitude": -74.063644,
    "name": "Bogotá D.C.",
    "latitude": 4.624335,
    "dead": 1713,
    "sick": 39719,
    "invisible": false
  },
  {
    "recovered": 479,
    "infected": 2088,
    "id": "RaJxbzlnRFTuj4B8IbpC",
    "pop": 6846000,
    "country": "LY",
    "longitude": 17.2283306,
    "name": "Libya",
    "latitude": 26.3351002,
    "dead": 50,
    "lastUpdated": "2020-07-22T13:16:03.297Z",
    "sick": 1559,
    "invisible": false
  },
  {
    "lastUpdated": "2020-07-22T13:17:02.664Z",
    "recovered": 0,
    "infected": 23570,
    "state": "KS",
    "id": "Rf4uvBfP3GRDSHdZElRd",
    "pop": 2912000,
    "country": "US",
    "longitude": -98.4842,
    "name": "Kansas",
    "latitude": 39.0119,
    "dead": 315,
    "sick": 23255,
    "invisible": false
  },
  {
    "recovered": 12524,
    "infected": 27135,
    "id": "RmEgf1xeclWt7XCF9oiR",
    "pop": 5518000,
    "country": "FR",
    "longitude": 6.1878,
    "name": "Grand Est",
    "latitude": 48.6998,
    "dead": 3601,
    "lastUpdated": "2020-07-21T23:31:47.883Z",
    "sick": 11010,
    "invisible": false
  },
  {
    "latitude": 50.4176,
    "dead": 3395,
    "lastUpdated": "2020-07-22T13:07:05.765Z",
    "recovered": 4959,
    "infected": 19818,
    "state": "WAL",
    "id": "RryHraSohKQLAsdr1dHO",
    "pop": 3644000,
    "country": "BE",
    "longitude": 4.451,
    "name": "Wallonia",
    "sick": 11464,
    "invisible": false
  },
  {
    "lastUpdated": "2020-07-22T13:07:09.454Z",
    "recovered": 33605,
    "infected": 37942,
    "state": "ON",
    "id": "Rx4TuyMpfGb3S8wYJX0x",
    "pop": 14570000,
    "country": "CA",
    "longitude": -85.3232,
    "name": "Ontario",
    "latitude": 51.2538,
    "dead": 2753,
    "sick": 1584,
    "invisible": false
  },
  {
    "latitude": 41.652779,
    "dead": 2795,
    "lastUpdated": "2020-07-21T23:18:37.440Z",
    "recovered": 8716,
    "infected": 26237,
    "state": "CL",
    "id": "S8ewN4zaYp8mjtuqqOTw",
    "pop": 2408000,
    "country": "ES",
    "longitude": -4.723611,
    "name": "Castilla y León",
    "sick": 14726,
    "invisible": false
  },
  {
    "alwaysShow": true,
    "latitude": 14.652027,
    "dead": 15,
    "lastUpdated": "2020-07-22T13:16:03.302Z",
    "recovered": 98,
    "infected": 262,
    "id": "SDdefnq1bc3ZNr7SpEsW",
    "pop": 376480,
    "country": "FR",
    "longitude": -61.011715,
    "name": "Martinique",
    "sick": 149,
    "invisible": false
  },
  {
    "latitude": 7.9465,
    "dead": 153,
    "lastUpdated": "2020-07-22T13:16:03.291Z",
    "recovered": 25331,
    "infected": 28989,
    "id": "SG9VWLOV3x2JsTkXmVSz",
    "pop": 28830000,
    "country": "GH",
    "longitude": -1.0232,
    "name": "Ghana",
    "sick": 3505,
    "invisible": false
  },
  {
    "recovered": 30500,
    "infected": 33883,
    "id": "SGe9sCPayMqh6RsGFaBA",
    "pop": 8570000,
    "country": "CH",
    "longitude": 8.227512,
    "name": "Switzerland",
    "latitude": 46.818188,
    "dead": 1972,
    "lastUpdated": "2020-07-22T13:16:03.291Z",
    "sick": 1411,
    "invisible": false
  },
  {
    "recovered": 4964,
    "infected": 5324,
    "id": "SGhKBmmh5hss7hrNR8hK",
    "pop": 964000,
    "country": "RU",
    "longitude": 124.1238,
    "name": "Yakutia",
    "latitude": 66.7613,
    "dead": 40,
    "lastUpdated": "2020-07-22T13:00:07.765Z",
    "sick": 320,
    "invisible": false
  },
  {
    "state": "QC",
    "id": "SHoOE3NiJgWAlDVBzwYH",
    "pop": 8485000,
    "country": "CA",
    "longitude": -71.208,
    "name": "Quebec",
    "latitude": 46.8139,
    "dead": 5658,
    "lastUpdated": "2020-07-22T13:07:09.460Z",
    "recovered": 50298,
    "infected": 57796,
    "sick": 1840,
    "invisible": false
  },
  {
    "longitude": 20.903,
    "name": "Kosovo",
    "latitude": 42.6026,
    "dead": 144,
    "lastUpdated": "2020-07-22T12:55:01.524Z",
    "recovered": 3226,
    "infected": 6045,
    "id": "SMWvuMMuKp2QK7O2tNia",
    "pop": 1831000,
    "country": "XK",
    "sick": 2675,
    "invisible": false
  },
  {
    "recovered": 4350,
    "infected": 5838,
    "id": "SNWCQwRwqYfxX8HZndTA",
    "pop": 1913000,
    "country": "RU",
    "longitude": 135,
    "name": "Primorsky Krai",
    "latitude": 45.0526,
    "dead": 66,
    "lastUpdated": "2020-07-22T13:00:07.764Z",
    "sick": 1422,
    "invisible": false
  },
  {
    "name": "Goa",
    "latitude": 15.2993,
    "dead": 26,
    "lastUpdated": "2020-07-22T13:11:01.453Z",
    "recovered": 2449,
    "infected": 4027,
    "id": "SPcujsH2YlUaoAr8AiWF",
    "pop": 1817000,
    "country": "IN",
    "longitude": 74.124,
    "sick": 1552,
    "invisible": false
  },
  {
    "name": "Goiás",
    "latitude": -16.328547,
    "dead": 1154,
    "lastUpdated": "2020-07-22T13:27:01.944Z",
    "recovered": 0,
    "infected": 43794,
    "state": "GO",
    "id": "SV5AMF59J61Vt4cXWLgy",
    "pop": 6921161,
    "country": "BR",
    "longitude": -48.953403,
    "sick": 42640,
    "invisible": false
  },
  {
    "recovered": 1,
    "infected": 2,
    "id": "SYFarIS62W0EW9bOaJmN",
    "pop": 75500,
    "country": "CO",
    "longitude": -68.436,
    "name": "Vichada",
    "latitude": 6.181,
    "dead": 0,
    "lastUpdated": "2020-07-22T13:21:13.826Z",
    "sick": 1,
    "invisible": false
  },
  {
    "lastUpdated": "2020-07-22T13:01:02.589Z",
    "recovered": 1071,
    "infected": 1239,
    "state": "78",
    "id": "SZdF624x0v1LlyzZjKFu",
    "pop": 1957000,
    "country": "IT",
    "longitude": 16.5,
    "name": "Calabria",
    "latitude": 39,
    "dead": 97,
    "sick": 71,
    "invisible": false
  },
  {
    "latitude": 41.4925,
    "dead": 310,
    "lastUpdated": "2020-07-22T13:17:02.664Z",
    "recovered": 0,
    "infected": 23190,
    "state": "NE",
    "id": "SakhKQzKu1LRI8laqdQq",
    "pop": 1929000,
    "country": "US",
    "longitude": -99.9018,
    "name": "Nebraska",
    "sick": 22880,
    "invisible": false
  },
  {
    "country": "FR",
    "longitude": 55.5364,
    "name": "La Réunion",
    "alwaysShow": true,
    "latitude": -21.1151,
    "dead": 3,
    "lastUpdated": "2020-07-22T13:16:03.301Z",
    "recovered": 472,
    "infected": 639,
    "id": "SgHzWAAYK1j2sipovxM6",
    "pop": 859959,
    "sick": 164,
    "invisible": false
  },
  {
    "latitude": 12.565679,
    "dead": 0,
    "lastUpdated": "2020-07-22T13:16:03.302Z",
    "recovered": 140,
    "infected": 197,
    "id": "SioMALgUbo7peXmbco2f",
    "pop": 16010000,
    "country": "KH",
    "longitude": 104.990967,
    "name": "Cambodia",
    "sick": 57,
    "invisible": false
  },
  {
    "pop": 164229,
    "country": "US",
    "lastUpdated": "2020-07-22T13:17:02.669Z",
    "state": "GU",
    "id": "SsWhuEElU7dCTTuH5fdQ",
    "longitude": 144.7937,
    "name": "Guam",
    "alwaysShow": true,
    "dead": 5,
    "latitude": 13.4443,
    "infected": 330,
    "recovered": 0,
    "sick": 325,
    "invisible": false
  },
  {
    "recovered": 31139,
    "infected": 0,
    "id": "SuCr5emUaJ9RHTll1P1p",
    "country": "PL",
    "longitude": 19.1344,
    "invisible": true,
    "name": "Unknown Poland region",
    "latitude": 51.9189,
    "dead": 0,
    "lastUpdated": "2020-07-22T13:16:03.290Z",
    "sick": 0
  },
  {
    "lastUpdated": "2020-07-22T13:00:07.767Z",
    "recovered": 1560,
    "infected": 2142,
    "id": "Sx03z01BJCAbrYkWhEaD",
    "pop": 1513000,
    "country": "RU",
    "longitude": 53.0278,
    "name": "Udmurtia",
    "latitude": 57.067,
    "dead": 22,
    "sick": 560,
    "invisible": false
  },
  {
    "latitude": -4.0383,
    "dead": 197,
    "lastUpdated": "2020-07-22T13:16:03.294Z",
    "recovered": 4790,
    "infected": 8626,
    "id": "T3iRf8mTUTAzbKrORTap",
    "pop": 84070000,
    "country": "CD",
    "longitude": 21.7587,
    "name": "DR Congo",
    "sick": 3639,
    "invisible": false
  },
  {
    "lastUpdated": "2020-07-22T13:16:03.288Z",
    "recovered": 210398,
    "infected": 258156,
    "id": "T7NffoeCgTUpAbOHvYwP",
    "pop": 32940000,
    "country": "SA",
    "longitude": 44.344334,
    "name": "Saudi Arabia",
    "latitude": 23.635796,
    "dead": 2601,
    "sick": 45157,
    "invisible": false
  },
  {
    "country": "ES",
    "longitude": -2.5396,
    "name": "La Rioja",
    "latitude": 42.2871,
    "dead": 366,
    "lastUpdated": "2020-07-21T23:20:00.857Z",
    "recovered": 3107,
    "infected": 5523,
    "state": "RI",
    "id": "TNDTapyb0k3l7Mds9q9R",
    "pop": 315700,
    "sick": 2050,
    "invisible": false
  },
  {
    "latitude": 20.400417,
    "dead": 850,
    "lastUpdated": "2020-07-22T13:02:09.499Z",
    "recovered": 0,
    "infected": 7576,
    "id": "TQCWbhIpJQBQxBjhCGVJ",
    "pop": 2207200,
    "country": "MX",
    "longitude": -89.134857,
    "name": "Yucatán",
    "sick": 6726,
    "invisible": false
  },
  {
    "latitude": 4.506106,
    "dead": 3,
    "lastUpdated": "2020-07-22T13:16:03.302Z",
    "recovered": 138,
    "infected": 141,
    "id": "TQZmzsLhJqjtCSExAkCP",
    "pop": 428697,
    "country": "BN",
    "longitude": 114.650692,
    "name": "Brunei",
    "sick": 0,
    "invisible": false
  },
  {
    "recovered": 7879,
    "infected": 16098,
    "state": "",
    "id": "TT0MKODSjrxHvG19xZCa",
    "pop": 8027000,
    "country": "FR",
    "longitude": 4.3853,
    "name": "Auvergne-Rhône-Alpes",
    "latitude": 45.4471,
    "dead": 1752,
    "lastUpdated": "2020-07-21T23:33:02.883Z",
    "sick": 6467,
    "invisible": false
  },