[
  {
    "id": "01b09TY4vmuZwzVuiRFK",
    "pop": 72600,
    "country": "CO",
    "longitude": -81.7006,
    "name": "San Andrés",
    "latitude": 12.5847,
    "dead": 0,
    "lastUpdated": "2020-07-15T17:00:08.359Z",
    "recovered": 21,
    "infected": 29,
    "sick": 8,
    "invisible": false
  },
  {
    "name": "Guernsey",
    "alwaysShow": false,
    "latitude": 49.4482,
    "dead": 13,
    "lastUpdated": "2020-07-15T17:17:03.520Z",
    "recovered": 238,
    "infected": 252,
    "id": "0FOJefeLxQYXQ1CnJm9o",
    "pop": 63196,
    "country": "GG",
    "longitude": -2.5895,
    "sick": 1,
    "invisible": false
  },
  {
    "recovered": 4096,
    "infected": 4787,
    "state": "72",
    "id": "0GJcws44NSPsDHAuxJhW",
    "pop": 5827000,
    "country": "IT",
    "longitude": 14.333333,
    "name": "Campania",
    "latitude": 41.066666,
    "dead": 432,
    "lastUpdated": "2020-07-15T17:01:02.862Z",
    "sick": 259,
    "invisible": false
  },
  {
    "country": "CL",
    "longitude": -70.14222,
    "name": "Tarapacá",
    "latitude": -20.2167,
    "dead": 115,
    "lastUpdated": "2020-07-15T17:20:05.270Z",
    "recovered": 0,
    "infected": 7266,
    "id": "0HDQbiHe462xMCUV5HiI",
    "pop": 383870,
    "sick": 7151,
    "invisible": false
  },
  {
    "name": "Odisha",
    "latitude": 20.9517,
    "dead": 101,
    "lastUpdated": "2020-07-15T17:11:01.888Z",
    "recovered": 10476,
    "infected": 14898,
    "id": "0VG7S6aaK4eSo59fL9JO",
    "pop": 45990000,
    "country": "IN",
    "longitude": 85.0985,
    "sick": 4321,
    "invisible": false
  },
  {
    "country": "MX",
    "longitude": -98.8582,
    "name": "Hidalgo",
    "latitude": 20.4737,
    "dead": 805,
    "lastUpdated": "2020-07-15T17:02:08.873Z",
    "recovered": 0,
    "infected": 4960,
    "id": "0XmCRqiK2ZaehoEJvfer",
    "pop": 2990300,
    "sick": 4155,
    "invisible": false
  },
  {
    "latitude": 11.7401,
    "dead": 0,
    "lastUpdated": "2020-07-15T17:11:01.893Z",
    "recovered": 129,
    "infected": 171,
    "id": "0jStOpTUNRaQYJqgmRoK",
    "pop": 427246,
    "country": "IN",
    "longitude": 92.6586,
    "name": "Andaman and Nicobar Islands",
    "sick": 42,
    "invisible": false
  },
  {
    "name": "Qatar",
    "latitude": 25.315058,
    "dead": 151,
    "lastUpdated": "2020-07-15T17:16:03.725Z",
    "recovered": 101637,
    "infected": 104983,
    "id": "0m4aECS0Z2DGFEr8ldgI",
    "pop": 2639000,
    "country": "QA",
    "longitude": 51.145517,
    "sick": 3195,
    "invisible": false
  },
  {
    "recovered": 20680,
    "infected": 34427,
    "id": "0n54EMSDJcRoT1QEvw80",
    "pop": 90320000,
    "country": "IN",
    "longitude": 87.855,
    "name": "West Bengal",
    "latitude": 22.9868,
    "dead": 1000,
    "lastUpdated": "2020-07-15T17:11:01.888Z",
    "sick": 12747,
    "invisible": false
  },
  {
    "id": "0s18o5DrDAHjbu5MFcrj",
    "pop": 73340000,
    "country": "IN",
    "longitude": 78.6569,
    "name": "Madhya Pradesh",
    "latitude": 22.9734,
    "dead": 682,
    "lastUpdated": "2020-07-15T17:11:01.888Z",
    "recovered": 13908,
    "infected": 19643,
    "sick": 5053,
    "invisible": false
  },
  {
    "country": "US",
    "longitude": -95.7129,
    "invisible": true,
    "name": "Unknown US state",
    "latitude": 37.0902,
    "dead": 0,
    "lastUpdated": "2020-07-15T17:16:03.723Z",
    "recovered": 1608996,
    "infected": 0,
    "id": "0tFoopNTs6e4tOoaltu2",
    "sick": 0
  },
  {
    "longitude": 108.472214,
    "name": "Shaanxi",
    "latitude": 35.64249,
    "dead": 3,
    "lastUpdated": "2020-07-15T17:08:09.454Z",
    "recovered": 315,
    "infected": 321,
    "id": "0x2HLhr5z5xAtEdO4iZm",
    "pop": 37330000,
    "country": "CN",
    "sick": 3,
    "invisible": false
  },
  {
    "recovered": 4565,
    "infected": 8530,
    "id": "19MvIhipqTyYv1H37Upw",
    "pop": 2077000,
    "country": "MK",
    "longitude": 21.668393,
    "name": "North Macedonia",
    "latitude": 41.643351,
    "dead": 393,
    "lastUpdated": "2020-07-15T17:16:03.730Z",
    "sick": 3572,
    "invisible": false
  },
  {
    "latitude": 53.1355,
    "dead": 3,
    "lastUpdated": "2020-07-15T17:07:09.879Z",
    "recovered": 258,
    "infected": 262,
    "state": "NL",
    "id": "1DOMOmCWDtva46OVSZLv",
    "pop": 521542,
    "country": "CA",
    "longitude": -57.6604,
    "name": "Newfoundland and Labrador",
    "sick": 1,
    "invisible": false
  },
  {
    "longitude": 96.779286,
    "name": "Qinghai",
    "latitude": 35.801933,
    "dead": 0,
    "lastUpdated": "2020-07-15T17:08:09.456Z",
    "recovered": 18,
    "infected": 18,
    "id": "1Fap7rZu9SIRqf5TG9Dg",
    "pop": 5627000,
    "country": "CN",
    "sick": 0,
    "invisible": false
  },
  {
    "longitude": -102.5528,
    "invisible": true,
    "name": "Unknown Mexico state",
    "latitude": 23.6345,
    "dead": 0,
    "lastUpdated": "2020-07-15T17:16:03.724Z",
    "recovered": 193976,
    "infected": 0,
    "id": "1YXQMlVL3fUeDZmcVfJw",
    "pop": 126200000,
    "country": "MX",
    "sick": 0
  },
  {
    "latitude": 55.0555,
    "dead": 44,
    "lastUpdated": "2020-07-15T17:00:11.001Z",
    "recovered": 2849,
    "infected": 4949,
    "id": "1at5nIap9H51v32otlQl",
    "pop": 1960000,
    "country": "RU",
    "longitude": 73.3167,
    "name": "Omsk Oblast",
    "sick": 2056,
    "invisible": false
  },
  {
    "latitude": 44.9,
    "dead": 4118,
    "lastUpdated": "2020-07-15T17:01:02.862Z",
    "recovered": 26510,
    "infected": 31515,
    "state": "21",
    "id": "1eTSQyfp8RoDPeFrIwun",
    "pop": 4376000,
    "country": "IT",
    "longitude": 8.206944,
    "name": "Piemonte",
    "sick": 887,
    "invisible": false
  },
  {
    "recovered": 0,
    "infected": 257,
    "id": "1j1OurxLTpZYuWIWwQ9F",
    "pop": 1003000,
    "country": "PL",
    "longitude": 15.461,
    "name": "Lubuskie",
    "latitude": 51.993,
    "dead": 1,
    "lastUpdated": "2020-07-15T17:03:02.033Z",
    "sick": 256,
    "invisible": false
  },
  {
    "id": "1qTPB8X3tyLyIdsb5TN3",
    "pop": 3550000,
    "country": "MD",
    "longitude": 28.3699,
    "name": "Moldova",
    "latitude": 47.4116,
    "dead": 659,
    "lastUpdated": "2020-07-15T17:16:03.729Z",
    "recovered": 13298,
    "infected": 20040,
    "sick": 6083,
    "invisible": false
  },
  {
    "name": "Federal Bureau of Prisons",
    "latitude": 37.0902,
    "dead": 96,
    "lastUpdated": "2020-07-15T17:17:02.025Z",
    "recovered": 0,
    "infected": 9529,
    "id": "22PJOAThcDFKgSbyQIkD",
    "country": "US",
    "longitude": -95.7129,
    "invisible": true,
    "sick": 9433
  },
  {
    "name": "Tibet",
    "latitude": 30.15336,
    "dead": 0,
    "lastUpdated": "2020-07-15T17:08:09.456Z",
    "recovered": 1,
    "infected": 1,
    "id": "25qIBtsW2nfQj3pwBKg9",
    "pop": 3180000,
    "country": "CN",
    "longitude": 88.787865,
    "sick": 0,
    "invisible": false
  },
  {
    "name": "Indonesia",
    "latitude": -1.572184,
    "dead": 3797,
    "lastUpdated": "2020-07-15T17:16:03.725Z",
    "recovered": 39050,
    "infected": 80094,
    "id": "2KHYUb5t3lwzVVmDjwNX",
    "pop": 264000000,
    "country": "ID",
    "longitude": 115.66779,
    "sick": 37247,
    "invisible": false
  },
  {
    "name": "Oregon",
    "latitude": 43.807191,
    "dead": 244,
    "lastUpdated": "2020-07-15T17:17:02.023Z",
    "recovered": 0,
    "infected": 12805,
    "state": "OR",
    "id": "2OrsssmGUs4XCzaZzvTv",
    "pop": 4191000,
    "country": "US",
    "longitude": -120.585594,
    "sick": 12561,
    "invisible": false
  },
  {
    "lastUpdated": "2020-07-15T17:20:05.270Z",
    "recovered": 0,
    "infected": 12389,
    "id": "2c5HBZ1ffkCVXnMYUWnY",
    "pop": 425000,
    "country": "CL",
    "longitude": -70.400002,
    "name": "Antofagasta",
    "latitude": -23.65,
    "dead": 232,
    "sick": 12157,
    "invisible": false
  },
  {
    "recovered": 0,
    "infected": 31885,
    "state": "AP",
    "id": "2dzhyWsBSPpENWlNew0b",
    "pop": 9029000,
    "country": "BR",
    "longitude": -51.070534,
    "name": "Amapá",
    "latitude": 0.035574,
    "dead": 483,
    "lastUpdated": "2020-07-15T16:57:08.720Z",
    "sick": 31402,
    "invisible": false
  },
  {
    "recovered": 153,
    "infected": 155,
    "id": "2jxHvSsxdnom0nPNvOT8",
    "pop": 27460000,
    "country": "CN",
    "longitude": 126.548103,
    "name": "Jilin",
    "latitude": 43.851921,
    "dead": 2,
    "lastUpdated": "2020-07-15T17:08:09.456Z",
    "sick": 0,
    "invisible": false
  },
  {
    "lastUpdated": "2020-07-15T17:16:03.736Z",
    "recovered": 180,
    "infected": 180,
    "id": "2p11BjSAs3wVyymgqBOe",
    "pop": 34571,
    "country": "GI",
    "longitude": -5.3536,
    "name": "Gibraltar",
    "latitude": 36.1408,
    "dead": 0,
    "sick": 0,
    "invisible": false
  },
  {
    "id": "2sLNkkHpyaHx7dD3aMDO",
    "pop": 2567000,
    "country": "FR",
    "longitude": 1.6751,
    "name": "Centre-Val de Loire",
    "latitude": 47.7516,
    "dead": 553,
    "lastUpdated": "2020-07-14T22:57:19.160Z",
    "recovered": 1995,
    "infected": 4578,
    "sick": 2030,
    "invisible": false
  },
  {
    "longitude": 12.643751,
    "name": "Umbria",
    "latitude": 42.565044,
    "dead": 80,
    "lastUpdated": "2020-07-15T17:01:02.863Z",
    "recovered": 1362,
    "infected": 1452,
    "state": "55",
    "id": "319tiZOMczx1y0DfvOib",
    "pop": 884640,
    "country": "IT",
    "sick": 10,
    "invisible": false
  },
  {
    "lastUpdated": "2020-07-15T17:00:08.359Z",
    "recovered": 244,
    "infected": 806,
    "id": "38T96Q3XNjt5FSJygPed",
    "pop": 1355000,
    "country": "CO",
    "longitude": -76.6131592,
    "name": "Cauca",
    "latitude": 2.43823,
    "dead": 28,
    "sick": 534,
    "invisible": false
  },
  {
    "name": "Zambia",
    "latitude": -13.133896,
    "dead": 42,
    "lastUpdated": "2020-07-15T17:16:03.732Z",
    "recovered": 1412,
    "infected": 1895,
    "id": "3IlPjAbP5qVMn1nlgLTJ",
    "pop": 17090000,
    "country": "ZM",
    "longitude": 27.849332,
    "sick": 441,
    "invisible": false
  },
  {
    "id": "3LstMSN5XMYBkxbe5HN7",
    "pop": 631219,
    "country": "ME",
    "longitude": 19.3958,
    "name": "Montenegro",
    "latitude": 42.7044,
    "dead": 24,
    "lastUpdated": "2020-07-15T17:16:03.733Z",
    "recovered": 330,
    "infected": 1287,
    "sick": 933,
    "invisible": false
  },
  {
    "recovered": 105,
    "infected": 113,
    "state": "ACT",
    "id": "3OZoQsKrzxZ18EKyfGE6",
    "pop": 418440,
    "country": "AU",
    "longitude": 149.0124,
    "name": "Australian Capital Territory",
    "latitude": -35.4735,
    "dead": 3,
    "lastUpdated": "2020-07-15T17:13:33.664Z",
    "sick": 5,
    "invisible": false
  },
  {
    "latitude": 57.8992,
    "dead": 22,
    "lastUpdated": "2020-07-15T17:00:10.998Z",
    "recovered": 4544,
    "infected": 5387,
    "id": "3PfzjWjvOkfgxc672BHQ",
    "pop": 608000,
    "country": "RU",
    "longitude": 38.8389,
    "name": "Yaroslavl Oblast",
    "sick": 821,
    "invisible": false
  },
  {
    "lastUpdated": "2020-07-15T17:00:10.998Z",
    "recovered": 2366,
    "infected": 5537,
    "id": "3PpqgIUJAtzxo1j7z56i",
    "pop": 321000,
    "country": "RU",
    "longitude": 95.626,
    "name": "Tuva",
    "latitude": 51.8873,
    "dead": 42,
    "sick": 3129,
    "invisible": false
  },
  {
    "latitude": 26.2006,
    "dead": 53,
    "lastUpdated": "2020-07-15T17:11:01.888Z",
    "recovered": 12174,
    "infected": 18667,
    "id": "3cCbnJCsK7mKlTO08K1o",
    "pop": 30940000,
    "country": "IN",
    "longitude": 92.9376,
    "name": "Assam",
    "sick": 6440,
    "invisible": false
  },
  {
    "recovered": 0,
    "infected": 68059,
    "state": "OH",
    "id": "3fC3bAyIRUquOQOEnQNe",
    "pop": 11690000,
    "country": "US",
    "longitude": -82.9071,
    "name": "Ohio",
    "latitude": 40.4173,
    "dead": 3076,
    "lastUpdated": "2020-07-15T17:17:02.012Z",
    "sick": 64983,
    "invisible": false
  },
  {
    "id": "3kFCzJguabtBvXaHxgiu",
    "pop": 3066400,
    "country": "MX",
    "longitude": -107.5,
    "name": "Sinaloa",
    "latitude": 25,
    "dead": 1694,
    "lastUpdated": "2020-07-15T17:02:08.872Z",
    "recovered": 0,
    "infected": 10563,
    "sick": 8869,
    "invisible": false
  },
  {
    "country": "CO",
    "longitude": -76.522224,
    "name": "Valle del Cauca",
    "latitude": 3.420556,
    "dead": 468,
    "lastUpdated": "2020-07-15T17:00:08.357Z",
    "recovered": 6102,
    "infected": 13362,
    "id": "3mC2LveOpXV8P1PmQGUj",
    "pop": 4708300,
    "sick": 6792,
    "invisible": false
  },
  {
    "id": "4NnFMekRK2m14IlnZZoj",
    "pop": 4420000,
    "country": "MR",
    "longitude": -10.9408,
    "name": "Mauritania",
    "latitude": 21.0079,
    "dead": 147,
    "lastUpdated": "2020-07-15T17:16:03.731Z",
    "recovered": 2664,
    "infected": 5518,
    "sick": 2707,
    "invisible": false
  },
  {
    "state": "BC",
    "id": "4hfZRUoUgI4a3vrG0GBk",
    "pop": 5071000,
    "country": "CA",
    "longitude": -127.6476,
    "name": "British Columbia",
    "latitude": 53.7267,
    "dead": 189,
    "lastUpdated": "2020-07-15T17:07:09.877Z",
    "recovered": 2730,
    "infected": 3128,
    "sick": 209,
    "invisible": false
  },
  {
    "longitude": -43.196388,
    "name": "Rio de Janeiro",
    "latitude": -22.908333,
    "dead": 11624,
    "lastUpdated": "2020-07-15T16:57:08.718Z",
    "recovered": 0,
    "infected": 132822,
    "state": "RJ",
    "id": "4kq0z3kh5zt3YAUWxvtE",
    "pop": 17159960,
    "country": "BR",
    "sick": 121198,
    "invisible": false
  },
  {
    "latitude": -11.409874,
    "dead": 2584,
    "lastUpdated": "2020-07-15T16:57:08.719Z",
    "recovered": 0,
    "infected": 110029,
    "state": "BA",
    "id": "4yDbkEyqsNzZJjfrciYV",
    "pop": 14812617,
    "country": "BR",
    "longitude": -41.280857,
    "name": "Bahia",
    "sick": 107445,
    "invisible": false
  },
  {
    "latitude": 40.3426,
    "dead": 326,
    "lastUpdated": "2020-07-15T17:16:03.728Z",
    "recovered": 16695,
    "infected": 25672,
    "id": "4zqzRm2xHn0CDVOUQJ8p",
    "pop": 9898000,
    "country": "AZ",
    "longitude": 47.93802,
    "name": "Azerbaijan",
    "sick": 8651,
    "invisible": false
  },
  {
    "recovered": 0,
    "infected": 10835,
    "id": "54cfsdsRF76XVHWtZs19",
    "pop": 3672300,
    "country": "MX",
    "longitude": -97.861099,
    "name": "Tamaulipas",
    "latitude": 22.233105,
    "dead": 727,
    "lastUpdated": "2020-07-15T17:02:08.873Z",
    "sick": 10108,
    "invisible": false
  },
  {
    "country": "BE",
    "longitude": 3.7265,
    "name": "Flanders",
    "latitude": 51.0109,
    "dead": 4907,
    "lastUpdated": "2020-07-15T17:07:07.217Z",
    "recovered": 9476,
    "infected": 35344,
    "state": "VLG",
    "id": "57ydD48mLRD2YoyteJZj",
    "pop": 6596000,
    "sick": 20961,
    "invisible": false
  },
  {
    "country": "BS",
    "longitude": -78.035889,
    "name": "Bahamas",
    "latitude": 25.025885,
    "dead": 11,
    "lastUpdated": "2020-07-15T17:16:03.736Z",
    "recovered": 91,
    "infected": 116,
    "id": "5MHegCUO9L3LiAU7DDey",
    "pop": 395361,
    "sick": 14,
    "invisible": false
  },
  {
    "country": "AU",
    "longitude": 146.921097,
    "name": "New South Wales",
    "latitude": -31.253218,
    "dead": 49,
    "lastUpdated": "2020-07-15T17:13:33.672Z",
    "recovered": 2988,
    "infected": 3517,
    "state": "NSW",
    "id": "5N16a2OXXRpsEFanw0TC",
    "pop": 7544000,
    "sick": 480,
    "invisible": false
  },
  {
    "latitude": 6.8769908,
    "dead": 41,
    "lastUpdated": "2020-07-15T17:16:03.732Z",
    "recovered": 1175,
    "infected": 2153,
    "id": "5N4PRxsCDzzwk7R200V1",
    "pop": 12580000,
    "country": "SS",
    "longitude": 31.3069782,
    "name": "South Sudan",
    "sick": 937,
    "invisible": false
  },
  {
    "lastUpdated": "2020-07-14T22:51:26.584Z",
    "recovered": 9970,
    "infected": 15641,
    "state": "VC",
    "id": "5Va9A7CXR8AXdUz4HTJj",
    "pop": 4975000,
    "country": "ES",
    "longitude": -0.7533,
    "name": "C. Valenciana",
    "latitude": 39.484,
    "dead": 1432,
    "sick": 4239,
    "invisible": false
  },
  {
    "id": "5fg04eyDwFw3kEXnrxez",
    "pop": 280460,
    "country": "NC",
    "longitude": 165.618042,
    "name": "New Caledonia",
    "latitude": -20.9043045,
    "dead": 0,
    "lastUpdated": "2020-07-15T17:16:03.739Z",
    "recovered": 21,
    "infected": 22,
    "sick": 1,
    "invisible": false
  },
  {
    "recovered": 11025,
    "infected": 17177,
    "id": "5gXZIjRgAvd6xWN1LOv8",
    "pop": 29300000,
    "country": "NP",
    "longitude": 84.124008,
    "name": "Nepal",
    "latitude": 28.394857,
    "dead": 39,
    "lastUpdated": "2020-07-15T17:16:03.729Z",
    "sick": 6113,
    "invisible": false
  },
  {
    "latitude": 12.879721,
    "dead": 1614,
    "lastUpdated": "2020-07-15T17:16:03.726Z",
    "recovered": 20976,
    "infected": 58850,
    "id": "5pwmh7aSdGRKqRbnuyc0",
    "pop": 104900000,
    "country": "PH",
    "longitude": 121.774017,
    "name": "Philippines",
    "sick": 36260,
    "invisible": false
  },
  {
    "lastUpdated": "2020-07-15T17:16:03.733Z",
    "recovered": 343,
    "infected": 1064,
    "id": "5qtR9nx4BLwu1ODTniaY",
    "pop": 14802190,
    "country": "ZW",
    "longitude": 31.053028,
    "name": "Zimbabwe",
    "latitude": -17.824858,
    "dead": 20,
    "sick": 701,
    "invisible": false
  },
  {
    "infected": 8243,
    "recovered": 0,
    "pop": 356890,
    "country": "US",
    "lastUpdated": "2020-07-15T17:17:02.025Z",
    "state": "NA",
    "id": "5vkKgxTaKq1IH0Go357L",
    "longitude": -109.188,
    "invisible": false,
    "name": "Navajo Nation",
    "dead": 401,
    "latitude": 36.0672,
    "sick": 7842
  },
  {
    "latitude": 19.432241,
    "dead": 7817,
    "lastUpdated": "2020-07-15T17:02:08.873Z",
    "recovered": 0,
    "infected": 58855,
    "id": "61E7TGjUwAo9xu6Y6gAH",
    "pop": 8781300,
    "country": "MX",
    "longitude": -99.177254,
    "name": "Ciudad de México",
    "sick": 51038,
    "invisible": false
  },
  {
    "lastUpdated": "2020-07-15T17:00:10.995Z",
    "recovered": 5053,
    "infected": 6742,
    "id": "63KYOuWe41mvqWQrJbr2",
    "pop": 1012000,
    "country": "RU",
    "longitude": 35.1889,
    "name": "Kaluga Oblast",
    "latitude": 54.3873,
    "dead": 52,
    "sick": 1637,
    "invisible": false
  },
  {
    "recovered": 1582,
    "infected": 1882,
    "id": "694ON7d0mRJDeM1gHBTR",
    "pop": 2794000,
    "country": "LT",
    "longitude": 23.804991,
    "name": "Lithuania",
    "latitude": 55.621011,
    "dead": 79,
    "lastUpdated": "2020-07-15T17:16:03.732Z",
    "sick": 221,
    "invisible": false
  },
  {
    "country": "GB",
    "longitude": -0.5596,
    "name": "South East",
    "latitude": 51.1781,
    "dead": 0,
    "lastUpdated": "2020-07-15T17:13:12.002Z",
    "recovered": 0,
    "infected": 34391,
    "state": "EN",
    "id": "6IQAsvrmBv0HPdeTnh4x",
    "pop": 9175000,
    "sick": 34391,
    "invisible": false
  },
  {
    "longitude": 114.109497,
    "name": "Hong Kong",
    "latitude": 22.396427,
    "dead": 9,
    "lastUpdated": "2020-07-15T17:16:03.733Z",
    "recovered": 1241,
    "infected": 1589,
    "id": "6IcHIIH0zXpY0POmBZTv",
    "pop": 7392000,
    "country": "HK",
    "sick": 339,
    "invisible": false
  },
  {
    "name": "Acre",
    "latitude": -8.65,
    "dead": 436,
    "lastUpdated": "2020-07-15T16:57:08.721Z",
    "recovered": 0,
    "infected": 16479,
    "state": "AC",
    "id": "6LQesrx5bHJsVUi1TXBp",
    "pop": 869265,
    "country": "BR",
    "longitude": -72.4,
    "sick": 16043,
    "invisible": false
  },
  {
    "lastUpdated": "2020-07-15T17:16:03.733Z",
    "recovered": 557,
    "infected": 1378,
    "id": "6SlpghTyB6lpMFvx3g9U",
    "pop": 11180000,
    "country": "BJ",
    "longitude": 2.3158,
    "name": "Benin",
    "latitude": 9.3077,
    "dead": 26,
    "sick": 795,
    "invisible": false
  },
  {
    "lastUpdated": "2020-07-15T17:01:02.862Z",
    "recovered": 70936,
    "infected": 95236,
    "state": "25",
    "id": "6ZHcvMIzVWIaRnc4R3Qp",
    "pop": 10040000,
    "country": "IT",
    "longitude": 9.5,
    "name": "Lombardia",
    "latitude": 45.6667,
    "dead": 16765,
    "sick": 7535,
    "invisible": false
  },
  {
    "id": "6ahNiyKDSDAftCctgLH3",
    "pop": 2067000,
    "country": "SI",
    "longitude": 14.5058,
    "name": "Slovenia",
    "latitude": 46.0569,
    "dead": 111,
    "lastUpdated": "2020-07-15T17:16:03.732Z",
    "recovered": 1501,
    "infected": 1878,
    "sick": 266,
    "invisible": false
  },
  {
    "country": "CL",
    "longitude": -70.331398,
    "name": "Atacama",
    "latitude": -27.3667908,
    "dead": 10,
    "lastUpdated": "2020-07-15T17:20:05.271Z",
    "recovered": 0,
    "infected": 1722,
    "id": "6nyns7UGGgkU7pxrHf8i",
    "pop": 300000,
    "sick": 1712,
    "invisible": false
  },
  {
    "name": "Gabon",
    "latitude": -0.8037,
    "dead": 46,
    "lastUpdated": "2020-07-15T17:16:03.731Z",
    "recovered": 3475,
    "infected": 6026,
    "id": "6pBi38TUgYfFm0bry2uh",
    "pop": 2025000,
    "country": "GA",
    "longitude": 11.6094,
    "sick": 2505,
    "invisible": false
  },
  {
    "lastUpdated": "2020-07-15T17:02:08.873Z",
    "recovered": 0,
    "infected": 4777,
    "id": "6vjIVg1gSANFZghV7xtS",
    "pop": 2831900,
    "country": "MX",
    "longitude": -100.9792,
    "name": "San Luis Potosí",
    "latitude": 22.1498,
    "dead": 294,
    "sick": 4483,
    "invisible": false
  },
  {
    "name": "Saint-Barthélémy",
    "alwaysShow": true,
    "latitude": 17.901672,
    "dead": 0,
    "lastUpdated": "2020-07-15T17:16:03.741Z",
    "recovered": 6,
    "infected": 6,
    "id": "78Ox26bNHDA2Pk2b3Uwn",
    "pop": 9131,
    "country": "FR",
    "longitude": -62.818544,
    "sick": 0,
    "invisible": false
  },
  {
    "latitude": 54.367,
    "dead": 38,
    "lastUpdated": "2020-07-15T17:03:02.032Z",
    "recovered": 0,
    "infected": 715,
    "id": "7JDx6UJiwGSJyL1fChaJ",
    "pop": 2305000,
    "country": "PL",
    "longitude": 18.633,
    "name": "Pomorskie",
    "sick": 677,
    "invisible": false
  },
  {
    "name": "Melilla",
    "latitude": 35.2923,
    "dead": 2,
    "lastUpdated": "2020-07-14T22:53:39.681Z",
    "recovered": 125,
    "infected": 139,
    "state": "ML",
    "id": "7UASdZTZ1nPzzBwSTEA9",
    "pop": 84690,
    "country": "ES",
    "longitude": -2.9381,
    "sick": 12,
    "invisible": false
  },
  {
    "latitude": 17.0608,
    "dead": 3,
    "lastUpdated": "2020-07-15T17:16:03.737Z",
    "recovered": 57,
    "infected": 74,
    "id": "7hVFcEV7nV0MrQr3LHrl",
    "pop": 102012,
    "country": "AG",
    "longitude": -61.7964,
    "name": "Antigua and Barbuda",
    "sick": 14,
    "invisible": false
  },
  {
    "country": "DE",
    "longitude": 11.4979,
    "name": "Bayern",
    "latitude": 48.7904,
    "dead": 2656,
    "lastUpdated": "2020-07-15T12:30:07.654Z",
    "recovered": 45926,
    "infected": 49706,
    "state": "BY",
    "id": "7kCrrlOBE3jN6FtOVNUB",
    "pop": 13000000,
    "sick": 1124,
    "invisible": false
  },
  {
    "latitude": 47.4979,
    "dead": 595,
    "lastUpdated": "2020-07-15T17:16:03.731Z",
    "recovered": 3126,
    "infected": 4263,
    "id": "7rYC2iFB50c55Ihgbs4Q",
    "pop": 9773000,
    "country": "HU",
    "longitude": 19.0402,
    "name": "Hungary",
    "sick": 542,
    "invisible": false
  },
  {
    "lastUpdated": "2020-07-15T17:00:08.359Z",
    "recovered": 9193,
    "infected": 19749,
    "id": "7tqLvLyXcBDK808nJv0m",
    "pop": 1206000,
    "country": "CO",
    "longitude": -74.7813,
    "name": "Barranquilla D.E.",
    "latitude": 10.9685,
    "dead": 1166,
    "sick": 9390,
    "invisible": false
  },
  {
    "latitude": 7.3697,
    "dead": 359,
    "lastUpdated": "2020-07-15T17:16:03.729Z",
    "recovered": 11928,
    "infected": 15173,
    "id": "8C0d7WVCjyUGtnc2gUAR",
    "pop": 24050000,
    "country": "CM",
    "longitude": 12.3547,
    "name": "Cameroon",
    "sick": 2886,
    "invisible": false
  },
  {
    "country": "BE",
    "longitude": 4.3517,
    "name": "Brussels",
    "latitude": 50.8503,
    "dead": 1489,
    "lastUpdated": "2020-07-15T17:07:07.218Z",
    "recovered": 2828,
    "infected": 6520,
    "state": "BRU",
    "id": "8DOZWbN6bDdgaLXVlUEu",
    "pop": 1209000,
    "sick": 2203,
    "invisible": false
  },
  {
    "lastUpdated": "2020-07-15T17:16:03.726Z",
    "recovered": 15819,
    "infected": 50867,
    "id": "8RihJrXw4NQXPxaRxr1u",
    "pop": 11050000,
    "country": "BO",
    "longitude": -63.5887,
    "name": "Bolivia",
    "latitude": -16.2902,
    "dead": 1898,
    "sick": 33150,
    "invisible": false
  },
  {
    "longitude": -61.2872,
    "name": "St. Vincent Grenadines",
    "latitude": 12.9843,
    "dead": 0,
    "lastUpdated": "2020-07-15T17:16:03.739Z",
    "recovered": 29,
    "infected": 35,
    "id": "8ZTySQROQejkDAad0qxQ",
    "pop": 109897,
    "country": "VC",
    "sick": 6,
    "invisible": false
  },
  {
    "country": "SG",
    "longitude": 103.819839,
    "name": "Singapore",
    "latitude": 1.352083,
    "dead": 27,
    "lastUpdated": "2020-07-15T07:46:03.761Z",
    "recovered": 42737,
    "infected": 46879,
    "id": "8pA3fM4xC2c2wv1b4TnE",
    "pop": 5621000,
    "sick": 4115,
    "invisible": false
  },
  {
    "latitude": 47.2184,
    "dead": 470,
    "lastUpdated": "2020-07-14T22:58:03.276Z",
    "recovered": 2118,
    "infected": 4276,
    "id": "98hwAoohgWEOQVa3NlM5",
    "pop": 3787000,
    "country": "FR",
    "longitude": -1.5536,
    "name": "Pays de la Loire",
    "sick": 1688,
    "invisible": false
  },
  {
    "lastUpdated": "2020-07-15T17:02:08.873Z",
    "recovered": 0,
    "infected": 3225,
    "id": "9DAvxOObTqIvMOU93nlY",
    "pop": 952300,
    "country": "MX",
    "longitude": -90.19885,
    "name": "Campeche",
    "latitude": 19.30754,
    "dead": 310,
    "sick": 2915,
    "invisible": false
  },
  {
    "longitude": 30.2176,
    "name": "Sudan",
    "latitude": 12.8628,
    "dead": 659,
    "lastUpdated": "2020-07-15T17:16:03.729Z",
    "recovered": 5579,
    "infected": 10417,
    "id": "9DPOkpIqrFy9mR4e9fuv",
    "pop": 40530000,
    "country": "SD",
    "sick": 4179,
    "invisible": false
  },
  {
    "name": "Kostroma Oblast",
    "latitude": 58.5501,
    "dead": 24,
    "lastUpdated": "2020-07-15T17:00:11.016Z",
    "recovered": 1256,
    "infected": 1886,
    "id": "9JFYfvpcejMIgYlHpngA",
    "pop": 643000,
    "country": "RU",
    "longitude": 43.9541,
    "sick": 606,
    "invisible": false
  },
  {
    "name": "Romania",
    "latitude": 45.943161,
    "dead": 1952,
    "lastUpdated": "2020-07-15T17:16:03.727Z",
    "recovered": 22049,
    "infected": 34226,
    "id": "9QcETqEcM2fTv9zRvx5T",
    "pop": 19530000,
    "country": "RO",
    "longitude": 24.966761,
    "sick": 10225,
    "invisible": false
  },
  {
    "name": "Nicaragua",
    "latitude": 12.136389,
    "dead": 99,
    "lastUpdated": "2020-07-15T17:16:03.731Z",
    "recovered": 2282,
    "infected": 3147,
    "id": "9Y5wmCqNCC6ZrenM31uA",
    "pop": 6218000,
    "country": "NI",
    "longitude": -86.251389,
    "sick": 766,
    "invisible": false
  },
  {
    "recovered": 1764,
    "infected": 2433,
    "id": "9dIzxqDSVqPyINkHqwGv",
    "pop": 18540000,
    "country": "ML",
    "longitude": -3.996166,
    "name": "Mali",
    "latitude": 17.5706921,
    "dead": 121,
    "lastUpdated": "2020-07-15T17:16:03.732Z",
    "sick": 548,
    "invisible": false
  },
  {
    "recovered": 6800,
    "infected": 7301,
    "id": "9p6OCdZbUUwBLA60Gk3W",
    "pop": 5513000,
    "country": "FI",
    "longitude": 25.748152,
    "name": "Finland",
    "latitude": 61.92411,
    "dead": 329,
    "lastUpdated": "2020-07-15T10:31:03.165Z",
    "sick": 172,
    "invisible": false
  },
  {
    "recovered": 7407,
    "infected": 10889,
    "id": "A6Us0fpQVCc85SoIqzg3",
    "pop": 2876000,
    "country": "RU",
    "longitude": 95.1104,
    "name": "Krasnoyarsk Krai",
    "latitude": 64.248,
    "dead": 235,
    "lastUpdated": "2020-07-15T17:00:10.990Z",
    "sick": 3247,
    "invisible": false
  },
  {
    "country": "US",
    "longitude": -71.590315,
    "name": "New Hampshire",
    "latitude": 43.311643,
    "dead": 392,
    "lastUpdated": "2020-07-15T17:17:02.023Z",
    "recovered": 0,
    "infected": 6091,
    "state": "NH",
    "id": "A84CwQ52kA46Hr7pn6Bm",
    "pop": 1356000,
    "sick": 5699,
    "invisible": false
  },
  {
    "latitude": 41.823261,
    "dead": 987,
    "lastUpdated": "2020-07-15T17:17:02.021Z",
    "recovered": 0,
    "infected": 17640,
    "state": "RI",
    "id": "AEUWUHS65qvjEslew11c",
    "pop": 1057000,
    "country": "US",
    "longitude": -71.412257,
    "name": "Rhode Island",
    "sick": 16653,
    "invisible": false
  },
  {
    "latitude": 44.498955,
    "dead": 4271,
    "lastUpdated": "2020-07-15T17:01:02.862Z",
    "recovered": 23548,
    "infected": 28989,
    "state": "45",
    "id": "AJ9jQ0iyKsafsmf5yHAR",
    "pop": 4453000,
    "country": "IT",
    "longitude": 11.327591,
    "name": "Emilia-Romagna",
    "sick": 1170,
    "invisible": false
  },
  {
    "state": "SL",
    "id": "AKjFRQGnzuuZQhv5Qwx7",
    "pop": 990509,
    "country": "DE",
    "longitude": 7.023,
    "name": "Saarland",
    "latitude": 49.3964,
    "dead": 178,
    "lastUpdated": "2020-07-15T17:00:06.903Z",
    "recovered": 2623,
    "infected": 2841,
    "sick": 40,
    "invisible": false
  },
  {
    "country": "RU",
    "longitude": 60.8789,
    "name": "Chelyabinsk Oblast",
    "latitude": 54.4319,
    "dead": 88,
    "lastUpdated": "2020-07-15T17:00:10.991Z",
    "recovered": 5212,
    "infected": 9164,
    "id": "AOapJ3gElQApd8Gnt8EL",
    "pop": 3493000,
    "sick": 3864,
    "invisible": false
  },
  {
    "id": "APTPgjAsjFi0nsGyJV7M",
    "pop": 1125002,
    "country": "CL",
    "longitude": -71.167,
    "name": "Maule",
    "latitude": -35.717,
    "dead": 96,
    "lastUpdated": "2020-07-15T17:20:05.273Z",
    "recovered": 0,
    "infected": 7341,
    "sick": 7245,
    "invisible": false
  },
  {
    "lastUpdated": "2020-07-15T17:16:03.740Z",
    "recovered": 13,
    "infected": 13,
    "id": "APaZzlGCEeuoLBtzTJMe",
    "pop": 56171,
    "country": "GL",
    "longitude": -42.6043,
    "name": "Greenland",
    "latitude": 71.7069,
    "dead": 0,
    "sick": 0,
    "invisible": false
  },
  {
    "id": "ATxF6ZoDJ2ibdE6ZRYIX",
    "pop": 984000,
    "country": "RU",
    "longitude": 112.4061,
    "name": "Buryatia",
    "latitude": 54.8331,
    "dead": 27,
    "lastUpdated": "2020-07-15T17:00:11.005Z",
    "recovered": 2676,
    "infected": 3481,
    "sick": 778,
    "invisible": false
  },
  {
    "latitude": 45.65107,
    "dead": 63,
    "lastUpdated": "2020-07-15T17:07:09.879Z",
    "recovered": 1002,
    "infected": 1066,
    "state": "NS",
    "id": "AVCpxeh0fuH2WrHWNDYH",
    "pop": 971395,
    "country": "CA",
    "longitude": -63.582687,
    "name": "Nova Scotia",
    "sick": 1,
    "invisible": false
  },
  {
    "latitude": 47.012918,
    "dead": 34,
    "lastUpdated": "2020-07-15T17:17:02.024Z",
    "recovered": 0,
    "infected": 2096,
    "state": "MT",
    "id": "AcULcZBozObOhwuRKMjJ",
    "pop": 1062000,
    "country": "US",
    "longitude": -109.128641,
    "name": "Montana",
    "sick": 2062,
    "invisible": false
  },
  {
    "lastUpdated": "2020-07-15T17:16:03.730Z",
    "recovered": 5383,
    "infected": 6695,
    "id": "AiIGs3ybYZZhm1ytVopr",
    "pop": 9275000,
    "country": "TJ",
    "longitude": 71.2761,
    "name": "Tajikistan",
    "latitude": 38.861,
    "dead": 56,
    "sick": 1256,
    "invisible": false
  },
  {
    "lastUpdated": "2020-07-15T17:08:09.455Z",
    "recovered": 931,
    "infected": 932,
    "id": "AmBYm5J6E9Cuez1FQjiN",
    "pop": 45200000,
    "country": "CN",
    "longitude": 116.01609,
    "name": "Jiangxi",
    "latitude": 27.285971,
    "dead": 1,
    "sick": 0,
    "invisible": false
  },
  {
    "state": "WA",
    "id": "AoLhHdTydeWTfmp9koEX",
    "pop": 3136000,
    "country": "GB",
    "longitude": -3.7837,
    "name": "Wales",
    "latitude": 52.1307,
    "dead": 1545,
    "lastUpdated": "2020-07-15T17:13:12.001Z",
    "recovered": 0,
    "infected": 16854,
    "sick": 15309,
    "invisible": false
  },
  {
    "latitude": 53.0452,
    "dead": 19,
    "lastUpdated": "2020-07-15T17:00:11.013Z",
    "recovered": 1844,
    "infected": 2450,
    "id": "Avls64fLKoEsBFH0Ol0b",
    "pop": 537000,
    "country": "RU",
    "longitude": 90.3982,
    "name": "Khakassia",
    "sick": 587,
    "invisible": false
  },
  {
    "id": "AwN0CScPDApcLFgz6e3z",
    "pop": 41320000,
    "country": "DZ",
    "longitude": 1.659626,
    "name": "Algeria",
    "latitude": 28.033886,
    "dead": 1028,
    "lastUpdated": "2020-07-15T17:16:03.728Z",
    "recovered": 14295,
    "infected": 20216,
    "sick": 4893,
    "invisible": false
  },
  {
    "latitude": 45.099998,
    "dead": 120,
    "lastUpdated": "2020-07-15T17:16:03.731Z",
    "recovered": 2629,
    "infected": 3953,
    "id": "B82Ef45M8cDu4q7VsSHF",
    "pop": 4076000,
    "country": "HR",
    "longitude": 15.2,
    "name": "Croatia",
    "sick": 1204,
    "invisible": false
  },
  {
    "country": "NE",
    "longitude": 8.081666,
    "name": "Niger",
    "latitude": 17.6077881,
    "dead": 68,
    "lastUpdated": "2020-07-15T17:16:03.733Z",
    "recovered": 992,
    "infected": 1099,
    "id": "BENubqQInFUJzhpZTsLT",
    "pop": 23716000,
    "sick": 39,
    "invisible": false
  },
  {
    "latitude": 39.509109,
    "dead": 3341,
    "lastUpdated": "2020-07-15T17:17:02.012Z",
    "recovered": 0,
    "infected": 75016,
    "state": "MD",
    "id": "BF51mWl51fgEcyBpCSzb",
    "pop": 6043000,
    "country": "US",
    "longitude": -76.98432,
    "name": "Maryland",
    "sick": 71675,
    "invisible": false
  },
  {
    "lastUpdated": "2020-07-15T17:16:03.726Z",
    "recovered": 56379,
    "infected": 65443,
    "id": "BGg6yVU5VP71B8NXU0oh",
    "pop": 9508000,
    "country": "BY",
    "longitude": 27.953388,
    "name": "Belarus",
    "latitude": 53.709808,
    "dead": 480,
    "sick": 8584,
    "invisible": false
  },
  {
    "latitude": 48.8799,
    "dead": 436,
    "lastUpdated": "2020-07-14T22:57:48.902Z",
    "recovered": 1703,
    "infected": 3681,
    "id": "BGtoyzb7y54LVlJ91rbf",
    "pop": 3319000,
    "country": "FR",
    "longitude": 0.1713,
    "name": "Normandie",
    "sick": 1542,
    "invisible": false
  },
  {
    "name": "South West",
    "latitude": 50.7772,
    "dead": 0,
    "lastUpdated": "2020-07-15T17:13:12.002Z",
    "recovered": 0,
    "infected": 12887,
    "state": "EN",
    "id": "BQqMOlPFD36ZEDTGd3WC",
    "pop": 5616000,
    "country": "GB",
    "longitude": -3.9995,
    "sick": 12887,
    "invisible": false
  },
  {
    "lastUpdated": "2020-07-15T17:17:02.007Z",
    "recovered": 0,
    "infected": 131354,
    "state": "AZ",
    "id": "BTEESCuD2ZbS1afunR2A",
    "pop": 7172000,
    "country": "US",
    "longitude": -111.093735,
    "name": "Arizona",
    "latitude": 34.048927,
    "dead": 2434,
    "sick": 128920,
    "invisible": false
  },
  {
    "latitude": 54.9883,
    "dead": 81,
    "lastUpdated": "2020-07-15T17:00:10.999Z",
    "recovered": 3129,
    "infected": 5212,
    "id": "BUb7oDHcBM4lQ5cufNoG",
    "pop": 949000,
    "country": "RU",
    "longitude": 32.6677,
    "name": "Smolensk Oblast",
    "sick": 2002,
    "invisible": false
  },
  {
    "country": "RU",
    "longitude": 50.2097,
    "name": "Kirov Oblast",
    "latitude": 58.4199,
    "dead": 49,
    "lastUpdated": "2020-07-15T17:00:11.003Z",
    "recovered": 3509,
    "infected": 3933,
    "id": "BWojXmuKU3szKlS7CE4k",
    "pop": 1283000,
    "sick": 375,
    "invisible": false
  },
  {
    "name": "Zachodniopomorskie",
    "latitude": 53.428543,
    "dead": 23,
    "lastUpdated": "2020-07-15T17:03:02.032Z",
    "recovered": 0,
    "infected": 642,
    "id": "BZwZOAlDJ8AIiaRVLyC9",
    "pop": 1676000,
    "country": "PL",
    "longitude": 14.552812,
    "sick": 619,
    "invisible": false
  },
  {
    "latitude": -33.4489,
    "dead": 0,
    "lastUpdated": "2020-07-15T17:16:03.724Z",
    "recovered": 292085,
    "infected": 0,
    "id": "BbiuZcm8oURX7cZwaa5U",
    "country": "CL",
    "longitude": -70.6693,
    "invisible": true,
    "name": "Unknown Chile region",
    "sick": 0
  },
  {
    "lastUpdated": "2020-07-15T17:16:03.732Z",
    "recovered": 795,
    "infected": 2497,
    "id": "BfT8o5DaEixC6JIZ28kY",
    "pop": 18620000,
    "country": "MW",
    "longitude": 34.3015,
    "name": "Malawi",
    "latitude": -13.2543,
    "dead": 40,
    "sick": 1662,
    "invisible": false
  },
  {
    "latitude": -3.3730559,
    "dead": 1,
    "lastUpdated": "2020-07-15T17:16:03.735Z",
    "recovered": 207,
    "infected": 269,
    "id": "BnpMamidC5yYzeK8tPUL",
    "pop": 10860000,
    "country": "BI",
    "longitude": 29.9188862,
    "name": "Burundi",
    "sick": 61,
    "invisible": false
  },
  {
    "recovered": 0,
    "infected": 5499,
    "id": "BrToMzyq8y2xdwXn75kM",
    "pop": 5385000,
    "country": "PL",
    "longitude": 21.002,
    "name": "Mazowieckie",
    "latitude": 52.257,
    "dead": 354,
    "lastUpdated": "2020-07-15T17:03:02.031Z",
    "sick": 5145,
    "invisible": false
  },
  {
    "lastUpdated": "2020-07-15T17:00:08.360Z",
    "recovered": 2199,
    "infected": 2433,
    "id": "C25xSDm4iYibX5RYML14",
    "pop": 74751,
    "country": "CO",
    "longitude": -71.347573,
    "name": "Amazonas (Colombia)",
    "latitude": -1.333845,
    "dead": 101,
    "sick": 133,
    "invisible": false
  },
  {
    "longitude": -73.982597,
    "name": "New York",
    "latitude": 40.719042,
    "dead": 32462,
    "lastUpdated": "2020-07-15T17:17:02.005Z",
    "recovered": 0,
    "infected": 429278,
    "state": "NY",
    "id": "C3BCUzV80z9GfiuByIcr",
    "pop": 19540000,
    "country": "US",
    "sick": 396816,
    "invisible": false
  },
  {
    "longitude": -67.92389,
    "name": "Guainía",
    "latitude": 3.86528,
    "dead": 1,
    "lastUpdated": "2020-07-15T17:00:08.361Z",
    "recovered": 11,
    "infected": 14,
    "id": "C5YXFiytAc1w9swtVGLz",
    "pop": 42800,
    "country": "CO",
    "sick": 2,
    "invisible": false
  },
  {
    "latitude": 49.731626,
    "dead": 355,
    "lastUpdated": "2020-07-15T17:16:03.729Z",
    "recovered": 8505,
    "infected": 13421,
    "id": "C6S76AggdWVU8G22jFHQ",
    "pop": 10650000,
    "country": "CZ",
    "longitude": 15.359413,
    "name": "Czechia",
    "sick": 4561,
    "invisible": false
  },
  {
    "id": "C7cj4nwRITs13KnaJrQ2",
    "pop": 1493000,
    "country": "BH",
    "longitude": 50.557701,
    "name": "Bahrain",
    "latitude": 26.0667,
    "dead": 116,
    "lastUpdated": "2020-07-15T17:16:03.727Z",
    "recovered": 29753,
    "infected": 34078,
    "sick": 4209,
    "invisible": false
  },
  {
    "country": "CO",
    "longitude": -74.4057,
    "name": "Magdalena",
    "latitude": 10.4113,
    "dead": 128,
    "lastUpdated": "2020-07-15T17:00:08.360Z",
    "recovered": 554,
    "infected": 1244,
    "id": "CA9LaAl3bNaeAqBuozn4",
    "pop": 1285400,
    "sick": 562,
    "invisible": false
  },
  {
    "name": "Coahuila",
    "latitude": 26.909979,
    "dead": 383,
    "lastUpdated": "2020-07-15T17:02:08.873Z",
    "recovered": 0,
    "infected": 7643,
    "id": "CCUFp4urvgXPo5unfMGy",
    "pop": 3073500,
    "country": "MX",
    "longitude": -101.430756,
    "sick": 7260,
    "invisible": false
  },
  {
    "longitude": 74.2179,
    "name": "Rajasthan",
    "latitude": 27.0238,
    "dead": 530,
    "lastUpdated": "2020-07-15T17:11:01.888Z",
    "recovered": 19502,
    "infected": 26437,
    "id": "CKZCZTPlrcq5fbfUPA9k",
    "pop": 68890000,
    "country": "IN",
    "sick": 6405,
    "invisible": false
  },
  {
    "id": "CX8z9U1iABNBhc1VK2Dy",
    "pop": 218000,
    "country": "RU",
    "longitude": 86.2199,
    "name": "Altai",
    "latitude": 50.6182,
    "dead": 1,
    "lastUpdated": "2020-07-15T17:00:11.022Z",
    "recovered": 650,
    "infected": 1139,
    "sick": 488,
    "invisible": false
  },
  {
    "name": "El Salvador",
    "latitude": 13.803,
    "dead": 286,
    "lastUpdated": "2020-07-15T17:16:03.729Z",
    "recovered": 6120,
    "infected": 10645,
    "id": "Cgvmtle61ehMvCzRzYx7",
    "pop": 6378000,
    "country": "SV",
    "longitude": -88.9053,
    "sick": 4239,
    "invisible": false
  },
  {
    "recovered": 626,
    "infected": 1074,
    "id": "D4WkbqyUXY1pazbOxfKx",
    "pop": 144000,
    "country": "RU",
    "longitude": 153.915,
    "name": "Magadan Oblast",
    "latitude": 62.6643,
    "dead": 5,
    "lastUpdated": "2020-07-15T17:00:11.022Z",
    "sick": 443,
    "invisible": false
  },
  {
    "latitude": 58.897,
    "dead": 25,
    "lastUpdated": "2020-07-15T17:00:11.012Z",
    "recovered": 1771,
    "infected": 3173,
    "id": "DAp3PFow4BuCMYWWTo3i",
    "pop": 1078000,
    "country": "RU",
    "longitude": 82.6765,
    "name": "Tomsk Oblast",
    "sick": 1377,
    "invisible": false
  },
  {
    "country": "AM",
    "longitude": 44.818474,
    "name": "Armenia",
    "latitude": 40.259003,
    "dead": 592,
    "lastUpdated": "2020-07-15T17:16:03.728Z",
    "recovered": 21348,
    "infected": 33005,
    "id": "DCJCtZoBTWQ4mzdDNljD",
    "pop": 2973000,
    "sick": 11065,
    "invisible": false
  },
  {
    "name": "Boyacá",
    "latitude": 5.535,
    "dead": 16,
    "lastUpdated": "2020-07-15T17:00:08.359Z",
    "recovered": 292,
    "infected": 517,
    "id": "DJJraANgQbEqz1wBBtZz",
    "pop": 1278000,
    "country": "CO",
    "longitude": -73.368,
    "sick": 209,
    "invisible": false
  },
  {
    "latitude": 54.2369,
    "dead": 29,
    "lastUpdated": "2020-07-15T17:00:11.003Z",
    "recovered": 2847,
    "infected": 3938,
    "id": "DKwy7USk22oXUQGEvO42",
    "pop": 834000,
    "country": "RU",
    "longitude": 44.0684,
    "name": "Mordovia",
    "sick": 1062,
    "invisible": false
  },
  {
    "recovered": 0,
    "infected": 43686,
    "state": "EN",
    "id": "DPwBt2aJuwF0O71vwfM9",
    "pop": 7300000,
    "country": "GB",
    "longitude": -2.5945,
    "name": "North West",
    "latitude": 53.6221,
    "dead": 0,
    "lastUpdated": "2020-07-15T17:13:12.002Z",
    "sick": 43686,
    "invisible": false
  },
  {
    "latitude": 32.3213844,
    "dead": 9,
    "lastUpdated": "2020-07-15T17:16:03.736Z",
    "recovered": 137,
    "infected": 150,
    "id": "DZyTD0Mu5WIcK6yTcJ91",
    "pop": 65440,
    "country": "BM",
    "longitude": -64.75737,
    "name": "Bermuda",
    "sick": 4,
    "invisible": false
  },
  {
    "recovered": 12,
    "infected": 72,
    "id": "DaMrRSIGJXIG36nW0Pnc",
    "pop": 35446,
    "country": "TC",
    "longitude": -71.7979,
    "name": "Turks and Caicos",
    "latitude": 21.694,
    "dead": 2,
    "lastUpdated": "2020-07-15T17:16:03.738Z",
    "sick": 58,
    "invisible": false
  },
  {
    "recovered": 6392,
    "infected": 27027,
    "state": "CM",
    "id": "Dbng0NBTH41EEwBxhMzE",
    "pop": 2035000,
    "country": "ES",
    "longitude": -3.0977,
    "name": "Castilla La Mancha",
    "latitude": 39.2796,
    "dead": 3030,
    "lastUpdated": "2020-07-14T22:52:01.046Z",
    "sick": 17605,
    "invisible": false
  },
  {
    "longitude": 20.006,
    "name": "Malopolskie",
    "latitude": 50.023,
    "dead": 47,
    "lastUpdated": "2020-07-15T17:03:02.031Z",
    "recovered": 0,
    "infected": 2173,
    "id": "DcQ3D0WkacXEbv6iznRB",
    "pop": 3361000,
    "country": "PL",
    "sick": 2126,
    "invisible": false
  },
  {
    "longitude": 113.551262,
    "name": "Macao",
    "latitude": 22.192039,
    "dead": 0,
    "lastUpdated": "2020-07-15T17:16:03.738Z",
    "recovered": 45,
    "infected": 46,
    "id": "DdBt8qsG6A3g92oOR3ow",
    "pop": 622567,
    "country": "MO",
    "sick": 1,
    "invisible": false
  },
  {
    "recovered": 46,
    "infected": 337,
    "id": "Dh0O1vmhrVfmsCsfZCUg",
    "pop": 2651000,
    "country": "IN",
    "longitude": 91.3662,
    "name": "Meghalaya",
    "latitude": 25.467,
    "dead": 2,
    "lastUpdated": "2020-07-15T17:11:01.892Z",
    "sick": 289,
    "invisible": false
  },
  {
    "longitude": 41.8259,
    "name": "Rostov Oblast",
    "latitude": 47.6853,
    "dead": 172,
    "lastUpdated": "2020-07-15T17:00:10.990Z",
    "recovered": 8451,
    "infected": 11019,
    "id": "DqzAhNFTJFQVm88ma21P",
    "pop": 4220000,
    "country": "RU",
    "sick": 2396,
    "invisible": false
  },
  {
    "name": "Wyoming",
    "latitude": 42.962334,
    "dead": 22,
    "lastUpdated": "2020-07-15T17:17:02.024Z",
    "recovered": 0,
    "infected": 1951,
    "state": "WY",
    "id": "DrGzziUglmBognCGY7R2",
    "pop": 577737,
    "country": "US",
    "longitude": -107.534868,
    "sick": 1929,
    "invisible": false
  },
  {
    "latitude": 37.9838,
    "dead": 193,
    "lastUpdated": "2020-07-15T17:16:03.731Z",
    "recovered": 1374,
    "infected": 3910,
    "id": "Dtr1lap1RpJpXJdXGJiW",
    "pop": 10740000,
    "country": "GR",
    "longitude": 23.7275,
    "name": "Greece",
    "sick": 2343,
    "invisible": false
  },
  {
    "name": "Perm Krai",
    "latitude": 58.8232,
    "dead": 97,
    "lastUpdated": "2020-07-15T17:00:11.002Z",
    "recovered": 3618,
    "infected": 4618,
    "id": "E8vIyXLVNtcY9dxLHICp",
    "pop": 2623000,
    "country": "RU",
    "longitude": 56.5872,
    "sick": 903,
    "invisible": false
  },
  {
    "latitude": 56.9634,
    "dead": 21,
    "lastUpdated": "2020-07-15T17:00:11.002Z",
    "recovered": 2687,
    "infected": 4286,
    "id": "EHKZ6ivhrJUs3XqNDBOw",
    "pop": 3692000,
    "country": "RU",
    "longitude": 66.9483,
    "name": "Tyumen Oblast",
    "sick": 1578,
    "invisible": false
  },
  {
    "country": "TW",
    "longitude": 121.563698,
    "name": "Taiwan",
    "latitude": 25.03841,
    "dead": 7,
    "lastUpdated": "2020-07-15T17:16:03.735Z",
    "recovered": 440,
    "infected": 451,
    "id": "EKTfs8e7M6DXzI1HqyyX",
    "pop": 23780000,
    "sick": 4,
    "invisible": false
  },
  {
    "longitude": -84.387618,
    "name": "Costa Rica",
    "latitude": 10.327273,
    "dead": 37,
    "lastUpdated": "2020-07-15T17:16:03.730Z",
    "recovered": 2441,
    "infected": 8482,
    "id": "EQzJvzVHKjs8kLmK7BMu",
    "pop": 4906000,
    "country": "CR",
    "sick": 6004,
    "invisible": false
  },
  {
    "country": "IN",
    "longitude": 71.1924,
    "name": "Gujarat",
    "latitude": 22.2587,
    "dead": 2080,
    "lastUpdated": "2020-07-15T17:11:01.888Z",
    "recovered": 31346,
    "infected": 44648,
    "id": "ERwk9R9en4m9WbdoMbIg",
    "pop": 62700000,
    "sick": 11222,
    "invisible": false
  },
  {
    "latitude": 63.2853,
    "dead": 113,
    "lastUpdated": "2020-07-15T17:00:10.994Z",
    "recovered": 4699,
    "infected": 7370,
    "id": "EVMBsgCJedjHy91mDYEC",
    "pop": 1155000,
    "country": "RU",
    "longitude": 42.5884,
    "name": "Arkhangelsk Oblast",
    "sick": 2558,
    "invisible": false
  },
  {
    "lastUpdated": "2020-07-15T17:11:01.892Z",
    "recovered": 459,
    "infected": 619,
    "id": "Esl5UlCVB9s8pmGB5Ofr",
    "pop": 1055000,
    "country": "IN",
    "longitude": 76.7794,
    "name": "Chandigarh",
    "latitude": 30.7333,
    "dead": 11,
    "sick": 149,
    "invisible": false
  },
  {
    "country": "PL",
    "longitude": 22.653,
    "name": "Lubelskie",
    "latitude": 51.24,
    "dead": 20,
    "lastUpdated": "2020-07-15T17:03:02.032Z",
    "recovered": 0,
    "infected": 845,
    "id": "Esy1La2CxwH5uB8bGVWZ",
    "pop": 2148000,
    "sick": 825,
    "invisible": false
  },
  {
    "name": "Puerto Rico",
    "alwaysShow": true,
    "dead": 171,
    "latitude": 18.200178,
    "infected": 10379,
    "recovered": 0,
    "pop": 3195000,
    "country": "US",
    "lastUpdated": "2020-07-15T17:17:02.025Z",
    "state": "PR",
    "id": "F4rPrEVGAIMM5rfPEMv4",
    "longitude": -66.664513,
    "sick": 10208,
    "invisible": false
  },
  {
    "longitude": -74.058655,
    "name": "Cundinamarca",
    "latitude": 4.862437,
    "dead": 102,
    "lastUpdated": "2020-07-15T17:00:08.359Z",
    "recovered": 2129,
    "infected": 4472,
    "id": "F7MED5VwEhi3JvJu6KjB",
    "pop": 2919000,
    "country": "CO",
    "sick": 2241,
    "invisible": false
  },
  {
    "name": "Comoros",
    "latitude": -11.6455,
    "dead": 7,
    "lastUpdated": "2020-07-15T17:16:03.735Z",
    "recovered": 302,
    "infected": 321,
    "id": "F8LnLqvuWoWh8awBqiw1",
    "pop": 832322,
    "country": "KM",
    "longitude": 43.3333,
    "sick": 12,
    "invisible": false
  },
  {
    "name": "Afghanistan",
    "latitude": 33.93911,
    "dead": 1094,
    "lastUpdated": "2020-07-15T17:16:03.727Z",
    "recovered": 22456,
    "infected": 34994,
    "id": "FCDmlmnIIswd8bQiUjfN",
    "pop": 35530000,
    "country": "AF",
    "longitude": 67.709953,
    "sick": 11444,
    "invisible": false
  },
  {
    "latitude": 29.431585,
    "dead": 6,
    "lastUpdated": "2020-07-15T17:08:09.454Z",
    "recovered": 576,
    "infected": 583,
    "id": "FErOU1m4Tj7jIkRam3vF",
    "pop": 30480000,
    "country": "CN",
    "longitude": 106.912254,
    "name": "Chongqing",
    "sick": 1,
    "invisible": false
  },
  {
    "country": "KW",
    "longitude": 47.481766,
    "name": "Kuwait",
    "latitude": 29.311661,
    "dead": 399,
    "lastUpdated": "2020-07-15T17:16:03.726Z",
    "recovered": 46897,
    "infected": 56877,
    "id": "FZsUkhxBEgqsPb4eO0PN",
    "pop": 4137000,
    "sick": 9581,
    "invisible": false
  },
  {
    "latitude": -10.9111,
    "dead": 1033,
    "lastUpdated": "2020-07-15T16:57:08.720Z",
    "recovered": 0,
    "infected": 39167,
    "state": "SE",
    "id": "FboWeolpM62SZCLwdilT",
    "pop": 2278308,
    "country": "BR",
    "longitude": -37.0717,
    "name": "Sergipe",
    "sick": 38134,
    "invisible": false
  },
  {
    "id": "FeS45oMNC27pI17F0xEV",
    "pop": 67860000,
    "country": "IN",
    "longitude": 78.6569,
    "name": "Tamil Nadu",
    "latitude": 11.1271,
    "dead": 2167,
    "lastUpdated": "2020-07-15T17:11:01.887Z",
    "recovered": 102310,
    "infected": 151820,
    "sick": 47343,
    "invisible": false
  },
  {
    "lastUpdated": "2020-07-15T17:16:03.726Z",
    "recovered": 23459,
    "infected": 47671,
    "id": "FuiVEJvWb0QMCpxJ3563",
    "pop": 10770000,
    "country": "DO",
    "longitude": -70.430399,
    "name": "Dominican Republic",
    "latitude": 18.947829,
    "dead": 929,
    "sick": 23283,
    "invisible": false
  },
  {
    "name": "Telengana",
    "latitude": 18.1124,
    "dead": 386,
    "lastUpdated": "2020-07-15T17:11:01.888Z",
    "recovered": 25999,
    "infected": 39342,
    "id": "FyC551oNwmENxbr9Yght",
    "pop": 35190000,
    "country": "IN",
    "longitude": 79.0193,
    "sick": 12957,
    "invisible": false
  },
  {
    "country": "SK",
    "longitude": 19.699,
    "name": "Slovakia",
    "latitude": 48.669,
    "dead": 28,
    "lastUpdated": "2020-07-15T17:16:03.732Z",
    "recovered": 1507,
    "infected": 1927,
    "id": "FzIDXoqWnTI3nUfhPyT2",
    "pop": 5450000,
    "sick": 392,
    "invisible": false
  },
  {
    "latitude": 30.37532,
    "dead": 5386,
    "lastUpdated": "2020-07-15T17:16:03.724Z",
    "recovered": 172810,
    "infected": 255769,
    "id": "GAp7Wb6IMhdgbvEtMza9",
    "pop": 197000000,
    "country": "PK",
    "longitude": 69.345116,
    "name": "Pakistan",
    "sick": 77573,
    "invisible": false
  },
  {
    "longitude": 75.3412,
    "name": "Punjab",
    "latitude": 31.1471,
    "dead": 221,
    "lastUpdated": "2020-07-15T17:11:01.891Z",
    "recovered": 5867,
    "infected": 8799,
    "id": "GGru8cG08mANO8XDDUtZ",
    "pop": 27980000,
    "country": "IN",
    "sick": 2711,
    "invisible": false
  },
  {
    "latitude": 23.424076,
    "dead": 335,
    "lastUpdated": "2020-07-15T17:16:03.726Z",
    "recovered": 46025,
    "infected": 55573,
    "id": "GHzBIsHy2GiBc5JV2HMs",
    "pop": 9400000,
    "country": "AE",
    "longitude": 53.847816,
    "name": "United Arab Emirates",
    "sick": 9213,
    "invisible": false
  },
  {
    "id": "GLViSIjDjwvptOphedAu",
    "country": "US",
    "longitude": -95.7129,
    "invisible": true,
    "name": "Grand Princess",
    "latitude": 37.0902,
    "dead": 3,
    "lastUpdated": "2020-07-15T17:17:02.025Z",
    "recovered": 0,
    "infected": 103,
    "sick": 100
  },
  {
    "name": "London",
    "latitude": 51.5074,
    "dead": 0,
    "lastUpdated": "2020-07-15T17:13:12.002Z",
    "recovered": 0,
    "infected": 34273,
    "state": "EN",
    "id": "GPtoS0Yy2EnNafpmmTqY",
    "pop": 10100000,
    "country": "GB",
    "longitude": -0.1278,
    "sick": 34273,
    "invisible": false
  },
  {
    "longitude": -119.339046,
    "name": "California",
    "latitude": 36.621981,
    "dead": 7243,
    "lastUpdated": "2020-07-15T17:17:02.005Z",
    "recovered": 0,
    "infected": 346589,
    "state": "CA",
    "id": "Gh46r6vuaY7fbGt3IboN",
    "pop": 39560000,
    "country": "US",
    "sick": 339346,
    "invisible": false
  },
  {
    "latitude": 20.4283,
    "dead": 2,
    "lastUpdated": "2020-07-15T17:11:01.892Z",
    "recovered": 371,
    "infected": 558,
    "id": "GljWeVnun6o9DeW6rlEm",
    "pop": 343709,
    "country": "IN",
    "longitude": 72.8397,
    "name": "Dadra and Nagar Haveli",
    "sick": 185,
    "invisible": false
  },
  {
    "latitude": 35.87189,
    "dead": 428,
    "lastUpdated": "2020-07-15T17:17:02.018Z",
    "recovered": 0,
    "infected": 21738,
    "state": "OK",
    "id": "GpF8ULuKOQiFDCUHN44h",
    "pop": 3943000,
    "country": "US",
    "longitude": -97.145514,
    "name": "Oklahoma",
    "sick": 21310,
    "invisible": false
  },
  {
    "longitude": -71.557,
    "name": "Arauca",
    "latitude": 6.492,
    "dead": 0,
    "lastUpdated": "2020-07-15T17:00:08.360Z",
    "recovered": 62,
    "infected": 147,
    "id": "Gr09a1wn3BnMqjQbgEun",
    "pop": 256627,
    "country": "CO",
    "sick": 85,
    "invisible": false
  },
  {
    "longitude": 41.483,
    "name": "Ivanovo Oblast",
    "latitude": 57.1057,
    "dead": 59,
    "lastUpdated": "2020-07-15T17:00:10.996Z",
    "recovered": 4015,
    "infected": 5691,
    "id": "GsecjBfopdgTOnyRgtCA",
    "pop": 1014000,
    "country": "RU",
    "sick": 1617,
    "invisible": false
  },
  {
    "lastUpdated": "2020-07-15T17:01:02.862Z",
    "recovered": 2288,
    "infected": 2677,
    "state": "BA",
    "id": "Gzx6GX1qhBm714BkEC6l",
    "pop": 520891,
    "country": "IT",
    "longitude": 11.35,
    "name": "P.A. Bolzano",
    "latitude": 46.5,
    "dead": 292,
    "sick": 97,
    "invisible": false
  },
  {
    "recovered": 237,
    "infected": 249,
    "id": "H3JeVigVbo5CSYfZG4WI",
    "pop": 24710000,
    "country": "CN",
    "longitude": 113.750972,
    "name": "Inner Mongolia",
    "latitude": 42.83263,
    "dead": 1,
    "lastUpdated": "2020-07-15T17:08:09.453Z",
    "sick": 11,
    "invisible": false
  },
  {
    "longitude": -116.724977,
    "name": "Nevada",
    "latitude": 39.74536,
    "dead": 612,
    "lastUpdated": "2020-07-15T17:17:02.018Z",
    "recovered": 0,
    "infected": 29619,
    "state": "NV",
    "id": "H3bDg4eV30up4WWrIDAS",
    "pop": 3034000,
    "country": "US",
    "sick": 29007,
    "invisible": false
  },
  {
    "state": "CE",
    "id": "HEMWNnFxeFEoeOCBOLJD",
    "pop": 9075649,
    "country": "BR",
    "longitude": -38.526669,
    "name": "Ceará",
    "latitude": -3.731862,
    "dead": 6977,
    "lastUpdated": "2020-07-15T16:57:08.718Z",
    "recovered": 0,
    "infected": 139437,
    "sick": 132460,
    "invisible": false
  },
  {
    "latitude": 15.3173,
    "dead": 933,
    "lastUpdated": "2020-07-15T17:11:01.888Z",
    "recovered": 18467,
    "infected": 47253,
    "id": "HN5mGmxlqlSeFSNeu1K5",
    "pop": 64060000,
    "country": "IN",
    "longitude": 75.7139,
    "name": "Karnataka",
    "sick": 27853,
    "invisible": false
  },
  {
    "longitude": 90.4336,
    "name": "Bhutan",
    "latitude": 27.5142,
    "dead": 0,
    "lastUpdated": "2020-07-15T17:16:03.737Z",
    "recovered": 78,
    "infected": 84,
    "id": "HRDpwyxpqW9RN0xLFyNu",
    "pop": 807610,
    "country": "BT",
    "sick": 6,
    "invisible": false
  },
  {
    "name": "Uzbekistan",
    "latitude": 41.3775,
    "dead": 69,
    "lastUpdated": "2020-07-15T17:16:03.729Z",
    "recovered": 8343,
    "infected": 14466,
    "id": "HRTA10dtrruDEwjJEGMp",
    "pop": 32390000,
    "country": "UZ",
    "longitude": 64.5853,
    "sick": 6054,
    "invisible": false
  },
  {
    "lastUpdated": "2020-07-15T17:17:02.021Z",
    "recovered": 0,
    "infected": 15514,
    "state": "NM",
    "id": "HSSFomRju0doHhWgW8On",
    "pop": 2095000,
    "country": "US",
    "longitude": -105.576255,
    "name": "New Mexico",
    "latitude": 34.138916,
    "dead": 551,
    "sick": 14963,
    "invisible": false
  },
  {
    "recovered": 0,
    "infected": 781,
    "id": "HZkACHjW7NlYjg8vEMj2",
    "pop": 412812,
    "country": "CL",
    "longitude": -72.3311,
    "name": "Los Ríos",
    "latitude": -40.231,
    "dead": 11,
    "lastUpdated": "2020-07-15T17:20:05.274Z",
    "sick": 770,
    "invisible": false
  },
  {
    "latitude": 53.6127,
    "dead": 21,
    "lastUpdated": "2020-07-15T17:00:06.901Z",
    "recovered": 784,
    "infected": 809,
    "state": "MV",
    "id": "He1gSS1v50t06i3YrqvB",
    "pop": 1635000,
    "country": "DE",
    "longitude": 12.4296,
    "name": "Mecklenburg-Vorpommern",
    "sick": 4,
    "invisible": false
  },
  {
    "latitude": 42.25,
    "dead": 467,
    "lastUpdated": "2020-07-15T17:01:02.861Z",
    "recovered": 2740,
    "infected": 3331,
    "state": "65",
    "id": "I9EqrZfbPnkioNU4wZGz",
    "pop": 1315000,
    "country": "IT",
    "longitude": 13.75,
    "name": "Abruzzo",
    "sick": 124,
    "invisible": false
  },
  {
    "id": "IAX0OQLVnUwU7FX0ENF1",
    "pop": 113460000,
    "country": "CN",
    "longitude": 113.373448,
    "name": "Guangdong",
    "latitude": 23.363855,
    "dead": 8,
    "lastUpdated": "2020-07-15T17:08:09.453Z",
    "recovered": 1636,
    "infected": 1650,
    "sick": 6,
    "invisible": false
  },
  {
    "lastUpdated": "2020-07-15T17:08:09.455Z",
    "recovered": 1254,
    "infected": 1276,
    "id": "IFuMrMvSjoiX5agYvllh",
    "pop": 94000000,
    "country": "CN",
    "longitude": 113.484016,
    "name": "Henan",
    "latitude": 33.875408,
    "dead": 22,
    "sick": 0,
    "invisible": false
  },
  {
    "recovered": 0,
    "infected": 750,
    "id": "IHqRHC8K3OZPN8gniM7V",
    "pop": 451000,
    "country": "PT",
    "longitude": -8.16667,
    "name": "Algarve",
    "latitude": 37.2,
    "dead": 15,
    "lastUpdated": "2020-07-15T16:53:02.465Z",
    "sick": 735,
    "invisible": false
  },
  {
    "lastUpdated": "2020-07-15T17:00:08.360Z",
    "recovered": 1131,
    "infected": 1770,
    "id": "IKWjRUo0SYgHQKdWjTvq",
    "pop": 333194,
    "country": "CO",
    "longitude": -77.0197,
    "name": "Buenaventura D.E.",
    "latitude": 3.883,
    "dead": 117,
    "sick": 522,
    "invisible": false
  },
  {
    "longitude": -0.995,
    "name": "East Midlands",
    "latitude": 52.87,
    "dead": 0,
    "lastUpdated": "2020-07-15T17:13:12.001Z",
    "recovered": 0,
    "infected": 22147,
    "state": "EN",
    "id": "INyu1R48Ppv8cfW4Nuz4",
    "pop": 4811000,
    "country": "GB",
    "sick": 22147,
    "invisible": false
  },
  {
    "latitude": 22.017,
    "dead": 212,
    "lastUpdated": "2020-07-15T17:02:08.874Z",
    "recovered": 0,
    "infected": 3903,
    "id": "ISRKMzEDojyrZ9iyWwex",
    "pop": 1342600,
    "country": "MX",
    "longitude": -102.317,
    "name": "Aguascalientes",
    "sick": 3691,
    "invisible": false
  },
  {
    "recovered": 0,
    "infected": 20722,
    "id": "IdKbgzgKLpjBFh4UPOwu",
    "pop": 5321300,
    "country": "MX",
    "longitude": -100.316116,
    "name": "Nuevo León",
    "latitude": 25.686613,
    "dead": 654,
    "lastUpdated": "2020-07-15T17:02:08.873Z",
    "sick": 20068,
    "invisible": false
  },
  {
    "lastUpdated": "2020-07-15T17:02:08.872Z",
    "recovered": 0,
    "infected": 5798,
    "id": "IhhiYI6T0TX4CYVPcnmH",
    "pop": 3826900,
    "country": "MX",
    "longitude": -106.069099,
    "name": "Chihuahua",
    "latitude": 28.632996,
    "dead": 759,
    "sick": 5039,
    "invisible": false
  },
  {
    "latitude": -36.7,
    "dead": 40,
    "lastUpdated": "2020-07-15T17:20:05.273Z",
    "recovered": 0,
    "infected": 3032,
    "id": "ImnOiVx9Cb8Nw7cbRcQ7",
    "pop": 480600,
    "country": "CL",
    "longitude": -72.57,
    "name": "Ñuble",
    "sick": 2992,
    "invisible": false
  },
  {
    "name": "Haiti",
    "latitude": 19.0558,
    "dead": 143,
    "lastUpdated": "2020-07-15T17:16:03.730Z",
    "recovered": 3283,
    "infected": 6831,
    "id": "InZ38sIqyK7FN7XAOZoX",
    "pop": 10980000,
    "country": "HT",
    "longitude": -73.0513,
    "sick": 3405,
    "invisible": false
  },
  {
    "state": "GA",
    "id": "IvQkDJkTAsoIqPRAU25n",
    "pop": 10520000,
    "country": "US",
    "longitude": -83.280125,
    "name": "Georgia (US)",
    "latitude": 32.528564,
    "dead": 3054,
    "lastUpdated": "2020-07-15T17:17:02.007Z",
    "recovered": 0,
    "infected": 123963,
    "sick": 120909,
    "invisible": false
  },
  {
    "id": "IvVhpOoGpH6JVkGyUhXN",
    "pop": 4794000,
    "country": "NZ",
    "longitude": 172.488081,
    "name": "New Zealand",
    "latitude": -42.8285,
    "dead": 22,
    "lastUpdated": "2020-07-15T17:16:03.733Z",
    "recovered": 1498,
    "infected": 1547,
    "sick": 27,
    "invisible": false
  },
  {
    "lastUpdated": "2020-07-15T17:11:01.892Z",
    "recovered": 153,
    "infected": 462,
    "id": "IwYKiIVY18NGwdGQFGWW",
    "pop": 1255000,
    "country": "IN",
    "longitude": 94.7278,
    "name": "Arunachal Pradesh",
    "latitude": 28.218,
    "dead": 3,
    "sick": 306,
    "invisible": false
  },
  {
    "lastUpdated": "2020-07-15T17:16:03.730Z",
    "recovered": 2671,
    "infected": 10010,
    "id": "J3mZXlfEnnJx4CDZLvRG",
    "pop": 28870000,
    "country": "VE",
    "longitude": -66.5897,
    "name": "Venezuela",
    "latitude": 6.4238,
    "dead": 96,
    "sick": 7243,
    "invisible": false
  },
  {
    "recovered": 37,
    "infected": 42,
    "id": "JEMCwkwXK39jd1lZ7VgJ",
    "pop": 107932,
    "country": "CO",
    "longitude": -72.633,
    "name": "Guaviare",
    "latitude": 2.567,
    "dead": 0,
    "lastUpdated": "2020-07-15T17:00:08.361Z",
    "sick": 5,
    "invisible": false
  },
  {
    "country": "RU",
    "longitude": 40.1754,
    "name": "Adygea",
    "latitude": 44.8229,
    "dead": 14,
    "lastUpdated": "2020-07-15T17:00:11.013Z",
    "recovered": 1843,
    "infected": 2291,
    "id": "JOJVBvOnsLDJPVeYJaI2",
    "pop": 453000,
    "sick": 434,
    "invisible": false
  },
  {
    "name": "Cyprus",
    "latitude": 35.1264,
    "dead": 19,
    "lastUpdated": "2020-07-15T17:16:03.734Z",
    "recovered": 839,
    "infected": 1023,
    "id": "JQByE4l2OA6sGOqIcWrM",
    "pop": 1170000,
    "country": "CY",
    "longitude": 33.4299,
    "sick": 165,
    "invisible": false
  },
  {
    "longitude": 85.3131,
    "name": "Bihar",
    "latitude": 25.0961,
    "dead": 157,
    "lastUpdated": "2020-07-15T17:11:01.888Z",
    "recovered": 13533,
    "infected": 20173,
    "id": "JR7hOGked7CZtIs2nCV5",
    "pop": 99020000,
    "country": "IN",
    "sick": 6483,
    "invisible": false
  },
  {
    "latitude": 14.628434,
    "dead": 1302,
    "lastUpdated": "2020-07-15T17:16:03.728Z",
    "recovered": 4453,
    "infected": 30872,
    "id": "JUWE6bG3b5oL7fKQMSvv",
    "pop": 17250000,
    "country": "GT",
    "longitude": -90.522713,
    "name": "Guatemala",
    "sick": 25117,
    "invisible": false
  },
  {
    "longitude": 6.1296,
    "name": "Luxembourg",
    "latitude": 49.8153,
    "dead": 111,
    "lastUpdated": "2020-07-15T17:16:03.731Z",
    "recovered": 4247,
    "infected": 5122,
    "id": "JcFsHSn2WvZ5LJW42ovG",
    "pop": 602005,
    "country": "LU",
    "sick": 764,
    "invisible": false
  },
  {
    "longitude": -74.167,
    "name": "Bolívar",
    "latitude": 8.8,
    "dead": 66,
    "lastUpdated": "2020-07-15T17:00:08.360Z",
    "recovered": 662,
    "infected": 1403,
    "id": "JmOyaFe25yZCIV64JbZj",
    "pop": 2049000,
    "country": "CO",
    "sick": 675,
    "invisible": false
  },
  {
    "longitude": -115.783,
    "name": "Baja California",
    "latitude": 31.4,
    "dead": 2233,
    "lastUpdated": "2020-07-15T17:02:08.872Z",
    "recovered": 0,
    "infected": 11031,
    "id": "Jp9ePErcc8i1aOozEAMf",
    "pop": 3648100,
    "country": "MX",
    "sick": 8798,
    "invisible": false
  },
  {
    "id": "Jr8syCB0lydmPDXw8Q6N",
    "pop": 1786500,
    "country": "CO",
    "longitude": -75.8814316,
    "name": "Córdoba",
    "latitude": 8.7479801,
    "dead": 213,
    "lastUpdated": "2020-07-15T17:00:08.360Z",
    "recovered": 408,
    "infected": 1695,
    "sick": 1074,
    "invisible": false
  },
  {
    "name": "Togo",
    "latitude": 8.6195,
    "dead": 15,
    "lastUpdated": "2020-07-15T17:16:03.734Z",
    "recovered": 528,
    "infected": 731,
    "id": "JrBbirlBKGdWSdcDt7PF",
    "pop": 7798000,
    "country": "TG",
    "longitude": 0.8248,
    "sick": 188,
    "invisible": false
  },
  {
    "longitude": 25.4858,
    "name": "Bulgaria",
    "latitude": 42.7339,
    "dead": 283,
    "lastUpdated": "2020-07-15T17:16:03.730Z",
    "recovered": 3663,
    "infected": 7645,
    "id": "JzZ8sbqzjutThVjkPKPL",
    "pop": 7050000,
    "country": "BG",
    "sick": 3699,
    "invisible": false
  },
  {
    "longitude": 20.709,
    "name": "Świętokrzyskie",
    "latitude": 50.823,
    "dead": 42,
    "lastUpdated": "2020-07-15T17:03:02.032Z",
    "recovered": 0,
    "infected": 866,
    "id": "KGrK7gafkeWjmU6sHQd2",
    "pop": 1263000,
    "country": "PL",
    "sick": 824,
    "invisible": false
  },
  {
    "recovered": 10614,
    "infected": 16635,
    "id": "KLBR5QHW6DePaGcFxlqH",
    "pop": 4325000,
    "country": "RU",
    "longitude": 61.9316,
    "name": "Sverdlovsk Oblast",
    "latitude": 59.0077,
    "dead": 175,
    "lastUpdated": "2020-07-15T17:00:10.989Z",
    "sick": 5846,
    "invisible": false
  },
  {
    "recovered": 8285,
    "infected": 10042,
    "state": "42",
    "id": "KLXicxFogWnu0dLp4bNK",
    "pop": 1557000,
    "country": "IT",
    "longitude": 8.833,
    "name": "Liguria",
    "latitude": 44.5,
    "dead": 1561,
    "lastUpdated": "2020-07-15T17:01:02.862Z",
    "sick": 196,
    "invisible": false
  },
  {
    "latitude": 56.4385,
    "dead": 30,
    "lastUpdated": "2020-07-15T17:00:11.005Z",
    "recovered": 2925,
    "infected": 3380,
    "id": "KUnAVGJH6fLwFetE8A2x",
    "pop": 682000,
    "country": "RU",
    "longitude": 47.9608,
    "name": "Mari El Republic",
    "sick": 425,
    "invisible": false
  },
  {
    "name": "Cesar",
    "latitude": 10.4631,
    "dead": 37,
    "lastUpdated": "2020-07-15T17:00:08.359Z",
    "recovered": 889,
    "infected": 1584,
    "id": "KpOz3WmiZkrXUMlUJNlV",
    "pop": 1201000,
    "country": "CO",
    "longitude": -73.2532,
    "sick": 658,
    "invisible": false
  },
  {
    "latitude": 43.4167,
    "dead": 1127,
    "lastUpdated": "2020-07-15T17:01:02.863Z",
    "recovered": 8898,
    "infected": 10338,
    "state": "52",
    "id": "KrLrJbpDqqiXgUPGCCW9",
    "pop": 3737000,
    "country": "IT",
    "longitude": 11,
    "name": "Toscana",
    "sick": 313,
    "invisible": false
  },
  {
    "longitude": 80.771797,
    "name": "Sri Lanka",
    "latitude": 7.873054,
    "dead": 11,
    "lastUpdated": "2020-07-15T17:16:03.732Z",
    "recovered": 2001,
    "infected": 2671,
    "id": "KsWzJO06cf0d6LJ4ZNh9",
    "pop": 21440000,
    "country": "LK",
    "sick": 659,
    "invisible": false
  },
  {
    "latitude": 15.9129,
    "dead": 452,
    "lastUpdated": "2020-07-15T17:11:01.888Z",
    "recovered": 18378,
    "infected": 35451,
    "id": "KtQIo2DoqjELtPAlyDVO",
    "pop": 49670000,
    "country": "IN",
    "longitude": 79.74,
    "name": "Andhra Pradesh",
    "sick": 16621,
    "invisible": false
  },
  {
    "country": "FR",
    "longitude": -63.0501,
    "name": "Saint-Martin",
    "alwaysShow": true,
    "latitude": 18.0708,
    "dead": 3,
    "lastUpdated": "2020-07-15T17:16:03.739Z",
    "recovered": 37,
    "infected": 43,
    "id": "LBUtrLDKJiupXjlUNTUe",
    "pop": 32125,
    "sick": 3,
    "invisible": false
  },
  {
    "country": "RU",
    "longitude": 36.9242,
    "name": "Oryol Oblast",
    "latitude": 52.7856,
    "dead": 75,
    "lastUpdated": "2020-07-15T17:00:10.999Z",
    "recovered": 3714,
    "infected": 5153,
    "id": "LD8TNScpLrLRvgpQAn9T",
    "pop": 747000,
    "sick": 1364,
    "invisible": false
  },
  {
    "lastUpdated": "2020-07-15T17:16:03.737Z",
    "recovered": 81,
    "infected": 84,
    "id": "LTGEU2E9MFkrCcFhZYVk",
    "pop": 38557,
    "country": "LI",
    "longitude": 9.5554,
    "name": "Liechtenstein",
    "latitude": 47.166,
    "dead": 1,
    "sick": 2,
    "invisible": false
  },
  {
    "name": "Guinea",
    "latitude": 9.9456,
    "dead": 38,
    "lastUpdated": "2020-07-15T17:16:03.731Z",
    "recovered": 4951,
    "infected": 6200,
    "id": "LU2QWt5ao8IJa8evNYVV",
    "pop": 12720000,
    "country": "GN",
    "longitude": -9.6966,
    "sick": 1211,
    "invisible": false
  },
  {
    "latitude": 29.6667,
    "dead": 1328,
    "lastUpdated": "2020-07-15T17:02:08.872Z",
    "recovered": 0,
    "infected": 13300,
    "id": "LYCBHrA9ms6GcxpLGPCT",
    "pop": 3062000,
    "country": "MX",
    "longitude": -110.5,
    "name": "Sonora",
    "sick": 11972,
    "invisible": false
  },
  {
    "country": "SR",
    "longitude": -56.0277824,
    "name": "Suriname",
    "latitude": 3.9193051,
    "dead": 18,
    "lastUpdated": "2020-07-15T17:16:03.734Z",
    "recovered": 544,
    "infected": 801,
    "id": "LglKINHyQpYpFxjckbQ6",
    "pop": 563402,
    "sick": 239,
    "invisible": false
  },
  {
    "longitude": -106.4509,
    "name": "Saskatchewan",
    "latitude": 52.9399,
    "dead": 15,
    "lastUpdated": "2020-07-15T17:07:09.878Z",
    "recovered": 785,
    "infected": 876,
    "state": "SK",
    "id": "LkIDKY0CMAqzbwBHyYCP",
    "pop": 1174000,
    "country": "CA",
    "sick": 76,
    "invisible": false
  },
  {
    "id": "LooNn6RuMiDhQnwa9svw",
    "pop": 636442,
    "country": "EH",
    "longitude": -12.8858,
    "name": "Western Sahara",
    "latitude": 24.2155,
    "dead": 1,
    "lastUpdated": "2020-07-15T17:16:03.740Z",
    "recovered": 8,
    "infected": 10,
    "sick": 1,
    "invisible": false
  },
  {
    "latitude": 43.363129,
    "dead": 334,
    "lastUpdated": "2020-07-14T22:54:05.261Z",
    "recovered": 1063,
    "infected": 3427,
    "state": "AS",
    "id": "Lsga7AvYNnY0qQ5gEfV8",
    "pop": 1022000,
    "country": "ES",
    "longitude": -5.951843,
    "name": "Principado de Asturias",
    "sick": 2030,
    "invisible": false
  },
  {
    "recovered": 2652,
    "infected": 4203,
    "state": "EX",
    "id": "LuEErlF7dVKI0eJsRjFm",
    "pop": 1065000,
    "country": "ES",
    "longitude": -6.0679,
    "name": "Extremadura",
    "latitude": 39.4937,
    "dead": 519,
    "lastUpdated": "2020-07-14T22:53:05.930Z",
    "sick": 1032,
    "invisible": false
  },
  {
    "lastUpdated": "2020-07-15T17:02:08.873Z",
    "recovered": 0,
    "infected": 14629,
    "id": "M3wdiueFtwrUHiQ2rOXA",
    "pop": 5965000,
    "country": "MX",
    "longitude": -101.2591,
    "name": "Guanajuato",
    "latitude": 21.0186,
    "dead": 839,
    "sick": 13790,
    "invisible": false
  },
  {
    "state": "KY",
    "id": "MC8MXFw9iXYybnF8v7e6",
    "pop": 4468000,
    "country": "US",
    "longitude": -84.27,
    "name": "Kentucky",
    "latitude": 37.8393,
    "dead": 635,
    "lastUpdated": "2020-07-15T17:17:02.021Z",
    "recovered": 0,
    "infected": 20223,
    "sick": 19588,
    "invisible": false
  },
  {
    "country": "GB",
    "longitude": -3.436,
    "invisible": true,
    "name": "Unknown UK region or state",
    "latitude": 55.3781,
    "dead": 40462,
    "lastUpdated": "2020-07-15T17:13:12.002Z",
    "recovered": 0,
    "infected": 8297,
    "id": "MEjlm8VYdGA28TTTnQmf",
    "sick": 0
  },
  {
    "country": "PT",
    "longitude": -7.7441,
    "name": "Norte",
    "latitude": 41.3006,
    "dead": 826,
    "lastUpdated": "2020-07-15T16:53:02.464Z",
    "recovered": 0,
    "infected": 18215,
    "id": "MG4e9tulLJ010SZJvbYN",
    "pop": 3689000,
    "sick": 17389,
    "invisible": false
  },
  {
    "latitude": 56.4907,
    "dead": 2490,
    "lastUpdated": "2020-07-15T17:13:12.001Z",
    "recovered": 0,
    "infected": 18373,
    "state": "SC",
    "id": "MObRYyIriHG337L8FyFC",
    "pop": 5450000,
    "country": "GB",
    "longitude": -4.2026,
    "name": "Scotland",
    "sick": 15883,
    "invisible": false
  },
  {
    "name": "Indiana",
    "latitude": 40.2672,
    "dead": 2785,
    "lastUpdated": "2020-07-15T17:17:02.012Z",
    "recovered": 0,
    "infected": 53370,
    "state": "IN",
    "id": "MOxDkmQ4wBi1CuAdVxDE",
    "pop": 6692000,
    "country": "US",
    "longitude": -86.1349,
    "sick": 50585,
    "invisible": false
  },
  {
    "id": "MdQOfc1gNh2DOqwSP6UV",
    "pop": 24290000,
    "country": "CI",
    "longitude": -5.5471,
    "name": "Ivory Coast",
    "latitude": 7.54,
    "dead": 87,
    "lastUpdated": "2020-07-15T17:16:03.729Z",
    "recovered": 6908,
    "infected": 13037,
    "sick": 6042,
    "invisible": false
  },
  {
    "country": "DE",
    "longitude": 7.6616,
    "name": "Nordrhein-Westfalen",
    "latitude": 51.4332,
    "dead": 1723,
    "lastUpdated": "2020-07-15T17:00:06.902Z",
    "recovered": 41717,
    "infected": 45276,
    "state": "NW",
    "id": "MjpYq3zQyAvSQlVVYjD2",
    "pop": 17910000,
    "sick": 1836,
    "invisible": false
  },
  {
    "latitude": 37.330509,
    "dead": 0,
    "lastUpdated": "2020-07-15T17:08:09.456Z",
    "recovered": 75,
    "infected": 75,
    "id": "MntmjjuHljarCdt6aIeE",
    "pop": 6301000,
    "country": "CN",
    "longitude": 105.977203,
    "name": "Ningxia",
    "sick": 0,
    "invisible": false
  },
  {
    "name": "Pará",
    "latitude": -3.20166586,
    "dead": 5318,
    "lastUpdated": "2020-07-15T16:57:08.719Z",
    "recovered": 0,
    "infected": 128570,
    "state": "PA",
    "id": "MuEB2UgkId5crsxi9zQT",
    "pop": 8513497,
    "country": "BR",
    "longitude": -52.203499186,
    "sick": 123252,
    "invisible": false
  },
  {
    "recovered": 3056,
    "infected": 4287,
    "id": "N0KGfqgROVOjAxWcd8wi",
    "pop": 1150000,
    "country": "RU",
    "longitude": 39.2032,
    "name": "Lipetsk Oblast",
    "latitude": 52.5265,
    "dead": 19,
    "lastUpdated": "2020-07-15T17:00:11.002Z",
    "sick": 1212,
    "invisible": false
  },
  {
    "longitude": 9.3501,
    "name": "Baden-Württemberg",
    "latitude": 48.6616,
    "dead": 1893,
    "lastUpdated": "2020-07-15T17:00:06.889Z",
    "recovered": 33806,
    "infected": 36557,
    "state": "BW",
    "id": "N3XsRBwJSsNclkEf7Zz5",
    "pop": 11020000,
    "country": "DE",
    "sick": 858,
    "invisible": false
  },
  {
    "id": "N7c13sCQF0G789XAVazJ",
    "pop": 3507000,
    "country": "BA",
    "longitude": 17.824332,
    "name": "Bosnia and Herzegovina",
    "latitude": 44.696652,
    "dead": 235,
    "lastUpdated": "2020-07-15T17:16:03.730Z",
    "recovered": 3335,
    "infected": 7411,
    "sick": 3841,
    "invisible": false
  },
  {
    "latitude": 37.242565,
    "dead": 0,
    "lastUpdated": "2020-07-15T17:08:09.454Z",
    "recovered": 198,
    "infected": 201,
    "id": "NBRIGIRrJB1Ry8prDNAC",
    "pop": 36500000,
    "country": "CN",
    "longitude": 111.856857,
    "name": "Shanxi",
    "sick": 3,
    "invisible": false
  },
  {
    "recovered": 0,
    "infected": 91266,
    "state": "NC",
    "id": "NC64Qp5kTqAfiTuR27k8",
    "pop": 10380000,
    "country": "US",
    "longitude": -79.0193,
    "name": "North Carolina",
    "latitude": 35.7596,
    "dead": 1586,
    "lastUpdated": "2020-07-15T17:17:02.011Z",
    "sick": 89680,
    "invisible": false
  },
  {
    "recovered": 3254,
    "infected": 3521,
    "state": "BB",
    "id": "NJjo2gfBvnbK4xatrsUz",
    "pop": 2504000,
    "country": "DE",
    "longitude": 12.5316,
    "name": "Brandenburg",
    "latitude": 52.4125,
    "dead": 177,
    "lastUpdated": "2020-07-15T17:00:06.899Z",
    "sick": 90,
    "invisible": false
  },
  {
    "state": "MP",
    "id": "NLLL6pJhJSw0lrDMD4uP",
    "longitude": 145.6739,
    "name": "Northern Mariana Islands",
    "alwaysShow": true,
    "dead": 2,
    "latitude": 15.0979,
    "infected": 36,
    "recovered": 0,
    "pop": 55144,
    "country": "US",
    "lastUpdated": "2020-07-15T17:17:02.024Z",
    "sick": 34,
    "invisible": false
  },
  {
    "country": "IN",
    "longitude": 79.0193,
    "name": "Uttarakhand",
    "latitude": 30.0668,
    "dead": 50,
    "lastUpdated": "2020-07-15T17:11:01.892Z",
    "recovered": 2948,
    "infected": 3785,
    "id": "NMeZEcGToxXfpi16PfFV",
    "pop": 10080000,
    "sick": 787,
    "invisible": false
  },
  {
    "country": "DE",
    "longitude": 9.1624,
    "name": "Hessen",
    "latitude": 50.6521,
    "dead": 521,
    "lastUpdated": "2020-07-15T17:00:06.900Z",
    "recovered": 10355,
    "infected": 11258,
    "state": "HE",
    "id": "Nk5vPgUIXsWVfbWZf15O",
    "pop": 6243000,
    "sick": 382,
    "invisible": false
  },
  {
    "country": "LV",
    "longitude": 25.837107,
    "name": "Latvia",
    "latitude": 56.96776,
    "dead": 31,
    "lastUpdated": "2020-07-15T17:16:03.733Z",
    "recovered": 1022,
    "infected": 1178,
    "id": "NmmMKy0YqA8StHdGzB5N",
    "pop": 1920000,
    "sick": 125,
    "invisible": false
  },
  {
    "name": "Pernambuco",
    "latitude": -8.472372,
    "dead": 5715,
    "lastUpdated": "2020-07-15T16:57:08.719Z",
    "recovered": 0,
    "infected": 73576,
    "state": "PE",
    "id": "NyGlFL1gATK1Omv9qtcC",
    "pop": 9496294,
    "country": "BR",
    "longitude": -37.946777,
    "sick": 67861,
    "invisible": false
  },
  {
    "name": "Liberia",
    "latitude": 6.4281,
    "dead": 51,
    "lastUpdated": "2020-07-15T17:16:03.734Z",
    "recovered": 439,
    "infected": 1024,
    "id": "O4g88K49HKEZLFXm5gxb",
    "pop": 4732000,
    "country": "LR",
    "longitude": -9.4295,
    "sick": 534,
    "invisible": false
  },
  {
    "lastUpdated": "2020-07-15T17:00:10.995Z",
    "recovered": 4142,
    "infected": 6540,
    "id": "O5fNOGWKosps6JTrzkpn",
    "pop": 2350000,
    "country": "RU",
    "longitude": 82.6759,
    "name": "Altai Krai",
    "latitude": 51.7936,
    "dead": 54,
    "sick": 2344,
    "invisible": false
  },
  {
    "name": "Zabaykalsky Krai",
    "latitude": 53.0929,
    "dead": 46,
    "lastUpdated": "2020-07-15T17:00:11.003Z",
    "recovered": 2887,
    "infected": 3767,
    "id": "O6PDzAxKENYbLsLjPx2K",
    "pop": 1072000,
    "country": "RU",
    "longitude": 116.9677,
    "sick": 834,
    "invisible": false
  },
  {
    "latitude": 34.003307,
    "dead": 993,
    "lastUpdated": "2020-07-15T17:17:02.012Z",
    "recovered": 0,
    "infected": 60389,
    "state": "SC",
    "id": "ONU4CK8QjViFHKg2w5if",
    "pop": 5084000,
    "country": "US",
    "longitude": -80.525613,
    "name": "South Carolina",
    "sick": 59396,
    "invisible": false
  },
  {
    "country": "US",
    "longitude": -89.582775,
    "name": "Mississippi",
    "latitude": 33.51822,
    "dead": 1272,
    "lastUpdated": "2020-07-15T17:17:02.013Z",
    "recovered": 0,
    "infected": 37542,
    "state": "MS",
    "id": "OYa0jFzdbAgo8zUsRv6q",
    "pop": 2987000,
    "sick": 36270,
    "invisible": false
  },
  {
    "name": "Maine",
    "latitude": 45.2538,
    "dead": 114,
    "lastUpdated": "2020-07-15T17:17:02.024Z",
    "recovered": 0,
    "infected": 3578,
    "state": "ME",
    "id": "OcXNp9kNVSwrRlG3bNVN",
    "pop": 1338000,
    "country": "US",
    "longitude": -69.4455,
    "sick": 3464,
    "invisible": false
  },
  {
    "longitude": 44.8203,
    "name": "Ingushetia",
    "latitude": 43.4052,
    "dead": 71,
    "lastUpdated": "2020-07-15T17:00:11.006Z",
    "recovered": 2529,
    "infected": 3344,
    "id": "OlKS5SPydHY2TedStFuf",
    "pop": 488000,
    "country": "RU",
    "sick": 744,
    "invisible": false
  },
  {
    "country": "AU",
    "longitude": 146.725256,
    "name": "Tasmania",
    "latitude": -41.915264,
    "dead": 13,
    "lastUpdated": "2020-07-15T17:13:33.673Z",
    "recovered": 215,
    "infected": 228,
    "state": "TAS",
    "id": "OnOseaqWdnuP18oruABW",
    "pop": 515000,
    "sick": 0,
    "invisible": false
  },
  {
    "country": "BR",
    "longitude": -56.666668,
    "name": "Mato Grosso",
    "latitude": -16.35,
    "dead": 1105,
    "lastUpdated": "2020-07-15T16:57:08.720Z",
    "recovered": 0,
    "infected": 29279,
    "state": "MT",
    "id": "P0GHFGUt1pkKTk5PM8uz",
    "pop": 3441998,
    "sick": 28174,
    "invisible": false
  },
  {
    "country": "RU",
    "longitude": 40.5927,
    "name": "Vladimir Oblast",
    "latitude": 56.1553,
    "dead": 96,
    "lastUpdated": "2020-07-15T17:00:11.001Z",
    "recovered": 4113,
    "infected": 5048,
    "id": "P2I90oqdFSoVk03AaGo4",
    "pop": 1378000,
    "sick": 839,
    "invisible": false
  },
  {
    "lastUpdated": "2020-07-15T17:16:03.736Z",
    "recovered": 200,
    "infected": 203,
    "id": "P4mwRFLbrvT0t75uD8Wo",
    "pop": 61559,
    "country": "KY",
    "longitude": -81.2546,
    "name": "Cayman Islands",
    "latitude": 19.3133,
    "dead": 1,
    "sick": 2,
    "invisible": false
  },
  {
    "latitude": 16.7424984,
    "dead": 1,
    "lastUpdated": "2020-07-15T17:16:03.740Z",
    "recovered": 10,
    "infected": 12,
    "id": "PEDkeFMTOZpvHiSVxBk7",
    "pop": 5900,
    "country": "MS",
    "longitude": -62.1873665,
    "name": "Montserrat",
    "sick": 1,
    "invisible": false
  },
  {
    "longitude": 29.8739,
    "name": "Rwanda",
    "latitude": -1.9403,
    "dead": 4,
    "lastUpdated": "2020-07-15T17:16:03.733Z",
    "recovered": 737,
    "infected": 1416,
    "id": "PEcgZGEkyhABztt1Ufgc",
    "pop": 12210000,
    "country": "RW",
    "sick": 675,
    "invisible": false
  },
  {
    "id": "PHlHdeqYd6KgxsJGfEz0",
    "pop": 4063000,
    "country": "RU",
    "longitude": 56.1645,
    "name": "Bashkortostan",
    "latitude": 54.2312,
    "dead": 19,
    "lastUpdated": "2020-07-15T17:00:10.996Z",
    "recovered": 4255,
    "infected": 6077,
    "sick": 1803,
    "invisible": false
  },
  {
    "recovered": 0,
    "infected": 43742,
    "state": "MN",
    "id": "PJvVYosLIhbcRZYnKX1R",
    "pop": 5611000,
    "country": "US",
    "longitude": -94.6859,
    "name": "Minnesota",
    "latitude": 46.7296,
    "dead": 1558,
    "lastUpdated": "2020-07-15T17:17:02.012Z",
    "sick": 42184,
    "invisible": false
  },
  {
    "state": "IL",
    "id": "PTwQr9ijo0TBBsPH2sdJ",
    "pop": 12740000,
    "country": "US",
    "longitude": -89.3985,
    "name": "Illinois",
    "latitude": 40.6331,
    "dead": 7419,
    "lastUpdated": "2020-07-15T17:17:02.007Z",
    "recovered": 0,
    "infected": 156638,
    "sick": 149219,
    "invisible": false
  },
  {
    "name": "Saint Lucia",
    "latitude": 13.909444,
    "dead": 0,
    "lastUpdated": "2020-07-15T17:16:03.739Z",
    "recovered": 19,
    "infected": 22,
    "id": "PjLqCeFdyzdZNcZxMkK1",
    "pop": 178844,
    "country": "LC",
    "longitude": -60.978893,
    "sick": 3,
    "invisible": false
  },
  {
    "name": "Comunidad Foral de Navarra",
    "latitude": 42.6954,
    "dead": 528,
    "lastUpdated": "2020-07-14T22:52:45.155Z",
    "recovered": 3905,
    "infected": 8763,
    "state": "NC",
    "id": "PmUlsNx2uFLU797wwU39",
    "pop": 649900,
    "country": "ES",
    "longitude": -1.6761,
    "sick": 4330,
    "invisible": false
  },
  {
    "longitude": 9.460554,
    "name": "Tunisia",
    "latitude": 34.201507,
    "dead": 50,
    "lastUpdated": "2020-07-15T17:16:03.733Z",
    "recovered": 1091,
    "infected": 1319,
    "id": "Pr76V4raf108uSRoEXac",
    "pop": 11530000,
    "country": "TN",
    "sick": 178,
    "invisible": false
  },
  {
    "longitude": 31.4659,
    "name": "Eswatini",
    "latitude": -26.5225,
    "dead": 20,
    "lastUpdated": "2020-07-15T17:16:03.733Z",
    "recovered": 695,
    "infected": 1434,
    "id": "PuQgOd9KWiMzGZXm11sR",
    "pop": 1367000,
    "country": "SZ",
    "sick": 719,
    "invisible": false
  },
  {
    "recovered": 2488,
    "infected": 4448,
    "state": "VIC",
    "id": "Q18mrGvFWTLX2BU9SqhQ",
    "pop": 6359000,
    "country": "AU",
    "longitude": 143.94853,
    "name": "Victoria",
    "latitude": -37.009609,
    "dead": 27,
    "lastUpdated": "2020-07-15T17:13:33.673Z",
    "sick": 1933,
    "invisible": false
  },
  {
    "longitude": 9.6961,
    "name": "Schleswig-Holstein",
    "latitude": 54.2194,
    "dead": 159,
    "lastUpdated": "2020-07-15T17:00:06.903Z",
    "recovered": 3029,
    "infected": 3228,
    "state": "SH",
    "id": "Q39XkabIYxt15mHINzTa",
    "pop": 2890000,
    "country": "DE",
    "sick": 40,
    "invisible": false
  },
  {
    "lastUpdated": "2020-07-15T16:57:08.720Z",
    "recovered": 0,
    "infected": 40993,
    "state": "RS",
    "id": "QGpQNhuoVTUPHXvS7qcu",
    "pop": 11329605,
    "country": "BR",
    "longitude": -52.031696,
    "name": "Rio Grande do Sul",
    "latitude": -27.953491,
    "dead": 1060,
    "sick": 39933,
    "invisible": false
  },
  {
    "name": "Chuvashia",
    "latitude": 55.5596,
    "dead": 47,
    "lastUpdated": "2020-07-15T17:00:10.996Z",
    "recovered": 3253,
    "infected": 5998,
    "id": "QGyuno7Bc4kwuvGFgMiO",
    "pop": 1231000,
    "country": "RU",
    "longitude": 46.9284,
    "sick": 2698,
    "invisible": false
  },
  {
    "id": "QR9go2hQKXjty7JHUYe4",
    "pop": 1328000,
    "country": "EE",
    "longitude": 25.013607,
    "name": "Estonia",
    "latitude": 58.595272,
    "dead": 69,
    "lastUpdated": "2020-07-15T17:16:03.732Z",
    "recovered": 1901,
    "infected": 2016,
    "sick": 46,
    "invisible": false
  },
  {
    "name": "Komi Republic",
    "latitude": 63.8631,
    "dead": 39,
    "lastUpdated": "2020-07-15T17:00:11.002Z",
    "recovered": 2444,
    "infected": 4416,
    "id": "QTafh5fpbS8abcuyEjaL",
    "pop": 840000,
    "country": "RU",
    "longitude": 54.8313,
    "sick": 1933,
    "invisible": false
  },
  {
    "latitude": -20.318,
    "dead": 2082,
    "lastUpdated": "2020-07-15T16:57:08.719Z",
    "recovered": 0,
    "infected": 65213,
    "state": "ES",
    "id": "QaWDLKH8SuwD0Qxq6c38",
    "pop": 3972388,
    "country": "BR",
    "longitude": -40.336,
    "name": "Espírito Santo",
    "sick": 63131,
    "invisible": false
  },
  {
    "name": "Murmansk Oblast",
    "latitude": 67.8443,
    "dead": 39,
    "lastUpdated": "2020-07-15T17:00:10.993Z",
    "recovered": 4149,
    "infected": 7597,
    "id": "Qh73PKA4KWeuPoqZfWXz",
    "pop": 795000,
    "country": "RU",
    "longitude": 35.0884,
    "sick": 3409,
    "invisible": false
  },
  {
    "recovered": 0,
    "infected": 19812,
    "id": "Qkho455pBwx88Gohs3hL",
    "pop": 8222700,
    "country": "MX",
    "longitude": -103.6667,
    "name": "Jalisco",
    "latitude": 20.3333,
    "dead": 1084,
    "lastUpdated": "2020-07-15T17:02:08.873Z",
    "sick": 18728,
    "invisible": false
  },
  {
    "lastUpdated": "2020-07-15T17:16:03.740Z",
    "recovered": 8,
    "infected": 11,
    "id": "QlZrE4nosm5WfdA2aCDg",
    "pop": 8251000,
    "country": "PG",
    "longitude": 143.9555,
    "name": "Papua New Guinea",
    "latitude": -6.315,
    "dead": 0,
    "sick": 3,
    "invisible": false
  },
  {
    "infected": 243,
    "recovered": 0,
    "pop": 107268,
    "country": "US",
    "lastUpdated": "2020-07-15T17:17:02.025Z",
    "state": "VI",
    "id": "QqhD3YDMKXojvQY3Yu41",
    "longitude": -64.8963,
    "name": "U.S. Virgin Islands",
    "alwaysShow": true,
    "dead": 6,
    "latitude": 18.3358,
    "sick": 237,
    "invisible": false
  },
  {
    "id": "Qy2qW2ep5wltnYjPJBxh",
    "pop": 71937,
    "country": "DM",
    "longitude": -61.3709755,
    "name": "Dominica",
    "latitude": 15.414999,
    "dead": 0,
    "lastUpdated": "2020-07-15T17:16:03.740Z",
    "recovered": 18,
    "infected": 18,
    "sick": 0,
    "invisible": false
  },
  {
    "latitude": 5.167,
    "dead": 1,
    "lastUpdated": "2020-07-15T17:00:08.359Z",
    "recovered": 61,
    "infected": 131,
    "id": "R3IHMWqIUhOJJTlrmbUZ",
    "pop": 344027,
    "country": "CO",
    "longitude": -72.167,
    "name": "Casanare",
    "sick": 69,
    "invisible": false
  },
  {
    "id": "R8YCgephnxTufvcPWMgx",
    "pop": 4099000,
    "country": "PA",
    "longitude": -80.7821,
    "name": "Panama",
    "latitude": 8.538,
    "dead": 960,
    "lastUpdated": "2020-07-15T17:16:03.726Z",
    "recovered": 24667,
    "infected": 48096,
    "sick": 22469,
    "invisible": false
  },
  {
    "country": "HN",
    "longitude": -86.2419,
    "name": "Honduras",
    "latitude": 15.2,
    "dead": 807,
    "lastUpdated": "2020-07-15T17:16:03.728Z",
    "recovered": 3287,
    "infected": 29106,
    "id": "RA2SE0p2bVhqo0P2hzGY",
    "pop": 9265000,
    "sick": 25012,
    "invisible": false
  },
  {
    "name": "Arica y Parinacota",
    "latitude": -18.4745998,
    "dead": 31,
    "lastUpdated": "2020-07-15T17:20:05.269Z",
    "recovered": 0,
    "infected": 2735,
    "id": "RBt9RiwP7WUbMnJfD0lo",
    "pop": 224500,
    "country": "CL",
    "longitude": -70.2979202,
    "sick": 2704,
    "invisible": false
  },
  {
    "country": "IT",
    "longitude": 13.8,
    "name": "Friuli Venezia Giulia",
    "latitude": 45.633331,
    "dead": 345,
    "lastUpdated": "2020-07-15T16:01:01.686Z",
    "recovered": 2907,
    "infected": 3338,
    "state": "36",
    "id": "RCrDBCdBNYzgLNr0aB2H",
    "pop": 1216000,
    "sick": 86,
    "invisible": false
  },
  {
    "latitude": 41.878,
    "dead": 760,
    "lastUpdated": "2020-07-15T17:17:02.013Z",
    "recovered": 0,
    "infected": 36161,
    "state": "IA",
    "id": "RX0KDu1AFrlCsrRso0nb",
    "pop": 3156000,
    "country": "US",
    "longitude": -93.0977,
    "name": "Iowa",
    "sick": 35401,
    "invisible": false
  },
  {
    "recovered": 19075,
    "infected": 53131,
    "id": "RZ6PCe5TZsO15JjDObwO",
    "pop": 7413000,
    "country": "CO",
    "longitude": -74.063644,
    "name": "Bogotá D.C.",
    "latitude": 4.624335,
    "dead": 1214,
    "lastUpdated": "2020-07-15T17:00:08.357Z",
    "sick": 32842,
    "invisible": false
  },
  {
    "latitude": 26.3351002,
    "dead": 42,
    "lastUpdated": "2020-07-15T17:16:03.733Z",
    "recovered": 370,
    "infected": 1563,
    "id": "RaJxbzlnRFTuj4B8IbpC",
    "pop": 6846000,
    "country": "LY",
    "longitude": 17.2283306,
    "name": "Libya",
    "sick": 1151,
    "invisible": false
  },
  {
    "latitude": 39.0119,
    "dead": 298,
    "lastUpdated": "2020-07-15T17:17:02.021Z",
    "recovered": 0,
    "infected": 20302,
    "state": "KS",
    "id": "Rf4uvBfP3GRDSHdZElRd",
    "pop": 2912000,
    "country": "US",
    "longitude": -98.4842,
    "name": "Kansas",
    "sick": 20004,
    "invisible": false
  },
  {
    "lastUpdated": "2020-07-14T22:57:30.232Z",
    "recovered": 12418,
    "infected": 26528,
    "id": "RmEgf1xeclWt7XCF9oiR",
    "pop": 5518000,
    "country": "FR",
    "longitude": 6.1878,
    "name": "Grand Est",
    "latitude": 48.6998,
    "dead": 3587,
    "sick": 10523,
    "invisible": false
  },
  {
    "recovered": 4938,
    "infected": 19554,
    "state": "WAL",
    "id": "RryHraSohKQLAsdr1dHO",
    "pop": 3644000,
    "country": "BE",
    "longitude": 4.451,
    "name": "Wallonia",
    "latitude": 50.4176,
    "dead": 3392,
    "lastUpdated": "2020-07-15T17:07:07.252Z",
    "sick": 11224,
    "invisible": false
  },
  {
    "latitude": 51.2538,
    "dead": 2723,
    "lastUpdated": "2020-07-15T17:07:09.870Z",
    "recovered": 32785,
    "infected": 36950,
    "state": "ON",
    "id": "Rx4TuyMpfGb3S8wYJX0x",
    "pop": 14570000,
    "country": "CA",
    "longitude": -85.3232,
    "name": "Ontario",
    "sick": 1442,
    "invisible": false
  },
  {
    "longitude": -4.723611,
    "name": "Castilla y León",
    "latitude": 41.652779,
    "dead": 2793,
    "lastUpdated": "2020-07-14T22:52:12.007Z",
    "recovered": 8716,
    "infected": 26117,
    "state": "CL",
    "id": "S8ewN4zaYp8mjtuqqOTw",
    "pop": 2408000,
    "country": "ES",
    "sick": 14608,
    "invisible": false
  },
  {
    "country": "FR",
    "longitude": -61.011715,
    "name": "Martinique",
    "alwaysShow": true,
    "latitude": 14.652027,
    "dead": 15,
    "lastUpdated": "2020-07-15T17:16:03.736Z",
    "recovered": 98,
    "infected": 255,
    "id": "SDdefnq1bc3ZNr7SpEsW",
    "pop": 376480,
    "sick": 142,
    "invisible": false
  },
  {
    "latitude": 7.9465,
    "dead": 139,
    "lastUpdated": "2020-07-15T17:16:03.728Z",
    "recovered": 21397,
    "infected": 25252,
    "id": "SG9VWLOV3x2JsTkXmVSz",
    "pop": 28830000,
    "country": "GH",
    "longitude": -1.0232,
    "name": "Ghana",
    "sick": 3716,
    "invisible": false
  },
  {
    "lastUpdated": "2020-07-15T17:16:03.728Z",
    "recovered": 29800,
    "infected": 33148,
    "id": "SGe9sCPayMqh6RsGFaBA",
    "pop": 8570000,
    "country": "CH",
    "longitude": 8.227512,
    "name": "Switzerland",
    "latitude": 46.818188,
    "dead": 1968,
    "sick": 1380,
    "invisible": false
  },
  {
    "id": "SGhKBmmh5hss7hrNR8hK",
    "pop": 964000,
    "country": "RU",
    "longitude": 124.1238,
    "name": "Yakutia",
    "latitude": 66.7613,
    "dead": 37,
    "lastUpdated": "2020-07-15T17:00:11.001Z",
    "recovered": 4428,
    "infected": 4976,
    "sick": 511,
    "invisible": false
  },
  {
    "state": "QC",
    "id": "SHoOE3NiJgWAlDVBzwYH",
    "pop": 8485000,
    "country": "CA",
    "longitude": -71.208,
    "name": "Quebec",
    "latitude": 46.8139,
    "dead": 5633,
    "lastUpdated": "2020-07-15T17:07:09.878Z",
    "recovered": 26025,
    "infected": 56730,
    "sick": 25072,
    "invisible": false
  },
  {
    "latitude": 42.6026,
    "dead": 108,
    "lastUpdated": "2020-07-15T16:40:01.968Z",
    "recovered": 2370,
    "infected": 5118,
    "id": "SMWvuMMuKp2QK7O2tNia",
    "pop": 1831000,
    "country": "XK",
    "longitude": 20.903,
    "name": "Kosovo",
    "sick": 2640,
    "invisible": false
  },
  {
    "country": "RU",
    "longitude": 135,
    "name": "Primorsky Krai",
    "latitude": 45.0526,
    "dead": 60,
    "lastUpdated": "2020-07-15T17:00:10.999Z",
    "recovered": 3963,
    "infected": 5236,
    "id": "SNWCQwRwqYfxX8HZndTA",
    "pop": 1913000,
    "sick": 1213,
    "invisible": false
  },
  {
    "lastUpdated": "2020-07-15T17:11:01.892Z",
    "recovered": 1674,
    "infected": 2951,
    "id": "SPcujsH2YlUaoAr8AiWF",
    "pop": 1817000,
    "country": "IN",
    "longitude": 74.124,
    "name": "Goa",
    "latitude": 15.2993,
    "dead": 18,
    "sick": 1259,
    "invisible": false
  },
  {
    "recovered": 0,
    "infected": 37832,
    "state": "GO",
    "id": "SV5AMF59J61Vt4cXWLgy",
    "pop": 6921161,
    "country": "BR",
    "longitude": -48.953403,
    "name": "Goiás",
    "latitude": -16.328547,
    "dead": 880,
    "lastUpdated": "2020-07-15T16:57:08.720Z",
    "sick": 36952,
    "invisible": false
  },
  {
    "id": "SYFarIS62W0EW9bOaJmN",
    "pop": 75500,
    "country": "CO",
    "longitude": -68.436,
    "name": "Vichada",
    "latitude": 6.181,
    "dead": 0,
    "lastUpdated": "2020-07-15T17:00:08.361Z",
    "recovered": 1,
    "infected": 1,
    "sick": 0,
    "invisible": false
  },
  {
    "latitude": 39,
    "dead": 97,
    "lastUpdated": "2020-07-15T17:01:02.861Z",
    "recovered": 1062,
    "infected": 1218,
    "state": "78",
    "id": "SZdF624x0v1LlyzZjKFu",
    "pop": 1957000,
    "country": "IT",
    "longitude": 16.5,
    "name": "Calabria",
    "sick": 59,
    "invisible": false
  },
  {
    "name": "Nebraska",
    "latitude": 41.4925,
    "dead": 286,
    "lastUpdated": "2020-07-15T17:17:02.018Z",
    "recovered": 0,
    "infected": 21717,
    "state": "NE",
    "id": "SakhKQzKu1LRI8laqdQq",
    "pop": 1929000,
    "country": "US",
    "longitude": -99.9018,
    "sick": 21431,
    "invisible": false
  },
  {
    "lastUpdated": "2020-07-15T17:16:03.735Z",
    "recovered": 472,
    "infected": 599,
    "id": "SgHzWAAYK1j2sipovxM6",
    "pop": 859959,
    "country": "FR",
    "longitude": 55.5364,
    "name": "La Réunion",
    "alwaysShow": true,
    "latitude": -21.1151,
    "dead": 3,
    "sick": 124,
    "invisible": false
  },
  {
    "lastUpdated": "2020-07-15T17:16:03.736Z",
    "recovered": 133,
    "infected": 165,
    "id": "SioMALgUbo7peXmbco2f",
    "pop": 16010000,
    "country": "KH",
    "longitude": 104.990967,
    "name": "Cambodia",
    "latitude": 12.565679,
    "dead": 0,
    "sick": 32,
    "invisible": false
  },
  {
    "name": "Guam",
    "alwaysShow": true,
    "dead": 5,
    "latitude": 13.4443,
    "infected": 313,
    "recovered": 0,
    "pop": 164229,
    "country": "US",
    "lastUpdated": "2020-07-15T17:17:02.024Z",
    "state": "GU",
    "id": "SsWhuEElU7dCTTuH5fdQ",
    "longitude": 144.7937,
    "sick": 308,
    "invisible": false
  },
  {
    "recovered": 28492,
    "infected": 0,
    "id": "SuCr5emUaJ9RHTll1P1p",
    "country": "PL",
    "longitude": 19.1344,
    "invisible": true,
    "name": "Unknown Poland region",
    "latitude": 51.9189,
    "dead": 0,
    "lastUpdated": "2020-07-15T17:16:03.727Z",
    "sick": 0
  },
  {
    "name": "Udmurtia",
    "latitude": 57.067,
    "dead": 19,
    "lastUpdated": "2020-07-15T17:00:11.016Z",
    "recovered": 1394,
    "infected": 1880,
    "id": "Sx03z01BJCAbrYkWhEaD",
    "pop": 1513000,
    "country": "RU",
    "longitude": 53.0278,
    "sick": 467,
    "invisible": false
  },
  {
    "longitude": 21.7587,
    "name": "DR Congo",
    "latitude": -4.0383,
    "dead": 192,
    "lastUpdated": "2020-07-15T17:16:03.730Z",
    "recovered": 3983,
    "infected": 8163,
    "id": "T3iRf8mTUTAzbKrORTap",
    "pop": 84070000,
    "country": "CD",
    "sick": 3988,
    "invisible": false
  },
  {
    "latitude": 23.635796,
    "dead": 2325,
    "lastUpdated": "2020-07-15T17:16:03.725Z",
    "recovered": 183048,
    "infected": 240474,
    "id": "T7NffoeCgTUpAbOHvYwP",
    "pop": 32940000,
    "country": "SA",
    "longitude": 44.344334,
    "name": "Saudi Arabia",
    "sick": 55101,
    "invisible": false
  },
  {
    "country": "ES",
    "longitude": -2.5396,
    "name": "La Rioja",
    "latitude": 42.2871,
    "dead": 366,
    "lastUpdated": "2020-07-14T22:53:33.180Z",
    "recovered": 3107,
    "infected": 5499,
    "state": "RI",
    "id": "TNDTapyb0k3l7Mds9q9R",
    "pop": 315700,
    "sick": 2026,
    "invisible": false
  },
  {
    "latitude": 20.400417,
    "dead": 672,
    "lastUpdated": "2020-07-15T17:02:08.873Z",
    "recovered": 0,
    "infected": 6589,
    "id": "TQCWbhIpJQBQxBjhCGVJ",
    "pop": 2207200,
    "country": "MX",
    "longitude": -89.134857,
    "name": "Yucatán",
    "sick": 5917,
    "invisible": false
  },
  {
    "id": "TQZmzsLhJqjtCSExAkCP",
    "pop": 428697,
    "country": "BN",
    "longitude": 114.650692,
    "name": "Brunei",
    "latitude": 4.506106,
    "dead": 3,
    "lastUpdated": "2020-07-15T17:16:03.736Z",
    "recovered": 138,
    "infected": 141,
    "sick": 0,
    "invisible": false
  },
  {
    "country": "FR",
    "longitude": 4.3853,
    "name": "Auvergne-Rhône-Alpes",
    "latitude": 45.4471,
    "dead": 1747,
    "lastUpdated": "2020-07-14T22:57:02.919Z",
    "recovered": 7817,
    "infected": 15714,
    "state": "",
    "id": "TT0MKODSjrxHvG19xZCa",
    "pop": 8027000,
    "sick": 6150,
    "invisible": false
  },