[
  {
    "id": "01b09TY4vmuZwzVuiRFK",
    "pop": 72600,
    "country": "CO",
    "longitude": -81.7006,
    "name": "San Andrés",
    "recovered": 23,
    "infected": 30,
    "dead": 0,
    "lastUpdated": "2020-07-20T05:45:11.969Z",
    "latitude": 12.5847,
    "sick": 7,
    "invisible": false
  },
  {
    "dead": 13,
    "lastUpdated": "2020-07-20T05:27:03.407Z",
    "latitude": 49.4482,
    "country": "GG",
    "infected": 252,
    "recovered": 238,
    "longitude": -2.5895,
    "alwaysShow": false,
    "pop": 63196,
    "id": "0FOJefeLxQYXQ1CnJm9o",
    "name": "Guernsey",
    "sick": 1,
    "invisible": false
  },
  {
    "name": "Campania",
    "id": "0GJcws44NSPsDHAuxJhW",
    "infected": 4827,
    "state": "72",
    "recovered": 4100,
    "country": "IT",
    "latitude": 41.066666,
    "lastUpdated": "2020-07-20T06:01:09.890Z",
    "dead": 433,
    "longitude": 14.333333,
    "pop": 5827000,
    "sick": 294,
    "invisible": false
  },
  {
    "infected": 7627,
    "latitude": -20.2167,
    "recovered": 0,
    "dead": 141,
    "country": "CL",
    "name": "Tarapacá",
    "id": "0HDQbiHe462xMCUV5HiI",
    "pop": 383870,
    "longitude": -70.14222,
    "lastUpdated": "2020-07-20T05:50:04.669Z",
    "sick": 7486,
    "invisible": false
  },
  {
    "latitude": 20.9517,
    "dead": 119,
    "infected": 17437,
    "name": "Odisha",
    "lastUpdated": "2020-07-20T06:11:01.955Z",
    "country": "IN",
    "longitude": 85.0985,
    "id": "0VG7S6aaK4eSo59fL9JO",
    "recovered": 12453,
    "pop": 45990000,
    "sick": 4865,
    "invisible": false
  },
  {
    "longitude": -98.8582,
    "name": "Hidalgo",
    "recovered": 0,
    "lastUpdated": "2020-07-20T06:02:02.246Z",
    "pop": 2990300,
    "infected": 5452,
    "country": "MX",
    "id": "0XmCRqiK2ZaehoEJvfer",
    "latitude": 20.4737,
    "dead": 879,
    "sick": 4573,
    "invisible": false
  },
  {
    "pop": 427246,
    "id": "0jStOpTUNRaQYJqgmRoK",
    "latitude": 11.7401,
    "longitude": 92.6586,
    "name": "Andaman and Nicobar Islands",
    "infected": 203,
    "recovered": 145,
    "dead": 0,
    "lastUpdated": "2020-07-20T06:11:01.972Z",
    "country": "IN",
    "sick": 58,
    "invisible": false
  },
  {
    "pop": 2639000,
    "lastUpdated": "2020-07-20T06:16:03.348Z",
    "latitude": 25.315058,
    "longitude": 51.145517,
    "name": "Qatar",
    "dead": 157,
    "id": "0m4aECS0Z2DGFEr8ldgI",
    "infected": 106648,
    "recovered": 103377,
    "country": "QA",
    "sick": 3114,
    "invisible": false
  },
  {
    "country": "IN",
    "dead": 1112,
    "longitude": 87.855,
    "pop": 90320000,
    "lastUpdated": "2020-07-20T06:11:01.955Z",
    "name": "West Bengal",
    "infected": 42487,
    "id": "0n54EMSDJcRoT1QEvw80",
    "recovered": 24883,
    "latitude": 22.9868,
    "sick": 16492,
    "invisible": false
  },
  {
    "longitude": 78.6569,
    "recovered": 15311,
    "dead": 721,
    "latitude": 22.9734,
    "id": "0s18o5DrDAHjbu5MFcrj",
    "infected": 22600,
    "pop": 73340000,
    "name": "Madhya Pradesh",
    "country": "IN",
    "lastUpdated": "2020-07-20T06:11:01.955Z",
    "sick": 6568,
    "invisible": false
  },
  {
    "dead": 0,
    "latitude": 37.0902,
    "id": "0tFoopNTs6e4tOoaltu2",
    "infected": 0,
    "country": "US",
    "recovered": 1802338,
    "lastUpdated": "2020-07-20T06:16:03.346Z",
    "name": "Unknown US state",
    "invisible": true,
    "longitude": -95.7129,
    "sick": 0
  },
  {
    "name": "Shaanxi",
    "pop": 37330000,
    "infected": 322,
    "latitude": 35.64249,
    "dead": 3,
    "lastUpdated": "2020-07-20T05:53:07.678Z",
    "id": "0x2HLhr5z5xAtEdO4iZm",
    "longitude": 108.472214,
    "country": "CN",
    "recovered": 316,
    "sick": 3,
    "invisible": false
  },
  {
    "infected": 9153,
    "name": "North Macedonia",
    "pop": 2077000,
    "latitude": 41.643351,
    "country": "MK",
    "longitude": 21.668393,
    "dead": 422,
    "id": "19MvIhipqTyYv1H37Upw",
    "lastUpdated": "2020-07-20T06:16:03.355Z",
    "recovered": 4810,
    "sick": 3921,
    "invisible": false
  },
  {
    "infected": 262,
    "longitude": -57.6604,
    "pop": 521542,
    "recovered": 259,
    "latitude": 53.1355,
    "dead": 3,
    "name": "Newfoundland and Labrador",
    "id": "1DOMOmCWDtva46OVSZLv",
    "state": "NL",
    "lastUpdated": "2020-07-20T06:07:01.963Z",
    "country": "CA",
    "sick": 0,
    "invisible": false
  },
  {
    "longitude": 96.779286,
    "recovered": 18,
    "id": "1Fap7rZu9SIRqf5TG9Dg",
    "latitude": 35.801933,
    "name": "Qinghai",
    "infected": 18,
    "lastUpdated": "2020-07-20T05:53:07.682Z",
    "pop": 5627000,
    "dead": 0,
    "country": "CN",
    "sick": 0,
    "invisible": false
  },
  {
    "longitude": -102.5528,
    "lastUpdated": "2020-07-20T06:16:03.347Z",
    "infected": 0,
    "latitude": 23.6345,
    "name": "Unknown Mexico state",
    "pop": 126200000,
    "invisible": true,
    "id": "1YXQMlVL3fUeDZmcVfJw",
    "country": "MX",
    "recovered": 217423,
    "dead": 0,
    "sick": 0
  },
  {
    "name": "Omsk Oblast",
    "latitude": 55.0555,
    "id": "1at5nIap9H51v32otlQl",
    "recovered": 3141,
    "infected": 5395,
    "country": "RU",
    "longitude": 73.3167,
    "lastUpdated": "2020-07-20T06:00:09.476Z",
    "dead": 50,
    "pop": 1960000,
    "sick": 2204,
    "invisible": false
  },
  {
    "id": "1eTSQyfp8RoDPeFrIwun",
    "recovered": 26580,
    "lastUpdated": "2020-07-20T06:01:09.891Z",
    "state": "21",
    "name": "Piemonte",
    "latitude": 44.9,
    "infected": 31536,
    "dead": 4119,
    "longitude": 8.206944,
    "pop": 4376000,
    "country": "IT",
    "sick": 837,
    "invisible": false
  },
  {
    "id": "1j1OurxLTpZYuWIWwQ9F",
    "recovered": 0,
    "lastUpdated": "2020-07-20T06:03:01.790Z",
    "pop": 1003000,
    "name": "Lubuskie",
    "dead": 1,
    "longitude": 15.461,
    "country": "PL",
    "latitude": 51.993,
    "infected": 309,
    "sick": 308,
    "invisible": false
  },
  {
    "recovered": 14376,
    "country": "MD",
    "lastUpdated": "2020-07-20T06:16:03.354Z",
    "longitude": 28.3699,
    "infected": 20980,
    "latitude": 47.4116,
    "dead": 684,
    "name": "Moldova",
    "id": "1qTPB8X3tyLyIdsb5TN3",
    "pop": 3550000,
    "sick": 5920,
    "invisible": false
  },
  {
    "longitude": -95.7129,
    "invisible": true,
    "dead": 98,
    "recovered": 0,
    "country": "US",
    "latitude": 37.0902,
    "id": "22PJOAThcDFKgSbyQIkD",
    "name": "Federal Bureau of Prisons",
    "lastUpdated": "2020-07-20T05:47:02.487Z",
    "infected": 10303,
    "sick": 10205
  },
  {
    "name": "Tibet",
    "latitude": 30.15336,
    "pop": 3180000,
    "recovered": 1,
    "infected": 1,
    "id": "25qIBtsW2nfQj3pwBKg9",
    "country": "CN",
    "longitude": 88.787865,
    "lastUpdated": "2020-07-20T05:53:07.683Z",
    "dead": 0,
    "sick": 0,
    "invisible": false
  },
  {
    "recovered": 45401,
    "pop": 264000000,
    "name": "Indonesia",
    "latitude": -1.572184,
    "dead": 4143,
    "infected": 86521,
    "country": "ID",
    "lastUpdated": "2020-07-20T06:16:03.348Z",
    "id": "2KHYUb5t3lwzVVmDjwNX",
    "longitude": 115.66779,
    "sick": 36977,
    "invisible": false
  },
  {
    "recovered": 0,
    "lastUpdated": "2020-07-20T05:47:02.477Z",
    "pop": 4191000,
    "latitude": 43.807191,
    "infected": 14579,
    "name": "Oregon",
    "dead": 260,
    "country": "US",
    "longitude": -120.585594,
    "id": "2OrsssmGUs4XCzaZzvTv",
    "state": "OR",
    "sick": 14319,
    "invisible": false
  },
  {
    "lastUpdated": "2020-07-20T05:50:04.669Z",
    "country": "CL",
    "infected": 13109,
    "id": "2c5HBZ1ffkCVXnMYUWnY",
    "name": "Antofagasta",
    "longitude": -70.400002,
    "recovered": 0,
    "latitude": -23.65,
    "pop": 425000,
    "dead": 280,
    "sick": 12829,
    "invisible": false
  },
  {
    "country": "BR",
    "lastUpdated": "2020-07-20T05:57:01.255Z",
    "name": "Amapá",
    "infected": 33705,
    "recovered": 0,
    "id": "2dzhyWsBSPpENWlNew0b",
    "pop": 9029000,
    "longitude": -51.070534,
    "state": "AP",
    "latitude": 0.035574,
    "dead": 507,
    "sick": 33198,
    "invisible": false
  },
  {
    "longitude": 126.548103,
    "recovered": 153,
    "lastUpdated": "2020-07-20T05:53:07.682Z",
    "pop": 27460000,
    "dead": 2,
    "country": "CN",
    "infected": 155,
    "name": "Jilin",
    "latitude": 43.851921,
    "id": "2jxHvSsxdnom0nPNvOT8",
    "sick": 0,
    "invisible": false
  },
  {
    "longitude": -5.3536,
    "recovered": 180,
    "dead": 0,
    "id": "2p11BjSAs3wVyymgqBOe",
    "lastUpdated": "2020-07-20T06:16:03.362Z",
    "country": "GI",
    "name": "Gibraltar",
    "pop": 34571,
    "infected": 180,
    "latitude": 36.1408,
    "sick": 0,
    "invisible": false
  },
  {
    "infected": 4622,
    "latitude": 47.7516,
    "pop": 2567000,
    "recovered": 2054,
    "dead": 555,
    "country": "FR",
    "name": "Centre-Val de Loire",
    "lastUpdated": "2020-07-19T23:15:01.353Z",
    "longitude": 1.6751,
    "id": "2sLNkkHpyaHx7dD3aMDO",
    "sick": 2013,
    "invisible": false
  },
  {
    "name": "Umbria",
    "dead": 80,
    "country": "IT",
    "infected": 1456,
    "longitude": 12.643751,
    "latitude": 42.565044,
    "id": "319tiZOMczx1y0DfvOib",
    "state": "55",
    "lastUpdated": "2020-07-20T06:01:09.892Z",
    "recovered": 1364,
    "pop": 884640,
    "sick": 12,
    "invisible": false
  },
  {
    "pop": 1355000,
    "lastUpdated": "2020-07-20T05:45:11.969Z",
    "recovered": 352,
    "dead": 35,
    "longitude": -76.6131592,
    "infected": 1107,
    "country": "CO",
    "latitude": 2.43823,
    "id": "38T96Q3XNjt5FSJygPed",
    "name": "Cauca",
    "sick": 720,
    "invisible": false
  },
  {
    "name": "Zambia",
    "recovered": 1462,
    "country": "ZM",
    "latitude": -13.133896,
    "lastUpdated": "2020-07-20T06:16:03.357Z",
    "dead": 120,
    "pop": 17090000,
    "longitude": 27.849332,
    "id": "3IlPjAbP5qVMn1nlgLTJ",
    "infected": 2980,
    "sick": 1398,
    "invisible": false
  },
  {
    "latitude": 42.7044,
    "pop": 631219,
    "infected": 2188,
    "id": "3LstMSN5XMYBkxbe5HN7",
    "name": "Montenegro",
    "longitude": 19.3958,
    "lastUpdated": "2020-07-20T06:16:03.358Z",
    "dead": 32,
    "recovered": 385,
    "country": "ME",
    "sick": 1771,
    "invisible": false
  },
  {
    "longitude": 149.0124,
    "infected": 113,
    "lastUpdated": "2020-07-20T05:58:21.475Z",
    "recovered": 107,
    "state": "ACT",
    "dead": 3,
    "country": "AU",
    "pop": 418440,
    "name": "Australian Capital Territory",
    "id": "3OZoQsKrzxZ18EKyfGE6",
    "latitude": -35.4735,
    "sick": 3,
    "invisible": false
  },
  {
    "recovered": 4819,
    "id": "3PfzjWjvOkfgxc672BHQ",
    "dead": 22,
    "longitude": 38.8389,
    "infected": 5560,
    "name": "Yaroslavl Oblast",
    "lastUpdated": "2020-07-20T06:00:09.475Z",
    "country": "RU",
    "latitude": 57.8992,
    "pop": 608000,
    "sick": 719,
    "invisible": false
  },
  {
    "lastUpdated": "2020-07-20T06:00:09.473Z",
    "longitude": 95.626,
    "latitude": 51.8873,
    "recovered": 2840,
    "dead": 45,
    "name": "Tuva",
    "infected": 5692,
    "country": "RU",
    "id": "3PpqgIUJAtzxo1j7z56i",
    "pop": 321000,
    "sick": 2807,
    "invisible": false
  },
  {
    "name": "Assam",
    "pop": 30940000,
    "lastUpdated": "2020-07-20T06:11:01.955Z",
    "recovered": 16024,
    "latitude": 26.2006,
    "id": "3cCbnJCsK7mKlTO08K1o",
    "longitude": 92.9376,
    "country": "IN",
    "infected": 24000,
    "dead": 62,
    "sick": 7914,
    "invisible": false
  },
  {
    "infected": 74966,
    "longitude": -82.9071,
    "recovered": 0,
    "lastUpdated": "2020-07-20T05:47:02.474Z",
    "dead": 3178,
    "state": "OH",
    "country": "US",
    "name": "Ohio",
    "pop": 11690000,
    "id": "3fC3bAyIRUquOQOEnQNe",
    "latitude": 40.4173,
    "sick": 71788,
    "invisible": false
  },
  {
    "pop": 3066400,
    "name": "Sinaloa",
    "latitude": 25,
    "longitude": -107.5,
    "infected": 11476,
    "id": "3kFCzJguabtBvXaHxgiu",
    "recovered": 0,
    "lastUpdated": "2020-07-20T06:02:02.245Z",
    "dead": 1845,
    "country": "MX",
    "sick": 9631,
    "invisible": false
  },
  {
    "id": "3mC2LveOpXV8P1PmQGUj",
    "latitude": 3.420556,
    "pop": 4708300,
    "recovered": 7647,
    "infected": 15609,
    "dead": 542,
    "longitude": -76.522224,
    "name": "Valle del Cauca",
    "country": "CO",
    "lastUpdated": "2020-07-20T05:45:11.967Z",
    "sick": 7420,
    "invisible": false
  },
  {
    "recovered": 3436,
    "id": "4NnFMekRK2m14IlnZZoj",
    "name": "Mauritania",
    "longitude": -10.9408,
    "infected": 5873,
    "latitude": 21.0079,
    "dead": 155,
    "lastUpdated": "2020-07-20T06:16:03.356Z",
    "pop": 4420000,
    "country": "MR",
    "sick": 2282,
    "invisible": false
  },
  {
    "longitude": -127.6476,
    "state": "BC",
    "lastUpdated": "2020-07-20T06:07:01.962Z",
    "dead": 189,
    "name": "British Columbia",
    "country": "CA",
    "pop": 5071000,
    "latitude": 53.7267,
    "infected": 3198,
    "id": "4hfZRUoUgI4a3vrG0GBk",
    "recovered": 2802,
    "sick": 207,
    "invisible": false
  },
  {
    "dead": 12114,
    "longitude": -43.196388,
    "pop": 17159960,
    "latitude": -22.908333,
    "id": "4kq0z3kh5zt3YAUWxvtE",
    "state": "RJ",
    "infected": 138524,
    "country": "BR",
    "lastUpdated": "2020-07-20T05:57:01.253Z",
    "name": "Rio de Janeiro",
    "recovered": 0,
    "sick": 126410,
    "invisible": false
  },
  {
    "country": "BR",
    "recovered": 0,
    "infected": 122169,
    "name": "Bahia",
    "pop": 14812617,
    "longitude": -41.280857,
    "latitude": -11.409874,
    "dead": 2840,
    "lastUpdated": "2020-07-20T05:57:01.253Z",
    "state": "BA",
    "id": "4yDbkEyqsNzZJjfrciYV",
    "sick": 119329,
    "invisible": false
  },
  {
    "lastUpdated": "2020-07-20T06:16:03.352Z",
    "infected": 27521,
    "latitude": 40.3426,
    "pop": 9898000,
    "dead": 354,
    "name": "Azerbaijan",
    "id": "4zqzRm2xHn0CDVOUQJ8p",
    "country": "AZ",
    "longitude": 47.93802,
    "recovered": 18967,
    "sick": 8200,
    "invisible": false
  },
  {
    "latitude": 22.233105,
    "pop": 3672300,
    "lastUpdated": "2020-07-20T06:02:02.246Z",
    "country": "MX",
    "infected": 12527,
    "longitude": -97.861099,
    "id": "54cfsdsRF76XVHWtZs19",
    "name": "Tamaulipas",
    "recovered": 0,
    "dead": 802,
    "sick": 11725,
    "invisible": false
  },
  {
    "name": "Flanders",
    "lastUpdated": "2020-07-20T06:07:12.663Z",
    "country": "BE",
    "state": "VLG",
    "latitude": 51.0109,
    "longitude": 3.7265,
    "infected": 36041,
    "id": "57ydD48mLRD2YoyteJZj",
    "dead": 4911,
    "recovered": 9502,
    "pop": 6596000,
    "sick": 21628,
    "invisible": false
  },
  {
    "lastUpdated": "2020-07-20T06:16:03.362Z",
    "country": "BS",
    "name": "Bahamas",
    "recovered": 91,
    "longitude": -78.035889,
    "latitude": 25.025885,
    "pop": 395361,
    "id": "5MHegCUO9L3LiAU7DDey",
    "dead": 11,
    "infected": 153,
    "sick": 51,
    "invisible": false
  },
  {
    "id": "5N16a2OXXRpsEFanw0TC",
    "infected": 3568,
    "country": "AU",
    "latitude": -31.253218,
    "longitude": 146.921097,
    "state": "NSW",
    "dead": 49,
    "recovered": 2988,
    "name": "New South Wales",
    "lastUpdated": "2020-07-20T05:58:21.476Z",
    "pop": 7544000,
    "sick": 531,
    "invisible": false
  },
  {
    "recovered": 1175,
    "pop": 12580000,
    "name": "South Sudan",
    "longitude": 31.3069782,
    "lastUpdated": "2020-07-20T06:16:03.358Z",
    "latitude": 6.8769908,
    "dead": 43,
    "infected": 2200,
    "id": "5N4PRxsCDzzwk7R200V1",
    "country": "SS",
    "sick": 982,
    "invisible": false
  },
  {
    "state": "VC",
    "name": "C. Valenciana",
    "recovered": 9970,
    "dead": 1432,
    "latitude": 39.484,
    "lastUpdated": "2020-07-19T23:13:03.098Z",
    "longitude": -0.7533,
    "pop": 4975000,
    "id": "5Va9A7CXR8AXdUz4HTJj",
    "infected": 15743,
    "country": "ES",
    "sick": 4341,
    "invisible": false
  },
  {
    "recovered": 21,
    "lastUpdated": "2020-07-20T06:16:03.373Z",
    "latitude": -20.9043045,
    "longitude": 165.618042,
    "country": "NC",
    "id": "5fg04eyDwFw3kEXnrxez",
    "pop": 280460,
    "infected": 22,
    "name": "New Caledonia",
    "dead": 0,
    "sick": 1,
    "invisible": false
  },
  {
    "id": "5gXZIjRgAvd6xWN1LOv8",
    "recovered": 11695,
    "lastUpdated": "2020-07-20T06:16:03.354Z",
    "name": "Nepal",
    "country": "NP",
    "dead": 40,
    "infected": 17658,
    "longitude": 84.124008,
    "latitude": 28.394857,
    "pop": 29300000,
    "sick": 5923,
    "invisible": false
  },
  {
    "recovered": 22465,
    "name": "Philippines",
    "pop": 104900000,
    "dead": 1831,
    "id": "5pwmh7aSdGRKqRbnuyc0",
    "country": "PH",
    "longitude": 121.774017,
    "lastUpdated": "2020-07-20T06:16:03.348Z",
    "latitude": 12.879721,
    "infected": 67456,
    "sick": 43160,
    "invisible": false
  },
  {
    "id": "5qtR9nx4BLwu1ODTniaY",
    "country": "ZW",
    "latitude": -17.824858,
    "recovered": 472,
    "pop": 14802190,
    "dead": 25,
    "longitude": 31.053028,
    "infected": 1611,
    "name": "Zimbabwe",
    "lastUpdated": "2020-07-20T06:16:03.359Z",
    "sick": 1114,
    "invisible": false
  },
  {
    "infected": 8536,
    "lastUpdated": "2020-07-20T05:47:02.487Z",
    "longitude": -109.188,
    "dead": 412,
    "recovered": 0,
    "name": "Navajo Nation",
    "id": "5vkKgxTaKq1IH0Go357L",
    "pop": 356890,
    "country": "US",
    "latitude": 36.0672,
    "state": "NA",
    "invisible": false,
    "sick": 8124
  },
  {
    "longitude": -99.177254,
    "infected": 62789,
    "dead": 8205,
    "lastUpdated": "2020-07-20T06:02:02.245Z",
    "latitude": 19.432241,
    "id": "61E7TGjUwAo9xu6Y6gAH",
    "name": "Ciudad de México",
    "country": "MX",
    "recovered": 0,
    "pop": 8781300,
    "sick": 54584,
    "invisible": false
  },
  {
    "longitude": 35.1889,
    "infected": 6889,
    "country": "RU",
    "latitude": 54.3873,
    "recovered": 5302,
    "lastUpdated": "2020-07-20T06:00:09.469Z",
    "dead": 54,
    "id": "63KYOuWe41mvqWQrJbr2",
    "pop": 1012000,
    "name": "Kaluga Oblast",
    "sick": 1533,
    "invisible": false
  },
  {
    "longitude": 23.804991,
    "id": "694ON7d0mRJDeM1gHBTR",
    "recovered": 1600,
    "infected": 1932,
    "country": "LT",
    "pop": 2794000,
    "name": "Lithuania",
    "latitude": 55.621011,
    "dead": 80,
    "lastUpdated": "2020-07-20T06:16:03.358Z",
    "sick": 252,
    "invisible": false
  },
  {
    "longitude": -0.5596,
    "name": "South East",
    "lastUpdated": "2020-07-20T06:13:29.472Z",
    "id": "6IQAsvrmBv0HPdeTnh4x",
    "latitude": 51.1781,
    "country": "GB",
    "dead": 0,
    "state": "EN",
    "recovered": 0,
    "pop": 9175000,
    "infected": 34635,
    "sick": 34635,
    "invisible": false
  },
  {
    "longitude": 114.109497,
    "id": "6IcHIIH0zXpY0POmBZTv",
    "recovered": 1294,
    "infected": 1886,
    "country": "HK",
    "pop": 7392000,
    "name": "Hong Kong",
    "latitude": 22.396427,
    "lastUpdated": "2020-07-20T06:16:03.359Z",
    "dead": 12,
    "sick": 580,
    "invisible": false
  },
  {
    "longitude": -72.4,
    "country": "BR",
    "latitude": -8.65,
    "name": "Acre",
    "id": "6LQesrx5bHJsVUi1TXBp",
    "lastUpdated": "2020-07-20T05:57:01.256Z",
    "state": "AC",
    "pop": 869265,
    "recovered": 0,
    "infected": 17295,
    "dead": 460,
    "sick": 16835,
    "invisible": false
  },
  {
    "lastUpdated": "2020-07-20T06:16:03.359Z",
    "dead": 31,
    "recovered": 782,
    "country": "BJ",
    "name": "Benin",
    "latitude": 9.3077,
    "id": "6SlpghTyB6lpMFvx3g9U",
    "longitude": 2.3158,
    "infected": 1602,
    "pop": 11180000,
    "sick": 789,
    "invisible": false
  },
  {
    "pop": 10040000,
    "state": "25",
    "dead": 16788,
    "longitude": 9.5,
    "recovered": 71464,
    "id": "6ZHcvMIzVWIaRnc4R3Qp",
    "name": "Lombardia",
    "latitude": 45.6667,
    "lastUpdated": "2020-07-20T06:01:09.891Z",
    "infected": 95492,
    "country": "IT",
    "sick": 7240,
    "invisible": false
  },
  {
    "pop": 2067000,
    "name": "Slovenia",
    "id": "6ahNiyKDSDAftCctgLH3",
    "lastUpdated": "2020-07-20T06:16:03.358Z",
    "country": "SI",
    "infected": 1946,
    "recovered": 1568,
    "longitude": 14.5058,
    "latitude": 46.0569,
    "dead": 112,
    "sick": 266,
    "invisible": false
  },
  {
    "latitude": -27.3667908,
    "name": "Atacama",
    "recovered": 0,
    "pop": 300000,
    "infected": 1857,
    "dead": 9,
    "longitude": -70.331398,
    "lastUpdated": "2020-07-20T05:50:04.670Z",
    "id": "6nyns7UGGgkU7pxrHf8i",
    "country": "CL",
    "sick": 1848,
    "invisible": false
  },
  {
    "dead": 46,
    "pop": 2025000,
    "recovered": 3865,
    "name": "Gabon",
    "longitude": 11.6094,
    "latitude": -0.8037,
    "lastUpdated": "2020-07-20T06:16:03.356Z",
    "infected": 6315,
    "country": "GA",
    "id": "6pBi38TUgYfFm0bry2uh",
    "sick": 2404,
    "invisible": false
  },
  {
    "name": "San Luis Potosí",
    "pop": 2831900,
    "lastUpdated": "2020-07-20T06:02:02.246Z",
    "latitude": 22.1498,
    "id": "6vjIVg1gSANFZghV7xtS",
    "recovered": 0,
    "longitude": -100.9792,
    "country": "MX",
    "infected": 5797,
    "dead": 334,
    "sick": 5463,
    "invisible": false
  },
  {
    "dead": 0,
    "infected": 6,
    "country": "FR",
    "latitude": 17.901672,
    "longitude": -62.818544,
    "lastUpdated": "2020-07-20T06:16:03.374Z",
    "id": "78Ox26bNHDA2Pk2b3Uwn",
    "alwaysShow": true,
    "name": "Saint-Barthélémy",
    "pop": 9131,
    "recovered": 6,
    "sick": 0,
    "invisible": false
  },
  {
    "id": "7JDx6UJiwGSJyL1fChaJ",
    "lastUpdated": "2020-07-20T06:03:01.790Z",
    "latitude": 54.367,
    "infected": 745,
    "longitude": 18.633,
    "recovered": 0,
    "name": "Pomorskie",
    "dead": 39,
    "pop": 2305000,
    "country": "PL",
    "sick": 706,
    "invisible": false
  },
  {
    "latitude": 35.2923,
    "recovered": 125,
    "id": "7UASdZTZ1nPzzBwSTEA9",
    "longitude": -2.9381,
    "state": "ML",
    "dead": 2,
    "name": "Melilla",
    "lastUpdated": "2020-07-19T23:14:16.449Z",
    "infected": 142,
    "pop": 84690,
    "country": "ES",
    "sick": 15,
    "invisible": false
  },
  {
    "longitude": -61.7964,
    "id": "7hVFcEV7nV0MrQr3LHrl",
    "recovered": 57,
    "dead": 3,
    "name": "Antigua and Barbuda",
    "lastUpdated": "2020-07-20T06:16:03.370Z",
    "infected": 76,
    "pop": 102012,
    "country": "AG",
    "latitude": 17.0608,
    "sick": 16,
    "invisible": false
  },
  {
    "state": "BY",
    "pop": 13000000,
    "recovered": 46236,
    "latitude": 48.7904,
    "infected": 50011,
    "name": "Bayern",
    "lastUpdated": "2020-07-20T06:00:05.516Z",
    "country": "DE",
    "longitude": 11.4979,
    "dead": 2658,
    "id": "7kCrrlOBE3jN6FtOVNUB",
    "sick": 1117,
    "invisible": false
  },
  {
    "name": "Hungary",
    "latitude": 47.4979,
    "dead": 596,
    "pop": 9773000,
    "lastUpdated": "2020-07-20T06:16:03.357Z",
    "recovered": 3223,
    "longitude": 19.0402,
    "id": "7rYC2iFB50c55Ihgbs4Q",
    "infected": 4333,
    "country": "HU",
    "sick": 514,
    "invisible": false
  },
  {
    "longitude": -74.7813,
    "country": "CO",
    "dead": 1289,
    "id": "7tqLvLyXcBDK808nJv0m",
    "pop": 1206000,
    "lastUpdated": "2020-07-20T05:45:11.968Z",
    "infected": 25062,
    "name": "Barranquilla D.E.",
    "recovered": 14048,
    "latitude": 10.9685,
    "sick": 9725,
    "invisible": false
  },
  {
    "recovered": 13728,
    "lastUpdated": "2020-07-20T06:16:03.354Z",
    "pop": 24050000,
    "name": "Cameroon",
    "infected": 16157,
    "latitude": 7.3697,
    "dead": 373,
    "longitude": 12.3547,
    "country": "CM",
    "id": "8C0d7WVCjyUGtnc2gUAR",
    "sick": 2056,
    "invisible": false
  },
  {
    "country": "BE",
    "dead": 1495,
    "state": "BRU",
    "recovered": 2833,
    "lastUpdated": "2020-07-20T06:07:12.670Z",
    "infected": 6628,
    "longitude": 4.3517,
    "id": "8DOZWbN6bDdgaLXVlUEu",
    "latitude": 50.8503,
    "pop": 1209000,
    "name": "Brussels",
    "sick": 2300,
    "invisible": false
  },
  {
    "lastUpdated": "2020-07-20T06:16:03.349Z",
    "infected": 59582,
    "recovered": 18553,
    "id": "8RihJrXw4NQXPxaRxr1u",
    "country": "BO",
    "latitude": -16.2902,
    "longitude": -63.5887,
    "pop": 11050000,
    "dead": 2151,
    "name": "Bolivia",
    "sick": 38878,
    "invisible": false
  },
  {
    "pop": 109897,
    "id": "8ZTySQROQejkDAad0qxQ",
    "name": "St. Vincent Grenadines",
    "longitude": -61.2872,
    "infected": 44,
    "recovered": 29,
    "country": "VC",
    "latitude": 12.9843,
    "dead": 0,
    "lastUpdated": "2020-07-20T06:16:03.372Z",
    "sick": 15,
    "invisible": false
  },
  {
    "pop": 5621000,
    "id": "8pA3fM4xC2c2wv1b4TnE",
    "name": "Singapore",
    "recovered": 44086,
    "lastUpdated": "2020-07-20T06:16:03.349Z",
    "infected": 47912,
    "country": "SG",
    "latitude": 1.352083,
    "dead": 27,
    "longitude": 103.819839,
    "sick": 3799,
    "invisible": false
  },
  {
    "recovered": 2135,
    "country": "FR",
    "id": "98hwAoohgWEOQVa3NlM5",
    "longitude": -1.5536,
    "dead": 470,
    "pop": 3787000,
    "name": "Pays de la Loire",
    "lastUpdated": "2020-07-19T23:15:47.705Z",
    "infected": 4340,
    "latitude": 47.2184,
    "sick": 1735,
    "invisible": false
  },
  {
    "recovered": 0,
    "latitude": 19.30754,
    "infected": 3659,
    "dead": 357,
    "pop": 952300,
    "country": "MX",
    "id": "9DAvxOObTqIvMOU93nlY",
    "longitude": -90.19885,
    "lastUpdated": "2020-07-20T06:02:02.246Z",
    "name": "Campeche",
    "sick": 3302,
    "invisible": false
  },
  {
    "dead": 693,
    "longitude": 30.2176,
    "latitude": 12.8628,
    "recovered": 5707,
    "infected": 10992,
    "name": "Sudan",
    "country": "SD",
    "lastUpdated": "2020-07-20T06:16:03.355Z",
    "pop": 40530000,
    "id": "9DPOkpIqrFy9mR4e9fuv",
    "sick": 4592,
    "invisible": false
  },
  {
    "id": "9JFYfvpcejMIgYlHpngA",
    "name": "Kostroma Oblast",
    "latitude": 58.5501,
    "recovered": 1322,
    "dead": 24,
    "longitude": 43.9541,
    "infected": 1963,
    "country": "RU",
    "lastUpdated": "2020-07-20T06:00:09.487Z",
    "pop": 643000,
    "sick": 617,
    "invisible": false
  },
  {
    "name": "Romania",
    "id": "9QcETqEcM2fTv9zRvx5T",
    "lastUpdated": "2020-07-20T06:16:03.351Z",
    "longitude": 24.966761,
    "dead": 2026,
    "country": "RO",
    "pop": 19530000,
    "infected": 37458,
    "recovered": 22617,
    "latitude": 45.943161,
    "sick": 12815,
    "invisible": false
  },
  {
    "recovered": 2282,
    "dead": 99,
    "id": "9Y5wmCqNCC6ZrenM31uA",
    "lastUpdated": "2020-07-20T06:16:03.357Z",
    "pop": 6218000,
    "country": "NI",
    "name": "Nicaragua",
    "latitude": 12.136389,
    "longitude": -86.251389,
    "infected": 3147,
    "sick": 766,
    "invisible": false
  },
  {
    "id": "9dIzxqDSVqPyINkHqwGv",
    "infected": 2475,
    "lastUpdated": "2020-07-20T06:16:03.358Z",
    "pop": 18540000,
    "name": "Mali",
    "country": "ML",
    "latitude": 17.5706921,
    "longitude": -3.996166,
    "recovered": 1828,
    "dead": 121,
    "sick": 526,
    "invisible": false
  },
  {
    "id": "9p6OCdZbUUwBLA60Gk3W",
    "longitude": 25.748152,
    "country": "FI",
    "infected": 7335,
    "recovered": 6880,
    "lastUpdated": "2020-07-20T06:16:03.356Z",
    "pop": 5513000,
    "name": "Finland",
    "latitude": 61.92411,
    "dead": 328,
    "sick": 127,
    "invisible": false
  },
  {
    "id": "A6Us0fpQVCc85SoIqzg3",
    "name": "Krasnoyarsk Krai",
    "pop": 2876000,
    "country": "RU",
    "dead": 260,
    "lastUpdated": "2020-07-20T06:00:09.467Z",
    "infected": 11403,
    "latitude": 64.248,
    "recovered": 8529,
    "longitude": 95.1104,
    "sick": 2614,
    "invisible": false
  },
  {
    "infected": 6203,
    "latitude": 43.311643,
    "pop": 1356000,
    "longitude": -71.590315,
    "id": "A84CwQ52kA46Hr7pn6Bm",
    "name": "New Hampshire",
    "recovered": 0,
    "state": "NH",
    "country": "US",
    "dead": 398,
    "lastUpdated": "2020-07-20T05:47:02.477Z",
    "sick": 5805,
    "invisible": false
  },
  {
    "infected": 17793,
    "dead": 990,
    "pop": 1057000,
    "lastUpdated": "2020-07-20T05:47:02.477Z",
    "name": "Rhode Island",
    "latitude": 41.823261,
    "recovered": 0,
    "id": "AEUWUHS65qvjEslew11c",
    "country": "US",
    "longitude": -71.412257,
    "state": "RI",
    "sick": 16803,
    "invisible": false
  },
  {
    "latitude": 44.498955,
    "id": "AJ9jQ0iyKsafsmf5yHAR",
    "dead": 4274,
    "infected": 29178,
    "longitude": 11.327591,
    "name": "Emilia-Romagna",
    "country": "IT",
    "state": "45",
    "pop": 4453000,
    "lastUpdated": "2020-07-20T06:01:09.890Z",
    "recovered": 23638,
    "sick": 1266,
    "invisible": false
  },
  {
    "infected": 2855,
    "state": "SL",
    "latitude": 49.3964,
    "name": "Saarland",
    "country": "DE",
    "recovered": 2628,
    "pop": 990509,
    "id": "AKjFRQGnzuuZQhv5Qwx7",
    "lastUpdated": "2020-07-20T06:00:05.522Z",
    "longitude": 7.023,
    "dead": 178,
    "sick": 49,
    "invisible": false
  },
  {
    "name": "Chelyabinsk Oblast",
    "latitude": 54.4319,
    "lastUpdated": "2020-07-20T06:00:09.468Z",
    "dead": 88,
    "pop": 3493000,
    "recovered": 5404,
    "country": "RU",
    "longitude": 60.8789,
    "id": "AOapJ3gElQApd8Gnt8EL",
    "infected": 9682,
    "sick": 4190,
    "invisible": false
  },
  {
    "id": "APTPgjAsjFi0nsGyJV7M",
    "pop": 1125002,
    "country": "CL",
    "recovered": 0,
    "lastUpdated": "2020-07-20T05:50:04.670Z",
    "latitude": -35.717,
    "longitude": -71.167,
    "name": "Maule",
    "infected": 7817,
    "dead": 127,
    "sick": 7690,
    "invisible": false
  },
  {
    "recovered": 13,
    "dead": 0,
    "pop": 56171,
    "infected": 13,
    "longitude": -42.6043,
    "latitude": 71.7069,
    "id": "APaZzlGCEeuoLBtzTJMe",
    "lastUpdated": "2020-07-20T06:16:03.373Z",
    "name": "Greenland",
    "country": "GL",
    "sick": 0,
    "invisible": false
  },
  {
    "country": "RU",
    "dead": 32,
    "id": "ATxF6ZoDJ2ibdE6ZRYIX",
    "name": "Buryatia",
    "recovered": 2804,
    "latitude": 54.8331,
    "longitude": 112.4061,
    "infected": 3651,
    "pop": 984000,
    "lastUpdated": "2020-07-20T06:00:09.478Z",
    "sick": 815,
    "invisible": false
  },
  {
    "dead": 63,
    "recovered": 1002,
    "infected": 1067,
    "country": "CA",
    "pop": 971395,
    "lastUpdated": "2020-07-20T06:07:01.963Z",
    "latitude": 45.65107,
    "state": "NS",
    "longitude": -63.582687,
    "name": "Nova Scotia",
    "id": "AVCpxeh0fuH2WrHWNDYH",
    "sick": 2,
    "invisible": false
  },
  {
    "longitude": -109.128641,
    "state": "MT",
    "lastUpdated": "2020-07-20T05:47:02.478Z",
    "name": "Montana",
    "country": "US",
    "pop": 1062000,
    "latitude": 47.012918,
    "id": "AcULcZBozObOhwuRKMjJ",
    "recovered": 0,
    "dead": 37,
    "infected": 2533,
    "sick": 2496,
    "invisible": false
  },
  {
    "country": "TJ",
    "latitude": 38.861,
    "infected": 6878,
    "pop": 9275000,
    "dead": 57,
    "name": "Tajikistan",
    "recovered": 5578,
    "longitude": 71.2761,
    "id": "AiIGs3ybYZZhm1ytVopr",
    "lastUpdated": "2020-07-20T06:16:03.356Z",
    "sick": 1243,
    "invisible": false
  },
  {
    "country": "CN",
    "id": "AmBYm5J6E9Cuez1FQjiN",
    "dead": 1,
    "lastUpdated": "2020-07-20T05:53:07.682Z",
    "name": "Jiangxi",
    "infected": 932,
    "pop": 45200000,
    "recovered": 931,
    "latitude": 27.285971,
    "longitude": 116.01609,
    "sick": 0,
    "invisible": false
  },
  {
    "latitude": 52.1307,
    "state": "WA",
    "name": "Wales",
    "dead": 1547,
    "longitude": -3.7837,
    "lastUpdated": "2020-07-20T06:13:29.466Z",
    "infected": 16928,
    "recovered": 0,
    "pop": 3136000,
    "id": "AoLhHdTydeWTfmp9koEX",
    "country": "GB",
    "sick": 15381,
    "invisible": false
  },
  {
    "longitude": 90.3982,
    "infected": 2595,
    "recovered": 2043,
    "id": "Avls64fLKoEsBFH0Ol0b",
    "name": "Khakassia",
    "latitude": 53.0452,
    "lastUpdated": "2020-07-20T06:00:09.482Z",
    "country": "RU",
    "dead": 25,
    "pop": 537000,
    "sick": 527,
    "invisible": false
  },
  {
    "latitude": 28.033886,
    "pop": 41320000,
    "infected": 23084,
    "recovered": 16051,
    "lastUpdated": "2020-07-20T06:16:03.354Z",
    "country": "DZ",
    "dead": 1078,
    "longitude": 1.659626,
    "id": "AwN0CScPDApcLFgz6e3z",
    "name": "Algeria",
    "sick": 5955,
    "invisible": false
  },
  {
    "country": "HR",
    "infected": 4345,
    "pop": 4076000,
    "id": "B82Ef45M8cDu4q7VsSHF",
    "dead": 120,
    "longitude": 15.2,
    "name": "Croatia",
    "recovered": 3018,
    "latitude": 45.099998,
    "lastUpdated": "2020-07-20T06:16:03.357Z",
    "sick": 1207,
    "invisible": false
  },
  {
    "infected": 1104,
    "longitude": 8.081666,
    "name": "Niger",
    "recovered": 1014,
    "lastUpdated": "2020-07-20T06:16:03.360Z",
    "pop": 23716000,
    "dead": 69,
    "id": "BENubqQInFUJzhpZTsLT",
    "latitude": 17.6077881,
    "country": "NE",
    "sick": 21,
    "invisible": false
  },
  {
    "id": "BF51mWl51fgEcyBpCSzb",
    "longitude": -76.98432,
    "infected": 78131,
    "state": "MD",
    "country": "US",
    "dead": 3377,
    "name": "Maryland",
    "pop": 6043000,
    "latitude": 39.509109,
    "lastUpdated": "2020-07-20T05:47:02.474Z",
    "recovered": 0,
    "sick": 74754,
    "invisible": false
  },
  {
    "longitude": 27.953388,
    "pop": 9508000,
    "country": "BY",
    "latitude": 53.709808,
    "infected": 66095,
    "dead": 499,
    "lastUpdated": "2020-07-20T06:16:03.348Z",
    "id": "BGg6yVU5VP71B8NXU0oh",
    "name": "Belarus",
    "recovered": 58204,
    "sick": 7392,
    "invisible": false
  },
  {
    "pop": 3319000,
    "latitude": 48.8799,
    "id": "BGtoyzb7y54LVlJ91rbf",
    "recovered": 1718,
    "dead": 438,
    "longitude": 0.1713,
    "infected": 3716,
    "lastUpdated": "2020-07-19T23:15:33.448Z",
    "name": "Normandie",
    "country": "FR",
    "sick": 1560,
    "invisible": false
  },
  {
    "latitude": 50.7772,
    "recovered": 0,
    "infected": 12949,
    "name": "South West",
    "country": "GB",
    "id": "BQqMOlPFD36ZEDTGd3WC",
    "longitude": -3.9995,
    "dead": 0,
    "state": "EN",
    "lastUpdated": "2020-07-20T06:13:29.472Z",
    "pop": 5616000,
    "sick": 12949,
    "invisible": false
  },
  {
    "name": "Arizona",
    "latitude": 34.048927,
    "state": "AZ",
    "dead": 2761,
    "recovered": 0,
    "lastUpdated": "2020-07-20T05:47:02.473Z",
    "longitude": -111.093735,
    "country": "US",
    "infected": 143624,
    "id": "BTEESCuD2ZbS1afunR2A",
    "pop": 7172000,
    "sick": 140863,
    "invisible": false
  },
  {
    "name": "Smolensk Oblast",
    "recovered": 3323,
    "lastUpdated": "2020-07-20T06:00:09.476Z",
    "country": "RU",
    "pop": 949000,
    "infected": 5381,
    "dead": 87,
    "longitude": 32.6677,
    "id": "BUb7oDHcBM4lQ5cufNoG",
    "latitude": 54.9883,
    "sick": 1971,
    "invisible": false
  },
  {
    "country": "RU",
    "name": "Kirov Oblast",
    "latitude": 58.4199,
    "dead": 52,
    "longitude": 50.2097,
    "infected": 4142,
    "pop": 1283000,
    "id": "BWojXmuKU3szKlS7CE4k",
    "recovered": 3845,
    "lastUpdated": "2020-07-20T06:00:09.478Z",
    "sick": 245,
    "invisible": false
  },
  {
    "name": "Zachodniopomorskie",
    "pop": 1676000,
    "infected": 656,
    "latitude": 53.428543,
    "longitude": 14.552812,
    "recovered": 0,
    "dead": 23,
    "id": "BZwZOAlDJ8AIiaRVLyC9",
    "lastUpdated": "2020-07-20T06:03:01.790Z",
    "country": "PL",
    "sick": 633,
    "invisible": false
  },
  {
    "dead": 0,
    "longitude": -70.6693,
    "name": "Unknown Chile region",
    "recovered": 301794,
    "id": "BbiuZcm8oURX7cZwaa5U",
    "lastUpdated": "2020-07-20T06:16:03.347Z",
    "country": "CL",
    "invisible": true,
    "latitude": -33.4489,
    "infected": 0,
    "sick": 0
  },
  {
    "recovered": 1135,
    "latitude": -13.2543,
    "dead": 59,
    "name": "Malawi",
    "lastUpdated": "2020-07-20T06:16:03.357Z",
    "infected": 2907,
    "country": "MW",
    "id": "BfT8o5DaEixC6JIZ28kY",
    "pop": 18620000,
    "longitude": 34.3015,
    "sick": 1713,
    "invisible": false
  },
  {
    "latitude": -3.3730559,
    "country": "BI",
    "id": "BnpMamidC5yYzeK8tPUL",
    "longitude": 29.9188862,
    "name": "Burundi",
    "recovered": 207,
    "pop": 10860000,
    "lastUpdated": "2020-07-20T06:16:03.361Z",
    "dead": 1,
    "infected": 310,
    "sick": 102,
    "invisible": false
  },
  {
    "lastUpdated": "2020-07-20T06:03:01.787Z",
    "latitude": 52.257,
    "dead": 365,
    "country": "PL",
    "infected": 5650,
    "longitude": 21.002,
    "name": "Mazowieckie",
    "recovered": 0,
    "id": "BrToMzyq8y2xdwXn75kM",
    "pop": 5385000,
    "sick": 5285,
    "invisible": false
  },
  {
    "recovered": 2275,
    "dead": 101,
    "name": "Amazonas (Colombia)",
    "lastUpdated": "2020-07-20T05:45:11.970Z",
    "longitude": -71.347573,
    "latitude": -1.333845,
    "infected": 2454,
    "id": "C25xSDm4iYibX5RYML14",
    "country": "CO",
    "pop": 74751,
    "sick": 78,
    "invisible": false
  },
  {
    "id": "C3BCUzV80z9GfiuByIcr",
    "pop": 19540000,
    "name": "New York",
    "state": "NY",
    "recovered": 0,
    "country": "US",
    "latitude": 40.719042,
    "lastUpdated": "2020-07-20T05:47:02.472Z",
    "longitude": -73.982597,
    "dead": 32570,
    "infected": 434164,
    "sick": 401594,
    "invisible": false
  },
  {
    "id": "C5YXFiytAc1w9swtVGLz",
    "pop": 42800,
    "name": "Guainía",
    "latitude": 3.86528,
    "lastUpdated": "2020-07-20T05:45:11.970Z",
    "longitude": -67.92389,
    "country": "CO",
    "infected": 14,
    "recovered": 13,
    "dead": 1,
    "sick": 0,
    "invisible": false
  },
  {
    "dead": 359,
    "recovered": 8761,
    "pop": 10650000,
    "infected": 13945,
    "latitude": 49.731626,
    "id": "C6S76AggdWVU8G22jFHQ",
    "name": "Czechia",
    "lastUpdated": "2020-07-20T06:16:03.355Z",
    "longitude": 15.359413,
    "country": "CZ",
    "sick": 4825,
    "invisible": false
  },
  {
    "name": "Bahrain",
    "id": "C7cj4nwRITs13KnaJrQ2",
    "latitude": 26.0667,
    "dead": 126,
    "pop": 1493000,
    "lastUpdated": "2020-07-20T06:16:03.351Z",
    "recovered": 32372,
    "infected": 36422,
    "longitude": 50.557701,
    "country": "BH",
    "sick": 3924,
    "invisible": false
  },
  {
    "longitude": -74.4057,
    "infected": 1555,
    "id": "CA9LaAl3bNaeAqBuozn4",
    "recovered": 716,
    "dead": 162,
    "latitude": 10.4113,
    "lastUpdated": "2020-07-20T05:45:11.970Z",
    "pop": 1285400,
    "country": "CO",
    "name": "Magdalena",
    "sick": 677,
    "invisible": false
  },
  {
    "infected": 8831,
    "pop": 3073500,
    "longitude": -101.430756,
    "id": "CCUFp4urvgXPo5unfMGy",
    "name": "Coahuila",
    "latitude": 26.909979,
    "lastUpdated": "2020-07-20T06:02:02.246Z",
    "recovered": 0,
    "country": "MX",
    "dead": 456,
    "sick": 8375,
    "invisible": false
  },
  {
    "infected": 29434,
    "name": "Rajasthan",
    "country": "IN",
    "lastUpdated": "2020-07-20T06:11:01.955Z",
    "id": "CKZCZTPlrcq5fbfUPA9k",
    "recovered": 21730,
    "latitude": 27.0238,
    "longitude": 74.2179,
    "dead": 559,
    "pop": 68890000,
    "sick": 7145,
    "invisible": false
  },
  {
    "name": "Altai",
    "recovered": 764,
    "pop": 218000,
    "lastUpdated": "2020-07-20T06:00:09.488Z",
    "dead": 1,
    "latitude": 50.6182,
    "longitude": 86.2199,
    "id": "CX8z9U1iABNBhc1VK2Dy",
    "infected": 1239,
    "country": "RU",
    "sick": 474,
    "invisible": false
  },
  {
    "id": "Cgvmtle61ehMvCzRzYx7",
    "longitude": -88.9053,
    "name": "El Salvador",
    "dead": 344,
    "infected": 11846,
    "country": "SV",
    "latitude": 13.803,
    "recovered": 6721,
    "pop": 6378000,
    "lastUpdated": "2020-07-20T06:16:03.355Z",
    "sick": 4781,
    "invisible": false
  },
  {
    "country": "RU",
    "id": "D4WkbqyUXY1pazbOxfKx",
    "name": "Magadan Oblast",
    "lastUpdated": "2020-07-20T06:00:09.488Z",
    "longitude": 153.915,
    "pop": 144000,
    "infected": 1144,
    "dead": 6,
    "recovered": 742,
    "latitude": 62.6643,
    "sick": 396,
    "invisible": false
  },
  {
    "latitude": 58.897,
    "longitude": 82.6765,
    "dead": 26,
    "recovered": 1925,
    "pop": 1078000,
    "name": "Tomsk Oblast",
    "country": "RU",
    "id": "DAp3PFow4BuCMYWWTo3i",
    "lastUpdated": "2020-07-20T06:00:09.479Z",
    "infected": 3435,
    "sick": 1484,
    "invisible": false
  },
  {
    "latitude": 40.259003,
    "id": "DCJCtZoBTWQ4mzdDNljD",
    "infected": 34877,
    "name": "Armenia",
    "country": "AM",
    "recovered": 23294,
    "lastUpdated": "2020-07-20T06:16:03.351Z",
    "pop": 2973000,
    "longitude": 44.818474,
    "dead": 641,
    "sick": 10942,
    "invisible": false
  },
  {
    "name": "Boyacá",
    "lastUpdated": "2020-07-20T05:45:11.969Z",
    "country": "CO",
    "dead": 20,
    "latitude": 5.535,
    "recovered": 334,
    "infected": 640,
    "id": "DJJraANgQbEqz1wBBtZz",
    "pop": 1278000,
    "longitude": -73.368,
    "sick": 286,
    "invisible": false
  },
  {
    "pop": 834000,
    "id": "DKwy7USk22oXUQGEvO42",
    "recovered": 2973,
    "lastUpdated": "2020-07-20T06:00:09.478Z",
    "dead": 32,
    "longitude": 44.0684,
    "infected": 4086,
    "latitude": 54.2369,
    "name": "Mordovia",
    "country": "RU",
    "sick": 1081,
    "invisible": false
  },
  {
    "infected": 44201,
    "state": "EN",
    "name": "North West",
    "country": "GB",
    "pop": 7300000,
    "id": "DPwBt2aJuwF0O71vwfM9",
    "dead": 0,
    "latitude": 53.6221,
    "longitude": -2.5945,
    "lastUpdated": "2020-07-20T06:13:29.472Z",
    "recovered": 0,
    "sick": 44201,
    "invisible": false
  },
  {
    "id": "DZyTD0Mu5WIcK6yTcJ91",
    "country": "BM",
    "pop": 65440,
    "dead": 9,
    "infected": 153,
    "name": "Bermuda",
    "recovered": 137,
    "longitude": -64.75737,
    "latitude": 32.3213844,
    "lastUpdated": "2020-07-20T06:16:03.362Z",
    "sick": 7,
    "invisible": false
  },
  {
    "country": "TC",
    "dead": 2,
    "recovered": 22,
    "lastUpdated": "2020-07-20T06:16:03.370Z",
    "latitude": 21.694,
    "infected": 75,
    "id": "DaMrRSIGJXIG36nW0Pnc",
    "name": "Turks and Caicos",
    "longitude": -71.7979,
    "pop": 35446,
    "sick": 51,
    "invisible": false
  },
  {
    "latitude": 39.2796,
    "lastUpdated": "2020-07-19T23:13:20.962Z",
    "country": "ES",
    "dead": 3034,
    "recovered": 6392,
    "state": "CM",
    "infected": 27065,
    "pop": 2035000,
    "name": "Castilla La Mancha",
    "id": "Dbng0NBTH41EEwBxhMzE",
    "longitude": -3.0977,
    "sick": 17639,
    "invisible": false
  },
  {
    "name": "Malopolskie",
    "latitude": 50.023,
    "id": "DcQ3D0WkacXEbv6iznRB",
    "lastUpdated": "2020-07-20T06:03:01.789Z",
    "pop": 3361000,
    "infected": 2494,
    "longitude": 20.006,
    "dead": 47,
    "recovered": 0,
    "country": "PL",
    "sick": 2447,
    "invisible": false
  },
  {
    "longitude": 113.551262,
    "recovered": 46,
    "country": "MO",
    "dead": 0,
    "infected": 46,
    "lastUpdated": "2020-07-20T06:16:03.372Z",
    "latitude": 22.192039,
    "id": "DdBt8qsG6A3g92oOR3ow",
    "name": "Macao",
    "pop": 622567,
    "sick": 0,
    "invisible": false
  },
  {
    "country": "IN",
    "id": "Dh0O1vmhrVfmsCsfZCUg",
    "pop": 2651000,
    "lastUpdated": "2020-07-20T06:11:01.963Z",
    "latitude": 25.467,
    "name": "Meghalaya",
    "longitude": 91.3662,
    "infected": 450,
    "dead": 4,
    "recovered": 49,
    "sick": 397,
    "invisible": false
  },
  {
    "infected": 11419,
    "pop": 4220000,
    "longitude": 41.8259,
    "lastUpdated": "2020-07-20T06:00:09.467Z",
    "dead": 183,
    "latitude": 47.6853,
    "country": "RU",
    "recovered": 8909,
    "id": "DqzAhNFTJFQVm88ma21P",
    "name": "Rostov Oblast",
    "sick": 2327,
    "invisible": false
  },
  {
    "state": "WY",
    "latitude": 42.962334,
    "longitude": -107.534868,
    "name": "Wyoming",
    "dead": 25,
    "pop": 577737,
    "infected": 2126,
    "recovered": 0,
    "country": "US",
    "lastUpdated": "2020-07-20T05:47:02.478Z",
    "id": "DrGzziUglmBognCGY7R2",
    "sick": 2101,
    "invisible": false
  },
  {
    "longitude": 23.7275,
    "recovered": 1374,
    "lastUpdated": "2020-07-20T06:16:03.357Z",
    "dead": 194,
    "latitude": 37.9838,
    "infected": 4007,
    "country": "GR",
    "pop": 10740000,
    "name": "Greece",
    "id": "Dtr1lap1RpJpXJdXGJiW",
    "sick": 2439,
    "invisible": false
  },
  {
    "pop": 2623000,
    "recovered": 3935,
    "dead": 107,
    "country": "RU",
    "longitude": 56.5872,
    "id": "E8vIyXLVNtcY9dxLHICp",
    "infected": 4982,
    "lastUpdated": "2020-07-20T06:00:09.477Z",
    "latitude": 58.8232,
    "name": "Perm Krai",
    "sick": 940,
    "invisible": false
  },
  {
    "infected": 4667,
    "country": "RU",
    "latitude": 56.9634,
    "dead": 22,
    "name": "Tyumen Oblast",
    "recovered": 3023,
    "longitude": 66.9483,
    "pop": 3692000,
    "id": "EHKZ6ivhrJUs3XqNDBOw",
    "lastUpdated": "2020-07-20T06:00:09.477Z",
    "sick": 1622,
    "invisible": false
  },
  {
    "lastUpdated": "2020-07-20T06:16:03.361Z",
    "recovered": 440,
    "infected": 455,
    "latitude": 25.03841,
    "dead": 7,
    "id": "EKTfs8e7M6DXzI1HqyyX",
    "longitude": 121.563698,
    "name": "Taiwan",
    "pop": 23780000,
    "country": "TW",
    "sick": 8,
    "invisible": false
  },
  {
    "name": "Costa Rica",
    "id": "EQzJvzVHKjs8kLmK7BMu",
    "pop": 4906000,
    "latitude": 10.327273,
    "dead": 62,
    "recovered": 2966,
    "longitude": -84.387618,
    "country": "CR",
    "infected": 11114,
    "lastUpdated": "2020-07-20T06:16:03.355Z",
    "sick": 8086,
    "invisible": false
  },
  {
    "name": "Gujarat",
    "latitude": 22.2587,
    "id": "ERwk9R9en4m9WbdoMbIg",
    "recovered": 34882,
    "country": "IN",
    "longitude": 71.1924,
    "pop": 62700000,
    "lastUpdated": "2020-07-20T06:11:01.952Z",
    "infected": 48441,
    "dead": 2146,
    "sick": 11413,
    "invisible": false
  },
  {
    "id": "EVMBsgCJedjHy91mDYEC",
    "country": "RU",
    "infected": 7819,
    "dead": 129,
    "name": "Arkhangelsk Oblast",
    "longitude": 42.5884,
    "pop": 1155000,
    "lastUpdated": "2020-07-20T06:00:09.468Z",
    "latitude": 63.2853,
    "recovered": 5492,
    "sick": 2198,
    "invisible": false
  },
  {
    "id": "Esl5UlCVB9s8pmGB5Ofr",
    "name": "Chandigarh",
    "dead": 12,
    "lastUpdated": "2020-07-20T06:11:01.957Z",
    "country": "IN",
    "infected": 717,
    "latitude": 30.7333,
    "longitude": 76.7794,
    "recovered": 488,
    "pop": 1055000,
    "sick": 217,
    "invisible": false
  },
  {
    "country": "PL",
    "id": "Esy1La2CxwH5uB8bGVWZ",
    "lastUpdated": "2020-07-20T06:03:01.790Z",
    "recovered": 0,
    "infected": 882,
    "longitude": 22.653,
    "pop": 2148000,
    "latitude": 51.24,
    "dead": 20,
    "name": "Lubelskie",
    "sick": 862,
    "invisible": false
  },
  {
    "country": "US",
    "recovered": 0,
    "name": "Puerto Rico",
    "infected": 12063,
    "longitude": -66.664513,
    "latitude": 18.200178,
    "id": "F4rPrEVGAIMM5rfPEMv4",
    "dead": 178,
    "lastUpdated": "2020-07-20T05:47:02.485Z",
    "pop": 3195000,
    "state": "PR",
    "alwaysShow": true,
    "sick": 11885,
    "invisible": false
  },
  {
    "latitude": 4.862437,
    "lastUpdated": "2020-07-20T05:45:11.968Z",
    "name": "Cundinamarca",
    "id": "F7MED5VwEhi3JvJu6KjB",
    "recovered": 2697,
    "longitude": -74.058655,
    "pop": 2919000,
    "country": "CO",
    "dead": 130,
    "infected": 5835,
    "sick": 3008,
    "invisible": false
  },
  {
    "id": "F8LnLqvuWoWh8awBqiw1",
    "infected": 334,
    "latitude": -11.6455,
    "longitude": 43.3333,
    "lastUpdated": "2020-07-20T06:16:03.361Z",
    "name": "Comoros",
    "dead": 7,
    "country": "KM",
    "pop": 832322,
    "recovered": 313,
    "sick": 14,
    "invisible": false
  },
  {
    "dead": 1181,
    "lastUpdated": "2020-07-20T06:16:03.351Z",
    "latitude": 33.93911,
    "recovered": 23634,
    "infected": 35475,
    "pop": 35530000,
    "country": "AF",
    "longitude": 67.709953,
    "id": "FCDmlmnIIswd8bQiUjfN",
    "name": "Afghanistan",
    "sick": 10660,
    "invisible": false
  },
  {
    "lastUpdated": "2020-07-20T05:53:07.679Z",
    "dead": 6,
    "id": "FErOU1m4Tj7jIkRam3vF",
    "recovered": 576,
    "infected": 583,
    "longitude": 106.912254,
    "pop": 30480000,
    "latitude": 29.431585,
    "name": "Chongqing",
    "country": "CN",
    "sick": 1,
    "invisible": false
  },
  {
    "latitude": 29.311661,
    "country": "KW",
    "longitude": 47.481766,
    "pop": 4137000,
    "infected": 59204,
    "lastUpdated": "2020-07-20T06:16:03.349Z",
    "id": "FZsUkhxBEgqsPb4eO0PN",
    "name": "Kuwait",
    "recovered": 49687,
    "dead": 408,
    "sick": 9109,
    "invisible": false
  },
  {
    "latitude": -10.9111,
    "name": "Sergipe",
    "country": "BR",
    "pop": 2278308,
    "longitude": -37.0717,
    "state": "SE",
    "recovered": 0,
    "dead": 1125,
    "id": "FboWeolpM62SZCLwdilT",
    "lastUpdated": "2020-07-20T05:57:01.254Z",
    "infected": 45243,
    "sick": 44118,
    "invisible": false
  },
  {
    "latitude": 11.1271,
    "longitude": 78.6569,
    "pop": 67860000,
    "name": "Tamil Nadu",
    "country": "IN",
    "id": "FeS45oMNC27pI17F0xEV",
    "dead": 2481,
    "lastUpdated": "2020-07-20T06:11:01.952Z",
    "recovered": 117915,
    "infected": 170693,
    "sick": 50297,
    "invisible": false
  },
  {
    "id": "FuiVEJvWb0QMCpxJ3563",
    "latitude": 18.947829,
    "recovered": 25094,
    "longitude": -70.430399,
    "name": "Dominican Republic",
    "country": "DO",
    "infected": 52855,
    "pop": 10770000,
    "lastUpdated": "2020-07-20T06:16:03.349Z",
    "dead": 981,
    "sick": 26780,
    "invisible": false
  },
  {
    "dead": 415,
    "longitude": 79.0193,
    "country": "IN",
    "pop": 35190000,
    "lastUpdated": "2020-07-20T06:11:01.955Z",
    "id": "FyC551oNwmENxbr9Yght",
    "infected": 45076,
    "name": "Telengana",
    "recovered": 32438,
    "latitude": 18.1124,
    "sick": 12223,
    "invisible": false
  },
  {
    "infected": 1979,
    "longitude": 19.699,
    "dead": 28,
    "pop": 5450000,
    "id": "FzIDXoqWnTI3nUfhPyT2",
    "lastUpdated": "2020-07-20T06:16:03.358Z",
    "country": "SK",
    "latitude": 48.669,
    "recovered": 1530,
    "name": "Slovakia",
    "sick": 421,
    "invisible": false
  },
  {
    "pop": 197000000,
    "recovered": 205929,
    "dead": 5599,
    "longitude": 69.345116,
    "lastUpdated": "2020-07-20T06:16:03.347Z",
    "latitude": 30.37532,
    "id": "GAp7Wb6IMhdgbvEtMza9",
    "name": "Pakistan",
    "country": "PK",
    "infected": 265083,
    "sick": 53555,
    "invisible": false
  },
  {
    "longitude": 75.3412,
    "pop": 27980000,
    "infected": 10100,
    "id": "GGru8cG08mANO8XDDUtZ",
    "lastUpdated": "2020-07-20T06:11:01.955Z",
    "dead": 254,
    "recovered": 6535,
    "country": "IN",
    "latitude": 31.1471,
    "name": "Punjab",
    "sick": 3311,
    "invisible": false
  },
  {
    "latitude": 23.424076,
    "id": "GHzBIsHy2GiBc5JV2HMs",
    "name": "United Arab Emirates",
    "pop": 9400000,
    "longitude": 53.847816,
    "recovered": 49269,
    "lastUpdated": "2020-07-20T06:16:03.349Z",
    "infected": 56922,
    "dead": 339,
    "country": "AE",
    "sick": 7314,
    "invisible": false
  },
  {
    "lastUpdated": "2020-07-20T05:47:02.487Z",
    "longitude": -95.7129,
    "recovered": 0,
    "invisible": true,
    "infected": 103,
    "latitude": 37.0902,
    "id": "GLViSIjDjwvptOphedAu",
    "name": "Grand Princess",
    "country": "US",
    "dead": 3,
    "sick": 100
  },
  {
    "longitude": -0.1278,
    "lastUpdated": "2020-07-20T06:13:29.472Z",
    "infected": 34557,
    "latitude": 51.5074,
    "id": "GPtoS0Yy2EnNafpmmTqY",
    "state": "EN",
    "pop": 10100000,
    "country": "GB",
    "dead": 0,
    "name": "London",
    "recovered": 0,
    "sick": 34557,
    "invisible": false
  },
  {
    "longitude": -119.339046,
    "latitude": 36.621981,
    "dead": 7713,
    "state": "CA",
    "lastUpdated": "2020-07-20T05:47:02.472Z",
    "id": "Gh46r6vuaY7fbGt3IboN",
    "country": "US",
    "pop": 39560000,
    "recovered": 0,
    "infected": 391084,
    "name": "California",
    "sick": 383371,
    "invisible": false
  },
  {
    "infected": 690,
    "name": "Dadra and Nagar Haveli",
    "latitude": 20.4283,
    "recovered": 450,
    "pop": 343709,
    "longitude": 72.8397,
    "dead": 2,
    "id": "GljWeVnun6o9DeW6rlEm",
    "lastUpdated": "2020-07-20T06:11:01.962Z",
    "country": "IN",
    "sick": 238,
    "invisible": false
  },
  {
    "dead": 451,
    "longitude": -97.145514,
    "country": "US",
    "id": "GpF8ULuKOQiFDCUHN44h",
    "lastUpdated": "2020-07-20T05:47:02.476Z",
    "pop": 3943000,
    "state": "OK",
    "recovered": 0,
    "infected": 25265,
    "latitude": 35.87189,
    "name": "Oklahoma",
    "sick": 24814,
    "invisible": false
  },
  {
    "country": "CO",
    "dead": 0,
    "lastUpdated": "2020-07-20T05:45:11.970Z",
    "pop": 256627,
    "longitude": -71.557,
    "infected": 165,
    "latitude": 6.492,
    "id": "Gr09a1wn3BnMqjQbgEun",
    "name": "Arauca",
    "recovered": 83,
    "sick": 82,
    "invisible": false
  },
  {
    "country": "RU",
    "dead": 64,
    "id": "GsecjBfopdgTOnyRgtCA",
    "latitude": 57.1057,
    "recovered": 4241,
    "name": "Ivanovo Oblast",
    "longitude": 41.483,
    "lastUpdated": "2020-07-20T06:00:09.471Z",
    "infected": 5938,
    "pop": 1014000,
    "sick": 1633,
    "invisible": false
  },
  {
    "country": "IT",
    "state": "BA",
    "dead": 292,
    "pop": 520891,
    "id": "Gzx6GX1qhBm714BkEC6l",
    "name": "P.A. Bolzano",
    "recovered": 2291,
    "lastUpdated": "2020-07-20T06:01:09.891Z",
    "infected": 2684,
    "latitude": 46.5,
    "longitude": 11.35,
    "sick": 101,
    "invisible": false
  },
  {
    "latitude": 42.83263,
    "name": "Inner Mongolia",
    "id": "H3JeVigVbo5CSYfZG4WI",
    "lastUpdated": "2020-07-20T05:53:07.677Z",
    "dead": 1,
    "country": "CN",
    "pop": 24710000,
    "longitude": 113.750972,
    "recovered": 237,
    "infected": 250,
    "sick": 12,
    "invisible": false
  },
  {
    "pop": 3034000,
    "recovered": 0,
    "dead": 647,
    "longitude": -116.724977,
    "id": "H3bDg4eV30up4WWrIDAS",
    "lastUpdated": "2020-07-20T05:47:02.476Z",
    "country": "US",
    "infected": 35765,
    "name": "Nevada",
    "latitude": 39.74536,
    "state": "NV",
    "sick": 35118,
    "invisible": false
  },
  {
    "name": "Ceará",
    "latitude": -3.731862,
    "dead": 7178,
    "pop": 9075649,
    "id": "HEMWNnFxeFEoeOCBOLJD",
    "recovered": 0,
    "lastUpdated": "2020-07-20T05:57:01.252Z",
    "longitude": -38.526669,
    "country": "BR",
    "state": "CE",
    "infected": 146972,
    "sick": 139794,
    "invisible": false
  },
  {
    "country": "IN",
    "name": "Karnataka",
    "pop": 64060000,
    "longitude": 75.7139,
    "recovered": 23066,
    "dead": 1336,
    "id": "HN5mGmxlqlSeFSNeu1K5",
    "lastUpdated": "2020-07-20T06:11:01.953Z",
    "infected": 63772,
    "latitude": 15.3173,
    "sick": 39370,
    "invisible": false
  },
  {
    "id": "HRDpwyxpqW9RN0xLFyNu",
    "dead": 0,
    "longitude": 90.4336,
    "name": "Bhutan",
    "country": "BT",
    "latitude": 27.5142,
    "infected": 89,
    "pop": 807610,
    "recovered": 82,
    "lastUpdated": "2020-07-20T06:16:03.369Z",
    "sick": 7,
    "invisible": false
  },
  {
    "longitude": 64.5853,
    "recovered": 9279,
    "lastUpdated": "2020-07-20T06:16:03.354Z",
    "infected": 16752,
    "dead": 87,
    "name": "Uzbekistan",
    "country": "UZ",
    "id": "HRTA10dtrruDEwjJEGMp",
    "latitude": 41.3775,
    "pop": 32390000,
    "sick": 7386,
    "invisible": false
  },
  {
    "dead": 571,
    "latitude": 34.138916,
    "lastUpdated": "2020-07-20T05:47:02.477Z",
    "state": "NM",
    "infected": 16971,
    "name": "New Mexico",
    "country": "US",
    "longitude": -105.576255,
    "id": "HSSFomRju0doHhWgW8On",
    "pop": 2095000,
    "recovered": 0,
    "sick": 16400,
    "invisible": false
  },
  {
    "infected": 833,
    "recovered": 0,
    "country": "CL",
    "id": "HZkACHjW7NlYjg8vEMj2",
    "name": "Los Ríos",
    "lastUpdated": "2020-07-20T05:50:04.671Z",
    "longitude": -72.3311,
    "latitude": -40.231,
    "dead": 13,
    "pop": 412812,
    "sick": 820,
    "invisible": false
  },
  {
    "recovered": 784,
    "pop": 1635000,
    "infected": 811,
    "latitude": 53.6127,
    "name": "Mecklenburg-Vorpommern",
    "id": "He1gSS1v50t06i3YrqvB",
    "dead": 21,
    "longitude": 12.4296,
    "country": "DE",
    "lastUpdated": "2020-07-20T06:00:05.517Z",
    "state": "MV",
    "sick": 6,
    "invisible": false
  },
  {
    "state": "65",
    "latitude": 42.25,
    "name": "Abruzzo",
    "recovered": 2751,
    "lastUpdated": "2020-07-20T06:01:09.883Z",
    "longitude": 13.75,
    "infected": 3336,
    "dead": 468,
    "country": "IT",
    "id": "I9EqrZfbPnkioNU4wZGz",
    "pop": 1315000,
    "sick": 117,
    "invisible": false
  },
  {
    "id": "IAX0OQLVnUwU7FX0ENF1",
    "country": "CN",
    "latitude": 23.363855,
    "recovered": 1637,
    "name": "Guangdong",
    "longitude": 113.373448,
    "pop": 113460000,
    "dead": 8,
    "lastUpdated": "2020-07-20T05:53:07.677Z",
    "infected": 1659,
    "sick": 14,
    "invisible": false
  },
  {
    "country": "CN",
    "infected": 1276,
    "id": "IFuMrMvSjoiX5agYvllh",
    "recovered": 1254,
    "lastUpdated": "2020-07-20T05:53:07.680Z",
    "longitude": 113.484016,
    "latitude": 33.875408,
    "pop": 94000000,
    "name": "Henan",
    "dead": 22,
    "sick": 0,
    "invisible": false
  },
  {
    "longitude": -8.16667,
    "id": "IHqRHC8K3OZPN8gniM7V",
    "latitude": 37.2,
    "infected": 790,
    "name": "Algarve",
    "dead": 15,
    "country": "PT",
    "pop": 451000,
    "recovered": 0,
    "lastUpdated": "2020-07-20T05:53:02.364Z",
    "sick": 775,
    "invisible": false
  },
  {
    "id": "IKWjRUo0SYgHQKdWjTvq",
    "country": "CO",
    "infected": 1848,
    "longitude": -77.0197,
    "name": "Buenaventura D.E.",
    "dead": 126,
    "pop": 333194,
    "latitude": 3.883,
    "recovered": 1276,
    "lastUpdated": "2020-07-20T05:45:11.970Z",
    "sick": 446,
    "invisible": false
  },
  {
    "id": "INyu1R48Ppv8cfW4Nuz4",
    "longitude": -0.995,
    "country": "GB",
    "infected": 22573,
    "state": "EN",
    "name": "East Midlands",
    "dead": 0,
    "pop": 4811000,
    "lastUpdated": "2020-07-20T06:13:29.471Z",
    "latitude": 52.87,
    "recovered": 0,
    "sick": 22573,
    "invisible": false
  },
  {
    "recovered": 0,
    "country": "MX",
    "longitude": -102.317,
    "infected": 4216,
    "id": "ISRKMzEDojyrZ9iyWwex",
    "dead": 231,
    "lastUpdated": "2020-07-20T06:02:02.247Z",
    "name": "Aguascalientes",
    "latitude": 22.017,
    "pop": 1342600,
    "sick": 3985,
    "invisible": false
  },
  {
    "longitude": -100.316116,
    "id": "IdKbgzgKLpjBFh4UPOwu",
    "pop": 5321300,
    "recovered": 0,
    "dead": 773,
    "latitude": 25.686613,
    "lastUpdated": "2020-07-20T06:02:02.247Z",
    "infected": 24020,
    "country": "MX",
    "name": "Nuevo León",
    "sick": 23247,
    "invisible": false
  },
  {
    "id": "IhhiYI6T0TX4CYVPcnmH",
    "recovered": 0,
    "longitude": -106.069099,
    "country": "MX",
    "pop": 3826900,
    "infected": 6590,
    "latitude": 28.632996,
    "lastUpdated": "2020-07-20T06:02:02.245Z",
    "name": "Chihuahua",
    "dead": 813,
    "sick": 5777,
    "invisible": false
  },
  {
    "recovered": 0,
    "lastUpdated": "2020-07-20T05:50:04.670Z",
    "name": "Ñuble",
    "country": "CL",
    "latitude": -36.7,
    "id": "ImnOiVx9Cb8Nw7cbRcQ7",
    "longitude": -72.57,
    "dead": 53,
    "infected": 3222,
    "pop": 480600,
    "sick": 3169,
    "invisible": false
  },
  {
    "recovered": 3877,
    "dead": 146,
    "latitude": 19.0558,
    "pop": 10980000,
    "longitude": -73.0513,
    "id": "InZ38sIqyK7FN7XAOZoX",
    "lastUpdated": "2020-07-20T06:16:03.356Z",
    "infected": 7053,
    "name": "Haiti",
    "country": "HT",
    "sick": 3030,
    "invisible": false
  },
  {
    "id": "IvQkDJkTAsoIqPRAU25n",
    "pop": 10520000,
    "state": "GA",
    "dead": 3173,
    "name": "Georgia (US)",
    "recovered": 0,
    "longitude": -83.280125,
    "infected": 143123,
    "country": "US",
    "lastUpdated": "2020-07-20T05:47:02.474Z",
    "latitude": 32.528564,
    "sick": 139950,
    "invisible": false
  },
  {
    "dead": 22,
    "id": "IvVhpOoGpH6JVkGyUhXN",
    "recovered": 1506,
    "latitude": -42.8285,
    "pop": 4794000,
    "longitude": 172.488081,
    "infected": 1554,
    "country": "NZ",
    "name": "New Zealand",
    "lastUpdated": "2020-07-20T06:16:03.359Z",
    "sick": 26,
    "invisible": false
  },
  {
    "country": "IN",
    "lastUpdated": "2020-07-20T06:11:01.963Z",
    "longitude": 94.7278,
    "latitude": 28.218,
    "id": "IwYKiIVY18NGwdGQFGWW",
    "recovered": 282,
    "pop": 1255000,
    "name": "Arunachal Pradesh",
    "dead": 3,
    "infected": 740,
    "sick": 455,
    "invisible": false
  },
  {
    "pop": 28870000,
    "longitude": -66.5897,
    "id": "J3mZXlfEnnJx4CDZLvRG",
    "lastUpdated": "2020-07-20T06:16:03.355Z",
    "country": "VE",
    "infected": 11891,
    "recovered": 3972,
    "name": "Venezuela",
    "latitude": 6.4238,
    "dead": 112,
    "sick": 7807,
    "invisible": false
  },
  {
    "country": "CO",
    "name": "Guaviare",
    "lastUpdated": "2020-07-20T05:45:11.971Z",
    "recovered": 39,
    "dead": 0,
    "id": "JEMCwkwXK39jd1lZ7VgJ",
    "longitude": -72.633,
    "infected": 50,
    "latitude": 2.567,
    "pop": 107932,
    "sick": 11,
    "invisible": false
  },
  {
    "recovered": 1901,
    "dead": 16,
    "lastUpdated": "2020-07-20T06:00:09.486Z",
    "pop": 453000,
    "id": "JOJVBvOnsLDJPVeYJaI2",
    "name": "Adygea",
    "longitude": 40.1754,
    "infected": 2364,
    "country": "RU",
    "latitude": 44.8229,
    "sick": 447,
    "invisible": false
  },
  {
    "lastUpdated": "2020-07-20T06:16:03.360Z",
    "id": "JQByE4l2OA6sGOqIcWrM",
    "infected": 1038,
    "longitude": 33.4299,
    "pop": 1170000,
    "recovered": 845,
    "country": "CY",
    "dead": 19,
    "name": "Cyprus",
    "latitude": 35.1264,
    "sick": 174,
    "invisible": false
  },
  {
    "id": "JR7hOGked7CZtIs2nCV5",
    "infected": 26379,
    "recovered": 16597,
    "longitude": 85.3131,
    "country": "IN",
    "dead": 179,
    "name": "Bihar",
    "pop": 99020000,
    "lastUpdated": "2020-07-20T06:11:01.955Z",
    "latitude": 25.0961,
    "sick": 9603,
    "invisible": false
  },
  {
    "country": "GT",
    "pop": 17250000,
    "name": "Guatemala",
    "lastUpdated": "2020-07-20T06:16:03.351Z",
    "latitude": 14.628434,
    "infected": 38677,
    "dead": 1485,
    "id": "JUWE6bG3b5oL7fKQMSvv",
    "longitude": -90.522713,
    "recovered": 23365,
    "sick": 13827,
    "invisible": false
  },
  {
    "name": "Luxembourg",
    "lastUpdated": "2020-07-20T06:16:03.357Z",
    "longitude": 6.1296,
    "latitude": 49.8153,
    "id": "JcFsHSn2WvZ5LJW42ovG",
    "pop": 602005,
    "country": "LU",
    "dead": 111,
    "infected": 5605,
    "recovered": 4333,
    "sick": 1161,
    "invisible": false
  },
  {
    "infected": 1732,
    "id": "JmOyaFe25yZCIV64JbZj",
    "dead": 83,
    "longitude": -74.167,
    "recovered": 894,
    "name": "Bolívar",
    "pop": 2049000,
    "lastUpdated": "2020-07-20T05:45:11.969Z",
    "country": "CO",
    "latitude": 8.8,
    "sick": 755,
    "invisible": false
  },
  {
    "id": "Jp9ePErcc8i1aOozEAMf",
    "lastUpdated": "2020-07-20T06:02:02.244Z",
    "pop": 3648100,
    "country": "MX",
    "name": "Baja California",
    "recovered": 0,
    "dead": 2380,
    "infected": 11934,
    "longitude": -115.783,
    "latitude": 31.4,
    "sick": 9554,
    "invisible": false
  },
  {
    "dead": 304,
    "id": "Jr8syCB0lydmPDXw8Q6N",
    "name": "Córdoba",
    "latitude": 8.7479801,
    "longitude": -75.8814316,
    "infected": 2709,
    "country": "CO",
    "recovered": 656,
    "lastUpdated": "2020-07-20T05:45:11.969Z",
    "pop": 1786500,
    "sick": 1749,
    "invisible": false
  },
  {
    "infected": 778,
    "id": "JrBbirlBKGdWSdcDt7PF",
    "dead": 15,
    "longitude": 0.8248,
    "name": "Togo",
    "recovered": 551,
    "pop": 7798000,
    "lastUpdated": "2020-07-20T06:16:03.360Z",
    "country": "TG",
    "latitude": 8.6195,
    "sick": 212,
    "invisible": false
  },
  {
    "pop": 7050000,
    "recovered": 4106,
    "id": "JzZ8sbqzjutThVjkPKPL",
    "lastUpdated": "2020-07-20T06:16:03.356Z",
    "infected": 8733,
    "latitude": 42.7339,
    "dead": 300,
    "name": "Bulgaria",
    "country": "BG",
    "longitude": 25.4858,
    "sick": 4327,
    "invisible": false
  },
  {
    "recovered": 0,
    "latitude": 50.823,
    "pop": 1263000,
    "name": "Świętokrzyskie",
    "id": "KGrK7gafkeWjmU6sHQd2",
    "dead": 45,
    "longitude": 20.709,
    "country": "PL",
    "lastUpdated": "2020-07-20T06:03:01.790Z",
    "infected": 885,
    "sick": 840,
    "invisible": false
  },
  {
    "country": "RU",
    "name": "Sverdlovsk Oblast",
    "dead": 193,
    "infected": 17789,
    "pop": 4325000,
    "recovered": 11786,
    "lastUpdated": "2020-07-20T06:00:09.467Z",
    "longitude": 61.9316,
    "id": "KLBR5QHW6DePaGcFxlqH",
    "latitude": 59.0077,
    "sick": 5810,
    "invisible": false
  },
  {
    "latitude": 44.5,
    "longitude": 8.833,
    "name": "Liguria",
    "pop": 1557000,
    "country": "IT",
    "state": "42",
    "lastUpdated": "2020-07-20T06:01:09.891Z",
    "infected": 10093,
    "dead": 1565,
    "recovered": 8324,
    "id": "KLXicxFogWnu0dLp4bNK",
    "sick": 204,
    "invisible": false
  },
  {
    "dead": 31,
    "longitude": 47.9608,
    "id": "KUnAVGJH6fLwFetE8A2x",
    "lastUpdated": "2020-07-20T06:00:09.479Z",
    "country": "RU",
    "latitude": 56.4385,
    "recovered": 2948,
    "name": "Mari El Republic",
    "infected": 3493,
    "pop": 682000,
    "sick": 514,
    "invisible": false
  },
  {
    "infected": 1997,
    "pop": 1201000,
    "name": "Cesar",
    "dead": 38,
    "latitude": 10.4631,
    "longitude": -73.2532,
    "recovered": 1114,
    "id": "KpOz3WmiZkrXUMlUJNlV",
    "country": "CO",
    "lastUpdated": "2020-07-20T05:45:11.969Z",
    "sick": 845,
    "invisible": false
  },
  {
    "name": "Toscana",
    "latitude": 43.4167,
    "longitude": 11,
    "recovered": 8920,
    "lastUpdated": "2020-07-20T06:01:09.892Z",
    "id": "KrLrJbpDqqiXgUPGCCW9",
    "dead": 1129,
    "infected": 10374,
    "state": "52",
    "country": "IT",
    "pop": 3737000,
    "sick": 325,
    "invisible": false
  },
  {
    "id": "KsWzJO06cf0d6LJ4ZNh9",
    "dead": 11,
    "recovered": 2035,
    "lastUpdated": "2020-07-20T06:16:03.358Z",
    "pop": 21440000,
    "country": "LK",
    "name": "Sri Lanka",
    "latitude": 7.873054,
    "longitude": 80.771797,
    "infected": 2724,
    "sick": 678,
    "invisible": false
  },
  {
    "longitude": 79.74,
    "country": "IN",
    "infected": 49650,
    "lastUpdated": "2020-07-20T06:11:01.955Z",
    "name": "Andhra Pradesh",
    "recovered": 22890,
    "id": "KtQIo2DoqjELtPAlyDVO",
    "dead": 642,
    "pop": 49670000,
    "latitude": 15.9129,
    "sick": 26118,
    "invisible": false
  },
  {
    "id": "LBUtrLDKJiupXjlUNTUe",
    "name": "Saint-Martin",
    "infected": 46,
    "longitude": -63.0501,
    "country": "FR",
    "dead": 3,
    "alwaysShow": true,
    "pop": 32125,
    "lastUpdated": "2020-07-20T06:16:03.372Z",
    "recovered": 39,
    "latitude": 18.0708,
    "sick": 4,
    "invisible": false
  },
  {
    "infected": 5318,
    "longitude": 36.9242,
    "latitude": 52.7856,
    "pop": 747000,
    "country": "RU",
    "id": "LD8TNScpLrLRvgpQAn9T",
    "dead": 77,
    "recovered": 3870,
    "lastUpdated": "2020-07-20T06:00:09.476Z",
    "name": "Oryol Oblast",
    "sick": 1371,
    "invisible": false
  },
  {
    "dead": 1,
    "lastUpdated": "2020-07-20T06:16:03.369Z",
    "infected": 86,
    "longitude": 9.5554,
    "recovered": 81,
    "name": "Liechtenstein",
    "country": "LI",
    "latitude": 47.166,
    "id": "LTGEU2E9MFkrCcFhZYVk",
    "pop": 38557,
    "sick": 4,
    "invisible": false
  },
  {
    "longitude": -9.6966,
    "latitude": 9.9456,
    "id": "LU2QWt5ao8IJa8evNYVV",
    "name": "Guinea",
    "dead": 39,
    "country": "GN",
    "lastUpdated": "2020-07-20T06:16:03.356Z",
    "pop": 12720000,
    "infected": 6544,
    "recovered": 5511,
    "sick": 994,
    "invisible": false
  },
  {
    "pop": 3062000,
    "id": "LYCBHrA9ms6GcxpLGPCT",
    "dead": 1436,
    "infected": 14749,
    "country": "MX",
    "longitude": -110.5,
    "recovered": 0,
    "lastUpdated": "2020-07-20T06:02:02.245Z",
    "name": "Sonora",
    "latitude": 29.6667,
    "sick": 13313,
    "invisible": false
  },
  {
    "country": "SR",
    "latitude": 3.9193051,
    "id": "LglKINHyQpYpFxjckbQ6",
    "recovered": 627,
    "lastUpdated": "2020-07-20T06:16:03.360Z",
    "infected": 1029,
    "longitude": -56.0277824,
    "pop": 563402,
    "name": "Suriname",
    "dead": 21,
    "sick": 381,
    "invisible": false
  },
  {
    "longitude": -106.4509,
    "latitude": 52.9399,
    "lastUpdated": "2020-07-20T06:07:01.963Z",
    "infected": 943,
    "country": "CA",
    "name": "Saskatchewan",
    "recovered": 799,
    "dead": 15,
    "id": "LkIDKY0CMAqzbwBHyYCP",
    "state": "SK",
    "pop": 1174000,
    "sick": 129,
    "invisible": false
  },
  {
    "longitude": -12.8858,
    "pop": 636442,
    "name": "Western Sahara",
    "latitude": 24.2155,
    "infected": 10,
    "country": "EH",
    "recovered": 8,
    "lastUpdated": "2020-07-20T06:16:03.373Z",
    "id": "LooNn6RuMiDhQnwa9svw",
    "dead": 1,
    "sick": 1,
    "invisible": false
  },
  {
    "infected": 3427,
    "country": "ES",
    "state": "AS",
    "latitude": 43.363129,
    "id": "Lsga7AvYNnY0qQ5gEfV8",
    "pop": 1022000,
    "longitude": -5.951843,
    "dead": 334,
    "lastUpdated": "2020-07-19T23:14:25.832Z",
    "recovered": 1063,
    "name": "Principado de Asturias",
    "sick": 2030,
    "invisible": false
  },
  {
    "infected": 4244,
    "pop": 1065000,
    "dead": 519,
    "id": "LuEErlF7dVKI0eJsRjFm",
    "lastUpdated": "2020-07-19T23:13:55.201Z",
    "latitude": 39.4937,
    "longitude": -6.0679,
    "recovered": 2652,
    "state": "EX",
    "country": "ES",
    "name": "Extremadura",
    "sick": 1073,
    "invisible": false
  },
  {
    "latitude": 21.0186,
    "lastUpdated": "2020-07-20T06:02:02.246Z",
    "country": "MX",
    "infected": 16572,
    "name": "Guanajuato",
    "pop": 5965000,
    "longitude": -101.2591,
    "recovered": 0,
    "dead": 990,
    "id": "M3wdiueFtwrUHiQ2rOXA",
    "sick": 15582,
    "invisible": false
  },
  {
    "recovered": 0,
    "latitude": 37.8393,
    "longitude": -84.27,
    "id": "MC8MXFw9iXYybnF8v7e6",
    "lastUpdated": "2020-07-20T05:47:02.477Z",
    "infected": 23161,
    "country": "US",
    "state": "KY",
    "pop": 4468000,
    "name": "Kentucky",
    "dead": 670,
    "sick": 22491,
    "invisible": false
  },
  {
    "infected": 8369,
    "recovered": 0,
    "lastUpdated": "2020-07-20T06:13:29.473Z",
    "country": "GB",
    "latitude": 55.3781,
    "dead": 40706,
    "id": "MEjlm8VYdGA28TTTnQmf",
    "longitude": -3.436,
    "name": "Unknown UK region or state",
    "invisible": true,
    "sick": 0
  },
  {
    "infected": 18338,
    "longitude": -7.7441,
    "id": "MG4e9tulLJ010SZJvbYN",
    "name": "Norte",
    "pop": 3689000,
    "latitude": 41.3006,
    "dead": 827,
    "country": "PT",
    "lastUpdated": "2020-07-20T05:53:02.364Z",
    "recovered": 0,
    "sick": 17511,
    "invisible": false
  },
  {
    "pop": 5450000,
    "infected": 18445,
    "name": "Scotland",
    "dead": 2491,
    "state": "SC",
    "country": "GB",
    "latitude": 56.4907,
    "id": "MObRYyIriHG337L8FyFC",
    "lastUpdated": "2020-07-20T06:13:29.471Z",
    "recovered": 0,
    "longitude": -4.2026,
    "sick": 15954,
    "invisible": false
  },
  {
    "recovered": 0,
    "state": "IN",
    "longitude": -86.1349,
    "infected": 56571,
    "pop": 6692000,
    "name": "Indiana",
    "lastUpdated": "2020-07-20T05:47:02.474Z",
    "country": "US",
    "dead": 2822,
    "id": "MOxDkmQ4wBi1CuAdVxDE",
    "latitude": 40.2672,
    "sick": 53749,
    "invisible": false
  },
  {
    "dead": 92,
    "id": "MdQOfc1gNh2DOqwSP6UV",
    "pop": 24290000,
    "country": "CI",
    "lastUpdated": "2020-07-20T06:16:03.354Z",
    "infected": 14119,
    "latitude": 7.54,
    "longitude": -5.5471,
    "name": "Ivory Coast",
    "recovered": 8366,
    "sick": 5661,
    "invisible": false
  },
  {
    "id": "MjpYq3zQyAvSQlVVYjD2",
    "dead": 1726,
    "latitude": 51.4332,
    "name": "Nordrhein-Westfalen",
    "longitude": 7.6616,
    "lastUpdated": "2020-07-20T06:00:05.517Z",
    "pop": 17910000,
    "recovered": 42397,
    "state": "NW",
    "country": "DE",
    "infected": 46133,
    "sick": 2010,
    "invisible": false
  },
  {
    "country": "CN",
    "infected": 75,
    "pop": 6301000,
    "id": "MntmjjuHljarCdt6aIeE",
    "recovered": 75,
    "latitude": 37.330509,
    "dead": 0,
    "name": "Ningxia",
    "longitude": 105.977203,
    "lastUpdated": "2020-07-20T05:53:07.682Z",
    "sick": 0,
    "invisible": false
  },
  {
    "recovered": 0,
    "id": "MuEB2UgkId5crsxi9zQT",
    "pop": 8513497,
    "infected": 137484,
    "longitude": -52.203499186,
    "state": "PA",
    "name": "Pará",
    "country": "BR",
    "dead": 5523,
    "latitude": -3.20166586,
    "lastUpdated": "2020-07-20T05:57:01.253Z",
    "sick": 131961,
    "invisible": false
  },
  {
    "infected": 4395,
    "longitude": 39.2032,
    "name": "Lipetsk Oblast",
    "recovered": 3364,
    "country": "RU",
    "dead": 20,
    "id": "N0KGfqgROVOjAxWcd8wi",
    "lastUpdated": "2020-07-20T06:00:09.478Z",
    "latitude": 52.5265,
    "pop": 1150000,
    "sick": 1011,
    "invisible": false
  },
  {
    "longitude": 9.3501,
    "latitude": 48.6616,
    "recovered": 33960,
    "pop": 11020000,
    "dead": 1895,
    "state": "BW",
    "country": "DE",
    "infected": 36744,
    "name": "Baden-Württemberg",
    "id": "N3XsRBwJSsNclkEf7Zz5",
    "lastUpdated": "2020-07-20T06:00:05.515Z",
    "sick": 889,
    "invisible": false
  },
  {
    "longitude": 17.824332,
    "lastUpdated": "2020-07-20T06:16:03.356Z",
    "country": "BA",
    "name": "Bosnia and Herzegovina",
    "latitude": 44.696652,
    "infected": 8340,
    "dead": 249,
    "id": "N7c13sCQF0G789XAVazJ",
    "recovered": 3669,
    "pop": 3507000,
    "sick": 4422,
    "invisible": false
  },
  {
    "lastUpdated": "2020-07-20T05:53:07.679Z",
    "country": "CN",
    "infected": 201,
    "pop": 36500000,
    "name": "Shanxi",
    "dead": 0,
    "longitude": 111.856857,
    "recovered": 200,
    "id": "NBRIGIRrJB1Ry8prDNAC",
    "latitude": 37.242565,
    "sick": 1,
    "invisible": false
  },
  {
    "infected": 99816,
    "dead": 1667,
    "name": "North Carolina",
    "pop": 10380000,
    "recovered": 0,
    "country": "US",
    "latitude": 35.7596,
    "id": "NC64Qp5kTqAfiTuR27k8",
    "longitude": -79.0193,
    "state": "NC",
    "lastUpdated": "2020-07-20T05:47:02.474Z",
    "sick": 98149,
    "invisible": false
  },
  {
    "latitude": 52.4125,
    "pop": 2504000,
    "longitude": 12.5316,
    "recovered": 3279,
    "lastUpdated": "2020-07-20T06:00:05.516Z",
    "dead": 177,
    "infected": 3541,
    "id": "NJjo2gfBvnbK4xatrsUz",
    "state": "BB",
    "name": "Brandenburg",
    "country": "DE",
    "sick": 85,
    "invisible": false
  },
  {
    "latitude": 15.0979,
    "id": "NLLL6pJhJSw0lrDMD4uP",
    "state": "MP",
    "alwaysShow": true,
    "infected": 37,
    "country": "US",
    "pop": 55144,
    "dead": 2,
    "name": "Northern Mariana Islands",
    "recovered": 0,
    "longitude": 145.6739,
    "lastUpdated": "2020-07-20T05:47:02.485Z",
    "sick": 35,
    "invisible": false
  },
  {
    "id": "NMeZEcGToxXfpi16PfFV",
    "pop": 10080000,
    "dead": 52,
    "lastUpdated": "2020-07-20T06:11:01.957Z",
    "name": "Uttarakhand",
    "infected": 4515,
    "recovered": 3116,
    "longitude": 79.0193,
    "country": "IN",
    "latitude": 30.0668,
    "sick": 1347,
    "invisible": false
  },
  {
    "name": "Hessen",
    "recovered": 10500,
    "pop": 6243000,
    "longitude": 9.1624,
    "latitude": 50.6521,
    "country": "DE",
    "infected": 11422,
    "dead": 521,
    "id": "Nk5vPgUIXsWVfbWZf15O",
    "lastUpdated": "2020-07-20T06:00:05.517Z",
    "state": "HE",
    "sick": 401,
    "invisible": false
  },
  {
    "name": "Latvia",
    "infected": 1192,
    "country": "LV",
    "id": "NmmMKy0YqA8StHdGzB5N",
    "lastUpdated": "2020-07-20T06:16:03.359Z",
    "recovered": 1022,
    "longitude": 25.837107,
    "latitude": 56.96776,
    "dead": 31,
    "pop": 1920000,
    "sick": 139,
    "invisible": false
  },
  {
    "latitude": -8.472372,
    "lastUpdated": "2020-07-20T05:57:01.253Z",
    "infected": 79452,
    "recovered": 0,
    "country": "BR",
    "longitude": -37.946777,
    "dead": 5984,
    "state": "PE",
    "pop": 9496294,
    "id": "NyGlFL1gATK1Omv9qtcC",
    "name": "Pernambuco",
    "sick": 73468,
    "invisible": false
  },
  {
    "lastUpdated": "2020-07-20T06:16:03.360Z",
    "longitude": -9.4295,
    "dead": 70,
    "infected": 1091,
    "id": "O4g88K49HKEZLFXm5gxb",
    "name": "Liberia",
    "country": "LR",
    "pop": 4732000,
    "latitude": 6.4281,
    "recovered": 534,
    "sick": 487,
    "invisible": false
  },
  {
    "infected": 7382,
    "name": "Altai Krai",
    "latitude": 51.7936,
    "lastUpdated": "2020-07-20T06:00:09.468Z",
    "longitude": 82.6759,
    "dead": 56,
    "id": "O5fNOGWKosps6JTrzkpn",
    "recovered": 4712,
    "country": "RU",
    "pop": 2350000,
    "sick": 2614,
    "invisible": false
  },
  {
    "name": "Zabaykalsky Krai",
    "pop": 1072000,
    "id": "O6PDzAxKENYbLsLjPx2K",
    "lastUpdated": "2020-07-20T06:00:09.478Z",
    "longitude": 116.9677,
    "dead": 47,
    "recovered": 3137,
    "infected": 3897,
    "country": "RU",
    "latitude": 53.0929,
    "sick": 713,
    "invisible": false
  },
  {
    "pop": 5084000,
    "infected": 69986,
    "recovered": 0,
    "lastUpdated": "2020-07-20T05:47:02.474Z",
    "id": "ONU4CK8QjViFHKg2w5if",
    "state": "SC",
    "country": "US",
    "dead": 1155,
    "longitude": -80.525613,
    "latitude": 34.003307,
    "name": "South Carolina",
    "sick": 68831,
    "invisible": false
  },
  {
    "id": "OYa0jFzdbAgo8zUsRv6q",
    "latitude": 33.51822,
    "state": "MS",
    "dead": 1355,
    "name": "Mississippi",
    "longitude": -89.582775,
    "infected": 42638,
    "recovered": 0,
    "lastUpdated": "2020-07-20T05:47:02.475Z",
    "pop": 2987000,
    "country": "US",
    "sick": 41283,
    "invisible": false
  },
  {
    "dead": 117,
    "longitude": -69.4455,
    "id": "OcXNp9kNVSwrRlG3bNVN",
    "name": "Maine",
    "infected": 3687,
    "state": "ME",
    "recovered": 0,
    "lastUpdated": "2020-07-20T05:47:02.478Z",
    "latitude": 45.2538,
    "pop": 1338000,
    "country": "US",
    "sick": 3570,
    "invisible": false
  },
  {
    "latitude": 43.4052,
    "pop": 488000,
    "recovered": 2538,
    "lastUpdated": "2020-07-20T06:00:09.479Z",
    "dead": 71,
    "id": "OlKS5SPydHY2TedStFuf",
    "infected": 3438,
    "longitude": 44.8203,
    "country": "RU",
    "name": "Ingushetia",
    "sick": 829,
    "invisible": false
  },
  {
    "longitude": 146.725256,
    "recovered": 215,
    "state": "TAS",
    "infected": 228,
    "lastUpdated": "2020-07-20T05:58:21.477Z",
    "name": "Tasmania",
    "country": "AU",
    "latitude": -41.915264,
    "pop": 515000,
    "dead": 13,
    "id": "OnOseaqWdnuP18oruABW",
    "sick": 0,
    "invisible": false
  },
  {
    "dead": 1332,
    "recovered": 0,
    "id": "P0GHFGUt1pkKTk5PM8uz",
    "name": "Mato Grosso",
    "longitude": -56.666668,
    "state": "MT",
    "latitude": -16.35,
    "country": "BR",
    "infected": 34136,
    "lastUpdated": "2020-07-20T05:57:01.255Z",
    "pop": 3441998,
    "sick": 32804,
    "invisible": false
  },
  {
    "longitude": 40.5927,
    "recovered": 4540,
    "name": "Vladimir Oblast",
    "lastUpdated": "2020-07-20T06:00:09.476Z",
    "infected": 5218,
    "country": "RU",
    "pop": 1378000,
    "id": "P2I90oqdFSoVk03AaGo4",
    "latitude": 56.1553,
    "dead": 108,
    "sick": 570,
    "invisible": false
  },
  {
    "country": "KY",
    "dead": 1,
    "lastUpdated": "2020-07-20T06:16:03.362Z",
    "pop": 61559,
    "id": "P4mwRFLbrvT0t75uD8Wo",
    "name": "Cayman Islands",
    "recovered": 200,
    "longitude": -81.2546,
    "latitude": 19.3133,
    "infected": 203,
    "sick": 2,
    "invisible": false
  },
  {
    "name": "Montserrat",
    "recovered": 10,
    "id": "PEDkeFMTOZpvHiSVxBk7",
    "country": "MS",
    "pop": 5900,
    "longitude": -62.1873665,
    "latitude": 16.7424984,
    "infected": 12,
    "dead": 1,
    "lastUpdated": "2020-07-20T06:16:03.373Z",
    "sick": 1,
    "invisible": false
  },
  {
    "infected": 1582,
    "recovered": 834,
    "pop": 12210000,
    "lastUpdated": "2020-07-20T06:16:03.359Z",
    "id": "PEcgZGEkyhABztt1Ufgc",
    "country": "RW",
    "latitude": -1.9403,
    "name": "Rwanda",
    "dead": 5,
    "longitude": 29.8739,
    "sick": 743,
    "invisible": false
  },
  {
    "id": "PHlHdeqYd6KgxsJGfEz0",
    "name": "Bashkortostan",
    "latitude": 54.2312,
    "lastUpdated": "2020-07-20T06:00:09.469Z",
    "longitude": 56.1645,
    "recovered": 4630,
    "infected": 6307,
    "pop": 4063000,
    "country": "RU",
    "dead": 20,
    "sick": 1657,
    "invisible": false
  },
  {
    "infected": 46204,
    "name": "Minnesota",
    "state": "MN",
    "country": "US",
    "recovered": 0,
    "latitude": 46.7296,
    "pop": 5611000,
    "longitude": -94.6859,
    "id": "PJvVYosLIhbcRZYnKX1R",
    "dead": 1581,
    "lastUpdated": "2020-07-20T05:47:02.475Z",
    "sick": 44623,
    "invisible": false
  },
  {
    "country": "US",
    "dead": 7488,
    "name": "Illinois",
    "longitude": -89.3985,
    "latitude": 40.6331,
    "lastUpdated": "2020-07-20T05:47:02.473Z",
    "state": "IL",
    "pop": 12740000,
    "infected": 162750,
    "id": "PTwQr9ijo0TBBsPH2sdJ",
    "recovered": 0,
    "sick": 155262,
    "invisible": false
  },
  {
    "infected": 23,
    "pop": 178844,
    "id": "PjLqCeFdyzdZNcZxMkK1",
    "country": "LC",
    "longitude": -60.978893,
    "latitude": 13.909444,
    "dead": 0,
    "name": "Saint Lucia",
    "recovered": 19,
    "lastUpdated": "2020-07-20T06:16:03.373Z",
    "sick": 4,
    "invisible": false
  },
  {
    "latitude": 42.6954,
    "dead": 529,
    "name": "Comunidad Foral de Navarra",
    "pop": 649900,
    "state": "NC",
    "recovered": 3905,
    "lastUpdated": "2020-07-19T23:13:39.498Z",
    "country": "ES",
    "longitude": -1.6761,
    "infected": 8865,
    "id": "PmUlsNx2uFLU797wwU39",
    "sick": 4431,
    "invisible": false
  },
  {
    "lastUpdated": "2020-07-20T06:16:03.359Z",
    "latitude": 34.201507,
    "id": "Pr76V4raf108uSRoEXac",
    "recovered": 1097,
    "infected": 1374,
    "dead": 50,
    "pop": 11530000,
    "longitude": 9.460554,
    "country": "TN",
    "name": "Tunisia",
    "sick": 227,
    "invisible": false
  },
  {
    "longitude": 31.4659,
    "latitude": -26.5225,
    "recovered": 822,
    "id": "PuQgOd9KWiMzGZXm11sR",
    "name": "Eswatini",
    "pop": 1367000,
    "dead": 21,
    "lastUpdated": "2020-07-20T06:16:03.359Z",
    "country": "SZ",
    "infected": 1793,
    "sick": 950,
    "invisible": false
  },
  {
    "id": "Q18mrGvFWTLX2BU9SqhQ",
    "infected": 5696,
    "dead": 38,
    "latitude": -37.009609,
    "name": "Victoria",
    "lastUpdated": "2020-07-20T05:13:24.928Z",
    "country": "AU",
    "pop": 6359000,
    "longitude": 143.94853,
    "recovered": 2988,
    "state": "VIC",
    "sick": 2670,
    "invisible": false
  },
  {
    "state": "SH",
    "recovered": 3046,
    "pop": 2890000,
    "id": "Q39XkabIYxt15mHINzTa",
    "infected": 3266,
    "latitude": 54.2194,
    "longitude": 9.6961,
    "name": "Schleswig-Holstein",
    "dead": 159,
    "lastUpdated": "2020-07-20T06:00:05.525Z",
    "country": "DE",
    "sick": 61,
    "invisible": false
  },
  {
    "country": "BR",
    "recovered": 0,
    "latitude": -27.953491,
    "name": "Rio Grande do Sul",
    "pop": 11329605,
    "infected": 47113,
    "dead": 1252,
    "state": "RS",
    "id": "QGpQNhuoVTUPHXvS7qcu",
    "lastUpdated": "2020-07-20T05:57:01.254Z",
    "longitude": -52.031696,
    "sick": 45861,
    "invisible": false
  },
  {
    "country": "RU",
    "dead": 49,
    "infected": 6216,
    "longitude": 46.9284,
    "lastUpdated": "2020-07-20T06:00:09.469Z",
    "pop": 1231000,
    "id": "QGyuno7Bc4kwuvGFgMiO",
    "latitude": 55.5596,
    "name": "Chuvashia",
    "recovered": 3364,
    "sick": 2803,
    "invisible": false
  },
  {
    "dead": 69,
    "id": "QR9go2hQKXjty7JHUYe4",
    "pop": 1328000,
    "longitude": 25.013607,
    "country": "EE",
    "recovered": 1912,
    "lastUpdated": "2020-07-20T06:16:03.358Z",
    "infected": 2021,
    "name": "Estonia",
    "latitude": 58.595272,
    "sick": 40,
    "invisible": false
  },
  {
    "infected": 4680,
    "latitude": 63.8631,
    "name": "Komi Republic",
    "longitude": 54.8313,
    "recovered": 2759,
    "id": "QTafh5fpbS8abcuyEjaL",
    "lastUpdated": "2020-07-20T06:00:09.477Z",
    "country": "RU",
    "pop": 840000,
    "dead": 40,
    "sick": 1881,
    "invisible": false
  },
  {
    "name": "Espírito Santo",
    "latitude": -20.318,
    "longitude": -40.336,
    "dead": 2222,
    "pop": 3972388,
    "state": "ES",
    "recovered": 0,
    "country": "BR",
    "id": "QaWDLKH8SuwD0Qxq6c38",
    "lastUpdated": "2020-07-20T05:57:01.253Z",
    "infected": 70609,
    "sick": 68387,
    "invisible": false
  },
  {
    "dead": 49,
    "name": "Murmansk Oblast",
    "lastUpdated": "2020-07-20T06:00:09.468Z",
    "pop": 795000,
    "latitude": 67.8443,
    "longitude": 35.0884,
    "country": "RU",
    "infected": 8272,
    "recovered": 4387,
    "id": "Qh73PKA4KWeuPoqZfWXz",
    "sick": 3836,
    "invisible": false
  },
  {
    "name": "Jalisco",
    "pop": 8222700,
    "latitude": 20.3333,
    "dead": 1233,
    "infected": 22264,
    "id": "Qkho455pBwx88Gohs3hL",
    "recovered": 0,
    "lastUpdated": "2020-07-20T06:02:02.247Z",
    "country": "MX",
    "longitude": -103.6667,
    "sick": 21031,
    "invisible": false
  },
  {
    "pop": 8251000,
    "recovered": 8,
    "latitude": -6.315,
    "country": "PG",
    "infected": 16,
    "longitude": 143.9555,
    "name": "Papua New Guinea",
    "id": "QlZrE4nosm5WfdA2aCDg",
    "lastUpdated": "2020-07-20T06:16:03.373Z",
    "dead": 0,
    "sick": 8,
    "invisible": false
  },
  {
    "longitude": -64.8963,
    "dead": 6,
    "name": "U.S. Virgin Islands",
    "lastUpdated": "2020-07-20T05:47:02.486Z",
    "infected": 283,
    "alwaysShow": true,
    "recovered": 0,
    "country": "US",
    "latitude": 18.3358,
    "id": "QqhD3YDMKXojvQY3Yu41",
    "state": "VI",
    "pop": 107268,
    "sick": 277,
    "invisible": false
  },
  {
    "id": "Qy2qW2ep5wltnYjPJBxh",
    "dead": 0,
    "country": "DM",
    "pop": 71937,
    "lastUpdated": "2020-07-20T06:16:03.373Z",
    "infected": 18,
    "recovered": 18,
    "name": "Dominica",
    "latitude": 15.414999,
    "longitude": -61.3709755,
    "sick": 0,
    "invisible": false
  },
  {
    "dead": 2,
    "id": "R3IHMWqIUhOJJTlrmbUZ",
    "longitude": -72.167,
    "country": "CO",
    "recovered": 73,
    "infected": 155,
    "lastUpdated": "2020-07-20T05:45:11.969Z",
    "name": "Casanare",
    "pop": 344027,
    "latitude": 5.167,
    "sick": 80,
    "invisible": false
  },
  {
    "longitude": -80.7821,
    "name": "Panama",
    "infected": 53468,
    "dead": 1096,
    "id": "R8YCgephnxTufvcPWMgx",
    "country": "PA",
    "recovered": 28482,
    "lastUpdated": "2020-07-20T06:16:03.349Z",
    "pop": 4099000,
    "latitude": 8.538,
    "sick": 23890,
    "invisible": false
  },
  {
    "country": "HN",
    "pop": 9265000,
    "infected": 33835,
    "id": "RA2SE0p2bVhqo0P2hzGY",
    "recovered": 3801,
    "lastUpdated": "2020-07-20T06:16:03.351Z",
    "dead": 900,
    "longitude": -86.2419,
    "latitude": 15.2,
    "name": "Honduras",
    "sick": 29134,
    "invisible": false
  },
  {
    "longitude": -70.2979202,
    "id": "RBt9RiwP7WUbMnJfD0lo",
    "recovered": 0,
    "lastUpdated": "2020-07-20T05:50:04.669Z",
    "pop": 224500,
    "name": "Arica y Parinacota",
    "country": "CL",
    "dead": 36,
    "infected": 3056,
    "latitude": -18.4745998,
    "sick": 3020,
    "invisible": false
  },
  {
    "infected": 3352,
    "pop": 1216000,
    "state": "36",
    "country": "IT",
    "longitude": 13.8,
    "lastUpdated": "2020-07-20T06:01:09.890Z",
    "dead": 345,
    "name": "Friuli Venezia Giulia",
    "latitude": 45.633331,
    "id": "RCrDBCdBNYzgLNr0aB2H",
    "recovered": 2911,
    "sick": 96,
    "invisible": false
  },
  {
    "country": "US",
    "id": "RX0KDu1AFrlCsrRso0nb",
    "state": "IA",
    "recovered": 0,
    "longitude": -93.0977,
    "latitude": 41.878,
    "infected": 38724,
    "lastUpdated": "2020-07-20T05:47:02.476Z",
    "pop": 3156000,
    "dead": 794,
    "name": "Iowa",
    "sick": 37930,
    "invisible": false
  },
  {
    "latitude": 4.624335,
    "dead": 1555,
    "longitude": -74.063644,
    "recovered": 24447,
    "pop": 7413000,
    "name": "Bogotá D.C.",
    "country": "CO",
    "infected": 63265,
    "id": "RZ6PCe5TZsO15JjDObwO",
    "lastUpdated": "2020-07-20T05:45:11.967Z",
    "sick": 37263,
    "invisible": false
  },
  {
    "name": "Libya",
    "longitude": 17.2283306,
    "latitude": 26.3351002,
    "country": "LY",
    "infected": 1866,
    "id": "RaJxbzlnRFTuj4B8IbpC",
    "recovered": 418,
    "lastUpdated": "2020-07-20T06:16:03.359Z",
    "dead": 48,
    "pop": 6846000,
    "sick": 1400,
    "invisible": false
  },
  {
    "recovered": 0,
    "id": "Rf4uvBfP3GRDSHdZElRd",
    "latitude": 39.0119,
    "longitude": -98.4842,
    "pop": 2912000,
    "infected": 22356,
    "country": "US",
    "state": "KS",
    "dead": 307,
    "name": "Kansas",
    "lastUpdated": "2020-07-20T05:47:02.477Z",
    "sick": 22049,
    "invisible": false
  },
  {
    "latitude": 48.6998,
    "id": "RmEgf1xeclWt7XCF9oiR",
    "pop": 5518000,
    "name": "Grand Est",
    "dead": 3599,
    "recovered": 12473,
    "longitude": 6.1878,
    "country": "FR",
    "lastUpdated": "2020-07-19T23:15:17.681Z",
    "infected": 26788,
    "sick": 10716,
    "invisible": false
  },
  {
    "recovered": 4954,
    "latitude": 50.4176,
    "name": "Wallonia",
    "country": "BE",
    "infected": 19751,
    "lastUpdated": "2020-07-20T06:07:12.671Z",
    "state": "WAL",
    "dead": 3394,
    "id": "RryHraSohKQLAsdr1dHO",
    "longitude": 4.451,
    "pop": 3644000,
    "sick": 11403,
    "invisible": false
  },
  {
    "infected": 37604,
    "country": "CA",
    "state": "ON",
    "pop": 14570000,
    "name": "Ontario",
    "longitude": -85.3232,
    "latitude": 51.2538,
    "id": "Rx4TuyMpfGb3S8wYJX0x",
    "lastUpdated": "2020-07-20T06:07:01.961Z",
    "dead": 2751,
    "recovered": 33407,
    "sick": 1446,
    "invisible": false
  },
  {
    "name": "Castilla y León",
    "recovered": 8716,
    "state": "CL",
    "latitude": 41.652779,
    "id": "S8ewN4zaYp8mjtuqqOTw",
    "lastUpdated": "2020-07-19T23:13:25.498Z",
    "infected": 26161,
    "pop": 2408000,
    "dead": 2793,
    "longitude": -4.723611,
    "country": "ES",
    "sick": 14652,
    "invisible": false
  },
  {
    "country": "FR",
    "name": "Martinique",
    "longitude": -61.011715,
    "alwaysShow": true,
    "recovered": 98,
    "pop": 376480,
    "id": "SDdefnq1bc3ZNr7SpEsW",
    "dead": 15,
    "lastUpdated": "2020-07-20T06:16:03.362Z",
    "infected": 262,
    "latitude": 14.652027,
    "sick": 149,
    "invisible": false
  },
  {
    "infected": 27667,
    "latitude": 7.9465,
    "pop": 28830000,
    "longitude": -1.0232,
    "country": "GH",
    "id": "SG9VWLOV3x2JsTkXmVSz",
    "name": "Ghana",
    "recovered": 23249,
    "lastUpdated": "2020-07-20T06:16:03.351Z",
    "dead": 148,
    "sick": 4270,
    "invisible": false
  },
  {
    "infected": 33591,
    "id": "SGe9sCPayMqh6RsGFaBA",
    "longitude": 8.227512,
    "latitude": 46.818188,
    "dead": 1969,
    "name": "Switzerland",
    "lastUpdated": "2020-07-20T06:16:03.351Z",
    "recovered": 30300,
    "country": "CH",
    "pop": 8570000,
    "sick": 1322,
    "invisible": false
  },
  {
    "name": "Yakutia",
    "infected": 5193,
    "longitude": 124.1238,
    "recovered": 4735,
    "pop": 964000,
    "latitude": 66.7613,
    "id": "SGhKBmmh5hss7hrNR8hK",
    "lastUpdated": "2020-07-20T06:00:09.477Z",
    "country": "RU",
    "dead": 40,
    "sick": 418,
    "invisible": false
  },
  {
    "state": "QC",
    "name": "Quebec",
    "id": "SHoOE3NiJgWAlDVBzwYH",
    "lastUpdated": "2020-07-20T06:07:01.962Z",
    "pop": 8485000,
    "recovered": 50050,
    "infected": 57466,
    "longitude": -71.208,
    "dead": 5655,
    "country": "CA",
    "latitude": 46.8139,
    "sick": 1761,
    "invisible": false
  },
  {
    "name": "Kosovo",
    "latitude": 42.6026,
    "pop": 1831000,
    "id": "SMWvuMMuKp2QK7O2tNia",
    "recovered": 2968,
    "lastUpdated": "2020-07-20T06:10:02.098Z",
    "infected": 5735,
    "country": "XK",
    "dead": 135,
    "longitude": 20.903,
    "sick": 2632,
    "invisible": false
  },
  {
    "lastUpdated": "2020-07-20T06:00:09.475Z",
    "latitude": 45.0526,
    "recovered": 4158,
    "infected": 5548,
    "id": "SNWCQwRwqYfxX8HZndTA",
    "name": "Primorsky Krai",
    "pop": 1913000,
    "dead": 63,
    "longitude": 135,
    "country": "RU",
    "sick": 1327,
    "invisible": false
  },
  {
    "pop": 1817000,
    "longitude": 74.124,
    "id": "SPcujsH2YlUaoAr8AiWF",
    "dead": 22,
    "infected": 3657,
    "lastUpdated": "2020-07-20T06:11:01.957Z",
    "name": "Goa",
    "recovered": 2218,
    "latitude": 15.2993,
    "country": "IN",
    "sick": 1417,
    "invisible": false
  },
  {
    "latitude": -16.328547,
    "recovered": 0,
    "lastUpdated": "2020-07-20T05:57:01.254Z",
    "pop": 6921161,
    "id": "SV5AMF59J61Vt4cXWLgy",
    "country": "BR",
    "infected": 40769,
    "longitude": -48.953403,
    "state": "GO",
    "name": "Goiás",
    "dead": 1092,
    "sick": 39677,
    "invisible": false
  },
  {
    "name": "Vichada",
    "infected": 2,
    "lastUpdated": "2020-07-20T05:45:11.971Z",
    "latitude": 6.181,
    "country": "CO",
    "recovered": 1,
    "pop": 75500,
    "longitude": -68.436,
    "id": "SYFarIS62W0EW9bOaJmN",
    "dead": 0,
    "sick": 1,
    "invisible": false
  },
  {
    "longitude": 16.5,
    "infected": 1239,
    "latitude": 39,
    "country": "IT",
    "pop": 1957000,
    "dead": 97,
    "id": "SZdF624x0v1LlyzZjKFu",
    "name": "Calabria",
    "lastUpdated": "2020-07-20T06:01:09.890Z",
    "recovered": 1070,
    "state": "78",
    "sick": 72,
    "invisible": false
  },
  {
    "id": "SakhKQzKu1LRI8laqdQq",
    "lastUpdated": "2020-07-20T05:47:02.477Z",
    "state": "NE",
    "name": "Nebraska",
    "recovered": 0,
    "infected": 22583,
    "country": "US",
    "pop": 1929000,
    "longitude": -99.9018,
    "dead": 301,
    "latitude": 41.4925,
    "sick": 22282,
    "invisible": false
  },
  {
    "id": "SgHzWAAYK1j2sipovxM6",
    "dead": 3,
    "recovered": 472,
    "country": "FR",
    "name": "La Réunion",
    "pop": 859959,
    "alwaysShow": true,
    "latitude": -21.1151,
    "longitude": 55.5364,
    "lastUpdated": "2020-07-20T06:16:03.361Z",
    "infected": 628,
    "sick": 153,
    "invisible": false
  },
  {
    "longitude": 104.990967,
    "name": "Cambodia",
    "lastUpdated": "2020-07-20T06:16:03.362Z",
    "latitude": 12.565679,
    "id": "SioMALgUbo7peXmbco2f",
    "pop": 16010000,
    "infected": 171,
    "dead": 0,
    "recovered": 136,
    "country": "KH",
    "sick": 35,
    "invisible": false
  },
  {
    "pop": 164229,
    "id": "SsWhuEElU7dCTTuH5fdQ",
    "state": "GU",
    "lastUpdated": "2020-07-20T05:47:02.484Z",
    "country": "US",
    "recovered": 0,
    "alwaysShow": true,
    "dead": 5,
    "infected": 314,
    "longitude": 144.7937,
    "latitude": 13.4443,
    "name": "Guam",
    "sick": 309,
    "invisible": false
  },
  {
    "name": "Unknown Poland region",
    "lastUpdated": "2020-07-20T06:16:03.350Z",
    "longitude": 19.1344,
    "infected": 0,
    "country": "PL",
    "id": "SuCr5emUaJ9RHTll1P1p",
    "latitude": 51.9189,
    "invisible": true,
    "recovered": 30292,
    "dead": 0,
    "sick": 0
  },
  {
    "infected": 2044,
    "id": "Sx03z01BJCAbrYkWhEaD",
    "latitude": 57.067,
    "name": "Udmurtia",
    "dead": 19,
    "country": "RU",
    "lastUpdated": "2020-07-20T06:00:09.487Z",
    "pop": 1513000,
    "longitude": 53.0278,
    "recovered": 1456,
    "sick": 569,
    "invisible": false
  },
  {
    "name": "DR Congo",
    "longitude": 21.7587,
    "dead": 194,
    "recovered": 4335,
    "latitude": -4.0383,
    "pop": 84070000,
    "id": "T3iRf8mTUTAzbKrORTap",
    "infected": 8403,
    "lastUpdated": "2020-07-20T06:16:03.356Z",
    "country": "CD",
    "sick": 3874,
    "invisible": false
  },
  {
    "name": "Saudi Arabia",
    "dead": 2486,
    "latitude": 23.635796,
    "pop": 32940000,
    "lastUpdated": "2020-07-20T06:16:03.347Z",
    "infected": 250920,
    "longitude": 44.344334,
    "id": "T7NffoeCgTUpAbOHvYwP",
    "recovered": 197735,
    "country": "SA",
    "sick": 50699,
    "invisible": false
  },
  {
    "longitude": -2.5396,
    "latitude": 42.2871,
    "dead": 366,
    "recovered": 3107,
    "pop": 315700,
    "name": "La Rioja",
    "lastUpdated": "2020-07-19T23:14:12.088Z",
    "country": "ES",
    "infected": 5506,
    "state": "RI",
    "id": "TNDTapyb0k3l7Mds9q9R",
    "sick": 2033,
    "invisible": false
  },
  {
    "lastUpdated": "2020-07-20T06:02:02.246Z",
    "infected": 7272,
    "pop": 2207200,
    "recovered": 0,
    "name": "Yucatán",
    "longitude": -89.134857,
    "id": "TQCWbhIpJQBQxBjhCGVJ",
    "dead": 817,
    "latitude": 20.400417,
    "country": "MX",
    "sick": 6455,
    "invisible": false
  },
  {
    "recovered": 138,
    "longitude": 114.650692,
    "infected": 141,
    "pop": 428697,
    "dead": 3,
    "name": "Brunei",
    "id": "TQZmzsLhJqjtCSExAkCP",
    "lastUpdated": "2020-07-20T06:16:03.362Z",
    "latitude": 4.506106,
    "country": "BN",
    "sick": 0,
    "invisible": false
  },
  {
    "state": "",
    "pop": 8027000,
    "id": "TT0MKODSjrxHvG19xZCa",
    "name": "Auvergne-Rhône-Alpes",
    "lastUpdated": "2020-07-19T23:14:46.400Z",
    "dead": 1749,
    "infected": 15886,
    "country": "FR",
    "latitude": 45.4471,
    "recovered": 7856,
    "longitude": 4.3853,
    "sick": 6281,
    "invisible": false
  },