[
  {
    "latitude": 12.5847,
    "pop": 72600,
    "longitude": -81.7006,
    "name": "San Andrés",
    "country": "CO",
    "lastUpdated": "2020-05-01T11:48:09.382Z",
    "dead": 0,
    "id": "01b09TY4vmuZwzVuiRFK",
    "infected": 6,
    "recovered": 3,
    "sick": 3,
    "invisible": false
  },
  {
    "lastUpdated": "2020-05-01T11:39:12.763Z",
    "dead": 13,
    "id": "0FOJefeLxQYXQ1CnJm9o",
    "infected": 251,
    "recovered": 202,
    "latitude": 49.4482,
    "pop": 67052,
    "longitude": -2.5895,
    "name": "Guernsey",
    "country": "GG",
    "sick": 36,
    "invisible": false
  },
  {
    "infected": 4423,
    "recovered": 1291,
    "latitude": 41.066666,
    "pop": 5827000,
    "longitude": 14.333333,
    "name": "Campania",
    "country": "IT",
    "lastUpdated": "2020-05-01T12:01:08.526Z",
    "dead": 359,
    "id": "0GJcws44NSPsDHAuxJhW",
    "sick": 2773,
    "invisible": false
  },
  {
    "infected": 198,
    "recovered": 0,
    "latitude": -20.2167,
    "pop": 383870,
    "longitude": -70.14222,
    "name": "Tarapacá",
    "country": "CL",
    "lastUpdated": "2020-05-01T12:11:12.436Z",
    "dead": 1,
    "id": "0HDQbiHe462xMCUV5HiI",
    "sick": 197,
    "invisible": false
  },
  {
    "infected": 148,
    "recovered": 55,
    "latitude": 20.9517,
    "pop": 45990000,
    "longitude": 85.0985,
    "name": "Odisha",
    "country": "IN",
    "lastUpdated": "2020-05-01T12:11:08.459Z",
    "dead": 1,
    "id": "0VG7S6aaK4eSo59fL9JO",
    "sick": 92,
    "invisible": false
  },
  {
    "latitude": 20.4737,
    "pop": 2990300,
    "longitude": -98.8582,
    "name": "Hidalgo",
    "country": "MX",
    "lastUpdated": "2020-05-01T12:01:10.953Z",
    "dead": 29,
    "id": "0XmCRqiK2ZaehoEJvfer",
    "infected": 261,
    "recovered": 0,
    "sick": 232,
    "invisible": false
  },
  {
    "longitude": 92.6586,
    "name": "Andaman and Nicobar Islands",
    "country": "IN",
    "lastUpdated": "2020-05-01T12:11:08.460Z",
    "dead": 0,
    "id": "0jStOpTUNRaQYJqgmRoK",
    "infected": 33,
    "recovered": 16,
    "latitude": 11.7401,
    "pop": 427246,
    "sick": 17,
    "invisible": false
  },
  {
    "lastUpdated": "2020-05-01T12:10:06.930Z",
    "dead": 12,
    "id": "0m4aECS0Z2DGFEr8ldgI",
    "infected": 14096,
    "recovered": 1436,
    "latitude": 25.315058,
    "pop": 2639000,
    "longitude": 51.145517,
    "name": "Qatar",
    "country": "QA",
    "sick": 12648,
    "invisible": false
  },
  {
    "recovered": 139,
    "latitude": 22.9868,
    "pop": 90320000,
    "longitude": 87.855,
    "name": "West Bengal",
    "country": "IN",
    "lastUpdated": "2020-05-01T12:11:08.458Z",
    "dead": 33,
    "id": "0n54EMSDJcRoT1QEvw80",
    "infected": 795,
    "sick": 623,
    "invisible": false
  },
  {
    "id": "0s18o5DrDAHjbu5MFcrj",
    "infected": 2625,
    "recovered": 482,
    "latitude": 22.9734,
    "pop": 73340000,
    "longitude": 78.6569,
    "name": "Madhya Pradesh",
    "country": "IN",
    "lastUpdated": "2020-05-01T12:11:08.458Z",
    "dead": 137,
    "sick": 2006,
    "invisible": false
  },
  {
    "lastUpdated": "2020-05-01T12:10:06.926Z",
    "dead": 0,
    "id": "0tFoopNTs6e4tOoaltu2",
    "invisible": true,
    "infected": 0,
    "recovered": 155737,
    "latitude": 37.0902,
    "longitude": -95.7129,
    "name": "Unknown US state",
    "country": "US",
    "sick": 0
  },
  {
    "longitude": 108.472214,
    "name": "Shaanxi",
    "country": "CN",
    "lastUpdated": "2020-05-01T11:53:04.832Z",
    "dead": 3,
    "id": "0x2HLhr5z5xAtEdO4iZm",
    "infected": 306,
    "recovered": 254,
    "latitude": 35.64249,
    "pop": 37330000,
    "sick": 49,
    "invisible": false
  },
  {
    "infected": 1494,
    "recovered": 807,
    "latitude": 41.643351,
    "pop": 2077000,
    "longitude": 21.668393,
    "name": "North Macedonia",
    "country": "MK",
    "lastUpdated": "2020-05-01T12:10:06.935Z",
    "dead": 81,
    "id": "19MvIhipqTyYv1H37Upw",
    "sick": 606,
    "invisible": false
  },
  {
    "latitude": 53.1355,
    "pop": 521542,
    "longitude": -57.6604,
    "name": "Newfoundland and Labrador",
    "country": "CA",
    "lastUpdated": "2020-05-01T12:06:11.694Z",
    "dead": 3,
    "id": "1DOMOmCWDtva46OVSZLv",
    "infected": 258,
    "recovered": 0,
    "sick": 255,
    "invisible": false
  },
  {
    "lastUpdated": "2020-05-01T11:53:04.928Z",
    "dead": 0,
    "id": "1Fap7rZu9SIRqf5TG9Dg",
    "infected": 18,
    "recovered": 18,
    "latitude": 35.801933,
    "pop": 5627000,
    "longitude": 96.779286,
    "name": "Qinghai",
    "country": "CN",
    "sick": 0,
    "invisible": false
  },
  {
    "longitude": -102.5528,
    "name": "Unknown Mexico state",
    "country": "MX",
    "lastUpdated": "2020-05-01T12:10:06.929Z",
    "dead": 0,
    "id": "1YXQMlVL3fUeDZmcVfJw",
    "invisible": true,
    "infected": 0,
    "recovered": 11423,
    "latitude": 23.6345,
    "pop": 126200000,
    "sick": 0
  },
  {
    "latitude": 44.9,
    "pop": 4376000,
    "longitude": 8.206944,
    "name": "Piemonte",
    "country": "IT",
    "lastUpdated": "2020-05-01T12:01:08.527Z",
    "dead": 3066,
    "id": "1eTSQyfp8RoDPeFrIwun",
    "infected": 26289,
    "recovered": 7730,
    "sick": 15493,
    "invisible": false
  },
  {
    "id": "1j1OurxLTpZYuWIWwQ9F",
    "infected": 87,
    "recovered": 0,
    "latitude": 51.993,
    "pop": 1003000,
    "longitude": 15.461,
    "name": "Lubuskie",
    "country": "PL",
    "lastUpdated": "2020-05-01T12:03:09.458Z",
    "dead": 0,
    "sick": 87,
    "invisible": false
  },
  {
    "infected": 3897,
    "recovered": 1272,
    "latitude": 47.4116,
    "pop": 3550000,
    "longitude": 28.3699,
    "name": "Moldova",
    "country": "MD",
    "lastUpdated": "2020-05-01T12:10:06.933Z",
    "dead": 122,
    "id": "1qTPB8X3tyLyIdsb5TN3",
    "sick": 2503,
    "invisible": false
  },
  {
    "latitude": 37.0902,
    "longitude": -95.7129,
    "name": "Federal Bureau of Prisons",
    "country": "US",
    "lastUpdated": "2020-05-01T12:09:05.686Z",
    "dead": 33,
    "id": "22PJOAThcDFKgSbyQIkD",
    "invisible": true,
    "infected": 2041,
    "recovered": 0,
    "sick": 2008
  },
  {
    "recovered": 1,
    "latitude": 30.15336,
    "pop": 3180000,
    "longitude": 88.787865,
    "name": "Tibet",
    "country": "CN",
    "lastUpdated": "2020-05-01T11:53:04.928Z",
    "dead": 0,
    "id": "25qIBtsW2nfQj3pwBKg9",
    "infected": 1,
    "sick": 0,
    "invisible": false
  },
  {
    "infected": 10551,
    "recovered": 1591,
    "latitude": -1.572184,
    "pop": 264000000,
    "longitude": 115.66779,
    "name": "Indonesia",
    "country": "ID",
    "lastUpdated": "2020-05-01T12:10:06.931Z",
    "dead": 800,
    "id": "2KHYUb5t3lwzVVmDjwNX",
    "sick": 8160,
    "invisible": false
  },
  {
    "longitude": -120.585594,
    "name": "Oregon",
    "country": "US",
    "lastUpdated": "2020-05-01T12:09:05.683Z",
    "dead": 103,
    "id": "2OrsssmGUs4XCzaZzvTv",
    "infected": 2510,
    "recovered": 0,
    "latitude": 43.807191,
    "pop": 4191000,
    "sick": 2407,
    "invisible": false
  },
  {
    "lastUpdated": "2020-05-01T12:11:12.437Z",
    "dead": 5,
    "id": "2c5HBZ1ffkCVXnMYUWnY",
    "infected": 546,
    "recovered": 0,
    "latitude": -23.65,
    "pop": 425000,
    "longitude": -70.400002,
    "name": "Antofagasta",
    "country": "CL",
    "sick": 541,
    "invisible": false
  },
  {
    "infected": 1080,
    "recovered": 0,
    "latitude": 0.035574,
    "pop": 9029000,
    "longitude": -51.070534,
    "name": "Amapá",
    "country": "BR",
    "lastUpdated": "2020-05-01T12:11:09.085Z",
    "dead": 34,
    "id": "2dzhyWsBSPpENWlNew0b",
    "sick": 1046,
    "invisible": false
  },
  {
    "recovered": 101,
    "latitude": 43.851921,
    "pop": 27460000,
    "longitude": 126.548103,
    "name": "Jilin",
    "country": "CN",
    "lastUpdated": "2020-05-01T11:53:04.926Z",
    "dead": 1,
    "id": "2jxHvSsxdnom0nPNvOT8",
    "infected": 111,
    "sick": 9,
    "invisible": false
  },
  {
    "latitude": 36.1408,
    "pop": 34571,
    "longitude": -5.3536,
    "name": "Gibraltar",
    "country": "GI",
    "lastUpdated": "2020-05-01T12:10:06.941Z",
    "dead": 0,
    "id": "2p11BjSAs3wVyymgqBOe",
    "infected": 144,
    "recovered": 131,
    "sick": 13,
    "invisible": false
  },
  {
    "id": "2sLNkkHpyaHx7dD3aMDO",
    "infected": 3631,
    "recovered": 1206,
    "latitude": 47.7516,
    "pop": 2567000,
    "longitude": 1.6751,
    "name": "Centre-Val de Loire",
    "country": "FR",
    "lastUpdated": "2020-05-01T00:29:17.565Z",
    "dead": 388,
    "sick": 2037,
    "invisible": false
  },
  {
    "longitude": 12.643751,
    "name": "Umbria",
    "country": "IT",
    "lastUpdated": "2020-05-01T12:01:08.528Z",
    "dead": 67,
    "id": "319tiZOMczx1y0DfvOib",
    "infected": 1392,
    "recovered": 1092,
    "latitude": 42.565044,
    "pop": 884640,
    "sick": 233,
    "invisible": false
  },
  {
    "lastUpdated": "2020-05-01T11:48:09.382Z",
    "dead": 4,
    "id": "38T96Q3XNjt5FSJygPed",
    "infected": 35,
    "recovered": 12,
    "latitude": 2.43823,
    "pop": 1355000,
    "longitude": -76.6131592,
    "name": "Cauca",
    "country": "CO",
    "sick": 19,
    "invisible": false
  },
  {
    "recovered": 55,
    "latitude": -13.133896,
    "pop": 17090000,
    "longitude": 27.849332,
    "name": "Zambia",
    "country": "ZM",
    "lastUpdated": "2020-05-01T12:10:06.942Z",
    "dead": 3,
    "id": "3IlPjAbP5qVMn1nlgLTJ",
    "infected": 106,
    "sick": 48,
    "invisible": false
  },
  {
    "recovered": 219,
    "latitude": 42.7044,
    "pop": 631219,
    "longitude": 19.3958,
    "name": "Montenegro",
    "country": "ME",
    "lastUpdated": "2020-05-01T12:10:06.940Z",
    "dead": 7,
    "id": "3LstMSN5XMYBkxbe5HN7",
    "infected": 322,
    "sick": 96,
    "invisible": false
  },
  {
    "infected": 106,
    "recovered": 103,
    "latitude": -35.4735,
    "pop": 418440,
    "longitude": 149.0124,
    "name": "Australian Capital Territory",
    "country": "AU",
    "lastUpdated": "2020-05-01T12:06:11.694Z",
    "dead": 3,
    "id": "3OZoQsKrzxZ18EKyfGE6",
    "sick": 0,
    "invisible": false
  },
  {
    "infected": 43,
    "recovered": 32,
    "latitude": 26.2006,
    "pop": 30940000,
    "longitude": 92.9376,
    "name": "Assam",
    "country": "IN",
    "lastUpdated": "2020-05-01T12:11:08.459Z",
    "dead": 1,
    "id": "3cCbnJCsK7mKlTO08K1o",
    "sick": 10,
    "invisible": false
  },
  {
    "latitude": 40.4173,
    "pop": 11690000,
    "longitude": -82.9071,
    "name": "Ohio",
    "country": "US",
    "lastUpdated": "2020-05-01T12:09:05.680Z",
    "dead": 975,
    "id": "3fC3bAyIRUquOQOEnQNe",
    "infected": 18027,
    "recovered": 0,
    "sick": 17052,
    "invisible": false
  },
  {
    "latitude": 25,
    "pop": 3066400,
    "longitude": -107.5,
    "name": "Sinaloa",
    "country": "MX",
    "lastUpdated": "2020-05-01T12:01:10.951Z",
    "dead": 142,
    "id": "3kFCzJguabtBvXaHxgiu",
    "infected": 869,
    "recovered": 0,
    "sick": 727,
    "invisible": false
  },
  {
    "infected": 916,
    "recovered": 185,
    "latitude": 3.420556,
    "pop": 4708300,
    "longitude": -76.522224,
    "name": "Valle del Cauca",
    "country": "CO",
    "lastUpdated": "2020-05-01T11:48:09.380Z",
    "dead": 55,
    "id": "3mC2LveOpXV8P1PmQGUj",
    "sick": 676,
    "invisible": false
  },
  {
    "infected": 8,
    "recovered": 6,
    "latitude": 21.0079,
    "pop": 4420000,
    "longitude": -10.9408,
    "name": "Mauritania",
    "country": "MR",
    "lastUpdated": "2020-05-01T12:10:06.954Z",
    "dead": 1,
    "id": "4NnFMekRK2m14IlnZZoj",
    "sick": 1,
    "invisible": false
  },
  {
    "infected": 2112,
    "recovered": 0,
    "latitude": 53.7267,
    "pop": 5071000,
    "longitude": -127.6476,
    "name": "British Columbia",
    "country": "CA",
    "lastUpdated": "2020-05-01T12:06:11.693Z",
    "dead": 111,
    "id": "4hfZRUoUgI4a3vrG0GBk",
    "sick": 2001,
    "invisible": false
  },
  {
    "recovered": 0,
    "latitude": -22.908333,
    "pop": 17159960,
    "longitude": -43.196388,
    "name": "Rio de Janeiro",
    "country": "BR",
    "lastUpdated": "2020-05-01T12:11:09.087Z",
    "dead": 854,
    "id": "4kq0z3kh5zt3YAUWxvtE",
    "infected": 9453,
    "sick": 8599,
    "invisible": false
  },
  {
    "longitude": -41.280857,
    "name": "Bahia",
    "country": "BR",
    "lastUpdated": "2020-05-01T12:11:09.085Z",
    "dead": 104,
    "id": "4yDbkEyqsNzZJjfrciYV",
    "infected": 2851,
    "recovered": 0,
    "latitude": -11.409874,
    "pop": 14812617,
    "sick": 2747,
    "invisible": false
  },
  {
    "longitude": 47.93802,
    "name": "Azerbaijan",
    "country": "AZ",
    "lastUpdated": "2020-05-01T12:10:06.934Z",
    "dead": 24,
    "id": "4zqzRm2xHn0CDVOUQJ8p",
    "infected": 1804,
    "recovered": 1325,
    "latitude": 40.3426,
    "pop": 9898000,
    "sick": 455,
    "invisible": false
  },
  {
    "lastUpdated": "2020-05-01T12:01:10.953Z",
    "dead": 23,
    "id": "54cfsdsRF76XVHWtZs19",
    "infected": 516,
    "recovered": 0,
    "latitude": 22.233105,
    "pop": 3672300,
    "longitude": -97.861099,
    "name": "Tamaulipas",
    "country": "MX",
    "sick": 493,
    "invisible": false
  },
  {
    "lastUpdated": "2020-05-01T11:56:12.229Z",
    "dead": 3825,
    "id": "57ydD48mLRD2YoyteJZj",
    "infected": 27024,
    "recovered": 6682,
    "latitude": 51.0109,
    "pop": 6596000,
    "longitude": 3.7265,
    "name": "Flanders",
    "country": "BE",
    "sick": 16517,
    "invisible": false
  },
  {
    "latitude": 25.025885,
    "pop": 395361,
    "longitude": -78.035889,
    "name": "Bahamas",
    "country": "BS",
    "lastUpdated": "2020-05-01T12:10:06.947Z",
    "dead": 11,
    "id": "5MHegCUO9L3LiAU7DDey",
    "infected": 81,
    "recovered": 25,
    "sick": 45,
    "invisible": false
  },
  {
    "recovered": 2293,
    "latitude": -31.253218,
    "pop": 7544000,
    "longitude": 146.921097,
    "name": "New South Wales",
    "country": "AU",
    "lastUpdated": "2020-05-01T12:06:11.693Z",
    "dead": 41,
    "id": "5N16a2OXXRpsEFanw0TC",
    "infected": 3025,
    "sick": 691,
    "invisible": false
  },
  {
    "id": "5N4PRxsCDzzwk7R200V1",
    "infected": 35,
    "recovered": 0,
    "latitude": 6.8769908,
    "pop": 12580000,
    "longitude": 31.3069782,
    "name": "South Sudan",
    "country": "SS",
    "lastUpdated": "2020-05-01T12:10:06.949Z",
    "dead": 0,
    "sick": 35,
    "invisible": false
  },
  {
    "lastUpdated": "2020-05-01T12:09:03.717Z",
    "dead": 1245,
    "id": "5Va9A7CXR8AXdUz4HTJj",
    "infected": 12209,
    "recovered": 7078,
    "latitude": 39.484,
    "pop": 4975000,
    "longitude": -0.7533,
    "name": "C. Valenciana",
    "country": "ES",
    "sick": 3886,
    "invisible": false
  },
  {
    "lastUpdated": "2020-05-01T12:10:06.951Z",
    "dead": 0,
    "id": "5fg04eyDwFw3kEXnrxez",
    "infected": 18,
    "recovered": 17,
    "latitude": -20.9043045,
    "pop": 280460,
    "longitude": 165.618042,
    "name": "New Caledonia",
    "country": "NC",
    "sick": 1,
    "invisible": false
  },
  {
    "lastUpdated": "2020-05-01T12:10:06.949Z",
    "dead": 0,
    "id": "5gXZIjRgAvd6xWN1LOv8",
    "infected": 59,
    "recovered": 16,
    "latitude": 28.394857,
    "pop": 29300000,
    "longitude": 84.124008,
    "name": "Nepal",
    "country": "NP",
    "sick": 43,
    "invisible": false
  },
  {
    "id": "5pwmh7aSdGRKqRbnuyc0",
    "infected": 8772,
    "recovered": 1084,
    "latitude": 12.879721,
    "pop": 104900000,
    "longitude": 121.774017,
    "name": "Philippines",
    "country": "PH",
    "lastUpdated": "2020-05-01T12:10:06.931Z",
    "dead": 579,
    "sick": 7109,
    "invisible": false
  },
  {
    "infected": 40,
    "recovered": 5,
    "latitude": -17.824858,
    "pop": 14802190,
    "longitude": 31.053028,
    "name": "Zimbabwe",
    "country": "ZW",
    "lastUpdated": "2020-05-01T12:10:06.949Z",
    "dead": 4,
    "id": "5qtR9nx4BLwu1ODTniaY",
    "sick": 31,
    "invisible": false
  },
  {
    "infected": 1977,
    "recovered": 0,
    "latitude": 36.0672,
    "pop": 356890,
    "longitude": -109.188,
    "name": "Navajo Nation",
    "country": "US",
    "lastUpdated": "2020-05-01T12:09:05.686Z",
    "dead": 62,
    "id": "5vkKgxTaKq1IH0Go357L",
    "invisible": true,
    "sick": 1915
  },
  {
    "id": "61E7TGjUwAo9xu6Y6gAH",
    "infected": 5209,
    "recovered": 0,
    "latitude": 19.432241,
    "pop": 8781300,
    "longitude": -99.177254,
    "name": "Ciudad de México",
    "country": "MX",
    "lastUpdated": "2020-05-01T12:01:10.952Z",
    "dead": 409,
    "sick": 4800,
    "invisible": false
  },
  {
    "lastUpdated": "2020-05-01T12:10:06.935Z",
    "dead": 45,
    "id": "694ON7d0mRJDeM1gHBTR",
    "infected": 1399,
    "recovered": 594,
    "latitude": 55.621011,
    "pop": 2794000,
    "longitude": 23.804991,
    "name": "Lithuania",
    "country": "LT",
    "sick": 760,
    "invisible": false
  },
  {
    "lastUpdated": "2020-05-01T12:10:19.187Z",
    "dead": 0,
    "id": "6IQAsvrmBv0HPdeTnh4x",
    "infected": 16831,
    "recovered": 0,
    "latitude": 51.1781,
    "pop": 9175000,
    "longitude": -0.5596,
    "name": "South East",
    "country": "GB",
    "sick": 16831,
    "invisible": false
  },
  {
    "longitude": 114.109497,
    "name": "Hong Kong",
    "country": "HK",
    "lastUpdated": "2020-05-01T12:10:06.937Z",
    "dead": 4,
    "id": "6IcHIIH0zXpY0POmBZTv",
    "infected": 1040,
    "recovered": 859,
    "latitude": 22.396427,
    "pop": 7392000,
    "sick": 177,
    "invisible": false
  },
  {
    "lastUpdated": "2020-05-01T12:11:09.079Z",
    "dead": 19,
    "id": "6LQesrx5bHJsVUi1TXBp",
    "infected": 404,
    "recovered": 0,
    "latitude": -8.65,
    "pop": 869265,
    "longitude": -72.4,
    "name": "Acre",
    "country": "BR",
    "sick": 385,
    "invisible": false
  },
  {
    "recovered": 33,
    "latitude": 9.3077,
    "pop": 11180000,
    "longitude": 2.3158,
    "name": "Benin",
    "country": "BJ",
    "lastUpdated": "2020-05-01T12:10:06.948Z",
    "dead": 1,
    "id": "6SlpghTyB6lpMFvx3g9U",
    "infected": 64,
    "sick": 30,
    "invisible": false
  },
  {
    "infected": 75732,
    "recovered": 25749,
    "latitude": 45.6667,
    "pop": 10040000,
    "longitude": 9.5,
    "name": "Lombardia",
    "country": "IT",
    "lastUpdated": "2020-05-01T12:01:08.527Z",
    "dead": 13772,
    "id": "6ZHcvMIzVWIaRnc4R3Qp",
    "sick": 36211,
    "invisible": false
  },
  {
    "infected": 1434,
    "recovered": 233,
    "latitude": 46.0569,
    "pop": 2067000,
    "longitude": 14.5058,
    "name": "Slovenia",
    "country": "SI",
    "lastUpdated": "2020-05-01T12:10:06.935Z",
    "dead": 92,
    "id": "6ahNiyKDSDAftCctgLH3",
    "sick": 1109,
    "invisible": false
  },
  {
    "latitude": -27.3667908,
    "pop": 300000,
    "longitude": -70.331398,
    "name": "Atacama",
    "country": "CL",
    "lastUpdated": "2020-05-01T12:11:12.437Z",
    "dead": 0,
    "id": "6nyns7UGGgkU7pxrHf8i",
    "infected": 43,
    "recovered": 0,
    "sick": 43,
    "invisible": false
  },
  {
    "recovered": 67,
    "latitude": -0.8037,
    "pop": 2025000,
    "longitude": 11.6094,
    "name": "Gabon",
    "country": "GA",
    "lastUpdated": "2020-05-01T12:10:06.941Z",
    "dead": 3,
    "id": "6pBi38TUgYfFm0bry2uh",
    "infected": 276,
    "sick": 206,
    "invisible": false
  },
  {
    "lastUpdated": "2020-05-01T12:01:10.953Z",
    "dead": 8,
    "id": "6vjIVg1gSANFZghV7xtS",
    "infected": 108,
    "recovered": 0,
    "latitude": 22.1498,
    "pop": 2831900,
    "longitude": -100.9792,
    "name": "San Luis Potosí",
    "country": "MX",
    "sick": 100,
    "invisible": false
  },
  {
    "latitude": 17.901672,
    "pop": 9131,
    "longitude": -62.818544,
    "name": "Saint-Barthélémy",
    "country": "FR",
    "lastUpdated": "2020-05-01T12:10:06.954Z",
    "dead": 0,
    "id": "78Ox26bNHDA2Pk2b3Uwn",
    "infected": 6,
    "recovered": 6,
    "sick": 0,
    "invisible": false
  },
  {
    "longitude": 18.633,
    "name": "Pomorskie",
    "country": "PL",
    "lastUpdated": "2020-05-01T12:03:09.457Z",
    "dead": 12,
    "id": "7JDx6UJiwGSJyL1fChaJ",
    "infected": 434,
    "recovered": 0,
    "latitude": 54.367,
    "pop": 2305000,
    "sick": 422,
    "invisible": false
  },
  {
    "longitude": -2.9381,
    "name": "Melilla",
    "country": "ES",
    "lastUpdated": "2020-05-01T12:09:03.717Z",
    "dead": 2,
    "id": "7UASdZTZ1nPzzBwSTEA9",
    "infected": 126,
    "recovered": 96,
    "latitude": 35.2923,
    "pop": 84690,
    "sick": 28,
    "invisible": false
  },
  {
    "infected": 24,
    "recovered": 11,
    "latitude": 17.0608,
    "pop": 102012,
    "longitude": -61.7964,
    "name": "Antigua and Barbuda",
    "country": "AG",
    "lastUpdated": "2020-05-01T12:10:06.950Z",
    "dead": 3,
    "id": "7hVFcEV7nV0MrQr3LHrl",
    "sick": 10,
    "invisible": false
  },
  {
    "longitude": 11.4979,
    "name": "Bayern",
    "country": "DE",
    "lastUpdated": "2020-05-01T12:00:08.186Z",
    "dead": 1970,
    "id": "7kCrrlOBE3jN6FtOVNUB",
    "infected": 43321,
    "recovered": 31600,
    "latitude": 48.7904,
    "pop": 13000000,
    "sick": 9751,
    "invisible": false
  },
  {
    "infected": 2863,
    "recovered": 609,
    "latitude": 47.4979,
    "pop": 9773000,
    "longitude": 19.0402,
    "name": "Hungary",
    "country": "HU",
    "lastUpdated": "2020-05-01T12:10:06.933Z",
    "dead": 323,
    "id": "7rYC2iFB50c55Ihgbs4Q",
    "sick": 1931,
    "invisible": false
  },
  {
    "infected": 163,
    "recovered": 37,
    "latitude": 10.9685,
    "pop": 2400000,
    "longitude": -74.7813,
    "name": "Barranquilla D.E.",
    "country": "CO",
    "lastUpdated": "2020-05-01T11:48:09.382Z",
    "dead": 8,
    "id": "7tqLvLyXcBDK808nJv0m",
    "sick": 118,
    "invisible": false
  },
  {
    "longitude": 12.3547,
    "name": "Cameroon",
    "country": "CM",
    "lastUpdated": "2020-05-01T12:10:06.934Z",
    "dead": 61,
    "id": "8C0d7WVCjyUGtnc2gUAR",
    "infected": 1832,
    "recovered": 934,
    "latitude": 7.3697,
    "pop": 24050000,
    "sick": 837,
    "invisible": false
  },
  {
    "longitude": 4.3517,
    "name": "Brussels",
    "country": "BE",
    "lastUpdated": "2020-05-01T11:56:12.223Z",
    "dead": 1197,
    "id": "8DOZWbN6bDdgaLXVlUEu",
    "infected": 5011,
    "recovered": 1885,
    "latitude": 50.8503,
    "pop": 1209000,
    "sick": 1929,
    "invisible": false
  },
  {
    "id": "8RihJrXw4NQXPxaRxr1u",
    "infected": 1167,
    "recovered": 132,
    "latitude": -16.2902,
    "pop": 11050000,
    "longitude": -63.5887,
    "name": "Bolivia",
    "country": "BO",
    "lastUpdated": "2020-05-01T12:10:06.937Z",
    "dead": 62,
    "sick": 973,
    "invisible": false
  },
  {
    "id": "8ZTySQROQejkDAad0qxQ",
    "infected": 16,
    "recovered": 8,
    "latitude": 12.9843,
    "pop": 109897,
    "longitude": -61.2872,
    "name": "St. Vincent Grenadines",
    "country": "VC",
    "lastUpdated": "2020-05-01T12:10:06.952Z",
    "dead": 0,
    "sick": 8,
    "invisible": false
  },
  {
    "infected": 17101,
    "recovered": 1244,
    "latitude": 1.352083,
    "pop": 5621000,
    "longitude": 103.819839,
    "name": "Singapore",
    "country": "SG",
    "lastUpdated": "2020-05-01T12:10:06.929Z",
    "dead": 15,
    "id": "8pA3fM4xC2c2wv1b4TnE",
    "sick": 15842,
    "invisible": false
  },
  {
    "lastUpdated": "2020-05-01T00:28:29.668Z",
    "dead": 341,
    "id": "98hwAoohgWEOQVa3NlM5",
    "infected": 3154,
    "recovered": 1256,
    "latitude": 47.2184,
    "pop": 3787000,
    "longitude": -1.5536,
    "name": "Pays de la Loire",
    "country": "FR",
    "sick": 1557,
    "invisible": false
  },
  {
    "infected": 129,
    "recovered": 0,
    "latitude": 19.30754,
    "pop": 952300,
    "longitude": -90.19885,
    "name": "Campeche",
    "country": "MX",
    "lastUpdated": "2020-05-01T12:01:10.953Z",
    "dead": 19,
    "id": "9DAvxOObTqIvMOU93nlY",
    "sick": 110,
    "invisible": false
  },
  {
    "id": "9DPOkpIqrFy9mR4e9fuv",
    "infected": 442,
    "recovered": 39,
    "latitude": 12.8628,
    "pop": 40530000,
    "longitude": 30.2176,
    "name": "Sudan",
    "country": "SD",
    "lastUpdated": "2020-05-01T12:10:06.940Z",
    "dead": 31,
    "sick": 372,
    "invisible": false
  },
  {
    "recovered": 4328,
    "latitude": 45.943161,
    "pop": 19530000,
    "longitude": 24.966761,
    "name": "Romania",
    "country": "RO",
    "lastUpdated": "2020-05-01T12:10:06.930Z",
    "dead": 726,
    "id": "9QcETqEcM2fTv9zRvx5T",
    "infected": 12567,
    "sick": 7513,
    "invisible": false
  },
  {
    "latitude": 12.136389,
    "pop": 6218000,
    "longitude": -86.251389,
    "name": "Nicaragua",
    "country": "NI",
    "lastUpdated": "2020-05-01T12:10:06.952Z",
    "dead": 3,
    "id": "9Y5wmCqNCC6ZrenM31uA",
    "infected": 14,
    "recovered": 7,
    "sick": 4,
    "invisible": false
  },
  {
    "id": "9dIzxqDSVqPyINkHqwGv",
    "infected": 490,
    "recovered": 135,
    "latitude": 17.5706921,
    "pop": 18540000,
    "longitude": -3.996166,
    "name": "Mali",
    "country": "ML",
    "lastUpdated": "2020-05-01T12:10:06.939Z",
    "dead": 26,
    "sick": 329,
    "invisible": false
  },
  {
    "lastUpdated": "2020-05-01T12:10:06.932Z",
    "dead": 218,
    "id": "9p6OCdZbUUwBLA60Gk3W",
    "infected": 5051,
    "recovered": 3000,
    "latitude": 61.92411,
    "pop": 5513000,
    "longitude": 25.748152,
    "name": "Finland",
    "country": "FI",
    "sick": 1833,
    "invisible": false
  },
  {
    "recovered": 0,
    "latitude": 43.311643,
    "pop": 1356000,
    "longitude": -71.590315,
    "name": "New Hampshire",
    "country": "US",
    "lastUpdated": "2020-05-01T12:09:05.683Z",
    "dead": 72,
    "id": "A84CwQ52kA46Hr7pn6Bm",
    "infected": 2146,
    "sick": 2074,
    "invisible": false
  },
  {
    "latitude": 41.823261,
    "pop": 1057000,
    "longitude": -71.412257,
    "name": "Rhode Island",
    "country": "US",
    "lastUpdated": "2020-05-01T12:09:05.681Z",
    "dead": 266,
    "id": "AEUWUHS65qvjEslew11c",
    "infected": 8621,
    "recovered": 0,
    "sick": 8355,
    "invisible": false
  },
  {
    "longitude": 11.327591,
    "name": "Emilia-Romagna",
    "country": "IT",
    "lastUpdated": "2020-05-01T12:01:08.526Z",
    "dead": 3551,
    "id": "AJ9jQ0iyKsafsmf5yHAR",
    "infected": 25436,
    "recovered": 12322,
    "latitude": 44.498955,
    "pop": 4453000,
    "sick": 9563,
    "invisible": false
  },
  {
    "latitude": 49.3964,
    "pop": 990509,
    "longitude": 7.023,
    "name": "Saarland",
    "country": "DE",
    "lastUpdated": "2020-05-01T12:00:08.189Z",
    "dead": 136,
    "id": "AKjFRQGnzuuZQhv5Qwx7",
    "infected": 2630,
    "recovered": 1767,
    "sick": 727,
    "invisible": false
  },
  {
    "lastUpdated": "2020-05-01T12:11:12.439Z",
    "dead": 13,
    "id": "APTPgjAsjFi0nsGyJV7M",
    "infected": 393,
    "recovered": 0,
    "latitude": -35.717,
    "pop": 1125002,
    "longitude": -71.167,
    "name": "Maule",
    "country": "CL",
    "sick": 380,
    "invisible": false
  },
  {
    "latitude": 71.7069,
    "pop": 56171,
    "longitude": -42.6043,
    "name": "Greenland",
    "country": "GL",
    "lastUpdated": "2020-05-01T12:10:06.953Z",
    "dead": 0,
    "id": "APaZzlGCEeuoLBtzTJMe",
    "infected": 11,
    "recovered": 11,
    "sick": 0,
    "invisible": false
  },
  {
    "latitude": 45.65107,
    "pop": 971395,
    "longitude": -63.582687,
    "name": "Nova Scotia",
    "country": "CA",
    "lastUpdated": "2020-05-01T12:06:11.693Z",
    "dead": 28,
    "id": "AVCpxeh0fuH2WrHWNDYH",
    "infected": 947,
    "recovered": 0,
    "sick": 919,
    "invisible": false
  },
  {
    "lastUpdated": "2020-05-01T12:09:05.685Z",
    "dead": 16,
    "id": "AcULcZBozObOhwuRKMjJ",
    "infected": 453,
    "recovered": 0,
    "latitude": 47.012918,
    "pop": 1062000,
    "longitude": -109.128641,
    "name": "Montana",
    "country": "US",
    "sick": 437,
    "invisible": false
  },
  {
    "latitude": 27.285971,
    "pop": 45200000,
    "longitude": 116.01609,
    "name": "Jiangxi",
    "country": "CN",
    "lastUpdated": "2020-05-01T11:53:04.927Z",
    "dead": 1,
    "id": "AmBYm5J6E9Cuez1FQjiN",
    "infected": 937,
    "recovered": 936,
    "sick": 0,
    "invisible": false
  },
  {
    "recovered": 0,
    "latitude": 52.1307,
    "pop": 3136000,
    "longitude": -3.7837,
    "name": "Wales",
    "country": "GB",
    "lastUpdated": "2020-05-01T12:10:19.186Z",
    "dead": 908,
    "id": "AoLhHdTydeWTfmp9koEX",
    "infected": 9812,
    "sick": 8904,
    "invisible": false
  },
  {
    "id": "AwN0CScPDApcLFgz6e3z",
    "infected": 4006,
    "recovered": 1779,
    "latitude": 28.033886,
    "pop": 41320000,
    "longitude": 1.659626,
    "name": "Algeria",
    "country": "DZ",
    "lastUpdated": "2020-05-01T12:10:06.933Z",
    "dead": 450,
    "sick": 1777,
    "invisible": false
  },
  {
    "latitude": 45.099998,
    "pop": 4076000,
    "longitude": 15.2,
    "name": "Croatia",
    "country": "HR",
    "lastUpdated": "2020-05-01T12:10:06.934Z",
    "dead": 69,
    "id": "B82Ef45M8cDu4q7VsSHF",
    "infected": 2076,
    "recovered": 1348,
    "sick": 659,
    "invisible": false
  },
  {
    "lastUpdated": "2020-05-01T12:10:06.938Z",
    "dead": 32,
    "id": "BENubqQInFUJzhpZTsLT",
    "infected": 719,
    "recovered": 452,
    "latitude": 17.6077881,
    "pop": 23716000,
    "longitude": 8.081666,
    "name": "Niger",
    "country": "NE",
    "sick": 235,
    "invisible": false
  },
  {
    "infected": 21742,
    "recovered": 0,
    "latitude": 39.509109,
    "pop": 6043000,
    "longitude": -76.98432,
    "name": "Maryland",
    "country": "US",
    "lastUpdated": "2020-05-01T12:09:05.680Z",
    "dead": 1140,
    "id": "BF51mWl51fgEcyBpCSzb",
    "sick": 20602,
    "invisible": false
  },
  {
    "id": "BGg6yVU5VP71B8NXU0oh",
    "infected": 14917,
    "recovered": 2918,
    "latitude": 53.709808,
    "pop": 9508000,
    "longitude": 27.953388,
    "name": "Belarus",
    "country": "BY",
    "lastUpdated": "2020-05-01T12:10:06.929Z",
    "dead": 93,
    "sick": 11906,
    "invisible": false
  },
  {
    "infected": 2836,
    "recovered": 1068,
    "latitude": 48.8799,
    "pop": 3319000,
    "longitude": 0.1713,
    "name": "Normandie",
    "country": "FR",
    "lastUpdated": "2020-05-01T00:28:51.896Z",
    "dead": 346,
    "id": "BGtoyzb7y54LVlJ91rbf",
    "sick": 1422,
    "invisible": false
  },
  {
    "infected": 6177,
    "recovered": 0,
    "latitude": 50.7772,
    "pop": 5616000,
    "longitude": -3.9995,
    "name": "South West",
    "country": "GB",
    "lastUpdated": "2020-05-01T12:10:19.187Z",
    "dead": 0,
    "id": "BQqMOlPFD36ZEDTGd3WC",
    "sick": 6177,
    "invisible": false
  },
  {
    "infected": 7648,
    "recovered": 0,
    "latitude": 34.048927,
    "pop": 7172000,
    "longitude": -111.093735,
    "name": "Arizona",
    "country": "US",
    "lastUpdated": "2020-05-01T12:09:05.681Z",
    "dead": 320,
    "id": "BTEESCuD2ZbS1afunR2A",
    "sick": 7328,
    "invisible": false
  },
  {
    "lastUpdated": "2020-05-01T12:03:09.457Z",
    "dead": 10,
    "id": "BZwZOAlDJ8AIiaRVLyC9",
    "infected": 401,
    "recovered": 0,
    "latitude": 53.428543,
    "pop": 1676000,
    "longitude": 14.552812,
    "name": "Zachodniopomorskie",
    "country": "PL",
    "sick": 391,
    "invisible": false
  },
  {
    "infected": 0,
    "recovered": 8580,
    "latitude": -33.4489,
    "longitude": -70.6693,
    "name": "Unknown Chile region",
    "country": "CL",
    "lastUpdated": "2020-05-01T12:11:12.441Z",
    "dead": 0,
    "id": "BbiuZcm8oURX7cZwaa5U",
    "invisible": true,
    "sick": 0
  },
  {
    "latitude": -13.2543,
    "pop": 18620000,
    "longitude": 34.3015,
    "name": "Malawi",
    "country": "MW",
    "lastUpdated": "2020-05-01T12:10:06.949Z",
    "dead": 3,
    "id": "BfT8o5DaEixC6JIZ28kY",
    "infected": 37,
    "recovered": 7,
    "sick": 27,
    "invisible": false
  },
  {
    "infected": 11,
    "recovered": 4,
    "latitude": -3.3730559,
    "pop": 10860000,
    "longitude": 29.9188862,
    "name": "Burundi",
    "country": "BI",
    "lastUpdated": "2020-05-01T12:10:06.953Z",
    "dead": 1,
    "id": "BnpMamidC5yYzeK8tPUL",
    "sick": 6,
    "invisible": false
  },
  {
    "lastUpdated": "2020-05-01T12:03:09.451Z",
    "dead": 206,
    "id": "BrToMzyq8y2xdwXn75kM",
    "infected": 2452,
    "recovered": 0,
    "latitude": 52.257,
    "pop": 5385000,
    "longitude": 21.002,
    "name": "Mazowieckie",
    "country": "PL",
    "sick": 2246,
    "invisible": false
  },
  {
    "id": "C25xSDm4iYibX5RYML14",
    "infected": 104,
    "recovered": 0,
    "latitude": -1.333845,
    "pop": 74751,
    "longitude": -71.347573,
    "name": "Amazonas (Colombia)",
    "country": "CO",
    "lastUpdated": "2020-05-01T11:48:09.383Z",
    "dead": 4,
    "sick": 100,
    "invisible": false
  },
  {
    "recovered": 0,
    "latitude": 40.719042,
    "pop": 19540000,
    "longitude": -73.982597,
    "name": "New York",
    "country": "US",
    "lastUpdated": "2020-05-01T12:09:05.678Z",
    "dead": 23780,
    "id": "C3BCUzV80z9GfiuByIcr",
    "infected": 310839,
    "sick": 287059,
    "invisible": false
  },
  {
    "lastUpdated": "2020-05-01T12:10:06.931Z",
    "dead": 237,
    "id": "C6S76AggdWVU8G22jFHQ",
    "infected": 7689,
    "recovered": 3314,
    "latitude": 49.731626,
    "pop": 10650000,
    "longitude": 15.359413,
    "name": "Czechia",
    "country": "CZ",
    "sick": 4138,
    "invisible": false
  },
  {
    "longitude": 50.557701,
    "name": "Bahrain",
    "country": "BH",
    "lastUpdated": "2020-05-01T12:10:06.933Z",
    "dead": 8,
    "id": "C7cj4nwRITs13KnaJrQ2",
    "infected": 3040,
    "recovered": 1500,
    "latitude": 26.0667,
    "pop": 1493000,
    "sick": 1532,
    "invisible": false
  },
  {
    "lastUpdated": "2020-05-01T11:48:09.383Z",
    "dead": 4,
    "id": "CA9LaAl3bNaeAqBuozn4",
    "infected": 45,
    "recovered": 2,
    "latitude": 10.4113,
    "pop": 1285400,
    "longitude": -74.4057,
    "name": "Magdalena",
    "country": "CO",
    "sick": 39,
    "invisible": false
  },
  {
    "infected": 437,
    "recovered": 0,
    "latitude": 26.909979,
    "pop": 3073500,
    "longitude": -101.430756,
    "name": "Coahuila",
    "country": "MX",
    "lastUpdated": "2020-05-01T12:01:10.952Z",
    "dead": 41,
    "id": "CCUFp4urvgXPo5unfMGy",
    "sick": 396,
    "invisible": false
  },
  {
    "latitude": 27.0238,
    "pop": 68890000,
    "longitude": 74.2179,
    "name": "Rajasthan",
    "country": "IN",
    "lastUpdated": "2020-05-01T12:11:08.458Z",
    "dead": 61,
    "id": "CKZCZTPlrcq5fbfUPA9k",
    "infected": 2642,
    "recovered": 983,
    "sick": 1598,
    "invisible": false
  },
  {
    "longitude": -88.9053,
    "name": "El Salvador",
    "country": "SV",
    "lastUpdated": "2020-05-01T12:10:06.940Z",
    "dead": 10,
    "id": "Cgvmtle61ehMvCzRzYx7",
    "infected": 424,
    "recovered": 124,
    "latitude": 13.803,
    "pop": 6378000,
    "sick": 290,
    "invisible": false
  },
  {
    "longitude": 44.818474,
    "name": "Armenia",
    "country": "AM",
    "lastUpdated": "2020-05-01T12:10:06.934Z",
    "dead": 33,
    "id": "DCJCtZoBTWQ4mzdDNljD",
    "infected": 2148,
    "recovered": 977,
    "latitude": 40.259003,
    "pop": 2973000,
    "sick": 1138,
    "invisible": false
  },
  {
    "lastUpdated": "2020-05-01T11:48:09.382Z",
    "dead": 1,
    "id": "DJJraANgQbEqz1wBBtZz",
    "infected": 39,
    "recovered": 13,
    "latitude": 5.535,
    "pop": 1278000,
    "longitude": -73.368,
    "name": "Boyacá",
    "country": "CO",
    "sick": 25,
    "invisible": false
  },
  {
    "longitude": -2.5945,
    "name": "North West",
    "country": "GB",
    "lastUpdated": "2020-05-01T12:10:19.187Z",
    "dead": 0,
    "id": "DPwBt2aJuwF0O71vwfM9",
    "infected": 18523,
    "recovered": 0,
    "latitude": 53.6221,
    "pop": 7300000,
    "sick": 18523,
    "invisible": false
  },
  {
    "id": "DZyTD0Mu5WIcK6yTcJ91",
    "infected": 114,
    "recovered": 48,
    "latitude": 32.3213844,
    "pop": 65440,
    "longitude": -64.75737,
    "name": "Bermuda",
    "country": "BM",
    "lastUpdated": "2020-05-01T12:10:06.942Z",
    "dead": 6,
    "sick": 60,
    "invisible": false
  },
  {
    "infected": 12,
    "recovered": 5,
    "latitude": 21.694,
    "pop": 35446,
    "longitude": -71.7979,
    "name": "Turks and Caicos",
    "country": "TC",
    "lastUpdated": "2020-05-01T12:10:06.953Z",
    "dead": 1,
    "id": "DaMrRSIGJXIG36nW0Pnc",
    "sick": 6,
    "invisible": false
  },
  {
    "lastUpdated": "2020-05-01T12:09:03.716Z",
    "dead": 2498,
    "id": "Dbng0NBTH41EEwBxhMzE",
    "infected": 20516,
    "recovered": 5615,
    "latitude": 39.2796,
    "pop": 2035000,
    "longitude": -3.0977,
    "name": "Castilla La Mancha",
    "country": "ES",
    "sick": 12403,
    "invisible": false
  },
  {
    "infected": 913,
    "recovered": 0,
    "latitude": 50.023,
    "pop": 3361000,
    "longitude": 20.006,
    "name": "Malopolskie",
    "country": "PL",
    "lastUpdated": "2020-05-01T12:03:09.457Z",
    "dead": 30,
    "id": "DcQ3D0WkacXEbv6iznRB",
    "sick": 883,
    "invisible": false
  },
  {
    "longitude": 113.551262,
    "name": "Macao",
    "country": "MO",
    "lastUpdated": "2020-05-01T12:10:06.949Z",
    "dead": 0,
    "id": "DdBt8qsG6A3g92oOR3ow",
    "infected": 45,
    "recovered": 37,
    "latitude": 22.192039,
    "pop": 622567,
    "sick": 8,
    "invisible": false
  },
  {
    "longitude": 91.3662,
    "name": "Meghalaya",
    "country": "IN",
    "lastUpdated": "2020-05-01T12:11:08.460Z",
    "dead": 1,
    "id": "Dh0O1vmhrVfmsCsfZCUg",
    "infected": 12,
    "recovered": 10,
    "latitude": 25.467,
    "pop": 2651000,
    "sick": 1,
    "invisible": false
  },
  {
    "infected": 559,
    "recovered": 0,
    "latitude": 42.962334,
    "pop": 577737,
    "longitude": -107.534868,
    "name": "Wyoming",
    "country": "US",
    "lastUpdated": "2020-05-01T12:09:05.684Z",
    "dead": 7,
    "id": "DrGzziUglmBognCGY7R2",
    "sick": 552,
    "invisible": false
  },
  {
    "infected": 2591,
    "recovered": 1374,
    "latitude": 37.9838,
    "pop": 10740000,
    "longitude": 23.7275,
    "name": "Greece",
    "country": "GR",
    "lastUpdated": "2020-05-01T12:10:06.934Z",
    "dead": 140,
    "id": "Dtr1lap1RpJpXJdXGJiW",
    "sick": 1077,
    "invisible": false
  },
  {
    "infected": 429,
    "recovered": 324,
    "latitude": 25.03841,
    "pop": 23780000,
    "longitude": 121.563698,
    "name": "Taiwan",
    "country": "TW",
    "lastUpdated": "2020-05-01T12:10:06.940Z",
    "dead": 6,
    "id": "EKTfs8e7M6DXzI1HqyyX",
    "sick": 99,
    "invisible": false
  },
  {
    "recovered": 338,
    "latitude": 10.327273,
    "pop": 4906000,
    "longitude": -84.387618,
    "name": "Costa Rica",
    "country": "CR",
    "lastUpdated": "2020-05-01T12:10:06.938Z",
    "dead": 6,
    "id": "EQzJvzVHKjs8kLmK7BMu",
    "infected": 719,
    "sick": 375,
    "invisible": false
  },
  {
    "id": "ERwk9R9en4m9WbdoMbIg",
    "infected": 4395,
    "recovered": 613,
    "latitude": 22.2587,
    "pop": 62700000,
    "longitude": 71.1924,
    "name": "Gujarat",
    "country": "IN",
    "lastUpdated": "2020-05-01T12:11:08.457Z",
    "dead": 214,
    "sick": 3568,
    "invisible": false
  },
  {
    "id": "Esl5UlCVB9s8pmGB5Ofr",
    "infected": 88,
    "recovered": 18,
    "latitude": 30.7333,
    "pop": 1055000,
    "longitude": 76.7794,
    "name": "Chandigarh",
    "country": "IN",
    "lastUpdated": "2020-05-01T12:11:08.459Z",
    "dead": 0,
    "sick": 70,
    "invisible": false
  },
  {
    "infected": 365,
    "recovered": 0,
    "latitude": 51.24,
    "pop": 2148000,
    "longitude": 22.653,
    "name": "Lubelskie",
    "country": "PL",
    "lastUpdated": "2020-05-01T12:03:09.457Z",
    "dead": 13,
    "id": "Esy1La2CxwH5uB8bGVWZ",
    "sick": 352,
    "invisible": false
  },
  {
    "lastUpdated": "2020-05-01T12:09:05.685Z",
    "dead": 92,
    "id": "F4rPrEVGAIMM5rfPEMv4",
    "infected": 1539,
    "recovered": 0,
    "latitude": 18.200178,
    "pop": 3195000,
    "longitude": -66.664513,
    "name": "Puerto Rico",
    "country": "PR",
    "sick": 1447,
    "invisible": false
  },
  {
    "longitude": -74.058655,
    "name": "Cundinamarca",
    "country": "CO",
    "lastUpdated": "2020-05-01T11:48:09.381Z",
    "dead": 13,
    "id": "F7MED5VwEhi3JvJu6KjB",
    "infected": 223,
    "recovered": 87,
    "latitude": 4.862437,
    "pop": 2919000,
    "sick": 123,
    "invisible": false
  },
  {
    "infected": 2335,
    "recovered": 310,
    "latitude": 33.93911,
    "pop": 35530000,
    "longitude": 67.709953,
    "name": "Afghanistan",
    "country": "AF",
    "lastUpdated": "2020-05-01T12:10:06.934Z",
    "dead": 68,
    "id": "FCDmlmnIIswd8bQiUjfN",
    "sick": 1957,
    "invisible": false
  },
  {
    "recovered": 573,
    "latitude": 29.431585,
    "pop": 30480000,
    "longitude": 106.912254,
    "name": "Chongqing",
    "country": "CN",
    "lastUpdated": "2020-05-01T11:53:04.927Z",
    "dead": 6,
    "id": "FErOU1m4Tj7jIkRam3vF",
    "infected": 579,
    "sick": 0,
    "invisible": false
  },
  {
    "infected": 4377,
    "recovered": 1602,
    "latitude": 29.311661,
    "pop": 4137000,
    "longitude": 47.481766,
    "name": "Kuwait",
    "country": "KW",
    "lastUpdated": "2020-05-01T12:10:06.932Z",
    "dead": 30,
    "id": "FZsUkhxBEgqsPb4eO0PN",
    "sick": 2745,
    "invisible": false
  },
  {
    "infected": 447,
    "recovered": 0,
    "latitude": -10.9111,
    "pop": 2278308,
    "longitude": -37.0717,
    "name": "Sergipe",
    "country": "BR",
    "lastUpdated": "2020-05-01T12:11:09.087Z",
    "dead": 12,
    "id": "FboWeolpM62SZCLwdilT",
    "sick": 435,
    "invisible": false
  },
  {
    "recovered": 1258,
    "latitude": 11.1271,
    "pop": 67860000,
    "longitude": 78.6569,
    "name": "Tamil Nadu",
    "country": "IN",
    "lastUpdated": "2020-05-01T12:11:08.458Z",
    "dead": 27,
    "id": "FeS45oMNC27pI17F0xEV",
    "infected": 2323,
    "sick": 1038,
    "invisible": false
  },
  {
    "recovered": 1301,
    "latitude": 18.947829,
    "pop": 10770000,
    "longitude": -70.430399,
    "name": "Dominican Republic",
    "country": "DO",
    "lastUpdated": "2020-05-01T12:10:06.932Z",
    "dead": 301,
    "id": "FuiVEJvWb0QMCpxJ3563",
    "infected": 6972,
    "sick": 5370,
    "invisible": false
  },
  {
    "lastUpdated": "2020-05-01T12:11:08.458Z",
    "dead": 28,
    "id": "FyC551oNwmENxbr9Yght",
    "infected": 1038,
    "recovered": 442,
    "latitude": 18.1124,
    "pop": 35190000,
    "longitude": 79.0193,
    "name": "Telengana",
    "country": "IN",
    "sick": 568,
    "invisible": false
  },
  {
    "latitude": 48.669,
    "pop": 5450000,
    "longitude": 19.699,
    "name": "Slovakia",
    "country": "SK",
    "lastUpdated": "2020-05-01T12:10:06.935Z",
    "dead": 23,
    "id": "FzIDXoqWnTI3nUfhPyT2",
    "infected": 1403,
    "recovered": 558,
    "sick": 822,
    "invisible": false
  },
  {
    "latitude": 30.37532,
    "pop": 197000000,
    "longitude": 69.345116,
    "name": "Pakistan",
    "country": "PK",
    "lastUpdated": "2020-05-01T12:10:06.929Z",
    "dead": 391,
    "id": "GAp7Wb6IMhdgbvEtMza9",
    "infected": 17439,
    "recovered": 4315,
    "sick": 12733,
    "invisible": false
  },
  {
    "longitude": 75.3412,
    "name": "Punjab",
    "country": "IN",
    "lastUpdated": "2020-05-01T12:11:08.459Z",
    "dead": 20,
    "id": "GGru8cG08mANO8XDDUtZ",
    "infected": 480,
    "recovered": 104,
    "latitude": 31.1471,
    "pop": 27980000,
    "sick": 356,
    "invisible": false
  },
  {
    "latitude": 23.424076,
    "pop": 9400000,
    "longitude": 53.847816,
    "name": "United Arab Emirates",
    "country": "AE",
    "lastUpdated": "2020-05-01T12:10:06.930Z",
    "dead": 111,
    "id": "GHzBIsHy2GiBc5JV2HMs",
    "infected": 13038,
    "recovered": 2543,
    "sick": 10384,
    "invisible": false
  },
  {
    "id": "GLViSIjDjwvptOphedAu",
    "invisible": true,
    "infected": 103,
    "recovered": 0,
    "latitude": 37.0902,
    "longitude": -95.7129,
    "name": "Grand Princess",
    "country": "US",
    "lastUpdated": "2020-05-01T12:09:05.686Z",
    "dead": 3,
    "sick": 100
  },
  {
    "infected": 24297,
    "recovered": 0,
    "latitude": 51.5074,
    "pop": 10100000,
    "longitude": -0.1278,
    "name": "London",
    "country": "GB",
    "lastUpdated": "2020-05-01T12:10:19.187Z",
    "dead": 0,
    "id": "GPtoS0Yy2EnNafpmmTqY",
    "sick": 24297,
    "invisible": false
  },
  {
    "infected": 50410,
    "recovered": 0,
    "latitude": 36.621981,
    "pop": 39560000,
    "longitude": -119.339046,
    "name": "California",
    "country": "US",
    "lastUpdated": "2020-05-01T12:09:05.679Z",
    "dead": 2044,
    "id": "Gh46r6vuaY7fbGt3IboN",
    "sick": 48366,
    "invisible": false
  },
  {
    "infected": 3618,
    "recovered": 0,
    "latitude": 35.87189,
    "pop": 3943000,
    "longitude": -97.145514,
    "name": "Oklahoma",
    "country": "US",
    "lastUpdated": "2020-05-01T12:09:05.683Z",
    "dead": 222,
    "id": "GpF8ULuKOQiFDCUHN44h",
    "sick": 3396,
    "invisible": false
  },
  {
    "recovered": 1441,
    "latitude": 46.5,
    "pop": 520891,
    "longitude": 11.35,
    "name": "P.A. Bolzano",
    "country": "IT",
    "lastUpdated": "2020-05-01T12:01:08.526Z",
    "dead": 275,
    "id": "Gzx6GX1qhBm714BkEC6l",
    "infected": 2518,
    "sick": 802,
    "invisible": false
  },
  {
    "recovered": 152,
    "latitude": 42.83263,
    "pop": 24710000,
    "longitude": 113.750972,
    "name": "Inner Mongolia",
    "country": "CN",
    "lastUpdated": "2020-05-01T11:53:04.921Z",
    "dead": 1,
    "id": "H3JeVigVbo5CSYfZG4WI",
    "infected": 201,
    "sick": 48,
    "invisible": false
  },
  {
    "infected": 4998,
    "recovered": 0,
    "latitude": 39.74536,
    "pop": 3034000,
    "longitude": -116.724977,
    "name": "Nevada",
    "country": "US",
    "lastUpdated": "2020-05-01T12:09:05.682Z",
    "dead": 243,
    "id": "H3bDg4eV30up4WWrIDAS",
    "sick": 4755,
    "invisible": false
  },
  {
    "latitude": -3.731862,
    "pop": 9075649,
    "longitude": -38.526669,
    "name": "Ceará",
    "country": "BR",
    "lastUpdated": "2020-05-01T12:11:09.085Z",
    "dead": 482,
    "id": "HEMWNnFxeFEoeOCBOLJD",
    "infected": 7606,
    "recovered": 0,
    "sick": 7124,
    "invisible": false
  },
  {
    "id": "HN5mGmxlqlSeFSNeu1K5",
    "infected": 576,
    "recovered": 235,
    "latitude": 15.3173,
    "pop": 64060000,
    "longitude": 75.7139,
    "name": "Karnataka",
    "country": "IN",
    "lastUpdated": "2020-05-01T12:11:08.459Z",
    "dead": 22,
    "sick": 319,
    "invisible": false
  },
  {
    "longitude": 90.4336,
    "name": "Bhutan",
    "country": "BT",
    "lastUpdated": "2020-05-01T12:10:06.954Z",
    "dead": 0,
    "id": "HRDpwyxpqW9RN0xLFyNu",
    "infected": 7,
    "recovered": 5,
    "latitude": 27.5142,
    "pop": 807610,
    "sick": 2,
    "invisible": false
  },
  {
    "latitude": 41.3775,
    "pop": 32390000,
    "longitude": 64.5853,
    "name": "Uzbekistan",
    "country": "UZ",
    "lastUpdated": "2020-05-01T12:10:06.934Z",
    "dead": 9,
    "id": "HRTA10dtrruDEwjJEGMp",
    "infected": 2075,
    "recovered": 1182,
    "sick": 884,
    "invisible": false
  },
  {
    "recovered": 0,
    "latitude": 34.138916,
    "pop": 2095000,
    "longitude": -105.576255,
    "name": "New Mexico",
    "country": "US",
    "lastUpdated": "2020-05-01T12:09:05.683Z",
    "dead": 123,
    "id": "HSSFomRju0doHhWgW8On",
    "infected": 3411,
    "sick": 3288,
    "invisible": false
  },
  {
    "infected": 189,
    "recovered": 0,
    "latitude": -40.231,
    "pop": 412812,
    "longitude": -72.3311,
    "name": "Los Ríos",
    "country": "CL",
    "lastUpdated": "2020-05-01T12:11:12.440Z",
    "dead": 4,
    "id": "HZkACHjW7NlYjg8vEMj2",
    "sick": 185,
    "invisible": false
  },
  {
    "infected": 696,
    "recovered": 569,
    "latitude": 53.6127,
    "pop": 1635000,
    "longitude": 12.4296,
    "name": "Mecklenburg-Vorpommern",
    "country": "DE",
    "lastUpdated": "2020-05-01T12:00:08.188Z",
    "dead": 19,
    "id": "He1gSS1v50t06i3YrqvB",
    "sick": 108,
    "invisible": false
  },
  {
    "id": "I9EqrZfbPnkioNU4wZGz",
    "infected": 2930,
    "recovered": 695,
    "latitude": 42.25,
    "pop": 1315000,
    "longitude": 13.75,
    "name": "Abruzzo",
    "country": "IT",
    "lastUpdated": "2020-05-01T12:01:08.521Z",
    "dead": 320,
    "sick": 1915,
    "invisible": false
  },
  {
    "infected": 1588,
    "recovered": 1565,
    "latitude": 23.363855,
    "pop": 113460000,
    "longitude": 113.373448,
    "name": "Guangdong",
    "country": "CN",
    "lastUpdated": "2020-05-01T11:53:04.926Z",
    "dead": 8,
    "id": "IAX0OQLVnUwU7FX0ENF1",
    "sick": 15,
    "invisible": false
  },
  {
    "recovered": 1254,
    "latitude": 33.875408,
    "pop": 94000000,
    "longitude": 113.484016,
    "name": "Henan",
    "country": "CN",
    "lastUpdated": "2020-05-01T11:53:04.927Z",
    "dead": 22,
    "id": "IFuMrMvSjoiX5agYvllh",
    "infected": 1276,
    "sick": 0,
    "invisible": false
  },
  {
    "longitude": -8.16667,
    "name": "Algarve",
    "country": "PT",
    "lastUpdated": "2020-05-01T12:04:01.325Z",
    "dead": 13,
    "id": "IHqRHC8K3OZPN8gniM7V",
    "infected": 331,
    "recovered": 0,
    "latitude": 37.2,
    "pop": 451000,
    "sick": 318,
    "invisible": false
  },
  {
    "latitude": 3.883,
    "pop": 333194,
    "longitude": -77.0197,
    "name": "Buenaventura D.E.",
    "country": "CO",
    "lastUpdated": "2020-05-01T11:48:09.383Z",
    "dead": 1,
    "id": "IKWjRUo0SYgHQKdWjTvq",
    "infected": 29,
    "recovered": 2,
    "sick": 26,
    "invisible": false
  },
  {
    "latitude": 52.87,
    "pop": 4811000,
    "longitude": -0.995,
    "name": "East Midlands",
    "country": "GB",
    "lastUpdated": "2020-05-01T12:10:19.186Z",
    "dead": 0,
    "id": "INyu1R48Ppv8cfW4Nuz4",
    "infected": 6747,
    "recovered": 0,
    "sick": 6747,
    "invisible": false
  },
  {
    "infected": 232,
    "recovered": 0,
    "latitude": 22.017,
    "pop": 1342600,
    "longitude": -102.317,
    "name": "Aguascalientes",
    "country": "MX",
    "lastUpdated": "2020-05-01T12:01:10.954Z",
    "dead": 7,
    "id": "ISRKMzEDojyrZ9iyWwex",
    "sick": 225,
    "invisible": false
  },
  {
    "infected": 686,
    "recovered": 0,
    "latitude": 25.686613,
    "pop": 5321300,
    "longitude": -100.316116,
    "name": "Nuevo León",
    "country": "MX",
    "lastUpdated": "2020-05-01T12:01:10.954Z",
    "dead": 17,
    "id": "IdKbgzgKLpjBFh4UPOwu",
    "sick": 669,
    "invisible": false
  },
  {
    "lastUpdated": "2020-05-01T12:01:10.951Z",
    "dead": 86,
    "id": "IhhiYI6T0TX4CYVPcnmH",
    "infected": 451,
    "recovered": 0,
    "latitude": 28.632996,
    "pop": 3826900,
    "longitude": -106.069099,
    "name": "Chihuahua",
    "country": "MX",
    "sick": 365,
    "invisible": false
  },
  {
    "latitude": -36.7,
    "pop": 480600,
    "longitude": -72.57,
    "name": "Ñuble",
    "country": "CL",
    "lastUpdated": "2020-05-01T12:11:12.439Z",
    "dead": 14,
    "id": "ImnOiVx9Cb8Nw7cbRcQ7",
    "infected": 768,
    "recovered": 0,
    "sick": 754,
    "invisible": false
  },
  {
    "recovered": 8,
    "latitude": 19.0558,
    "pop": 10980000,
    "longitude": -73.0513,
    "name": "Haiti",
    "country": "HT",
    "lastUpdated": "2020-05-01T12:10:06.948Z",
    "dead": 8,
    "id": "InZ38sIqyK7FN7XAOZoX",
    "infected": 81,
    "sick": 65,
    "invisible": false
  },
  {
    "longitude": -83.280125,
    "name": "Georgia (US)",
    "country": "US",
    "lastUpdated": "2020-05-01T12:09:05.680Z",
    "dead": 1132,
    "id": "IvQkDJkTAsoIqPRAU25n",
    "infected": 26264,
    "recovered": 0,
    "latitude": 32.528564,
    "pop": 10520000,
    "sick": 25132,
    "invisible": false
  },
  {
    "id": "IvVhpOoGpH6JVkGyUhXN",
    "infected": 1479,
    "recovered": 1252,
    "latitude": -42.8285,
    "pop": 4794000,
    "longitude": 172.488081,
    "name": "New Zealand",
    "country": "NZ",
    "lastUpdated": "2020-05-01T12:10:06.935Z",
    "dead": 19,
    "sick": 208,
    "invisible": false
  },
  {
    "latitude": 28.218,
    "pop": 1255000,
    "longitude": 94.7278,
    "name": "Arunachal Pradesh",
    "country": "IN",
    "lastUpdated": "2020-05-01T12:11:08.460Z",
    "dead": 0,
    "id": "IwYKiIVY18NGwdGQFGWW",
    "infected": 1,
    "recovered": 1,
    "sick": 0,
    "invisible": false
  },
  {
    "recovered": 142,
    "latitude": 6.4238,
    "pop": 31980000,
    "longitude": -66.5897,
    "name": "Venezuela",
    "country": "VE",
    "lastUpdated": "2020-05-01T12:10:06.940Z",
    "dead": 16,
    "id": "J3mZXlfEnnJx4CDZLvRG",
    "infected": 333,
    "sick": 175,
    "invisible": false
  },
  {
    "longitude": 33.4299,
    "name": "Cyprus",
    "country": "CY",
    "lastUpdated": "2020-05-01T12:10:06.938Z",
    "dead": 15,
    "id": "JQByE4l2OA6sGOqIcWrM",
    "infected": 850,
    "recovered": 296,
    "latitude": 35.1264,
    "pop": 1170000,
    "sick": 539,
    "invisible": false
  },
  {
    "recovered": 84,
    "latitude": 25.0961,
    "pop": 99020000,
    "longitude": 85.3131,
    "name": "Bihar",
    "country": "IN",
    "lastUpdated": "2020-05-01T12:11:08.459Z",
    "dead": 2,
    "id": "JR7hOGked7CZtIs2nCV5",
    "infected": 450,
    "sick": 364,
    "invisible": false
  },
  {
    "recovered": 66,
    "latitude": 14.628434,
    "pop": 17250000,
    "longitude": -90.522713,
    "name": "Guatemala",
    "country": "GT",
    "lastUpdated": "2020-05-01T12:10:06.939Z",
    "dead": 16,
    "id": "JUWE6bG3b5oL7fKQMSvv",
    "infected": 599,
    "sick": 517,
    "invisible": false
  },
  {
    "longitude": 6.1296,
    "name": "Luxembourg",
    "country": "LU",
    "lastUpdated": "2020-05-01T12:10:06.933Z",
    "dead": 90,
    "id": "JcFsHSn2WvZ5LJW42ovG",
    "infected": 3784,
    "recovered": 3213,
    "latitude": 49.8153,
    "pop": 602005,
    "sick": 481,
    "invisible": false
  },
  {
    "latitude": 8.8,
    "pop": 2049000,
    "longitude": -74.167,
    "name": "Bolívar",
    "country": "CO",
    "lastUpdated": "2020-05-01T11:48:09.383Z",
    "dead": 3,
    "id": "JmOyaFe25yZCIV64JbZj",
    "infected": 23,
    "recovered": 3,
    "sick": 17,
    "invisible": false
  },
  {
    "infected": 1577,
    "recovered": 0,
    "latitude": 31.4,
    "pop": 3648100,
    "longitude": -115.783,
    "name": "Baja California",
    "country": "MX",
    "lastUpdated": "2020-05-01T12:01:10.951Z",
    "dead": 223,
    "id": "Jp9ePErcc8i1aOozEAMf",
    "sick": 1354,
    "invisible": false
  },
  {
    "latitude": 8.7479801,
    "pop": 1786500,
    "longitude": -75.8814316,
    "name": "Córdoba",
    "country": "CO",
    "lastUpdated": "2020-05-01T11:48:09.383Z",
    "dead": 3,
    "id": "Jr8syCB0lydmPDXw8Q6N",
    "infected": 26,
    "recovered": 6,
    "sick": 17,
    "invisible": false
  },
  {
    "latitude": 8.6195,
    "pop": 7798000,
    "longitude": 0.8248,
    "name": "Togo",
    "country": "TG",
    "lastUpdated": "2020-05-01T12:10:06.942Z",
    "dead": 9,
    "id": "JrBbirlBKGdWSdcDt7PF",
    "infected": 116,
    "recovered": 65,
    "sick": 42,
    "invisible": false
  },
  {
    "infected": 1541,
    "recovered": 276,
    "latitude": 42.7339,
    "pop": 7050000,
    "longitude": 25.4858,
    "name": "Bulgaria",
    "country": "BG",
    "lastUpdated": "2020-05-01T12:10:06.935Z",
    "dead": 66,
    "id": "JzZ8sbqzjutThVjkPKPL",
    "sick": 1199,
    "invisible": false
  },
  {
    "lastUpdated": "2020-05-01T12:03:09.457Z",
    "dead": 8,
    "id": "KGrK7gafkeWjmU6sHQd2",
    "infected": 270,
    "recovered": 0,
    "latitude": 50.823,
    "pop": 1263000,
    "longitude": 20.709,
    "name": "Świętokrzyskie",
    "country": "PL",
    "sick": 262,
    "invisible": false
  },
  {
    "latitude": 44.5,
    "pop": 1557000,
    "longitude": 8.833,
    "name": "Liguria",
    "country": "IT",
    "lastUpdated": "2020-05-01T12:01:08.527Z",
    "dead": 1167,
    "id": "KLXicxFogWnu0dLp4bNK",
    "infected": 7993,
    "recovered": 3275,
    "sick": 3551,
    "invisible": false
  },
  {
    "recovered": 29,
    "latitude": 10.4631,
    "pop": 1201000,
    "longitude": -73.2532,
    "name": "Cesar",
    "country": "CO",
    "lastUpdated": "2020-05-01T11:48:09.382Z",
    "dead": 6,
    "id": "KpOz3WmiZkrXUMlUJNlV",
    "infected": 55,
    "sick": 20,
    "invisible": false
  },
  {
    "longitude": 11,
    "name": "Toscana",
    "country": "IT",
    "lastUpdated": "2020-05-01T12:01:08.528Z",
    "dead": 842,
    "id": "KrLrJbpDqqiXgUPGCCW9",
    "infected": 9352,
    "recovered": 2926,
    "latitude": 43.4167,
    "pop": 3737000,
    "sick": 5584,
    "invisible": false
  },
  {
    "latitude": 7.873054,
    "pop": 21440000,
    "longitude": 80.771797,
    "name": "Sri Lanka",
    "country": "LK",
    "lastUpdated": "2020-05-01T12:10:06.938Z",
    "dead": 7,
    "id": "KsWzJO06cf0d6LJ4ZNh9",
    "infected": 668,
    "recovered": 157,
    "sick": 504,
    "invisible": false
  },
  {
    "infected": 1463,
    "recovered": 403,
    "latitude": 15.9129,
    "pop": 49670000,
    "longitude": 79.74,
    "name": "Andhra Pradesh",
    "country": "IN",
    "lastUpdated": "2020-05-01T12:11:08.458Z",
    "dead": 33,
    "id": "KtQIo2DoqjELtPAlyDVO",
    "sick": 1027,
    "invisible": false
  },
  {
    "id": "KwOuGBKSMRlmwftxAvLX",
    "infected": 114431,
    "recovered": 13220,
    "latitude": 61.52401,
    "pop": 144500000,
    "longitude": 105.318756,
    "name": "Russia",
    "country": "RU",
    "lastUpdated": "2020-05-01T12:10:06.927Z",
    "dead": 1169,
    "sick": 100042,
    "invisible": false
  },
  {
    "infected": 38,
    "recovered": 27,
    "latitude": 18.0708,
    "pop": 32125,
    "longitude": -63.0501,
    "name": "Saint-Martin",
    "country": "FR",
    "lastUpdated": "2020-05-01T12:10:06.949Z",
    "dead": 3,
    "id": "LBUtrLDKJiupXjlUNTUe",
    "sick": 8,
    "invisible": false
  },
  {
    "latitude": 47.166,
    "pop": 38557,
    "longitude": 9.5554,
    "name": "Liechtenstein",
    "country": "LI",
    "lastUpdated": "2020-05-01T12:10:06.943Z",
    "dead": 1,
    "id": "LTGEU2E9MFkrCcFhZYVk",
    "infected": 82,
    "recovered": 55,
    "sick": 26,
    "invisible": false
  },
  {
    "infected": 1495,
    "recovered": 329,
    "latitude": 9.9456,
    "pop": 12720000,
    "longitude": -9.6966,
    "name": "Guinea",
    "country": "GN",
    "lastUpdated": "2020-05-01T12:10:06.935Z",
    "dead": 7,
    "id": "LU2QWt5ao8IJa8evNYVV",
    "sick": 1159,
    "invisible": false
  },
  {
    "latitude": 29.6667,
    "pop": 3062000,
    "longitude": -110.5,
    "name": "Sonora",
    "country": "MX",
    "lastUpdated": "2020-05-01T12:01:10.952Z",
    "dead": 34,
    "id": "LYCBHrA9ms6GcxpLGPCT",
    "infected": 305,
    "recovered": 0,
    "sick": 271,
    "invisible": false
  },
  {
    "recovered": 8,
    "latitude": 3.9193051,
    "pop": 563402,
    "longitude": -56.0277824,
    "name": "Suriname",
    "country": "SR",
    "lastUpdated": "2020-05-01T12:10:06.954Z",
    "dead": 1,
    "id": "LglKINHyQpYpFxjckbQ6",
    "infected": 10,
    "sick": 1,
    "invisible": false
  },
  {
    "infected": 389,
    "recovered": 0,
    "latitude": 52.9399,
    "pop": 1174000,
    "longitude": -106.4509,
    "name": "Saskatchewan",
    "country": "CA",
    "lastUpdated": "2020-05-01T12:06:11.694Z",
    "dead": 7,
    "id": "LkIDKY0CMAqzbwBHyYCP",
    "sick": 382,
    "invisible": false
  },
  {
    "infected": 6,
    "recovered": 5,
    "latitude": 24.2155,
    "pop": 636442,
    "longitude": -12.8858,
    "name": "Western Sahara",
    "country": "EH",
    "lastUpdated": "2020-05-01T12:10:06.955Z",
    "dead": 0,
    "id": "LooNn6RuMiDhQnwa9svw",
    "sick": 1,
    "invisible": false
  },
  {
    "id": "Lsga7AvYNnY0qQ5gEfV8",
    "infected": 2853,
    "recovered": 860,
    "latitude": 43.363129,
    "pop": 1022000,
    "longitude": -5.951843,
    "name": "Principado de Asturias",
    "country": "ES",
    "lastUpdated": "2020-05-01T12:09:03.716Z",
    "dead": 273,
    "sick": 1720,
    "invisible": false
  },
  {
    "infected": 3630,
    "recovered": 1960,
    "latitude": 39.4937,
    "pop": 1065000,
    "longitude": -6.0679,
    "name": "Extremadura",
    "country": "ES",
    "lastUpdated": "2020-05-01T12:09:03.717Z",
    "dead": 451,
    "id": "LuEErlF7dVKI0eJsRjFm",
    "sick": 1219,
    "invisible": false
  },
  {
    "longitude": -101.2591,
    "name": "Guanajuato",
    "country": "MX",
    "lastUpdated": "2020-05-01T12:01:10.952Z",
    "dead": 28,
    "id": "M3wdiueFtwrUHiQ2rOXA",
    "infected": 332,
    "recovered": 0,
    "latitude": 21.0186,
    "pop": 5965000,
    "sick": 304,
    "invisible": false
  },
  {
    "longitude": -84.27,
    "name": "Kentucky",
    "country": "US",
    "lastUpdated": "2020-05-01T12:09:05.682Z",
    "dead": 240,
    "id": "MC8MXFw9iXYybnF8v7e6",
    "infected": 4708,
    "recovered": 0,
    "latitude": 37.8393,
    "pop": 4468000,
    "sick": 4468,
    "invisible": false
  },
  {
    "latitude": 55.3781,
    "longitude": -3.436,
    "name": "Unknown UK region or state",
    "country": "GB",
    "lastUpdated": "2020-05-01T12:10:19.188Z",
    "dead": 24110,
    "id": "MEjlm8VYdGA28TTTnQmf",
    "invisible": true,
    "infected": 33273,
    "recovered": 0,
    "sick": 9163
  },
  {
    "infected": 15090,
    "recovered": 0,
    "latitude": 41.3006,
    "pop": 3689000,
    "longitude": -7.7441,
    "name": "Norte",
    "country": "PT",
    "lastUpdated": "2020-05-01T12:04:01.324Z",
    "dead": 566,
    "id": "MG4e9tulLJ010SZJvbYN",
    "sick": 14524,
    "invisible": false
  },
  {
    "lastUpdated": "2020-05-01T12:10:19.185Z",
    "dead": 1415,
    "id": "MObRYyIriHG337L8FyFC",
    "infected": 11353,
    "recovered": 0,
    "latitude": 56.4907,
    "pop": 5450000,
    "longitude": -4.2026,
    "name": "Scotland",
    "country": "GB",
    "sick": 9938,
    "invisible": false
  },
  {
    "infected": 17835,
    "recovered": 0,
    "latitude": 40.2672,
    "pop": 6692000,
    "longitude": -86.1349,
    "name": "Indiana",
    "country": "US",
    "lastUpdated": "2020-05-01T12:09:05.680Z",
    "dead": 1114,
    "id": "MOxDkmQ4wBi1CuAdVxDE",
    "sick": 16721,
    "invisible": false
  },
  {
    "infected": 1275,
    "recovered": 574,
    "latitude": 7.54,
    "pop": 24290000,
    "longitude": -5.5471,
    "name": "Ivory Coast",
    "country": "CI",
    "lastUpdated": "2020-05-01T12:10:06.937Z",
    "dead": 14,
    "id": "MdQOfc1gNh2DOqwSP6UV",
    "sick": 687,
    "invisible": false
  },
  {
    "latitude": 51.4332,
    "pop": 17910000,
    "longitude": 7.6616,
    "name": "Nordrhein-Westfalen",
    "country": "DE",
    "lastUpdated": "2020-05-01T12:00:08.188Z",
    "dead": 1281,
    "id": "MjpYq3zQyAvSQlVVYjD2",
    "infected": 33212,
    "recovered": 24327,
    "sick": 7604,
    "invisible": false
  },
  {
    "id": "MntmjjuHljarCdt6aIeE",
    "infected": 75,
    "recovered": 75,
    "latitude": 37.330509,
    "pop": 6301000,
    "longitude": 105.977203,
    "name": "Ningxia",
    "country": "CN",
    "lastUpdated": "2020-05-01T11:53:04.928Z",
    "dead": 0,
    "sick": 0,
    "invisible": false
  },
  {
    "infected": 2876,
    "recovered": 0,
    "latitude": -3.20166586,
    "pop": 8513497,
    "longitude": -52.203499186,
    "name": "Pará",
    "country": "BR",
    "lastUpdated": "2020-05-01T12:11:09.086Z",
    "dead": 208,
    "id": "MuEB2UgkId5crsxi9zQT",
    "sick": 2668,
    "invisible": false
  },
  {
    "latitude": 48.6616,
    "pop": 11020000,
    "longitude": 9.3501,
    "name": "Baden-Württemberg",
    "country": "DE",
    "lastUpdated": "2020-05-01T12:00:08.178Z",
    "dead": 1438,
    "id": "N3XsRBwJSsNclkEf7Zz5",
    "infected": 32988,
    "recovered": 22950,
    "sick": 8600,
    "invisible": false
  },
  {
    "infected": 1757,
    "recovered": 727,
    "latitude": 44.696652,
    "pop": 3507000,
    "longitude": 17.824332,
    "name": "Bosnia and Herzegovina",
    "country": "BA",
    "lastUpdated": "2020-05-01T12:10:06.935Z",
    "dead": 69,
    "id": "N7c13sCQF0G789XAVazJ",
    "sick": 961,
    "invisible": false
  },
  {
    "latitude": 37.242565,
    "pop": 36500000,
    "longitude": 111.856857,
    "name": "Shanxi",
    "country": "CN",
    "lastUpdated": "2020-05-01T11:53:04.925Z",
    "dead": 0,
    "id": "NBRIGIRrJB1Ry8prDNAC",
    "infected": 197,
    "recovered": 172,
    "sick": 25,
    "invisible": false
  },
  {
    "infected": 10755,
    "recovered": 0,
    "latitude": 35.7596,
    "pop": 10380000,
    "longitude": -79.0193,
    "name": "North Carolina",
    "country": "US",
    "lastUpdated": "2020-05-01T12:09:05.681Z",
    "dead": 406,
    "id": "NC64Qp5kTqAfiTuR27k8",
    "sick": 10349,
    "invisible": false
  },
  {
    "latitude": 52.4125,
    "pop": 2504000,
    "longitude": 12.5316,
    "name": "Brandenburg",
    "country": "DE",
    "lastUpdated": "2020-05-01T12:00:08.187Z",
    "dead": 149,
    "id": "NJjo2gfBvnbK4xatrsUz",
    "infected": 2912,
    "recovered": 2070,
    "sick": 693,
    "invisible": false
  },
  {
    "recovered": 0,
    "latitude": 15.0979,
    "pop": 55144,
    "longitude": -145.6739,
    "name": "Northern Mariana Islands",
    "country": "MP",
    "lastUpdated": "2020-05-01T12:09:05.685Z",
    "dead": 2,
    "id": "NLLL6pJhJSw0lrDMD4uP",
    "infected": 14,
    "sick": 12,
    "invisible": false
  },
  {
    "recovered": 36,
    "latitude": 30.0668,
    "pop": 10080000,
    "longitude": 79.0193,
    "name": "Uttarakhand",
    "country": "IN",
    "lastUpdated": "2020-05-01T12:11:08.459Z",
    "dead": 0,
    "id": "NMeZEcGToxXfpi16PfFV",
    "infected": 57,
    "sick": 21,
    "invisible": false
  },
  {
    "infected": 8380,
    "recovered": 4607,
    "latitude": 50.6521,
    "pop": 6243000,
    "longitude": 9.1624,
    "name": "Hessen",
    "country": "DE",
    "lastUpdated": "2020-05-01T12:00:08.188Z",
    "dead": 361,
    "id": "Nk5vPgUIXsWVfbWZf15O",
    "sick": 3412,
    "invisible": false
  },
  {
    "lastUpdated": "2020-05-01T12:10:06.938Z",
    "dead": 16,
    "id": "NmmMKy0YqA8StHdGzB5N",
    "infected": 870,
    "recovered": 348,
    "latitude": 56.96776,
    "pop": 1920000,
    "longitude": 25.837107,
    "name": "Latvia",
    "country": "LV",
    "sick": 506,
    "invisible": false
  },
  {
    "recovered": 0,
    "latitude": -8.472372,
    "pop": 9496294,
    "longitude": -37.946777,
    "name": "Pernambuco",
    "country": "BR",
    "lastUpdated": "2020-05-01T12:11:09.086Z",
    "dead": 565,
    "id": "NyGlFL1gATK1Omv9qtcC",
    "infected": 6876,
    "sick": 6311,
    "invisible": false
  },
  {
    "latitude": 6.4281,
    "pop": 4732000,
    "longitude": -9.4295,
    "name": "Liberia",
    "country": "LR",
    "lastUpdated": "2020-05-01T12:10:06.942Z",
    "dead": 16,
    "id": "O4g88K49HKEZLFXm5gxb",
    "infected": 141,
    "recovered": 45,
    "sick": 80,
    "invisible": false
  },
  {
    "id": "ONU4CK8QjViFHKg2w5if",
    "infected": 6095,
    "recovered": 0,
    "latitude": 34.003307,
    "pop": 5084000,
    "longitude": -80.525613,
    "name": "South Carolina",
    "country": "US",
    "lastUpdated": "2020-05-01T12:09:05.682Z",
    "dead": 244,
    "sick": 5851,
    "invisible": false
  },
  {
    "longitude": -89.582775,
    "name": "Mississippi",
    "country": "US",
    "lastUpdated": "2020-05-01T12:09:05.682Z",
    "dead": 261,
    "id": "OYa0jFzdbAgo8zUsRv6q",
    "infected": 6815,
    "recovered": 0,
    "latitude": 33.51822,
    "pop": 2987000,
    "sick": 6554,
    "invisible": false
  },
  {
    "lastUpdated": "2020-05-01T12:09:05.684Z",
    "dead": 53,
    "id": "OcXNp9kNVSwrRlG3bNVN",
    "infected": 1095,
    "recovered": 0,
    "latitude": 45.2538,
    "pop": 1338000,
    "longitude": -69.4455,
    "name": "Maine",
    "country": "US",
    "sick": 1042,
    "invisible": false
  },
  {
    "lastUpdated": "2020-05-01T12:06:11.694Z",
    "dead": 13,
    "id": "OnOseaqWdnuP18oruABW",
    "infected": 221,
    "recovered": 153,
    "latitude": -41.915264,
    "pop": 515000,
    "longitude": 146.725256,
    "name": "Tasmania",
    "country": "AU",
    "sick": 55,
    "invisible": false
  },
  {
    "recovered": 0,
    "latitude": -16.35,
    "pop": 3441998,
    "longitude": -56.666668,
    "name": "Mato Grosso",
    "country": "BR",
    "lastUpdated": "2020-05-01T12:11:09.086Z",
    "dead": 11,
    "id": "P0GHFGUt1pkKTk5PM8uz",
    "infected": 297,
    "sick": 286,
    "invisible": false
  },
  {
    "id": "P4mwRFLbrvT0t75uD8Wo",
    "infected": 73,
    "recovered": 10,
    "latitude": 19.3133,
    "pop": 61559,
    "longitude": -81.2546,
    "name": "Cayman Islands",
    "country": "KY",
    "lastUpdated": "2020-05-01T12:10:06.948Z",
    "dead": 1,
    "sick": 62,
    "invisible": false
  },
  {
    "infected": 11,
    "recovered": 2,
    "latitude": 16.7424984,
    "pop": 5900,
    "longitude": -62.1873665,
    "name": "Montserrat",
    "country": "MS",
    "lastUpdated": "2020-05-01T12:10:06.953Z",
    "dead": 1,
    "id": "PEDkeFMTOZpvHiSVxBk7",
    "sick": 8,
    "invisible": false
  },
  {
    "id": "PEcgZGEkyhABztt1Ufgc",
    "infected": 243,
    "recovered": 104,
    "latitude": -1.9403,
    "pop": 12210000,
    "longitude": 29.8739,
    "name": "Rwanda",
    "country": "RW",
    "lastUpdated": "2020-05-01T12:10:06.941Z",
    "dead": 0,
    "sick": 139,
    "invisible": false
  },
  {
    "longitude": -94.6859,
    "name": "Minnesota",
    "country": "US",
    "lastUpdated": "2020-05-01T12:09:05.682Z",
    "dead": 343,
    "id": "PJvVYosLIhbcRZYnKX1R",
    "infected": 5136,
    "recovered": 0,
    "latitude": 46.7296,
    "pop": 5611000,
    "sick": 4793,
    "invisible": false
  },
  {
    "latitude": 40.6331,
    "pop": 12740000,
    "longitude": -89.3985,
    "name": "Illinois",
    "country": "US",
    "lastUpdated": "2020-05-01T12:09:05.679Z",
    "dead": 2355,
    "id": "PTwQr9ijo0TBBsPH2sdJ",
    "infected": 52918,
    "recovered": 0,
    "sick": 50563,
    "invisible": false
  },
  {
    "lastUpdated": "2020-05-01T12:10:06.951Z",
    "dead": 0,
    "id": "PjLqCeFdyzdZNcZxMkK1",
    "infected": 17,
    "recovered": 15,
    "latitude": 13.909444,
    "pop": 178844,
    "longitude": -60.978893,
    "name": "Saint Lucia",
    "country": "LC",
    "sick": 2,
    "invisible": false
  },
  {
    "lastUpdated": "2020-05-01T12:09:03.718Z",
    "dead": 458,
    "id": "PmUlsNx2uFLU797wwU39",
    "infected": 6337,
    "recovered": 2185,
    "latitude": 42.6954,
    "pop": 649900,
    "longitude": -1.6761,
    "name": "Comunidad Foral de Navarra",
    "country": "ES",
    "sick": 3694,
    "invisible": false
  },
  {
    "latitude": 34.201507,
    "pop": 11530000,
    "longitude": 9.460554,
    "name": "Tunisia",
    "country": "TN",
    "lastUpdated": "2020-05-01T12:10:06.937Z",
    "dead": 41,
    "id": "Pr76V4raf108uSRoEXac",
    "infected": 994,
    "recovered": 305,
    "sick": 648,
    "invisible": false
  },
  {
    "lastUpdated": "2020-05-01T12:10:06.943Z",
    "dead": 1,
    "id": "PuQgOd9KWiMzGZXm11sR",
    "infected": 100,
    "recovered": 12,
    "latitude": -26.5225,
    "pop": 1367000,
    "longitude": 31.4659,
    "name": "Eswatini",
    "country": "SZ",
    "sick": 87,
    "invisible": false
  },
  {
    "longitude": 143.94853,
    "name": "Victoria",
    "country": "AU",
    "lastUpdated": "2020-05-01T12:06:11.693Z",
    "dead": 18,
    "id": "Q18mrGvFWTLX2BU9SqhQ",
    "infected": 1361,
    "recovered": 1293,
    "latitude": -37.009609,
    "pop": 6359000,
    "sick": 50,
    "invisible": false
  },
  {
    "recovered": 2100,
    "latitude": 54.2194,
    "pop": 2890000,
    "longitude": 9.6961,
    "name": "Schleswig-Holstein",
    "country": "DE",
    "lastUpdated": "2020-05-01T12:00:08.191Z",
    "dead": 121,
    "id": "Q39XkabIYxt15mHINzTa",
    "infected": 2713,
    "sick": 492,
    "invisible": false
  },
  {
    "recovered": 0,
    "latitude": -27.953491,
    "pop": 11329605,
    "longitude": -52.031696,
    "name": "Rio Grande do Sul",
    "country": "BR",
    "lastUpdated": "2020-05-01T12:11:09.086Z",
    "dead": 51,
    "id": "QGpQNhuoVTUPHXvS7qcu",
    "infected": 1466,
    "sick": 1415,
    "invisible": false
  },
  {
    "infected": 1694,
    "recovered": 253,
    "latitude": 58.595272,
    "pop": 1328000,
    "longitude": 25.013607,
    "name": "Estonia",
    "country": "EE",
    "lastUpdated": "2020-05-01T12:10:06.935Z",
    "dead": 52,
    "id": "QR9go2hQKXjty7JHUYe4",
    "sick": 1389,
    "invisible": false
  },
  {
    "longitude": -40.336,
    "name": "Espírito Santo",
    "country": "BR",
    "lastUpdated": "2020-05-01T12:11:09.085Z",
    "dead": 83,
    "id": "QaWDLKH8SuwD0Qxq6c38",
    "infected": 2465,
    "recovered": 0,
    "latitude": -20.318,
    "pop": 3972388,
    "sick": 2382,
    "invisible": false
  },
  {
    "infected": 441,
    "recovered": 0,
    "latitude": 20.3333,
    "pop": 8222700,
    "longitude": -103.6667,
    "name": "Jalisco",
    "country": "MX",
    "lastUpdated": "2020-05-01T12:01:10.954Z",
    "dead": 28,
    "id": "Qkho455pBwx88Gohs3hL",
    "sick": 413,
    "invisible": false
  },
  {
    "lastUpdated": "2020-05-01T12:10:06.954Z",
    "dead": 0,
    "id": "QlZrE4nosm5WfdA2aCDg",
    "infected": 8,
    "recovered": 0,
    "latitude": -6.315,
    "pop": 8251000,
    "longitude": 143.9555,
    "name": "Papua New Guinea",
    "country": "PG",
    "sick": 8,
    "invisible": false
  },
  {
    "infected": 66,
    "recovered": 0,
    "latitude": 18.3358,
    "pop": 107268,
    "longitude": -64.8963,
    "name": "U.S. Virgin Islands",
    "country": "US",
    "lastUpdated": "2020-05-01T12:09:05.685Z",
    "dead": 4,
    "id": "QqhD3YDMKXojvQY3Yu41",
    "sick": 62,
    "invisible": false
  },
  {
    "infected": 16,
    "recovered": 13,
    "latitude": 15.414999,
    "pop": 71937,
    "longitude": -61.3709755,
    "name": "Dominica",
    "country": "DM",
    "lastUpdated": "2020-05-01T12:10:06.952Z",
    "dead": 0,
    "id": "Qy2qW2ep5wltnYjPJBxh",
    "sick": 3,
    "invisible": false
  },
  {
    "infected": 18,
    "recovered": 6,
    "latitude": 5.167,
    "pop": 344027,
    "longitude": -72.167,
    "name": "Casanare",
    "country": "CO",
    "lastUpdated": "2020-05-01T11:48:09.382Z",
    "dead": 0,
    "id": "R3IHMWqIUhOJJTlrmbUZ",
    "sick": 12,
    "invisible": false
  },
  {
    "infected": 6532,
    "recovered": 576,
    "latitude": 8.538,
    "pop": 4099000,
    "longitude": -80.7821,
    "name": "Panama",
    "country": "PA",
    "lastUpdated": "2020-05-01T12:10:06.932Z",
    "dead": 188,
    "id": "R8YCgephnxTufvcPWMgx",
    "sick": 5768,
    "invisible": false
  },
  {
    "infected": 804,
    "recovered": 112,
    "latitude": 15.2,
    "pop": 9265000,
    "longitude": -86.2419,
    "name": "Honduras",
    "country": "HN",
    "lastUpdated": "2020-05-01T12:10:06.938Z",
    "dead": 75,
    "id": "RA2SE0p2bVhqo0P2hzGY",
    "sick": 617,
    "invisible": false
  },
  {
    "infected": 279,
    "recovered": 0,
    "latitude": -18.4745998,
    "pop": 224500,
    "longitude": -70.2979202,
    "name": "Arica y Parinacota",
    "country": "CL",
    "lastUpdated": "2020-05-01T12:11:12.428Z",
    "dead": 4,
    "id": "RBt9RiwP7WUbMnJfD0lo",
    "sick": 275,
    "invisible": false
  },
  {
    "recovered": 1566,
    "latitude": 45.633331,
    "pop": 1216000,
    "longitude": 13.8,
    "name": "Friuli Venezia Giulia",
    "country": "IT",
    "lastUpdated": "2020-05-01T12:01:08.527Z",
    "dead": 289,
    "id": "RCrDBCdBNYzgLNr0aB2H",
    "infected": 3025,
    "sick": 1170,
    "invisible": false
  },
  {
    "latitude": 41.878,
    "pop": 3156000,
    "longitude": -93.0977,
    "name": "Iowa",
    "country": "US",
    "lastUpdated": "2020-05-01T12:09:05.681Z",
    "dead": 162,
    "id": "RX0KDu1AFrlCsrRso0nb",
    "infected": 7145,
    "recovered": 0,
    "sick": 6983,
    "invisible": false
  },
  {
    "id": "RZ6PCe5TZsO15JjDObwO",
    "infected": 2633,
    "recovered": 528,
    "latitude": 4.624335,
    "pop": 7413000,
    "longitude": -74.063644,
    "name": "Bogotá D.C.",
    "country": "CO",
    "lastUpdated": "2020-05-01T11:48:09.366Z",
    "dead": 100,
    "sick": 2005,
    "invisible": false
  },
  {
    "id": "RaJxbzlnRFTuj4B8IbpC",
    "infected": 61,
    "recovered": 18,
    "latitude": 26.3351002,
    "pop": 6846000,
    "longitude": 17.2283306,
    "name": "Libya",
    "country": "LY",
    "lastUpdated": "2020-05-01T12:10:06.948Z",
    "dead": 3,
    "sick": 40,
    "invisible": false
  },
  {
    "latitude": 39.0119,
    "pop": 2912000,
    "longitude": -98.4842,
    "name": "Kansas",
    "country": "US",
    "lastUpdated": "2020-05-01T12:09:05.683Z",
    "dead": 134,
    "id": "Rf4uvBfP3GRDSHdZElRd",
    "infected": 4302,
    "recovered": 0,
    "sick": 4168,
    "invisible": false
  },
  {
    "latitude": 48.6998,
    "pop": 5518000,
    "longitude": 6.1878,
    "name": "Grand Est",
    "country": "FR",
    "lastUpdated": "2020-05-01T00:22:48.639Z",
    "dead": 2885,
    "id": "RmEgf1xeclWt7XCF9oiR",
    "infected": 21030,
    "recovered": 8047,
    "sick": 10098,
    "invisible": false
  },
  {
    "latitude": 50.4176,
    "pop": 3644000,
    "longitude": 4.451,
    "name": "Wallonia",
    "country": "BE",
    "lastUpdated": "2020-05-01T11:56:12.229Z",
    "dead": 2681,
    "id": "RryHraSohKQLAsdr1dHO",
    "infected": 16006,
    "recovered": 3325,
    "sick": 10000,
    "invisible": false
  },
  {
    "id": "Rx4TuyMpfGb3S8wYJX0x",
    "infected": 17395,
    "recovered": 0,
    "latitude": 51.2538,
    "pop": 14570000,
    "longitude": -85.3232,
    "name": "Ontario",
    "country": "CA",
    "lastUpdated": "2020-05-01T12:06:11.692Z",
    "dead": 1205,
    "sick": 16190,
    "invisible": false
  },
  {
    "infected": 20739,
    "recovered": 6686,
    "latitude": 41.652779,
    "pop": 2408000,
    "longitude": -4.723611,
    "name": "Castilla y León",
    "country": "ES",
    "lastUpdated": "2020-05-01T12:09:03.716Z",
    "dead": 1770,
    "id": "S8ewN4zaYp8mjtuqqOTw",
    "sick": 12283,
    "invisible": false
  },
  {
    "latitude": 14.652027,
    "pop": 376480,
    "longitude": -61.011715,
    "name": "Martinique",
    "country": "FR",
    "lastUpdated": "2020-05-01T12:10:06.941Z",
    "dead": 14,
    "id": "SDdefnq1bc3ZNr7SpEsW",
    "infected": 179,
    "recovered": 83,
    "sick": 82,
    "invisible": false
  },
  {
    "infected": 2074,
    "recovered": 212,
    "latitude": 7.9465,
    "pop": 28830000,
    "longitude": -1.0232,
    "name": "Ghana",
    "country": "GH",
    "lastUpdated": "2020-05-01T12:10:06.934Z",
    "dead": 17,
    "id": "SG9VWLOV3x2JsTkXmVSz",
    "sick": 1845,
    "invisible": false
  },
  {
    "recovered": 23400,
    "latitude": 46.818188,
    "pop": 8570000,
    "longitude": 8.227512,
    "name": "Switzerland",
    "country": "CH",
    "lastUpdated": "2020-05-01T12:10:06.928Z",
    "dead": 1737,
    "id": "SGe9sCPayMqh6RsGFaBA",
    "infected": 29705,
    "sick": 4568,
    "invisible": false
  },
  {
    "infected": 27550,
    "recovered": 0,
    "latitude": 46.8139,
    "pop": 8485000,
    "longitude": -71.208,
    "name": "Quebec",
    "country": "CA",
    "lastUpdated": "2020-05-01T12:06:11.682Z",
    "dead": 1859,
    "id": "SHoOE3NiJgWAlDVBzwYH",
    "sick": 25691,
    "invisible": false
  },
  {
    "longitude": 20.903,
    "name": "Kosovo",
    "country": "XK",
    "lastUpdated": "2020-05-01T12:10:07.799Z",
    "dead": 22,
    "id": "SMWvuMMuKp2QK7O2tNia",
    "infected": 806,
    "recovered": 271,
    "latitude": 42.6026,
    "pop": 1831000,
    "sick": 513,
    "invisible": false
  },
  {
    "lastUpdated": "2020-05-01T12:11:08.460Z",
    "dead": 0,
    "id": "SPcujsH2YlUaoAr8AiWF",
    "infected": 7,
    "recovered": 7,
    "latitude": 15.2993,
    "pop": 1817000,
    "longitude": 74.124,
    "name": "Goa",
    "country": "IN",
    "sick": 0,
    "invisible": false
  },
  {
    "infected": 781,
    "recovered": 0,
    "latitude": -16.328547,
    "pop": 6921161,
    "longitude": -48.953403,
    "name": "Goiás",
    "country": "BR",
    "lastUpdated": "2020-05-01T12:11:09.086Z",
    "dead": 29,
    "id": "SV5AMF59J61Vt4cXWLgy",
    "sick": 752,
    "invisible": false
  },
  {
    "latitude": 39,
    "pop": 1957000,
    "longitude": 16.5,
    "name": "Calabria",
    "country": "IT",
    "lastUpdated": "2020-05-01T12:01:08.526Z",
    "dead": 86,
    "id": "SZdF624x0v1LlyzZjKFu",
    "infected": 1108,
    "recovered": 282,
    "sick": 740,
    "invisible": false
  },
  {
    "longitude": -99.9018,
    "name": "Nebraska",
    "country": "US",
    "lastUpdated": "2020-05-01T12:09:05.683Z",
    "dead": 70,
    "id": "SakhKQzKu1LRI8laqdQq",
    "infected": 4281,
    "recovered": 0,
    "latitude": 41.4925,
    "pop": 1929000,
    "sick": 4211,
    "invisible": false
  },
  {
    "infected": 420,
    "recovered": 300,
    "latitude": -21.1151,
    "pop": 859959,
    "longitude": 55.5364,
    "name": "La Réunion",
    "country": "FR",
    "lastUpdated": "2020-05-01T12:10:06.940Z",
    "dead": 0,
    "id": "SgHzWAAYK1j2sipovxM6",
    "sick": 120,
    "invisible": false
  },
  {
    "infected": 122,
    "recovered": 119,
    "latitude": 12.565679,
    "pop": 16010000,
    "longitude": 104.990967,
    "name": "Cambodia",
    "country": "KH",
    "lastUpdated": "2020-05-01T12:10:06.942Z",
    "dead": 0,
    "id": "SioMALgUbo7peXmbco2f",
    "sick": 3,
    "invisible": false
  },
  {
    "latitude": 13.4443,
    "pop": 164229,
    "longitude": 144.7937,
    "name": "Guam",
    "country": "GU",
    "lastUpdated": "2020-05-01T12:09:05.685Z",
    "dead": 5,
    "id": "SsWhuEElU7dCTTuH5fdQ",
    "infected": 145,
    "recovered": 0,
    "sick": 140,
    "invisible": false
  },
  {
    "infected": 0,
    "recovered": 3491,
    "latitude": 51.9189,
    "longitude": 19.1344,
    "name": "Unknown Poland region",
    "country": "PL",
    "lastUpdated": "2020-05-01T12:10:06.930Z",
    "dead": 0,
    "id": "SuCr5emUaJ9RHTll1P1p",
    "invisible": true,
    "sick": 0
  },
  {
    "infected": 572,
    "recovered": 73,
    "latitude": -4.0383,
    "pop": 81340000,
    "longitude": 21.7587,
    "name": "DR Congo",
    "country": "CD",
    "lastUpdated": "2020-05-01T12:10:06.939Z",
    "dead": 31,
    "id": "T3iRf8mTUTAzbKrORTap",
    "sick": 468,
    "invisible": false
  },
  {
    "id": "T7NffoeCgTUpAbOHvYwP",
    "infected": 22753,
    "recovered": 3163,
    "latitude": 23.635796,
    "pop": 32940000,
    "longitude": 44.344334,
    "name": "Saudi Arabia",
    "country": "SA",
    "lastUpdated": "2020-05-01T12:10:06.929Z",
    "dead": 162,
    "sick": 19428,
    "invisible": false
  },
  {
    "latitude": 42.2871,
    "pop": 315700,
    "longitude": -2.5396,
    "name": "La Rioja",
    "country": "ES",
    "lastUpdated": "2020-05-01T12:09:03.718Z",
    "dead": 333,
    "id": "TNDTapyb0k3l7Mds9q9R",
    "infected": 5226,
    "recovered": 2220,
    "sick": 2673,
    "invisible": false
  },
  {
    "latitude": 20.400417,
    "pop": 2207200,
    "longitude": -89.134857,
    "name": "Yucatán",
    "country": "MX",
    "lastUpdated": "2020-05-01T12:01:10.952Z",
    "dead": 35,
    "id": "TQCWbhIpJQBQxBjhCGVJ",
    "infected": 456,
    "recovered": 0,
    "sick": 421,
    "invisible": false
  },
  {
    "infected": 138,
    "recovered": 124,
    "latitude": 4.506106,
    "pop": 428697,
    "longitude": 114.650692,
    "name": "Brunei",
    "country": "BN",
    "lastUpdated": "2020-05-01T12:10:06.942Z",
    "dead": 1,
    "id": "TQZmzsLhJqjtCSExAkCP",
    "sick": 13,
    "invisible": false
  },
  {
    "lastUpdated": "2020-05-01T00:24:23.525Z",
    "dead": 1331,
    "id": "TT0MKODSjrxHvG19xZCa",
    "infected": 12560,
    "recovered": 5042,
    "latitude": 45.4471,
    "pop": 8027000,
    "longitude": 4.3853,
    "name": "Auvergne-Rhône-Alpes",
    "country": "FR",
    "sick": 6187,
    "invisible": false
  },
  {
    "recovered": 0,
    "latitude": 38.5667,
    "pop": 758700,
    "longitude": -7.9,
    "name": "Alentejo",
    "country": "PT",
    "lastUpdated": "2020-05-01T12:04:01.420Z",
    "dead": 1,
    "id": "TeoNTu4aw5riC04sTd73",
    "infected": 218,
    "sick": 217,
    "invisible": false
  },
  {
    "lastUpdated": "2020-05-01T12:09:05.681Z",
    "dead": 777,
    "id": "Th4dlpXXmSDgi1OHs36P",
    "infected": 15284,
    "recovered": 0,
    "latitude": 39.318928,
    "pop": 5696000,
    "longitude": -105.461392,
    "name": "Colorado",
    "country": "US",
    "sick": 14507,
    "invisible": false
  },
  {
    "recovered": 506,
    "latitude": 12.2383,
    "pop": 19190000,
    "longitude": -1.5616,
    "name": "Burkina Faso",
    "country": "BF",
    "lastUpdated": "2020-05-01T12:10:06.938Z",
    "dead": 43,
    "id": "Tup6oDCHj6DgqZR3nQ3x",
    "infected": 645,
    "sick": 96,
    "invisible": false
  },
  {
    "id": "TvqURPN5xzVBXsmGP46N",
    "infected": 20,
    "recovered": 13,
    "latitude": 12.104818,
    "pop": 112381,
    "longitude": -61.670761,
    "name": "Grenada",
    "country": "GD",
    "lastUpdated": "2020-05-01T12:10:06.951Z",
    "dead": 0,
    "sick": 7,
    "invisible": false
  },
  {
    "lastUpdated": "2020-05-01T12:10:06.931Z",
    "dead": 452,
    "id": "Ty1AY3VLPJcRZgdBIERx",
    "infected": 9311,
    "recovered": 6546,
    "latitude": 55.675758,
    "pop": 5603000,
    "longitude": 12.56902,
    "name": "Denmark",
    "country": "DK",
    "sick": 2313,
    "invisible": false
  },
  {
    "infected": 10010,
    "recovered": 0,
    "latitude": 53.9062,
    "pop": 5486000,
    "longitude": -1.0334,
    "name": "Yorkshire and The Humber",
    "country": "GB",
    "lastUpdated": "2020-05-01T12:10:19.187Z",
    "dead": 0,
    "id": "U0N7cIPJXAc4T6uKV60c",
    "sick": 10010,
    "invisible": false
  },
  {
    "lastUpdated": "2020-05-01T11:53:04.926Z",
    "dead": 7,
    "id": "U0tkTJ9CGsBuFJ2Gdoum",
    "infected": 787,
    "recovered": 772,
    "latitude": 36.395859,
    "pop": 100472400,
    "longitude": 118.769882,
    "name": "Shandong",
    "country": "CN",
    "sick": 8,
    "invisible": false
  },
  {
    "infected": 580,
    "recovered": 82,
    "latitude": 43.94236,
    "pop": 33400,
    "longitude": 12.457777,
    "name": "San Marino",
    "country": "SM",
    "lastUpdated": "2020-05-01T12:10:06.939Z",
    "dead": 41,
    "id": "U12rMD5GDW58Q0lIwrB1",
    "sick": 457,
    "invisible": false
  },
  {
    "infected": 14088,
    "recovered": 2460,
    "latitude": 36.204823,
    "pop": 126800000,
    "longitude": 138.25293,
    "name": "Japan",
    "country": "JP",
    "lastUpdated": "2020-05-01T12:10:06.930Z",
    "dead": 430,
    "id": "U13Gy4BpRLAZ95bPmBXd",
    "sick": 11198,
    "invisible": false
  },
  {
    "lastUpdated": "2020-05-01T12:10:06.943Z",
    "dead": 0,
    "id": "UCZXEgnHtxUoChWLR6fQ",
    "infected": 83,
    "recovered": 52,
    "latitude": 1.3733,
    "pop": 42860000,
    "longitude": 32.2903,
    "name": "Uganda",
    "country": "UG",
    "sick": 31,
    "invisible": false
  },
  {
    "id": "UIbrFy6kiTTF0D37Kqmp",
    "infected": 27,
    "recovered": 7,
    "latitude": -11.2027,
    "pop": 29780000,
    "longitude": 17.8739,
    "name": "Angola",
    "country": "AO",
    "lastUpdated": "2020-05-01T12:10:06.949Z",
    "dead": 2,
    "sick": 18,
    "invisible": false
  },
  {
    "id": "URKMlJ7OTNldjpaxFbjE",
    "infected": 2021,
    "recovered": 823,
    "latitude": 48.202,
    "pop": 3329000,
    "longitude": -2.9326,
    "name": "Bretagne",
    "country": "FR",
    "lastUpdated": "2020-05-01T00:25:18.254Z",
    "dead": 212,
    "sick": 986,
    "invisible": false
  },
  {
    "latitude": 53.5511,
    "pop": 1822000,
    "longitude": 9.9937,
    "name": "Hamburg",
    "country": "DE",
    "lastUpdated": "2020-05-01T12:00:08.188Z",
    "dead": 155,
    "id": "UfFaUECHINUutv1M9tzq",
    "infected": 4801,
    "recovered": 3500,
    "sick": 1146,
    "invisible": false
  },
  {
    "infected": 86,
    "recovered": 0,
    "latitude": 22.774916,
    "pop": 1615000,
    "longitude": -102.586899,
    "name": "Zacatecas",
    "country": "MX",
    "lastUpdated": "2020-05-01T12:01:10.953Z",
    "dead": 8,
    "id": "UflxTAb4FnAwve7c5MbY",
    "sick": 78,
    "invisible": false
  },
  {
    "infected": 255,
    "recovered": 0,
    "latitude": -20.4427795,
    "pop": 2748023,
    "longitude": -54.646389,
    "name": "Mato Grosso do Sul",
    "country": "BR",
    "lastUpdated": "2020-05-01T12:11:09.086Z",
    "dead": 9,
    "id": "UlA1ubOUhPtf9jjKxxhF",
    "sick": 246,
    "invisible": false
  },
  {
    "lastUpdated": "2020-05-01T12:06:11.695Z",
    "dead": 0,
    "id": "UrF45V1VqMo6YBib2KlL",
    "infected": 27,
    "recovered": 25,
    "latitude": -19.4914,
    "pop": 211945,
    "longitude": 132.551,
    "name": "Northern Territory",
    "country": "AU",
    "sick": 2,
    "invisible": false
  },
  {
    "lastUpdated": "2020-05-01T12:10:06.948Z",
    "dead": 13,
    "id": "UsxgpiuFCtlR2CW1UUFm",
    "infected": 76,
    "recovered": 44,
    "latitude": 18.0424805,
    "pop": 41109,
    "longitude": -63.0548286,
    "name": "Sint Maarten",
    "country": "SX",
    "sick": 19,
    "invisible": false
  },
  {
    "recovered": 0,
    "latitude": 52.4751,
    "pop": 5908000,
    "longitude": -1.8298,
    "name": "West Midlands",
    "country": "GB",
    "lastUpdated": "2020-05-01T12:10:19.187Z",
    "dead": 0,
    "id": "UzOGOMitJmaFTdh2FbvI",
    "infected": 12868,
    "sick": 12868,
    "invisible": false
  },
  {
    "latitude": 11.943179,
    "pop": 241773,
    "longitude": 79.808206,
    "name": "Puducherry",
    "country": "IN",
    "lastUpdated": "2020-05-01T12:11:08.460Z",
    "dead": 0,
    "id": "V1qE740s3EUGyKGr6SVv",
    "infected": 8,
    "recovered": 5,
    "sick": 3,
    "invisible": false
  },
  {
    "longitude": -72.0597,
    "name": "Aysén",
    "country": "CL",
    "lastUpdated": "2020-05-01T12:11:12.440Z",
    "dead": 0,
    "id": "V9QxUhV4DyYK7iElEhXV",
    "infected": 7,
    "recovered": 0,
    "latitude": -45.5687,
    "pop": 25569,
    "sick": 7,
    "invisible": false
  },
  {
    "latitude": 21.5218,
    "pop": 11480000,
    "longitude": -77.7812,
    "name": "Cuba",
    "country": "CU",
    "lastUpdated": "2020-05-01T12:10:06.935Z",
    "dead": 61,
    "id": "VAG9AcMABTf8oIAfELPh",
    "infected": 1501,
    "recovered": 681,
    "sick": 759,
    "invisible": false
  },
  {
    "id": "VIf8T8PD3ZzlzAm5eBCX",
    "infected": 185,
    "recovered": 181,
    "latitude": 25.181129,
    "pop": 45970000,
    "longitude": 101.864143,
    "name": "Yunnan",
    "country": "CN",
    "lastUpdated": "2020-05-01T11:53:04.927Z",
    "dead": 2,
    "sick": 2,
    "invisible": false
  },
  {
    "latitude": -3.4653,
    "pop": 4080611,
    "longitude": -62.2159,
    "name": "Amazonas",
    "country": "BR",
    "lastUpdated": "2020-05-01T12:11:09.085Z",
    "dead": 425,
    "id": "VZQiSdZ7cUHgUZWgpNTP",
    "infected": 5254,
    "recovered": 0,
    "sick": 4829,
    "invisible": false
  },
  {
    "longitude": 80.9462,
    "name": "Uttar Pradesh",
    "country": "IN",
    "lastUpdated": "2020-05-01T12:11:08.458Z",
    "dead": 40,
    "id": "VcKcLdCkC6YpPfIDnRVD",
    "infected": 2211,
    "recovered": 551,
    "latitude": 26.8467,
    "pop": 204200000,
    "sick": 1620,
    "invisible": false
  },
  {
    "id": "Vd3lLgrNsr81plzTgZkz",
    "infected": 5,
    "recovered": 0,
    "latitude": 64.8255,
    "pop": 44826,
    "longitude": -124.8457,
    "name": "Northwest Territories",
    "country": "CA",
    "lastUpdated": "2020-05-01T12:06:11.695Z",
    "dead": 0,
    "sick": 5,
    "invisible": false
  },
  {
    "latitude": 39.999079,
    "pop": 1188000,
    "longitude": 3.838942,
    "name": "Islas Baleares",
    "country": "ES",
    "lastUpdated": "2020-05-01T12:09:03.716Z",
    "dead": 193,
    "id": "VyW0IR9vLMdgnKz1cC7j",
    "infected": 1970,
    "recovered": 1245,
    "sick": 532,
    "invisible": false
  },
  {
    "lastUpdated": "2020-05-01T00:26:30.809Z",
    "dead": 401,
    "id": "WAnbFrEjtZDTCIYBt8rz",
    "infected": 4525,
    "recovered": 2142,
    "latitude": 43.8927,
    "pop": 5893000,
    "longitude": 3.2828,
    "name": "Occitanie",
    "country": "FR",
    "sick": 1982,
    "invisible": false
  },
  {
    "infected": 367,
    "recovered": 150,
    "latitude": 40.5,
    "pop": 567118,
    "longitude": 16.5,
    "name": "Basilicata",
    "country": "IT",
    "lastUpdated": "2020-05-01T12:01:08.525Z",
    "dead": 25,
    "id": "WD502XimGXnWzqYg7zxL",
    "sick": 192,
    "invisible": false
  },
  {
    "recovered": 2,
    "latitude": 24.6637,
    "pop": 2722000,
    "longitude": 93.9063,
    "name": "Manipur",
    "country": "IN",
    "lastUpdated": "2020-05-01T12:11:08.460Z",
    "dead": 0,
    "id": "WKsJQmcpWKxnp0nCwN77",
    "infected": 2,
    "sick": 0,
    "invisible": false
  },
  {
    "id": "WRqKCfMIJFjrjXLMud70",
    "infected": 502,
    "recovered": 0,
    "latitude": -9.933,
    "pop": 1757589,
    "longitude": -63.067,
    "name": "Rondônia",
    "country": "BR",
    "lastUpdated": "2020-05-01T12:11:09.087Z",
    "dead": 16,
    "sick": 486,
    "invisible": false
  },
  {
    "infected": 5647,
    "recovered": 2073,
    "latitude": -30.5595,
    "pop": 56720000,
    "longitude": 22.9375,
    "name": "South Africa",
    "country": "ZA",
    "lastUpdated": "2020-05-01T12:10:06.932Z",
    "dead": 103,
    "id": "Whrue10NtwIObLvFFyBr",
    "sick": 3471,
    "invisible": false
  },
  {
    "id": "Wk811YwpQxsOCfz8As86",
    "infected": 12,
    "recovered": 8,
    "latitude": 13.443182,
    "pop": 2101000,
    "longitude": -15.3101387,
    "name": "Gambia",
    "country": "GM",
    "lastUpdated": "2020-05-01T12:10:06.953Z",
    "dead": 1,
    "sick": 3,
    "invisible": false
  },
  {
    "lastUpdated": "2020-05-01T12:01:10.954Z",
    "dead": 239,
    "id": "WpCXuQjYFLbozSpEhbrZ",
    "infected": 3130,
    "recovered": 0,
    "latitude": 19.352498,
    "pop": 17666800,
    "longitude": -99.625164,
    "name": "Estado de México",
    "country": "MX",
    "sick": 2891,
    "invisible": false
  },
  {
    "id": "WpLayPPLIJ7VcHZdQaoM",
    "infected": 8238,
    "recovered": 174,
    "latitude": 23.685,
    "pop": 164700000,
    "longitude": 90.3563,
    "name": "Bangladesh",
    "country": "BD",
    "lastUpdated": "2020-05-01T12:10:06.931Z",
    "dead": 170,
    "sick": 7894,
    "invisible": false
  },
  {
    "longitude": -99.8508,
    "name": "Querétaro",
    "country": "MX",
    "lastUpdated": "2020-05-01T12:01:10.951Z",
    "dead": 14,
    "id": "Wt97UDm6jfYef6WBrS2w",
    "infected": 145,
    "recovered": 0,
    "latitude": 20.836,
    "pop": 2100000,
    "sick": 131,
    "invisible": false
  },
  {
    "lastUpdated": "2020-05-01T12:01:08.528Z",
    "dead": 1459,
    "id": "X2iRhHF6f9pUnJcxPc3J",
    "infected": 17960,
    "recovered": 8354,
    "latitude": 45.5,
    "pop": 4905000,
    "longitude": 11.75,
    "name": "Veneto",
    "country": "IT",
    "sick": 8147,
    "invisible": false
  },
  {
    "id": "X3GMAVINj2GDzIRVfo7n",
    "infected": 24,
    "recovered": 16,
    "latitude": -8.556856,
    "pop": 1311000,
    "longitude": 125.56031,
    "name": "Timor-Leste",
    "country": "TL",
    "lastUpdated": "2020-05-01T12:10:06.951Z",
    "dead": 0,
    "sick": 8,
    "invisible": false
  },
  {
    "latitude": 34.152588,
    "pop": 274289,
    "longitude": 77.577049,
    "name": "Ladakh",
    "country": "IN",
    "lastUpdated": "2020-05-01T12:11:08.460Z",
    "dead": 0,
    "id": "X3PZqaJxtnlxcgP4tzya",
    "infected": 22,
    "recovered": 17,
    "sick": 5,
    "invisible": false
  },
  {
    "infected": 356,
    "recovered": 353,
    "latitude": 25.92448,
    "pop": 38560000,
    "longitude": 118.278992,
    "name": "Fujian",
    "country": "CN",
    "lastUpdated": "2020-05-01T11:53:04.926Z",
    "dead": 1,
    "id": "XBBw0iMPrmiEu3qogkbi",
    "sick": 2,
    "invisible": false
  },
  {
    "recovered": 0,
    "latitude": -52.368,
    "pop": 166533,
    "longitude": -70.9863,
    "name": "Magallanes",
    "country": "CL",
    "lastUpdated": "2020-05-01T12:11:12.440Z",
    "dead": 11,
    "id": "XIYUg6ShQvWyEAJfyJzC",
    "infected": 725,
    "sick": 714,
    "invisible": false
  },
  {
    "longitude": -25.506134,
    "name": "Açores",
    "country": "PT",
    "lastUpdated": "2020-05-01T12:04:01.421Z",
    "dead": 12,
    "id": "XhM7BCQK50gGQ2wIUtDq",
    "infected": 127,
    "recovered": 0,
    "latitude": 37.794597,
    "pop": 246746,
    "sick": 115,
    "invisible": false
  },
  {
    "lastUpdated": "2020-05-01T12:10:06.939Z",
    "dead": 17,
    "id": "XrsuLstdybIqIvv0E0aJ",
    "infected": 643,
    "recovered": 417,
    "latitude": -32.5228,
    "pop": 3457000,
    "longitude": -55.7658,
    "name": "Uruguay",
    "country": "UY",
    "sick": 209,
    "invisible": false
  },
  {
    "longitude": 9.0129,
    "name": "Corse",
    "country": "FR",
    "lastUpdated": "2020-05-01T00:27:33.732Z",
    "dead": 50,
    "id": "YGXgIObKVabP2CYEdcb9",
    "infected": 418,
    "recovered": 188,
    "latitude": 42.0396,
    "pop": 339178,
    "sick": 180,
    "invisible": false
  },
  {
    "lastUpdated": "2020-05-01T11:48:09.381Z",
    "dead": 7,
    "id": "YI9zIOUXJqAcgc0T80yb",
    "infected": 120,
    "recovered": 35,
    "latitude": 2.916112,
    "pop": 1126000,
    "longitude": -75.28344,
    "name": "Huila",
    "country": "CO",
    "sick": 78,
    "invisible": false
  },
  {
    "recovered": 76,
    "latitude": 31.9522,
    "pop": 5052000,
    "longitude": 35.2332,
    "name": "Palestine",
    "country": "PS",
    "lastUpdated": "2020-05-01T12:10:06.940Z",
    "dead": 2,
    "id": "YMzKw0SnXG71VT7H1jff",
    "infected": 344,
    "sick": 266,
    "invisible": false
  },
  {
    "id": "YP3nlz6AKyrnCWYb5mHA",
    "infected": 984,
    "recovered": 0,
    "latitude": 17.97,
    "pop": 2460900,
    "longitude": -92.5867,
    "name": "Tabasco",
    "country": "MX",
    "lastUpdated": "2020-05-01T12:01:10.950Z",
    "dead": 125,
    "sick": 859,
    "invisible": false
  },
  {
    "id": "YZoy8ReFucvC3IFnWZHn",
    "infected": 205,
    "recovered": 19,
    "latitude": 11.8037491,
    "pop": 1955000,
    "longitude": -15.1804132,
    "name": "Guinea-Bissau",
    "country": "GW",
    "lastUpdated": "2020-05-01T12:10:06.941Z",
    "dead": 1,
    "sick": 185,
    "invisible": false
  },
  {
    "longitude": -149.4937,
    "name": "Alaska",
    "country": "US",
    "lastUpdated": "2020-05-01T12:09:05.685Z",
    "dead": 9,
    "id": "YaCODTMD1KKRnrAlkg2u",
    "infected": 355,
    "recovered": 0,
    "latitude": 64.2008,
    "pop": 737438,
    "sick": 346,
    "invisible": false
  },
  {
    "infected": 15969,
    "recovered": 11380,
    "latitude": 42.9896,
    "pop": 2178000,
    "longitude": -2.6189,
    "name": "País Vasco",
    "country": "ES",
    "lastUpdated": "2020-05-01T12:09:03.718Z",
    "dead": 1312,
    "id": "YfA7o2lZP1DhV4JB6Umh",
    "sick": 3277,
    "invisible": false
  },
  {
    "recovered": 0,
    "latitude": 16.8922,
    "pop": 4091400,
    "longitude": -96.4085,
    "name": "Oaxaca",
    "country": "MX",
    "lastUpdated": "2020-05-01T12:01:10.942Z",
    "dead": 19,
    "id": "YidRsOGDERjtbaIBGCdu",
    "infected": 138,
    "sick": 119,
    "invisible": false
  },
  {
    "recovered": 9072,
    "latitude": 37.568291,
    "pop": 51470000,
    "longitude": 126.99778,
    "name": "South Korea",
    "country": "KR",
    "lastUpdated": "2020-05-01T12:10:06.931Z",
    "dead": 248,
    "id": "Yw9uBekNlefXBcOCNMfP",
    "infected": 10774,
    "sick": 1454,
    "invisible": false
  },