[
  {
    "latitude": 25.315058,
    "longitude": 51.145517,
    "name": "Qatar",
    "country": "QA",
    "dead": 0,
    "lastUpdated": "2020-03-13T05:14:08.032Z",
    "id": "0m4aECS0Z2DGFEr8ldgI",
    "hide": false,
    "infected": 262,
    "recovered": 0,
    "sick": 262
  },
  {
    "dead": 2,
    "lastUpdated": "2020-03-12T23:54:04.689Z",
    "id": "0x2HLhr5z5xAtEdO4iZm",
    "hide": false,
    "infected": 245,
    "recovered": 232,
    "latitude": 35.64249,
    "longitude": 108.472214,
    "name": "Shaanxi",
    "country": "CN",
    "sick": 11
  },
  {
    "hide": false,
    "infected": 9,
    "recovered": 1,
    "latitude": 41.643351,
    "longitude": 21.668393,
    "name": "North Macedonia",
    "country": "MK",
    "dead": 0,
    "lastUpdated": "2020-03-13T05:14:08.177Z",
    "id": "19MvIhipqTyYv1H37Upw",
    "sick": 8
  },
  {
    "recovered": 18,
    "latitude": 35.801933,
    "longitude": 96.779286,
    "name": "Qinghai",
    "country": "CN",
    "dead": 0,
    "lastUpdated": "2020-03-12T23:53:42.415Z",
    "id": "1Fap7rZu9SIRqf5TG9Dg",
    "hide": false,
    "infected": 18,
    "sick": 0
  },
  {
    "id": "1f0YoV0vAcexEhpESyZc",
    "hide": false,
    "infected": 77,
    "recovered": 0,
    "latitude": -14.235004,
    "longitude": -51.925282,
    "name": "Brazil",
    "country": "BR",
    "dead": 0,
    "lastUpdated": "2020-03-13T05:14:07.936Z",
    "sick": 77
  },
  {
    "id": "1qTPB8X3tyLyIdsb5TN3",
    "hide": false,
    "infected": 6,
    "recovered": 0,
    "latitude": 47.4116,
    "longitude": 28.3699,
    "name": "Moldova",
    "country": "MD",
    "dead": 0,
    "lastUpdated": "2020-03-13T05:14:07.962Z",
    "sick": 6
  },
  {
    "latitude": 30.15336,
    "longitude": 88.787865,
    "name": "Tibet",
    "country": "CN",
    "dead": 0,
    "lastUpdated": "2020-03-12T23:54:47.072Z",
    "id": "25qIBtsW2nfQj3pwBKg9",
    "hide": false,
    "infected": 1,
    "recovered": 1,
    "sick": 0
  },
  {
    "longitude": 115.66779,
    "name": "Indonesia",
    "country": "ID",
    "dead": 1,
    "lastUpdated": "2020-03-13T05:14:07.923Z",
    "id": "2KHYUb5t3lwzVVmDjwNX",
    "hide": false,
    "infected": 34,
    "recovered": 3,
    "latitude": -1.572184,
    "sick": 30
  },
  {
    "hide": false,
    "infected": 21,
    "recovered": 0,
    "latitude": 43.807191,
    "longitude": -120.585594,
    "name": "Oregon",
    "country": "US",
    "dead": 0,
    "lastUpdated": "2020-03-13T05:28:03.550Z",
    "id": "2OrsssmGUs4XCzaZzvTv",
    "sick": 21
  },
  {
    "id": "2jxHvSsxdnom0nPNvOT8",
    "hide": false,
    "infected": 93,
    "recovered": 91,
    "latitude": 43.851921,
    "longitude": 126.548103,
    "name": "Jilin",
    "country": "CN",
    "dead": 1,
    "lastUpdated": "2020-03-12T23:53:36.234Z",
    "sick": 1
  },
  {
    "longitude": -5.3536,
    "name": "Gibraltar",
    "country": "GI",
    "dead": 0,
    "lastUpdated": "2020-03-13T05:14:07.823Z",
    "id": "2p11BjSAs3wVyymgqBOe",
    "hide": false,
    "infected": 1,
    "recovered": 1,
    "latitude": 36.1408,
    "sick": 0
  },
  {
    "latitude": 47.7516,
    "longitude": 1.6751,
    "name": "Centre-Val de Loire",
    "country": "FR",
    "dead": 0,
    "lastUpdated": "2020-03-13T05:25:08.635Z",
    "id": "2sLNkkHpyaHx7dD3aMDO",
    "hide": false,
    "infected": 30,
    "recovered": 0,
    "sick": 30
  },
  {
    "hide": false,
    "infected": 5,
    "recovered": 0,
    "latitude": 40.4173,
    "longitude": -82.9071,
    "name": "Ohio",
    "country": "US",
    "dead": 0,
    "lastUpdated": "2020-03-13T05:28:03.556Z",
    "id": "3fC3bAyIRUquOQOEnQNe",
    "sick": 5
  },
  {
    "dead": 1,
    "lastUpdated": "2020-03-12T23:55:42.752Z",
    "id": "4hfZRUoUgI4a3vrG0GBk",
    "hide": false,
    "infected": 46,
    "recovered": 4,
    "latitude": 53.7267,
    "longitude": -127.6476,
    "name": "British Columbia",
    "country": "CA",
    "sick": 41
  },
  {
    "longitude": -7.920053,
    "name": "Portugal",
    "country": "PT",
    "dead": 0,
    "lastUpdated": "2020-03-13T05:14:07.927Z",
    "id": "4rQLxUCMmQLpbi6E9tbH",
    "hide": false,
    "infected": 78,
    "recovered": 1,
    "latitude": 41.065877,
    "sick": 77
  },
  {
    "recovered": 3,
    "latitude": 40.3426,
    "longitude": 47.93802,
    "name": "Azerbaijan",
    "country": "AZ",
    "dead": 1,
    "lastUpdated": "2020-03-13T05:14:08.009Z",
    "id": "4zqzRm2xHn0CDVOUQJ8p",
    "hide": false,
    "infected": 15,
    "sick": 11
  },
  {
    "latitude": -31.253218,
    "longitude": 146.921097,
    "name": "New South Wales",
    "country": "AU",
    "dead": 3,
    "lastUpdated": "2020-03-12T23:56:13.267Z",
    "id": "5N16a2OXXRpsEFanw0TC",
    "hide": false,
    "infected": 65,
    "recovered": 4,
    "sick": 58
  },
  {
    "recovered": 1,
    "latitude": 28.394857,
    "longitude": 84.124008,
    "name": "Nepal",
    "country": "NP",
    "dead": 0,
    "lastUpdated": "2020-03-13T05:14:07.836Z",
    "id": "5gXZIjRgAvd6xWN1LOv8",
    "hide": false,
    "infected": 1,
    "sick": 0
  },
  {
    "dead": 5,
    "lastUpdated": "2020-03-13T05:14:08.034Z",
    "id": "5pwmh7aSdGRKqRbnuyc0",
    "hide": false,
    "infected": 52,
    "recovered": 2,
    "latitude": 12.879721,
    "longitude": 121.774017,
    "name": "Philippines",
    "country": "PH",
    "sick": 45
  },
  {
    "recovered": 0,
    "latitude": 55.621011,
    "longitude": 23.804991,
    "name": "Lithuania",
    "country": "LT",
    "dead": 0,
    "lastUpdated": "2020-03-13T05:14:07.917Z",
    "id": "694ON7d0mRJDeM1gHBTR",
    "hide": false,
    "infected": 3,
    "sick": 3
  },
  {
    "latitude": 22.396427,
    "longitude": 114.109497,
    "name": "Hong Kong",
    "country": "HK",
    "dead": 3,
    "lastUpdated": "2020-03-13T05:14:07.996Z",
    "id": "6IcHIIH0zXpY0POmBZTv",
    "hide": false,
    "infected": 131,
    "recovered": 77,
    "sick": 51
  },
  {
    "hide": false,
    "infected": 96,
    "recovered": 0,
    "latitude": 46.0569,
    "longitude": 14.5058,
    "name": "Slovenia",
    "country": "SI",
    "dead": 0,
    "lastUpdated": "2020-03-13T05:14:07.940Z",
    "id": "6ahNiyKDSDAftCctgLH3",
    "sick": 96
  },
  {
    "latitude": 17.901672,
    "longitude": -62.818544,
    "name": "Saint-Barthélemy",
    "country": "FR",
    "dead": 0,
    "lastUpdated": "2020-03-13T05:25:08.662Z",
    "id": "78Ox26bNHDA2Pk2b3Uwn",
    "hide": false,
    "infected": 1,
    "recovered": 0,
    "sick": 1
  },
  {
    "longitude": 19.0402,
    "name": "Hungary",
    "country": "HU",
    "dead": 0,
    "lastUpdated": "2020-03-13T05:14:08.028Z",
    "id": "7rYC2iFB50c55Ihgbs4Q",
    "hide": false,
    "infected": 16,
    "recovered": 0,
    "latitude": 47.4979,
    "sick": 16
  },
  {
    "id": "8C0d7WVCjyUGtnc2gUAR",
    "hide": false,
    "infected": 2,
    "recovered": 0,
    "latitude": 7.3697,
    "longitude": 12.3547,
    "name": "Cameroon",
    "country": "CM",
    "dead": 0,
    "lastUpdated": "2020-03-13T05:14:07.809Z",
    "sick": 2
  },
  {
    "recovered": 0,
    "latitude": -16.2902,
    "longitude": -63.5887,
    "name": "Bolivia",
    "country": "BO",
    "dead": 0,
    "lastUpdated": "2020-03-13T05:14:08.000Z",
    "id": "8RihJrXw4NQXPxaRxr1u",
    "hide": false,
    "infected": 3,
    "sick": 3
  },
  {
    "id": "8pA3fM4xC2c2wv1b4TnE",
    "hide": false,
    "infected": 187,
    "recovered": 96,
    "latitude": 1.352083,
    "longitude": 103.819839,
    "name": "Singapore",
    "country": "SG",
    "dead": 0,
    "lastUpdated": "2020-03-13T05:14:07.922Z",
    "sick": 91
  },
  {
    "longitude": -1.5536,
    "name": "Pays de la Loire",
    "country": "FR",
    "dead": 0,
    "lastUpdated": "2020-03-13T05:25:08.647Z",
    "id": "98hwAoohgWEOQVa3NlM5",
    "hide": false,
    "infected": 42,
    "recovered": 4,
    "latitude": 47.2184,
    "sick": 38
  },
  {
    "latitude": 45.943161,
    "longitude": 24.966761,
    "name": "Romania",
    "country": "RO",
    "dead": 0,
    "lastUpdated": "2020-03-13T05:14:07.906Z",
    "id": "9QcETqEcM2fTv9zRvx5T",
    "hide": false,
    "infected": 59,
    "recovered": 7,
    "sick": 52
  },
  {
    "recovered": 1,
    "latitude": 61.92411,
    "longitude": 25.748152,
    "name": "Finland",
    "country": "FI",
    "dead": 0,
    "lastUpdated": "2020-03-13T05:14:07.914Z",
    "id": "9p6OCdZbUUwBLA60Gk3W",
    "hide": false,
    "infected": 109,
    "sick": 108
  },
  {
    "hide": false,
    "infected": 6,
    "recovered": 0,
    "latitude": 43.311643,
    "longitude": -71.590315,
    "name": "New Hampshire",
    "country": "US",
    "dead": 0,
    "lastUpdated": "2020-03-12T23:35:46.526Z",
    "id": "A84CwQ52kA46Hr7pn6Bm",
    "sick": 6
  },
  {
    "latitude": 41.823261,
    "longitude": -71.412257,
    "name": "Rhode Island",
    "country": "US",
    "dead": 0,
    "lastUpdated": "2020-03-13T05:28:03.585Z",
    "id": "AEUWUHS65qvjEslew11c",
    "hide": false,
    "infected": 5,
    "recovered": 0,
    "sick": 5
  },
  {
    "recovered": 0,
    "latitude": 47.012918,
    "longitude": -109.128641,
    "name": "Montana",
    "country": "US",
    "dead": 0,
    "lastUpdated": "2020-03-13T05:28:03.618Z",
    "id": "AcULcZBozObOhwuRKMjJ",
    "hide": false,
    "infected": 1,
    "sick": 1
  },
  {
    "hide": false,
    "infected": 935,
    "recovered": 934,
    "latitude": 27.285971,
    "longitude": 116.01609,
    "name": "Jiangxi",
    "country": "CN",
    "dead": 1,
    "lastUpdated": "2020-03-12T23:50:58.490Z",
    "id": "AmBYm5J6E9Cuez1FQjiN",
    "sick": 0
  },
  {
    "recovered": 10,
    "latitude": 28.033886,
    "longitude": 1.659626,
    "name": "Algeria",
    "country": "DZ",
    "dead": 2,
    "lastUpdated": "2020-03-13T05:14:08.004Z",
    "id": "AwN0CScPDApcLFgz6e3z",
    "hide": false,
    "infected": 26,
    "sick": 14
  },
  {
    "hide": false,
    "infected": 27,
    "recovered": 1,
    "latitude": 45.099998,
    "longitude": 15.2,
    "name": "Croatia",
    "country": "HR",
    "dead": 0,
    "lastUpdated": "2020-03-13T05:14:07.901Z",
    "id": "B82Ef45M8cDu4q7VsSHF",
    "sick": 26
  },
  {
    "hide": false,
    "infected": 12,
    "recovered": 3,
    "latitude": 39.509109,
    "longitude": -76.98432,
    "name": "Maryland",
    "country": "US",
    "dead": 0,
    "lastUpdated": "2020-03-13T05:28:03.541Z",
    "id": "BF51mWl51fgEcyBpCSzb",
    "sick": 9
  },
  {
    "latitude": 53.709808,
    "longitude": 27.953388,
    "name": "Belarus",
    "country": "BY",
    "dead": 0,
    "lastUpdated": "2020-03-13T05:14:07.932Z",
    "id": "BGg6yVU5VP71B8NXU0oh",
    "hide": false,
    "infected": 21,
    "recovered": 3,
    "sick": 18
  },
  {
    "hide": false,
    "infected": 68,
    "recovered": 0,
    "latitude": 48.8799,
    "longitude": 0.1713,
    "name": "Normandie",
    "country": "FR",
    "dead": 1,
    "lastUpdated": "2020-03-13T05:25:08.638Z",
    "id": "BGtoyzb7y54LVlJ91rbf",
    "sick": 67
  },
  {
    "dead": 0,
    "lastUpdated": "2020-03-12T23:33:16.797Z",
    "id": "BTEESCuD2ZbS1afunR2A",
    "hide": false,
    "infected": 9,
    "recovered": 2,
    "latitude": 34.048927,
    "longitude": -111.093735,
    "name": "Arizona",
    "country": "US",
    "sick": 7
  },
  {
    "hide": false,
    "infected": 325,
    "recovered": 0,
    "latitude": 40.719042,
    "longitude": -73.982597,
    "name": "New York",
    "country": "US",
    "dead": 0,
    "lastUpdated": "2020-03-13T05:28:03.586Z",
    "id": "C3BCUzV80z9GfiuByIcr",
    "sick": 325
  },
  {
    "hide": false,
    "infected": 116,
    "recovered": 0,
    "latitude": 49.731626,
    "longitude": 15.359413,
    "name": "Czechia",
    "country": "CZ",
    "dead": 0,
    "lastUpdated": "2020-03-13T05:14:07.920Z",
    "id": "C6S76AggdWVU8G22jFHQ",
    "sick": 116
  },
  {
    "latitude": 26.0667,
    "longitude": 50.557701,
    "name": "Bahrain",
    "country": "BH",
    "dead": 0,
    "lastUpdated": "2020-03-13T05:14:07.991Z",
    "id": "C7cj4nwRITs13KnaJrQ2",
    "hide": false,
    "infected": 197,
    "recovered": 35,
    "sick": 162
  },
  {
    "hide": false,
    "infected": 3,
    "recovered": 0,
    "latitude": 27.0238,
    "longitude": 74.2179,
    "name": "Rajasthan",
    "country": "IN",
    "dead": 0,
    "lastUpdated": "2020-03-13T05:27:02.462Z",
    "id": "CKZCZTPlrcq5fbfUPA9k",
    "sick": 3
  },
  {
    "dead": 10,
    "lastUpdated": "2020-03-13T05:14:07.902Z",
    "id": "CrXu6i5Sqx11iwdfHfBs",
    "hide": false,
    "infected": 590,
    "recovered": 18,
    "latitude": 52.355518,
    "longitude": -1.17432,
    "name": "United Kingdom",
    "country": "GB",
    "sick": 562
  },
  {
    "id": "DCJCtZoBTWQ4mzdDNljD",
    "hide": false,
    "infected": 6,
    "recovered": 0,
    "latitude": 40.259003,
    "longitude": 44.818474,
    "name": "Armenia",
    "country": "AM",
    "dead": 0,
    "lastUpdated": "2020-03-13T05:14:08.002Z",
    "sick": 6
  },
  {
    "dead": 0,
    "lastUpdated": "2020-03-13T05:14:07.945Z",
    "id": "DdBt8qsG6A3g92oOR3ow",
    "hide": false,
    "infected": 10,
    "recovered": 10,
    "latitude": 22.192039,
    "longitude": 113.551262,
    "name": "Macao",
    "country": "MO",
    "sick": 0
  },
  {
    "hide": false,
    "infected": 1,
    "recovered": 0,
    "latitude": 42.962334,
    "longitude": -107.534868,
    "name": "Wyoming",
    "country": "US",
    "dead": 0,
    "lastUpdated": "2020-03-13T05:28:03.560Z",
    "id": "DrGzziUglmBognCGY7R2",
    "sick": 1
  },
  {
    "hide": false,
    "infected": 117,
    "recovered": 0,
    "latitude": 40.6401,
    "longitude": 22.9444,
    "name": "Greece",
    "country": "GR",
    "dead": 1,
    "lastUpdated": "2020-03-13T05:14:08.138Z",
    "id": "Dtr1lap1RpJpXJdXGJiW",
    "sick": 116
  },
  {
    "hide": false,
    "infected": 49,
    "recovered": 20,
    "latitude": 25.03841,
    "longitude": 121.563698,
    "name": "Taiwan",
    "country": "TW",
    "dead": 1,
    "lastUpdated": "2020-03-13T05:14:07.969Z",
    "id": "EKTfs8e7M6DXzI1HqyyX",
    "sick": 28
  },
  {
    "recovered": 0,
    "latitude": 10.327273,
    "longitude": -84.387618,
    "name": "Costa Rica",
    "country": "CR",
    "dead": 0,
    "lastUpdated": "2020-03-13T05:14:07.954Z",
    "id": "EQzJvzVHKjs8kLmK7BMu",
    "hide": false,
    "infected": 23,
    "sick": 23
  },
  {
    "latitude": 33.93911,
    "longitude": 67.709953,
    "name": "Afghanistan",
    "country": "AF",
    "dead": 0,
    "lastUpdated": "2020-03-13T05:14:07.965Z",
    "id": "FCDmlmnIIswd8bQiUjfN",
    "hide": false,
    "infected": 7,
    "recovered": 0,
    "sick": 7
  },
  {
    "dead": 6,
    "lastUpdated": "2020-03-12T23:50:17.659Z",
    "id": "FErOU1m4Tj7jIkRam3vF",
    "hide": false,
    "infected": 576,
    "recovered": 564,
    "latitude": 29.431585,
    "longitude": 106.912254,
    "name": "Chongqing",
    "country": "CN",
    "sick": 6
  },
  {
    "id": "FZsUkhxBEgqsPb4eO0PN",
    "hide": false,
    "infected": 80,
    "recovered": 5,
    "latitude": 29.311661,
    "longitude": 47.481766,
    "name": "Kuwait",
    "country": "KW",
    "dead": 0,
    "lastUpdated": "2020-03-13T05:14:07.911Z",
    "sick": 75
  },
  {
    "dead": 0,
    "lastUpdated": "2020-03-13T05:27:02.442Z",
    "id": "FeS45oMNC27pI17F0xEV",
    "hide": false,
    "infected": 1,
    "recovered": 1,
    "latitude": 11.1271,
    "longitude": 78.6569,
    "name": "Tamil Nadu",
    "country": "IN",
    "sick": 0
  },
  {
    "hide": false,
    "infected": 5,
    "recovered": 0,
    "latitude": 18.947829,
    "longitude": -70.430399,
    "name": "Dominican Republic",
    "country": "DO",
    "dead": 0,
    "lastUpdated": "2020-03-13T05:14:07.942Z",
    "id": "FuiVEJvWb0QMCpxJ3563",
    "sick": 5
  },
  {
    "longitude": 79.0193,
    "name": "Telangana",
    "country": "IN",
    "dead": 0,
    "lastUpdated": "2020-03-13T05:27:02.502Z",
    "id": "FyC551oNwmENxbr9Yght",
    "hide": false,
    "infected": 1,
    "recovered": 0,
    "latitude": 18.1124,
    "sick": 1
  },
  {
    "longitude": 19.699,
    "name": "Slovakia",
    "country": "SK",
    "dead": 0,
    "lastUpdated": "2020-03-13T05:14:07.998Z",
    "id": "FzIDXoqWnTI3nUfhPyT2",
    "hide": false,
    "infected": 21,
    "recovered": 0,
    "latitude": 48.669,
    "sick": 21
  },
  {
    "hide": false,
    "infected": 21,
    "recovered": 2,
    "latitude": 30.37532,
    "longitude": 69.345116,
    "name": "Pakistan",
    "country": "PK",
    "dead": 0,
    "lastUpdated": "2020-03-13T05:14:08.170Z",
    "id": "GAp7Wb6IMhdgbvEtMza9",
    "sick": 19
  },
  {
    "hide": false,
    "infected": 1,
    "recovered": 0,
    "latitude": 31.1471,
    "longitude": 75.3412,
    "name": "Punjab",
    "country": "IN",
    "dead": 0,
    "lastUpdated": "2020-03-13T05:27:02.446Z",
    "id": "GGru8cG08mANO8XDDUtZ",
    "sick": 1
  },
  {
    "latitude": 23.424076,
    "longitude": 53.847816,
    "name": "United Arab Emirates",
    "country": "AE",
    "dead": 0,
    "lastUpdated": "2020-03-13T05:14:07.938Z",
    "id": "GHzBIsHy2GiBc5JV2HMs",
    "hide": false,
    "infected": 85,
    "recovered": 20,
    "sick": 65
  },
  {
    "longitude": -119.339046,
    "name": "California",
    "country": "US",
    "dead": 4,
    "lastUpdated": "2020-03-13T05:28:03.577Z",
    "id": "Gh46r6vuaY7fbGt3IboN",
    "hide": false,
    "infected": 198,
    "recovered": 6,
    "latitude": 36.621981,
    "sick": 188
  },
  {
    "hide": false,
    "infected": 3,
    "recovered": 0,
    "latitude": 35.87189,
    "longitude": -97.145514,
    "name": "Oklahoma",
    "country": "US",
    "dead": 0,
    "lastUpdated": "2020-03-13T05:28:03.516Z",
    "id": "GpF8ULuKOQiFDCUHN44h",
    "sick": 3
  },
  {
    "id": "H3JeVigVbo5CSYfZG4WI",
    "hide": false,
    "infected": 75,
    "recovered": 71,
    "latitude": 42.83263,
    "longitude": 113.750972,
    "name": "Inner Mongolia",
    "country": "CN",
    "dead": 1,
    "lastUpdated": "2020-03-12T23:54:21.232Z",
    "sick": 3
  },
  {
    "latitude": 39.74536,
    "longitude": -116.724977,
    "name": "Nevada",
    "country": "US",
    "dead": 0,
    "lastUpdated": "2020-03-13T05:28:03.567Z",
    "id": "H3bDg4eV30up4WWrIDAS",
    "hide": false,
    "infected": 7,
    "recovered": 0,
    "sick": 7
  },
  {
    "longitude": 75.7139,
    "name": "Karnataka",
    "country": "IN",
    "dead": 1,
    "lastUpdated": "2020-03-13T05:27:02.505Z",
    "id": "HN5mGmxlqlSeFSNeu1K5",
    "hide": false,
    "infected": 6,
    "recovered": 0,
    "latitude": 15.3173,
    "sick": 5
  },
  {
    "recovered": 0,
    "latitude": 27.5142,
    "longitude": 90.4336,
    "name": "Bhutan",
    "country": "BT",
    "dead": 0,
    "lastUpdated": "2020-03-13T05:14:07.850Z",
    "id": "HRDpwyxpqW9RN0xLFyNu",
    "hide": false,
    "infected": 1,
    "sick": 1
  },
  {
    "recovered": 0,
    "latitude": 34.138916,
    "longitude": -105.576255,
    "name": "New Mexico",
    "country": "US",
    "dead": 0,
    "lastUpdated": "2020-03-13T05:28:03.511Z",
    "id": "HSSFomRju0doHhWgW8On",
    "hide": false,
    "infected": 4,
    "sick": 4
  },
  {
    "dead": 0,
    "lastUpdated": "2020-03-13T05:14:07.971Z",
    "id": "I4OJ6z9Vjs1byOcbsJrd",
    "hide": false,
    "infected": 12,
    "recovered": 4,
    "latitude": 23.634501,
    "longitude": -102.552788,
    "name": "Mexico",
    "country": "MX",
    "sick": 8
  },
  {
    "latitude": 23.363855,
    "longitude": 113.373448,
    "name": "Guangdong",
    "country": "CN",
    "dead": 8,
    "lastUpdated": "2020-03-12T23:51:06.868Z",
    "id": "IAX0OQLVnUwU7FX0ENF1",
    "hide": false,
    "infected": 1356,
    "recovered": 1289,
    "sick": 59
  },
  {
    "longitude": 113.484016,
    "name": "Henan",
    "country": "CN",
    "dead": 22,
    "lastUpdated": "2020-03-12T23:50:25.638Z",
    "id": "IFuMrMvSjoiX5agYvllh",
    "hide": false,
    "infected": 1273,
    "recovered": 1249,
    "latitude": 33.875408,
    "sick": 2
  },
  {
    "latitude": 32.528564,
    "longitude": -83.280125,
    "name": "Georgia (US)",
    "country": "US",
    "dead": 1,
    "lastUpdated": "2020-03-13T05:28:03.481Z",
    "id": "IvQkDJkTAsoIqPRAU25n",
    "hide": false,
    "infected": 31,
    "recovered": 0,
    "sick": 30
  },
  {
    "hide": false,
    "infected": 5,
    "recovered": 0,
    "latitude": -42.8285,
    "longitude": 172.488081,
    "name": "New Zealand",
    "country": "NZ",
    "dead": 0,
    "lastUpdated": "2020-03-13T05:14:07.941Z",
    "id": "IvVhpOoGpH6JVkGyUhXN",
    "sick": 5
  },
  {
    "id": "JQByE4l2OA6sGOqIcWrM",
    "hide": false,
    "infected": 10,
    "recovered": 0,
    "latitude": 35.1264,
    "longitude": 33.4299,
    "name": "Cyprus",
    "country": "CY",
    "dead": 0,
    "lastUpdated": "2020-03-13T05:14:07.930Z",
    "sick": 10
  },
  {
    "recovered": 0,
    "latitude": 49.8153,
    "longitude": 6.1296,
    "name": "Luxembourg",
    "country": "LU",
    "dead": 0,
    "lastUpdated": "2020-03-13T05:14:07.946Z",
    "id": "JcFsHSn2WvZ5LJW42ovG",
    "hide": false,
    "infected": 26,
    "sick": 26
  },
  {
    "longitude": 0.8248,
    "name": "Togo",
    "country": "TG",
    "dead": 0,
    "lastUpdated": "2020-03-13T05:14:07.831Z",
    "id": "JrBbirlBKGdWSdcDt7PF",
    "hide": false,
    "infected": 1,
    "recovered": 0,
    "latitude": 8.6195,
    "sick": 1
  },
  {
    "hide": false,
    "infected": 23,
    "recovered": 0,
    "latitude": 42.7339,
    "longitude": 25.4858,
    "name": "Bulgaria",
    "country": "BG",
    "dead": 1,
    "lastUpdated": "2020-03-13T05:14:08.052Z",
    "id": "JzZ8sbqzjutThVjkPKPL",
    "sick": 22
  },
  {
    "id": "KsWzJO06cf0d6LJ4ZNh9",
    "hide": false,
    "infected": 3,
    "recovered": 1,
    "latitude": 7.873054,
    "longitude": 80.771797,
    "name": "Sri Lanka",
    "country": "LK",
    "dead": 0,
    "lastUpdated": "2020-03-13T05:14:08.165Z",
    "sick": 2
  },
  {
    "latitude": 61.52401,
    "longitude": 105.318756,
    "name": "Russia",
    "country": "RU",
    "dead": 0,
    "lastUpdated": "2020-03-13T05:14:07.993Z",
    "id": "KwOuGBKSMRlmwftxAvLX",
    "hide": false,
    "infected": 34,
    "recovered": 3,
    "sick": 31
  },
  {
    "longitude": -63.0501,
    "name": "Saint-Martin",
    "country": "FR",
    "dead": 0,
    "lastUpdated": "2020-03-13T05:25:08.555Z",
    "id": "LBUtrLDKJiupXjlUNTUe",
    "hide": false,
    "infected": 2,
    "recovered": 0,
    "latitude": 18.0708,
    "sick": 2
  },
  {
    "dead": 0,
    "lastUpdated": "2020-03-13T05:14:07.975Z",
    "id": "LTGEU2E9MFkrCcFhZYVk",
    "hide": false,
    "infected": 4,
    "recovered": 0,
    "latitude": 47.166,
    "longitude": 9.5554,
    "name": "Liechtenstein",
    "country": "LI",
    "sick": 4
  },
  {
    "longitude": -84.27,
    "name": "Kentucky",
    "country": "US",
    "dead": 0,
    "lastUpdated": "2020-03-13T05:28:03.558Z",
    "id": "MC8MXFw9iXYybnF8v7e6",
    "hide": false,
    "infected": 8,
    "recovered": 0,
    "latitude": 37.8393,
    "sick": 8
  },
  {
    "hide": false,
    "infected": 11,
    "recovered": 0,
    "latitude": 40.2672,
    "longitude": -86.1349,
    "name": "Indiana",
    "country": "US",
    "dead": 0,
    "lastUpdated": "2020-03-13T05:28:03.547Z",
    "id": "MOxDkmQ4wBi1CuAdVxDE",
    "sick": 11
  },
  {
    "hide": false,
    "infected": 75,
    "recovered": 72,
    "latitude": 37.330509,
    "longitude": 105.977203,
    "name": "Ningxia",
    "country": "CN",
    "dead": 0,
    "lastUpdated": "2020-03-12T23:54:36.117Z",
    "id": "MntmjjuHljarCdt6aIeE",
    "sick": 3
  },
  {
    "id": "N7c13sCQF0G789XAVazJ",
    "hide": false,
    "infected": 11,
    "recovered": 0,
    "latitude": 44.696652,
    "longitude": 17.824332,
    "name": "Bosnia and Herzegovina",
    "country": "BA",
    "dead": 0,
    "lastUpdated": "2020-03-13T05:14:07.944Z",
    "sick": 11
  },
  {
    "latitude": 37.242565,
    "longitude": 111.856857,
    "name": "Shanxi",
    "country": "CN",
    "dead": 0,
    "lastUpdated": "2020-03-12T23:54:14.985Z",
    "id": "NBRIGIRrJB1Ry8prDNAC",
    "hide": false,
    "infected": 133,
    "recovered": 132,
    "sick": 1
  },
  {
    "dead": 0,
    "lastUpdated": "2020-03-13T05:28:03.606Z",
    "id": "NC64Qp5kTqAfiTuR27k8",
    "hide": false,
    "infected": 9,
    "recovered": 0,
    "latitude": 35.7596,
    "longitude": -79.0193,
    "name": "North Carolina",
    "country": "US",
    "sick": 9
  },
  {
    "recovered": 1,
    "latitude": 56.96776,
    "longitude": 25.837107,
    "name": "Latvia",
    "country": "LV",
    "dead": 0,
    "lastUpdated": "2020-03-13T05:14:07.963Z",
    "id": "NmmMKy0YqA8StHdGzB5N",
    "hide": false,
    "infected": 16,
    "sick": 15
  },
  {
    "longitude": -80.525613,
    "name": "South Carolina",
    "country": "US",
    "dead": 0,
    "lastUpdated": "2020-03-13T05:28:03.612Z",
    "id": "ONU4CK8QjViFHKg2w5if",
    "hide": false,
    "infected": 10,
    "recovered": 0,
    "latitude": 34.003307,
    "sick": 10
  },
  {
    "longitude": -89.582775,
    "name": "Mississippi",
    "country": "US",
    "dead": 0,
    "lastUpdated": "2020-03-13T05:28:03.614Z",
    "id": "OYa0jFzdbAgo8zUsRv6q",
    "hide": false,
    "infected": 1,
    "recovered": 0,
    "latitude": 33.51822,
    "sick": 1
  },
  {
    "longitude": 146.725256,
    "name": "Tasmania",
    "country": "AU",
    "dead": 0,
    "lastUpdated": "2020-03-12T23:56:40.894Z",
    "id": "OnOseaqWdnuP18oruABW",
    "hide": false,
    "infected": 3,
    "recovered": 0,
    "latitude": -41.915264,
    "sick": 3
  },
  {
    "latitude": 46.7296,
    "longitude": -94.6859,
    "name": "Minnesota",
    "country": "US",
    "dead": 0,
    "lastUpdated": "2020-03-13T05:28:03.527Z",
    "id": "PJvVYosLIhbcRZYnKX1R",
    "hide": false,
    "infected": 9,
    "recovered": 0,
    "sick": 9
  },
  {
    "id": "PTwQr9ijo0TBBsPH2sdJ",
    "hide": false,
    "infected": 25,
    "recovered": 2,
    "latitude": 40.6331,
    "longitude": -89.3985,
    "name": "Illinois",
    "country": "US",
    "dead": 0,
    "lastUpdated": "2020-03-13T05:28:03.609Z",
    "sick": 23
  },
  {
    "recovered": 0,
    "latitude": 34.201507,
    "longitude": 9.460554,
    "name": "Tunisia",
    "country": "TN",
    "dead": 0,
    "lastUpdated": "2020-03-13T05:14:07.934Z",
    "id": "Pr76V4raf108uSRoEXac",
    "hide": false,
    "infected": 13,
    "sick": 13
  },
  {
    "latitude": -19.810776,
    "longitude": 133.639248,
    "name": "Northern Australia",
    "country": "AU",
    "dead": 0,
    "lastUpdated": "2020-03-12T23:56:44.216Z",
    "id": "PxDu1tj8voGfRMpDyOWK",
    "hide": false,
    "infected": 1,
    "recovered": 0,
    "sick": 1
  },
  {
    "latitude": -37.009609,
    "longitude": 143.94853,
    "name": "Victoria",
    "country": "AU",
    "dead": 0,
    "lastUpdated": "2020-03-12T23:56:18.310Z",
    "id": "Q18mrGvFWTLX2BU9SqhQ",
    "hide": false,
    "infected": 21,
    "recovered": 7,
    "sick": 14
  },
  {
    "longitude": 25.013607,
    "name": "Estonia",
    "country": "EE",
    "dead": 0,
    "lastUpdated": "2020-03-13T05:14:07.972Z",
    "id": "QR9go2hQKXjty7JHUYe4",
    "hide": false,
    "infected": 27,
    "recovered": 0,
    "latitude": 58.595272,
    "sick": 27
  },
  {
    "hide": false,
    "infected": 14,
    "recovered": 0,
    "latitude": 8.538,
    "longitude": -80.7821,
    "name": "Panama",
    "country": "PA",
    "dead": 1,
    "lastUpdated": "2020-03-13T05:14:07.957Z",
    "id": "R8YCgephnxTufvcPWMgx",
    "sick": 13
  },
  {
    "latitude": 15.2,
    "longitude": -86.2419,
    "name": "Honduras",
    "country": "HN",
    "dead": 0,
    "lastUpdated": "2020-03-13T05:14:07.825Z",
    "id": "RA2SE0p2bVhqo0P2hzGY",
    "hide": false,
    "infected": 2,
    "recovered": 0,
    "sick": 2
  },
  {
    "latitude": 41.878,
    "longitude": -93.0977,
    "name": "Iowa",
    "country": "US",
    "dead": 0,
    "lastUpdated": "2020-03-13T05:28:03.608Z",
    "id": "RX0KDu1AFrlCsrRso0nb",
    "hide": false,
    "infected": 14,
    "recovered": 0,
    "sick": 14
  },
  {
    "latitude": 39.0119,
    "longitude": -98.4842,
    "name": "Kansas",
    "country": "US",
    "dead": 1,
    "lastUpdated": "2020-03-13T05:28:03.611Z",
    "id": "Rf4uvBfP3GRDSHdZElRd",
    "hide": false,
    "infected": 5,
    "recovered": 0,
    "sick": 4
  },
  {
    "id": "RmEgf1xeclWt7XCF9oiR",
    "hide": false,
    "infected": 699,
    "recovered": 0,
    "latitude": 48.6998,
    "longitude": 6.1878,
    "name": "Grand Est",
    "country": "FR",
    "dead": 9,
    "lastUpdated": "2020-03-13T05:25:08.568Z",
    "sick": 690
  },
  {
    "hide": false,
    "infected": 42,
    "recovered": 4,
    "latitude": 51.2538,
    "longitude": -85.3232,
    "name": "Ontario",
    "country": "CA",
    "dead": 0,
    "lastUpdated": "2020-03-12T23:55:49.433Z",
    "id": "Rx4TuyMpfGb3S8wYJX0x",
    "sick": 38
  },
  {
    "hide": false,
    "infected": 4,
    "recovered": 0,
    "latitude": 14.652027,
    "longitude": -61.011715,
    "name": "Martinique",
    "country": "FR",
    "dead": 0,
    "lastUpdated": "2020-03-13T05:25:08.660Z",
    "id": "SDdefnq1bc3ZNr7SpEsW",
    "sick": 4
  },
  {
    "id": "SGe9sCPayMqh6RsGFaBA",
    "hide": false,
    "infected": 868,
    "recovered": 4,
    "latitude": 46.818188,
    "longitude": 8.227512,
    "name": "Switzerland",
    "country": "CH",
    "dead": 7,
    "lastUpdated": "2020-03-13T05:14:07.949Z",
    "sick": 857
  },
  {
    "recovered": 0,
    "latitude": 46.8139,
    "longitude": -71.208,
    "name": "Quebec",
    "country": "CA",
    "dead": 0,
    "lastUpdated": "2020-03-12T23:55:53.585Z",
    "id": "SHoOE3NiJgWAlDVBzwYH",
    "hide": false,
    "infected": 9,
    "sick": 9
  },
  {
    "dead": 0,
    "lastUpdated": "2020-03-12T23:37:30.005Z",
    "id": "SakhKQzKu1LRI8laqdQq",
    "hide": false,
    "infected": 10,
    "recovered": 0,
    "latitude": 41.4925,
    "longitude": -99.9018,
    "name": "Nebraska",
    "country": "US",
    "sick": 10
  },
  {
    "latitude": 12.565679,
    "longitude": 104.990967,
    "name": "Cambodia",
    "country": "KH",
    "dead": 0,
    "lastUpdated": "2020-03-13T05:14:08.020Z",
    "id": "SioMALgUbo7peXmbco2f",
    "hide": false,
    "infected": 5,
    "recovered": 1,
    "sick": 4
  },
  {
    "latitude": -4.0383,
    "longitude": 21.7587,
    "name": "DR Congo",
    "country": "CD",
    "dead": 0,
    "lastUpdated": "2020-03-13T05:14:07.835Z",
    "id": "T3iRf8mTUTAzbKrORTap",
    "hide": false,
    "infected": 1,
    "recovered": 0,
    "sick": 1
  },
  {
    "latitude": 23.635796,
    "longitude": 44.344334,
    "name": "Saudi Arabia",
    "country": "SA",
    "dead": 0,
    "lastUpdated": "2020-03-13T05:14:08.174Z",
    "id": "T7NffoeCgTUpAbOHvYwP",
    "hide": false,
    "infected": 45,
    "recovered": 1,
    "sick": 44
  },
  {
    "latitude": 4.506106,
    "longitude": 114.650692,
    "name": "Brunei",
    "country": "BN",
    "dead": 0,
    "lastUpdated": "2020-03-13T05:14:08.016Z",
    "id": "TQZmzsLhJqjtCSExAkCP",
    "hide": false,
    "infected": 25,
    "recovered": 0,
    "sick": 25
  },
  {
    "longitude": 4.3853,
    "name": "Auvergne-Rhône-Alpes",
    "country": "FR",
    "dead": 7,
    "lastUpdated": "2020-03-13T05:25:08.649Z",
    "id": "TT0MKODSjrxHvG19xZCa",
    "hide": false,
    "infected": 329,
    "recovered": 8,
    "latitude": 45.4471,
    "sick": 314
  },
  {
    "latitude": 39.318928,
    "longitude": -105.461392,
    "name": "Colorado",
    "country": "US",
    "dead": 0,
    "lastUpdated": "2020-03-13T05:28:03.570Z",
    "id": "Th4dlpXXmSDgi1OHs36P",
    "hide": false,
    "infected": 49,
    "recovered": 0,
    "sick": 49
  },
  {
    "id": "Tup6oDCHj6DgqZR3nQ3x",
    "hide": false,
    "infected": 2,
    "recovered": 0,
    "latitude": 12.2383,
    "longitude": -1.5616,
    "name": "Burkina Faso",
    "country": "BF",
    "dead": 0,
    "lastUpdated": "2020-03-13T05:14:07.845Z",
    "sick": 2
  },
  {
    "latitude": 55.675758,
    "longitude": 12.56902,
    "name": "Denmark",
    "country": "DK",
    "dead": 0,
    "lastUpdated": "2020-03-13T05:14:08.167Z",
    "id": "Ty1AY3VLPJcRZgdBIERx",
    "hide": false,
    "infected": 674,
    "recovered": 1,
    "sick": 673
  },
  {
    "hide": false,
    "infected": 760,
    "recovered": 734,
    "latitude": 36.395859,
    "longitude": 118.769882,
    "name": "Shandong",
    "country": "CN",
    "dead": 6,
    "lastUpdated": "2020-03-12T23:53:50.151Z",
    "id": "U0tkTJ9CGsBuFJ2Gdoum",
    "sick": 20
  },
  {
    "id": "U12rMD5GDW58Q0lIwrB1",
    "hide": false,
    "infected": 72,
    "recovered": 0,
    "latitude": 43.94236,
    "longitude": 12.457777,
    "name": "San Marino",
    "country": "SM",
    "dead": 5,
    "lastUpdated": "2020-03-13T05:14:08.007Z",
    "sick": 67
  },
  {
    "longitude": 138.25293,
    "name": "Japan",
    "country": "JP",
    "dead": 19,
    "lastUpdated": "2020-03-13T05:14:07.913Z",
    "id": "U13Gy4BpRLAZ95bPmBXd",
    "hide": false,
    "infected": 691,
    "recovered": 118,
    "latitude": 36.204823,
    "sick": 554
  },
  {
    "longitude": -2.9326,
    "name": "Bretagne",
    "country": "FR",
    "dead": 3,
    "lastUpdated": "2020-03-13T05:25:08.690Z",
    "id": "URKMlJ7OTNldjpaxFbjE",
    "hide": false,
    "infected": 120,
    "recovered": 0,
    "latitude": 48.202,
    "sick": 117
  },
  {
    "id": "VAAmtxtDuCY0o55zRsOh",
    "hide": false,
    "infected": 9,
    "recovered": 0,
    "latitude": 3.527606,
    "longitude": -72.998674,
    "name": "Colombia",
    "country": "CO",
    "dead": 0,
    "lastUpdated": "2020-03-13T05:14:07.960Z",
    "sick": 9
  },
  {
    "hide": false,
    "infected": 174,
    "recovered": 170,
    "latitude": 25.181129,
    "longitude": 101.864143,
    "name": "Yunnan",
    "country": "CN",
    "dead": 2,
    "lastUpdated": "2020-03-12T23:51:53.780Z",
    "id": "VIf8T8PD3ZzlzAm5eBCX",
    "sick": 2
  },
  {
    "dead": 0,
    "lastUpdated": "2020-03-13T05:27:02.434Z",
    "id": "VcKcLdCkC6YpPfIDnRVD",
    "hide": false,
    "infected": 11,
    "recovered": 0,
    "latitude": 26.8467,
    "longitude": 80.9462,
    "name": "Uttar Pradesh",
    "country": "IN",
    "sick": 11
  },
  {
    "hide": false,
    "infected": 133,
    "recovered": 0,
    "latitude": 43.8927,
    "longitude": 3.2828,
    "name": "Occitanie",
    "country": "FR",
    "dead": 0,
    "lastUpdated": "2020-03-13T05:25:08.631Z",
    "id": "WAnbFrEjtZDTCIYBt8rz",
    "sick": 133
  },
  {
    "hide": false,
    "infected": 17,
    "recovered": 0,
    "latitude": -30.5595,
    "longitude": 22.9375,
    "name": "South Africa",
    "country": "ZA",
    "dead": 0,
    "lastUpdated": "2020-03-13T03:14:03.266Z",
    "id": "Whrue10NtwIObLvFFyBr",
    "sick": 17
  },
  {
    "longitude": 90.3563,
    "name": "Bangladesh",
    "country": "BD",
    "dead": 0,
    "lastUpdated": "2020-03-13T05:14:07.910Z",
    "id": "WpLayPPLIJ7VcHZdQaoM",
    "hide": false,
    "infected": 3,
    "recovered": 0,
    "latitude": 23.685,
    "sick": 3
  },
  {
    "dead": 0,
    "lastUpdated": "2020-03-13T05:27:02.470Z",
    "id": "X3PZqaJxtnlxcgP4tzya",
    "hide": false,
    "infected": 3,
    "recovered": 0,
    "latitude": 34.2996,
    "longitude": 78.2932,
    "name": "Ladakh",
    "country": "IN",
    "sick": 3
  },
  {
    "latitude": 25.92448,
    "longitude": 118.278992,
    "name": "Fujian",
    "country": "CN",
    "dead": 1,
    "lastUpdated": "2020-03-12T23:51:15.485Z",
    "id": "XBBw0iMPrmiEu3qogkbi",
    "hide": false,
    "infected": 296,
    "recovered": 295,
    "sick": 0
  },
  {
    "latitude": 51.165691,
    "longitude": 10.451526,
    "name": "Germany",
    "country": "DE",
    "dead": 6,
    "lastUpdated": "2020-03-13T05:14:08.055Z",
    "id": "XWtMdKtp2HAFy68kPZLa",
    "hide": false,
    "infected": 2745,
    "recovered": 25,
    "sick": 2714
  },
  {
    "longitude": 12.56738,
    "name": "Italy",
    "country": "IT",
    "dead": 1016,
    "lastUpdated": "2020-03-13T05:14:07.974Z",
    "id": "XdekMZcw1lJK2MWpBlNK",
    "hide": false,
    "infected": 15113,
    "recovered": 1258,
    "latitude": 41.871941,
    "sick": 12839
  },
  {
    "latitude": 42.0396,
    "longitude": 9.0129,
    "name": "Corse",
    "country": "FR",
    "dead": 3,
    "lastUpdated": "2020-03-13T05:25:08.644Z",
    "id": "YGXgIObKVabP2CYEdcb9",
    "hide": false,
    "infected": 63,
    "recovered": 0,
    "sick": 60
  },
  {
    "hide": false,
    "infected": 31,
    "recovered": 0,
    "latitude": 31.9522,
    "longitude": 35.2332,
    "name": "Palestine",
    "country": "PS",
    "dead": 0,
    "lastUpdated": "2020-03-13T05:14:07.916Z",
    "id": "YMzKw0SnXG71VT7H1jff",
    "sick": 31
  },
  {
    "longitude": 126.99778,
    "name": "South Korea",
    "country": "KR",
    "dead": 67,
    "lastUpdated": "2020-03-13T05:14:07.905Z",
    "id": "Yw9uBekNlefXBcOCNMfP",
    "hide": false,
    "infected": 7979,
    "recovered": 510,
    "latitude": 37.568291,
    "sick": 7402
  },
  {
    "longitude": 21.0122,
    "name": "Poland",
    "country": "PL",
    "dead": 1,
    "lastUpdated": "2020-03-13T05:14:08.045Z",
    "id": "ZAZNuCK1VweBaTLCFzCk",
    "hide": false,
    "infected": 51,
    "recovered": 0,
    "latitude": 52.2297,
    "sick": 50
  },
  {
    "hide": false,
    "infected": 5,
    "recovered": 0,
    "latitude": 41.6032,
    "longitude": -73.0877,
    "name": "Connecticut",
    "country": "US",
    "dead": 0,
    "lastUpdated": "2020-03-13T05:28:03.508Z",
    "id": "Zqy0gftQzocR49jEJNMl",
    "sick": 5
  },
  {
    "longitude": 136.209152,
    "name": "South Australia",
    "country": "AU",
    "dead": 0,
    "lastUpdated": "2020-03-12T23:56:27.829Z",
    "id": "a9p9pAOsjg1WAjPGc2a6",
    "hide": false,
    "infected": 9,
    "recovered": 2,
    "latitude": -30.000233,
    "sick": 7
  },
  {
    "id": "aPubGfQ8ToSEuKJldKRT",
    "hide": false,
    "infected": 1,
    "recovered": 0,
    "latitude": 37.9643,
    "longitude": -91.8318,
    "name": "Missouri",
    "country": "US",
    "dead": 0,
    "lastUpdated": "2020-03-13T05:28:03.582Z",
    "sick": 1
  },
  {
    "latitude": 23.64407,
    "longitude": 108.26651,
    "name": "Guangxi",
    "country": "CN",
    "dead": 2,
    "lastUpdated": "2020-03-12T23:51:23.274Z",
    "id": "aTa8MiBjtH3iY0SRs2HQ",
    "hide": false,
    "infected": 256,
    "recovered": 241,
    "sick": 13
  },
  {
    "dead": 0,
    "lastUpdated": "2020-03-13T05:28:03.591Z",
    "id": "afeZTVC1J1SMMNFxkrcc",
    "hide": false,
    "infected": 17,
    "recovered": 0,
    "latitude": 37.4316,
    "longitude": -78.6569,
    "name": "Virginia",
    "country": "US",
    "sick": 17
  },
  {
    "hide": false,
    "infected": 435,
    "recovered": 334,
    "latitude": 39.904202,
    "longitude": 116.407394,
    "name": "Beijing",
    "country": "CN",
    "dead": 8,
    "lastUpdated": "2020-03-12T23:52:09.662Z",
    "id": "alj4hkxg9cjrTxOzwFKt",
    "sick": 93
  },
  {
    "longitude": 43.679291,
    "name": "Iraq",
    "country": "IQ",
    "dead": 8,
    "lastUpdated": "2020-03-13T05:14:08.021Z",
    "id": "b7TwXX46FA0EmH1CjHET",
    "hide": false,
    "infected": 83,
    "recovered": 24,
    "latitude": 33.22319,
    "sick": 51
  },
  {
    "dead": 0,
    "lastUpdated": "2020-03-13T05:14:08.024Z",
    "id": "b9p1JhVml3GGC7iiPmKv",
    "hide": false,
    "infected": 10,
    "recovered": 1,
    "latitude": 14.457474,
    "longitude": -14.358636,
    "name": "Senegal",
    "country": "SN",
    "sick": 9
  },
  {
    "id": "bYp4RRHv19M7lYtSzQeV",
    "hide": false,
    "infected": 23,
    "recovered": 0,
    "latitude": 39.561889,
    "longitude": -74.672169,
    "name": "New Jersey",
    "country": "US",
    "dead": 1,
    "lastUpdated": "2020-03-13T05:28:03.518Z",
    "sick": 22
  },
  {
    "id": "bdqD4kpdqGgUaX70Tm2Q",
    "hide": false,
    "infected": 158,
    "recovered": 26,
    "latitude": 3.139,
    "longitude": 101.6869,
    "name": "Malaysia",
    "country": "MY",
    "dead": 0,
    "lastUpdated": "2020-03-13T05:14:07.955Z",
    "sick": 132
  },
  {
    "latitude": 60.128162,
    "longitude": 18.643501,
    "name": "Sweden",
    "country": "SE",
    "dead": 1,
    "lastUpdated": "2020-03-13T05:14:07.926Z",
    "id": "bignnyt2A8BBx8VNo32p",
    "hide": false,
    "infected": 687,
    "recovered": 1,
    "sick": 685
  },
  {
    "id": "cCGmFmwHOoBrEpvG3qBP",
    "hide": false,
    "infected": 23,
    "recovered": 0,
    "latitude": 40.973765,
    "longitude": 20.010162,
    "name": "Albania",
    "country": "AL",
    "dead": 1,
    "lastUpdated": "2020-03-13T05:14:07.918Z",
    "sick": 22
  },
  {
    "recovered": 0,
    "latitude": 46.8625,
    "longitude": 103.8467,
    "name": "Mongolia",
    "country": "MN",
    "dead": 0,
    "lastUpdated": "2020-03-13T05:14:07.847Z",
    "id": "cPxONYsVo6BgvCW9HUeQ",
    "hide": false,
    "infected": 1,
    "sick": 1
  },
  {
    "dead": 0,
    "lastUpdated": "2020-03-13T05:14:07.976Z",
    "id": "cPxe7nsRnOf6aOPqHElJ",
    "hide": false,
    "infected": 117,
    "recovered": 0,
    "latitude": 64.963051,
    "longitude": -19.020836,
    "name": "Iceland",
    "country": "IS",
    "sick": 117
  },
  {
    "recovered": 4,
    "latitude": 31.046051,
    "longitude": 34.851612,
    "name": "Israel",
    "country": "IL",
    "dead": 0,
    "lastUpdated": "2020-03-13T05:14:07.959Z",
    "id": "cX891t0ONLNFj0MYq6La",
    "hide": false,
    "infected": 109,
    "sick": 105
  },
  {
    "hide": false,
    "infected": 6,
    "recovered": 0,
    "latitude": 4.749531,
    "longitude": -53.112909,
    "name": "Guyane",
    "country": "FR",
    "dead": 0,
    "lastUpdated": "2020-03-13T05:25:08.599Z",
    "id": "cc7s6hYGQ2MovBBBgkKb",
    "sick": 6
  },
  {
    "latitude": 61.8926,
    "longitude": -6.9118,
    "name": "Faeroe Islands",
    "country": "FO",
    "dead": 0,
    "lastUpdated": "2020-03-13T05:14:07.833Z",
    "id": "cgzd5EM8PZv5ziJtTz1w",
    "hide": false,
    "infected": 2,
    "recovered": 0,
    "sick": 2
  },
  {
    "hide": false,
    "infected": 16,
    "recovered": 0,
    "latitude": 41.2033,
    "longitude": -77.1945,
    "name": "Pennsylvania",
    "country": "US",
    "dead": 0,
    "lastUpdated": "2020-03-13T05:28:03.583Z",
    "id": "chj2FF3zb4Xxcop9RHre",
    "sick": 16
  },
  {
    "id": "cpf3Y5PQTYywIm3PrpIQ",
    "hide": false,
    "infected": 88,
    "recovered": 2,
    "latitude": 45.7087,
    "longitude": 0.6269,
    "name": "Nouvelle-Aquitaine",
    "country": "FR",
    "dead": 0,
    "lastUpdated": "2020-03-13T05:25:08.597Z",
    "sick": 86
  },
  {
    "hide": false,
    "infected": 3146,
    "recovered": 189,
    "latitude": 40.463669,
    "longitude": -3.74922,
    "name": "Spain",
    "country": "ES",
    "dead": 86,
    "lastUpdated": "2020-03-13T05:14:07.908Z",
    "id": "d0ExINgPaWUBm3l4ioJL",
    "sick": 2871
  },
  {
    "latitude": 42.50837,
    "longitude": 1.517155,
    "name": "Andorra",
    "country": "AD",
    "dead": 0,
    "lastUpdated": "2020-03-13T05:14:07.838Z",
    "id": "dedMXSYR2k92wkSXNZqn",
    "hide": false,
    "infected": 1,
    "recovered": 0,
    "sick": 1
  },
  {
    "hide": false,
    "infected": 4,
    "recovered": 0,
    "latitude": 38.831163,
    "longitude": -75.375673,
    "name": "Delaware",
    "country": "US",
    "dead": 0,
    "lastUpdated": "2020-03-13T05:28:03.568Z",
    "id": "dzCgqYduzyncjNKU9z6G",
    "sick": 4
  },
  {
    "hide": false,
    "infected": 1,
    "recovered": 0,
    "latitude": 38.9637,
    "longitude": 35.2433,
    "name": "Turkey",
    "country": "TR",
    "dead": 0,
    "lastUpdated": "2020-03-13T05:14:07.843Z",
    "id": "dzIcCaUZlbIXuRw0SyDE",
    "sick": 1
  },
  {
    "hide": false,
    "infected": 361,
    "recovered": 4,
    "latitude": 47.516232,
    "longitude": 14.550072,
    "name": "Austria",
    "country": "AT",
    "dead": 1,
    "lastUpdated": "2020-03-13T05:14:08.145Z",
    "id": "e3BtI12qbqhE8jypOoZu",
    "sick": 356
  },
  {
    "id": "e7P83iImanpd9r36oXK3",
    "hide": false,
    "infected": 125,
    "recovered": 112,
    "latitude": 41.097481,
    "longitude": 122.310669,
    "name": "Liaoning",
    "country": "CN",
    "dead": 1,
    "lastUpdated": "2020-03-12T23:52:29.188Z",
    "sick": 12
  },
  {
    "latitude": 31.230391,
    "longitude": 121.473701,
    "name": "Shanghai",
    "country": "CN",
    "dead": 3,
    "lastUpdated": "2020-03-12T23:51:33.089Z",
    "id": "e9pQqQa7CEblCYoDtfKo",
    "hide": false,
    "infected": 344,
    "recovered": 321,
    "sick": 20
  },
  {
    "hide": false,
    "infected": 108,
    "recovered": 1,
    "latitude": 42.407211,
    "longitude": -71.382439,
    "name": "Massachusetts",
    "country": "US",
    "dead": 0,
    "lastUpdated": "2020-03-13T05:28:03.565Z",
    "id": "eCKDGssww4pF7NrxOySu",
    "sick": 107
  },
  {
    "longitude": 7.432032,
    "name": "Monaco",
    "country": "MC",
    "dead": 0,
    "lastUpdated": "2020-03-13T05:14:07.840Z",
    "id": "eLgKPNUwYM5MNDAtF6ql",
    "hide": false,
    "infected": 2,
    "recovered": 0,
    "latitude": 43.740451,
    "sick": 2
  },
  {
    "hide": false,
    "infected": 219,
    "recovered": 8,
    "latitude": 47.2805,
    "longitude": 4.9994,
    "name": "Bourgogne-Franche-Comté",
    "country": "FR",
    "dead": 5,
    "lastUpdated": "2020-03-13T05:25:08.594Z",
    "id": "ejrjMKfHexGnK52FS9Aa",
    "sick": 206
  },
  {
    "hide": false,
    "infected": 539,
    "recovered": 498,
    "latitude": 30.14208,
    "longitude": 102.960701,
    "name": "Sichuan",
    "country": "CN",
    "dead": 3,
    "lastUpdated": "2020-03-12T23:51:40.166Z",
    "id": "eyK5bxFkwdoAouIBvLFM",
    "sick": 38
  },
  {
    "latitude": 21.473534,
    "longitude": 55.975414,
    "name": "Oman",
    "country": "OM",
    "dead": 0,
    "lastUpdated": "2020-03-13T05:14:08.012Z",
    "id": "f9kmlhYtc3WA3kjbWszW",
    "hide": false,
    "infected": 18,
    "recovered": 9,
    "sick": 9
  },
  {
    "longitude": 36.691952,
    "name": "Jordan",
    "country": "JO",
    "dead": 0,
    "lastUpdated": "2020-03-13T05:14:07.829Z",
    "id": "fK06AziL8wyrcoz7rsmJ",
    "hide": false,
    "infected": 1,
    "recovered": 0,
    "latitude": 31.295929,
    "sick": 1
  },
  {
    "id": "fNganaGVPifA4QahEQPS",
    "hide": false,
    "infected": 30,
    "recovered": 0,
    "latitude": 27.716933,
    "longitude": -81.555239,
    "name": "Florida",
    "country": "US",
    "dead": 2,
    "lastUpdated": "2020-03-13T05:28:03.539Z",
    "sick": 28
  },
  {
    "latitude": 35.452016,
    "longitude": 139.664285,
    "name": "Diamond Princess (Cruise)",
    "country": "ZZ",
    "dead": 7,
    "lastUpdated": "2020-03-12T23:32:24.887Z",
    "id": "fNnE9CD0SttEVrCUo1Ym",
    "hide": false,
    "infected": 706,
    "recovered": 325,
    "sick": 374
  },
  {
    "hide": false,
    "infected": 67781,
    "recovered": 50318,
    "latitude": 31.160629,
    "longitude": 112.255402,
    "name": "Hubei",
    "country": "CN",
    "dead": 3056,
    "lastUpdated": "2020-03-12T23:50:34.557Z",
    "id": "fiJ14DCxw15e3SMemh8R",
    "sick": 14407
  },
  {
    "hide": false,
    "infected": 3,
    "recovered": 0,
    "latitude": 50.4501,
    "longitude": 30.5234,
    "name": "Ukraine",
    "country": "UA",
    "dead": 0,
    "lastUpdated": "2020-03-13T05:14:08.180Z",
    "id": "flbZ2kaR5kBuV8XZ2Nsu",
    "sick": 3
  },
  {
    "latitude": 52.132633,
    "longitude": 5.291266,
    "name": "Netherlands",
    "country": "NL",
    "dead": 5,
    "lastUpdated": "2020-03-13T05:14:07.933Z",
    "id": "g0lRMtEJbucWIGqSPn0I",
    "hide": false,
    "infected": 614,
    "recovered": 2,
    "sick": 607
  },
  {
    "recovered": 0,
    "latitude": 34.69522,
    "longitude": -92.288012,
    "name": "Arkansas",
    "country": "US",
    "dead": 0,
    "lastUpdated": "2020-03-13T05:28:03.590Z",
    "id": "gIdgxJZfTl2QOSYEwMAz",
    "hide": false,
    "infected": 6,
    "sick": 6
  },
  {
    "recovered": 0,
    "latitude": 43.9695,
    "longitude": -99.9018,
    "name": "South Dakota",
    "country": "US",
    "dead": 1,
    "lastUpdated": "2020-03-13T05:28:03.525Z",
    "id": "gYDsNgvuvtbg8t77w6FS",
    "hide": false,
    "infected": 8,
    "sick": 7
  },
  {
    "id": "h9UqxYZ5xC4JZrmdDz0q",
    "hide": false,
    "infected": 9,
    "recovered": 0,
    "latitude": 35.894231,
    "longitude": 14.432846,
    "name": "Malta",
    "country": "MT",
    "dead": 0,
    "lastUpdated": "2020-03-13T05:14:07.953Z",
    "sick": 9
  },
  {
    "id": "hqwsh1rmvkWI3LFUVuMk",
    "hide": false,
    "infected": 6,
    "recovered": 0,
    "latitude": 28.7041,
    "longitude": 77.1025,
    "name": "Delhi",
    "country": "IN",
    "dead": 0,
    "lastUpdated": "2020-03-13T05:27:02.499Z",
    "sick": 6
  },
  {
    "longitude": 104.28611,
    "name": "Gansu",
    "country": "CN",
    "dead": 2,
    "lastUpdated": "2020-03-12T23:51:59.987Z",
    "id": "iGkTscdD0XyHFSP23Qrp",
    "hide": false,
    "infected": 127,
    "recovered": 88,
    "latitude": 35.751835,
    "sick": 37
  },
  {
    "hide": false,
    "infected": 17,
    "recovered": 3,
    "latitude": 10.8505,
    "longitude": 76.2711,
    "name": "Kerala",
    "country": "IN",
    "dead": 0,
    "lastUpdated": "2020-03-13T05:27:02.465Z",
    "id": "idymmgoqLHImnBdyC7r7",
    "sick": 14
  },
  {
    "hide": false,
    "infected": 136,
    "recovered": 132,
    "latitude": 39.343357,
    "longitude": 117.361649,
    "name": "Tianjin",
    "country": "CN",
    "dead": 3,
    "lastUpdated": "2020-03-12T23:53:09.762Z",
    "id": "jMlHjIOb7eMPSxFBrmG1",
    "sick": 1
  },
  {
    "latitude": 44.5588,
    "longitude": -72.5778,
    "name": "Vermont",
    "country": "US",
    "dead": 0,
    "lastUpdated": "2020-03-13T05:28:03.601Z",
    "id": "jPC0eOG50FWknCDe3K6P",
    "hide": false,
    "infected": 2,
    "recovered": 0,
    "sick": 2
  },
  {
    "longitude": -6.2603,
    "name": "Ireland",
    "country": "IE",
    "dead": 1,
    "lastUpdated": "2020-03-13T05:14:07.979Z",
    "id": "jpVXEDCyfyq26gPoCtHL",
    "hide": false,
    "infected": 70,
    "recovered": 0,
    "latitude": 53.3498,
    "sick": 69
  },
  {
    "dead": 3,
    "lastUpdated": "2020-03-12T23:54:42.216Z",
    "id": "lhPjpn6CzqTRDN0RW8uE",
    "hide": false,
    "infected": 76,
    "recovered": 73,
    "latitude": 42.524635,
    "longitude": 87.539589,
    "name": "Xinjiang",
    "country": "CN",
    "sick": 0
  },
  {
    "latitude": 3.2028,
    "longitude": 73.2207,
    "name": "Maldives",
    "country": "MV",
    "dead": 0,
    "lastUpdated": "2020-03-13T05:14:07.981Z",
    "id": "m45gI2UbWMuTrOnTtp9k",
    "hide": false,
    "infected": 8,
    "recovered": 0,
    "sick": 8
  },
  {
    "hide": false,
    "infected": 1,
    "recovered": 0,
    "latitude": 41.9029,
    "longitude": 12.4534,
    "name": "Vatican City",
    "country": "VA",
    "dead": 0,
    "lastUpdated": "2020-03-13T05:14:07.854Z",
    "id": "mF7rVMdVnazAuw8G22xs",
    "sick": 1
  },
  {
    "latitude": 19.7515,
    "longitude": 75.7139,
    "name": "Maharashtra",
    "country": "IN",
    "dead": 0,
    "lastUpdated": "2020-03-13T05:27:02.457Z",
    "id": "mJtdLs4ub6CkcAOeMWUm",
    "hide": false,
    "infected": 12,
    "recovered": 0,
    "sick": 12
  },
  {
    "longitude": -70.6693,
    "name": "Chile",
    "country": "CL",
    "dead": 0,
    "lastUpdated": "2020-03-13T05:14:08.144Z",
    "id": "mSACWVbCy5QE7ciLA93J",
    "hide": false,
    "infected": 33,
    "recovered": 0,
    "latitude": -33.4489,
    "sick": 33
  },
  {
    "recovered": 0,
    "latitude": 35.693323,
    "longitude": -86.605748,
    "name": "Tennessee",
    "country": "US",
    "dead": 0,
    "lastUpdated": "2020-03-13T05:28:03.575Z",
    "id": "nLhJXE2apq8yNNj363ai",
    "hide": false,
    "infected": 9,
    "sick": 9
  },
  {
    "latitude": 31.893778,
    "longitude": -6.196132,
    "name": "Morocco",
    "country": "MA",
    "dead": 1,
    "lastUpdated": "2020-03-13T05:14:07.951Z",
    "id": "oJ5vSDE9vgXC2PG8LElp",
    "hide": false,
    "infected": 6,
    "recovered": 0,
    "sick": 5
  },
  {
    "longitude": 2.7937,
    "name": "Hauts-de-France",
    "country": "FR",
    "dead": 21,
    "lastUpdated": "2020-03-13T05:25:08.650Z",
    "id": "ofWLu9EuQoK2nHjwU1mA",
    "hide": false,
    "infected": 349,
    "recovered": 0,
    "latitude": 50.4801,
    "sick": 328
  },
  {
    "latitude": -20.917574,
    "longitude": 142.702789,
    "name": "Queensland",
    "country": "AU",
    "dead": 0,
    "lastUpdated": "2020-03-12T23:56:23.423Z",
    "id": "oxz2l1rJipCsfMfy8Mmk",
    "hide": false,
    "infected": 20,
    "recovered": 8,
    "sick": 12
  },
  {
    "hide": false,
    "infected": 482,
    "recovered": 441,
    "latitude": 47.121647,
    "longitude": 128.738235,
    "name": "Heilongjiang",
    "country": "CN",
    "dead": 13,
    "lastUpdated": "2020-03-12T23:52:41.738Z",
    "id": "p1aZboN4BtRJe7hPl8cw",
    "sick": 28
  },
  {
    "hide": false,
    "infected": 990,
    "recovered": 984,
    "latitude": 32.026379,
    "longitude": 117.252747,
    "name": "Anhui",
    "country": "CN",
    "dead": 6,
    "lastUpdated": "2020-03-12T23:50:44.085Z",
    "id": "pFhBwPnGGpQ6DLppJ6YS",
    "sick": 0
  },
  {
    "longitude": -77.0369,
    "name": "Washington, D.C.",
    "country": "US",
    "dead": 0,
    "lastUpdated": "2020-03-13T05:28:03.561Z",
    "id": "q5cfvHprVTraL1yXnhDx",
    "hide": false,
    "infected": 10,
    "recovered": 0,
    "latitude": 38.9072,
    "sick": 10
  },
  {
    "hide": false,
    "infected": 9,
    "recovered": 0,
    "latitude": -26.190439,
    "longitude": 123.325947,
    "name": "Western Australia",
    "country": "AU",
    "dead": 1,
    "lastUpdated": "2020-03-12T23:56:33.315Z",
    "id": "qnQ0dkxAxnDP01YpdZgk",
    "sick": 8
  },
  {
    "id": "qpAxVz0garcS0gNZxtOw",
    "hide": false,
    "infected": 399,
    "recovered": 1,
    "latitude": 50.503887,
    "longitude": 4.469936,
    "name": "Belgium",
    "country": "BE",
    "dead": 3,
    "lastUpdated": "2020-03-13T05:14:07.948Z",
    "sick": 395
  },
  {
    "dead": 0,
    "lastUpdated": "2020-03-13T05:28:03.615Z",
    "id": "qsrWiq0qCmIG66hpWojP",
    "hide": false,
    "infected": 22,
    "recovered": 0,
    "latitude": 31,
    "longitude": -100,
    "name": "Texas",
    "country": "US",
    "sick": 22
  },
  {
    "id": "qyX9xXEuKg3co8yKe3Fl",
    "hide": false,
    "infected": 147,
    "recovered": 1,
    "latitude": 43.9352,
    "longitude": 6.0679,
    "name": "Provence-Alpes-Côte d'Azur",
    "country": "FR",
    "dead": 1,
    "lastUpdated": "2020-03-13T05:25:08.612Z",
    "sick": 145
  },
  {
    "latitude": 30.9843,
    "longitude": -91.9623,
    "name": "Louisiana",
    "country": "US",
    "dead": 0,
    "lastUpdated": "2020-03-13T05:28:03.563Z",
    "id": "qzuktS0qQVU4PEookjss",
    "hide": false,
    "infected": 13,
    "recovered": 0,
    "sick": 13
  },
  {
    "hide": false,
    "infected": 44,
    "recovered": 16,
    "latitude": 14.058324,
    "longitude": 108.277199,
    "name": "Vietnam",
    "country": "VN",
    "dead": 0,
    "lastUpdated": "2020-03-13T05:14:08.011Z",
    "id": "rKnSEyG03ak4YmGzonlg",
    "sick": 28
  },
  {
    "hide": false,
    "infected": 1215,
    "recovered": 1197,
    "latitude": 29.159849,
    "longitude": 120.326447,
    "name": "Zhejiang",
    "country": "CN",
    "dead": 1,
    "lastUpdated": "2020-03-12T23:51:47.642Z",
    "id": "rgBVJ4hPofqjjchnroiY",
    "sick": 17
  },
  {
    "longitude": 8.468946,
    "name": "Norway",
    "country": "NO",
    "dead": 1,
    "lastUpdated": "2020-03-13T05:14:07.925Z",
    "id": "rxSafpWsyKhfkV0HTtb4",
    "hide": false,
    "infected": 800,
    "recovered": 1,
    "latitude": 60.472023,
    "sick": 798
  },
  {
    "longitude": -116.5765,
    "name": "Alberta",
    "country": "CA",
    "dead": 0,
    "lastUpdated": "2020-03-12T23:55:59.558Z",
    "id": "sBFMOzZJdrdXdyLZpweO",
    "hide": false,
    "infected": 19,
    "recovered": 0,
    "latitude": 53.9333,
    "sick": 19
  },
  {
    "recovered": 160,
    "latitude": 19.566395,
    "longitude": 109.949684,
    "name": "Hainan",
    "country": "CN",
    "dead": 8,
    "lastUpdated": "2020-03-12T23:52:17.367Z",
    "id": "sKNhMvgXeyivpNFg02RA",
    "hide": false,
    "infected": 168,
    "sick": 0
  },
  {
    "latitude": -10.33755,
    "longitude": -75.630295,
    "name": "Peru",
    "country": "PE",
    "dead": 0,
    "lastUpdated": "2020-03-13T05:14:08.182Z",
    "id": "sLL1jETcJYjT6g5bfcEG",
    "hide": false,
    "infected": 22,
    "recovered": 0,
    "sick": 22
  },
  {
    "longitude": 114.904221,
    "name": "Hebei",
    "country": "CN",
    "dead": 6,
    "lastUpdated": "2020-03-12T23:53:27.749Z",
    "id": "sgsBhTwHxF1VVnqXbXXp",
    "hide": false,
    "infected": 318,
    "recovered": 308,
    "latitude": 37.89566,
    "sick": 4
  },
  {
    "hide": false,
    "infected": 31,
    "recovered": 0,
    "latitude": 42.3154,
    "longitude": 43.3569,
    "name": "Georgia",
    "country": "GE",
    "dead": 1,
    "lastUpdated": "2020-03-13T02:23:13.067Z",
    "id": "sjW9OwjFqrOvjVHRXWoR",
    "sick": 30
  },
  {
    "id": "t2fq7L9UcXfhuXfQNVRj",
    "hide": false,
    "infected": 6,
    "recovered": 0,
    "latitude": -23.4425,
    "longitude": -58.4438,
    "name": "Paraguay",
    "country": "PY",
    "dead": 0,
    "lastUpdated": "2020-03-13T05:14:07.950Z",
    "sick": 6
  },
  {
    "recovered": 0,
    "latitude": 39.147061,
    "longitude": -111.596466,
    "name": "Utah",
    "country": "US",
    "dead": 0,
    "lastUpdated": "2020-03-13T05:28:03.519Z",
    "id": "tSmr8vNsiDhhpXMSBsms",
    "hide": false,
    "infected": 5,
    "sick": 5
  },
  {
    "recovered": 999,
    "latitude": 27.3818,
    "longitude": 111.510681,
    "name": "Hunan",
    "country": "CN",
    "dead": 4,
    "lastUpdated": "2020-03-12T23:50:51.365Z",
    "id": "tdNRDDrgvBQqqwzdFGh4",
    "hide": false,
    "infected": 1018,
    "sick": 15
  },
  {
    "hide": false,
    "infected": 146,
    "recovered": 137,
    "latitude": 26.842964,
    "longitude": 107.290283,
    "name": "Guizhou",
    "country": "CN",
    "dead": 2,
    "lastUpdated": "2020-03-12T23:54:30.587Z",
    "id": "tyY4QSHWG9sXqSO9jm0Y",
    "sick": 7
  },
  {
    "dead": 0,
    "lastUpdated": "2020-03-13T05:27:02.451Z",
    "id": "ubUuY89n0cXVgahI4Ytp",
    "hide": false,
    "infected": 14,
    "recovered": 0,
    "latitude": 29.0588,
    "longitude": 76.0856,
    "name": "Haryana",
    "country": "IN",
    "sick": 14
  },
  {
    "hide": false,
    "infected": 631,
    "recovered": 629,
    "latitude": 32.93708,
    "longitude": 119.151932,
    "name": "Jiangsu",
    "country": "CN",
    "dead": 0,
    "lastUpdated": "2020-03-12T23:53:57.037Z",
    "id": "uvxN28EpGmRq3K9REtBP",
    "sick": 2
  },
  {
    "latitude": 33.7782,
    "longitude": 76.5762,
    "name": "Jammu and Kashmir",
    "country": "IN",
    "dead": 0,
    "lastUpdated": "2020-03-13T05:27:02.448Z",
    "id": "v5wfBhxjYTpTMaKko6AW",
    "hide": false,
    "infected": 1,
    "recovered": 0,
    "sick": 1
  },
  {
    "hide": false,
    "infected": 80,
    "recovered": 27,
    "latitude": 26.820553,
    "longitude": 30.802498,
    "name": "Egypt",
    "country": "EG",
    "dead": 2,
    "lastUpdated": "2020-03-13T05:14:07.921Z",
    "id": "v8JcH4FHH7BDpJlNNHjv",
    "sick": 51
  },
  {
    "hide": false,
    "infected": 373,
    "recovered": 1,
    "latitude": 47.288374,
    "longitude": -119.928431,
    "name": "Washington",
    "country": "US",
    "dead": 31,
    "lastUpdated": "2020-03-13T05:28:03.594Z",
    "id": "vCUVQn7RK8pkw5y2rvYN",
    "sick": 341
  },
  {
    "latitude": 18.1096,
    "longitude": -77.2975,
    "name": "Jamaica",
    "country": "JM",
    "dead": 0,
    "lastUpdated": "2020-03-13T05:14:07.849Z",
    "id": "vMGALmMJbagxGIbLyFfS",
    "hide": false,
    "infected": 2,
    "recovered": 0,
    "sick": 2
  },
  {
    "hide": false,
    "infected": 577,
    "recovered": 5,
    "latitude": 48.8499,
    "longitude": 2.637,
    "name": "Île-de-France",
    "country": "FR",
    "dead": 4,
    "lastUpdated": "2020-03-13T05:25:08.641Z",
    "id": "vSwFXxTSLgzsG25zOJUy",
    "sick": 568
  },
  {
    "hide": false,
    "infected": 10075,
    "recovered": 3276,
    "latitude": 32.42791,
    "longitude": 53.688046,
    "name": "Iran",
    "country": "IR",
    "dead": 429,
    "lastUpdated": "2020-03-13T05:14:07.966Z",
    "id": "vkkXVaqUswO5JsMZx0mX",
    "sick": 6370
  },
  {
    "latitude": -34.6037,
    "longitude": -58.3816,
    "name": "Argentina",
    "country": "AR",
    "dead": 1,
    "lastUpdated": "2020-03-13T05:14:07.929Z",
    "id": "wEl0cjiA6OcZiI9kaSsF",
    "hide": false,
    "infected": 31,
    "recovered": 0,
    "sick": 30
  },
  {
    "recovered": 0,
    "latitude": 44.3148,
    "longitude": -85.6024,
    "name": "Michigan",
    "country": "US",
    "dead": 0,
    "lastUpdated": "2020-03-13T05:28:03.588Z",
    "id": "wgRwpPMGBaKLAl1xo1C7",
    "hide": false,
    "infected": 12,
    "sick": 12
  },
  {
    "hide": false,
    "infected": 2,
    "recovered": 0,
    "latitude": 21.287261,
    "longitude": -157.838954,
    "name": "Hawaii",
    "country": "US",
    "dead": 0,
    "lastUpdated": "2020-03-13T05:28:03.514Z",
    "id": "wi47s9vKxiMqxfgurj3B",
    "sick": 2
  },
  {
    "longitude": 35.918113,
    "name": "Lebanon",
    "country": "LB",
    "dead": 3,
    "lastUpdated": "2020-03-13T05:14:07.978Z",
    "id": "xFgM48q8JxVPfvQLQDNb",
    "hide": false,
    "infected": 68,
    "recovered": 1,
    "latitude": 34.08267,
    "sick": 64
  },
  {
    "latitude": 9.081999,
    "longitude": 8.675277,
    "name": "Nigeria",
    "country": "NG",
    "dead": 0,
    "lastUpdated": "2020-03-13T05:14:07.852Z",
    "id": "xHWPTTpNHEwWv6MqfxP5",
    "hide": false,
    "infected": 2,
    "recovered": 0,
    "sick": 2
  },
  {
    "longitude": -101.002,
    "name": "North Dakota",
    "country": "US",
    "dead": 0,
    "lastUpdated": "2020-03-13T05:28:03.517Z",
    "id": "xQpNodSQfHNHAtG9Onnj",
    "hide": false,
    "infected": 1,
    "recovered": 0,
    "latitude": 47.5515,
    "sick": 1
  },
  {
    "latitude": 44.5,
    "longitude": -89.5,
    "name": "Wisconsin",
    "country": "US",
    "dead": 0,
    "lastUpdated": "2020-03-13T05:28:03.598Z",
    "id": "xSHgaJlyPxHFWB6hhyng",
    "hide": false,
    "infected": 6,
    "recovered": 1,
    "sick": 5
  },
  {
    "recovered": 0,
    "latitude": -1.831239,
    "longitude": -78.183403,
    "name": "Ecuador",
    "country": "EC",
    "dead": 0,
    "lastUpdated": "2020-03-13T05:14:08.018Z",
    "id": "zC03Urt1iJJb2Tf6p0jd",
    "hide": false,
    "infected": 17,
    "sick": 17
  },
  {
    "id": "zvdC0u72Bk5YKNaazZFZ",
    "hide": false,
    "infected": 70,
    "recovered": 35,
    "latitude": 15.870032,
    "longitude": 100.992538,
    "name": "Thailand",
    "country": "TH",
    "dead": 1,
    "lastUpdated": "2020-03-13T05:14:07.937Z",
    "sick": 34
  },
  {
    "dead": 0,
    "lastUpdated": "2020-03-13T05:14:07.967Z",
    "id": "zyxFwuiyCJHhRyNEg60C",
    "hide": false,
    "infected": 24,
    "recovered": 0,
    "latitude": 44.0165,
    "longitude": 21.0059,
    "name": "Serbia",
    "country": "RS",
    "sick": 24
  }
]