[
  {
    "latitude": 12.5847,
    "dead": 0,
    "lastUpdated": "2020-07-06T17:45:12.056Z",
    "recovered": 21,
    "infected": 28,
    "id": "01b09TY4vmuZwzVuiRFK",
    "pop": 72600,
    "country": "CO",
    "longitude": -81.7006,
    "name": "San Andrés",
    "sick": 7,
    "invisible": false
  },
  {
    "lastUpdated": "2020-07-06T17:56:02.864Z",
    "recovered": 238,
    "infected": 252,
    "id": "0FOJefeLxQYXQ1CnJm9o",
    "pop": 63196,
    "country": "GG",
    "longitude": -2.5895,
    "name": "Guernsey",
    "alwaysShow": false,
    "latitude": 49.4482,
    "dead": 13,
    "sick": 1,
    "invisible": false
  },
  {
    "country": "IT",
    "longitude": 14.333333,
    "name": "Campania",
    "latitude": 41.066666,
    "dead": 432,
    "lastUpdated": "2020-07-06T17:31:11.740Z",
    "recovered": 4087,
    "infected": 4746,
    "state": "72",
    "id": "0GJcws44NSPsDHAuxJhW",
    "pop": 5827000,
    "sick": 227,
    "invisible": false
  },
  {
    "id": "0HDQbiHe462xMCUV5HiI",
    "pop": 383870,
    "country": "CL",
    "longitude": -70.14222,
    "name": "Tarapacá",
    "latitude": -20.2167,
    "dead": 102,
    "lastUpdated": "2020-07-06T17:51:04.575Z",
    "recovered": 0,
    "infected": 6632,
    "sick": 6530,
    "invisible": false
  },
  {
    "recovered": 6486,
    "infected": 9526,
    "id": "0VG7S6aaK4eSo59fL9JO",
    "pop": 45990000,
    "country": "IN",
    "longitude": 85.0985,
    "name": "Odisha",
    "latitude": 20.9517,
    "dead": 48,
    "lastUpdated": "2020-07-06T17:41:01.527Z",
    "sick": 2992,
    "invisible": false
  },
  {
    "id": "0XmCRqiK2ZaehoEJvfer",
    "pop": 2990300,
    "country": "MX",
    "longitude": -98.8582,
    "name": "Hidalgo",
    "latitude": 20.4737,
    "dead": 722,
    "lastUpdated": "2020-07-06T17:32:17.207Z",
    "recovered": 0,
    "infected": 4322,
    "sick": 3600,
    "invisible": false
  },
  {
    "latitude": 11.7401,
    "dead": 0,
    "lastUpdated": "2020-07-06T17:41:01.529Z",
    "recovered": 74,
    "infected": 141,
    "id": "0jStOpTUNRaQYJqgmRoK",
    "pop": 427246,
    "country": "IN",
    "longitude": 92.6586,
    "name": "Andaman and Nicobar Islands",
    "sick": 67,
    "invisible": false
  },
  {
    "longitude": 51.145517,
    "name": "Qatar",
    "latitude": 25.315058,
    "dead": 133,
    "lastUpdated": "2020-07-06T17:46:03.525Z",
    "recovered": 93898,
    "infected": 100345,
    "id": "0m4aECS0Z2DGFEr8ldgI",
    "pop": 2639000,
    "country": "QA",
    "sick": 6314,
    "invisible": false
  },
  {
    "lastUpdated": "2020-07-06T17:41:01.520Z",
    "recovered": 15235,
    "infected": 22987,
    "id": "0n54EMSDJcRoT1QEvw80",
    "pop": 90320000,
    "country": "IN",
    "longitude": 87.855,
    "name": "West Bengal",
    "latitude": 22.9868,
    "dead": 779,
    "sick": 6973,
    "invisible": false
  },
  {
    "longitude": 78.6569,
    "name": "Madhya Pradesh",
    "latitude": 22.9734,
    "dead": 617,
    "lastUpdated": "2020-07-06T17:41:01.520Z",
    "recovered": 11579,
    "infected": 15284,
    "id": "0s18o5DrDAHjbu5MFcrj",
    "pop": 73340000,
    "country": "IN",
    "sick": 3088,
    "invisible": false
  },
  {
    "lastUpdated": "2020-07-06T17:46:03.519Z",
    "recovered": 1298650,
    "infected": 0,
    "id": "0tFoopNTs6e4tOoaltu2",
    "country": "US",
    "longitude": -95.7129,
    "invisible": true,
    "name": "Unknown US state",
    "latitude": 37.0902,
    "dead": 0,
    "sick": 0
  },
  {
    "lastUpdated": "2020-07-06T17:53:10.665Z",
    "recovered": 313,
    "infected": 321,
    "id": "0x2HLhr5z5xAtEdO4iZm",
    "pop": 37330000,
    "country": "CN",
    "longitude": 108.472214,
    "name": "Shaanxi",
    "latitude": 35.64249,
    "dead": 3,
    "sick": 5,
    "invisible": false
  },
  {
    "latitude": 41.643351,
    "dead": 346,
    "lastUpdated": "2020-07-06T17:46:03.532Z",
    "recovered": 3199,
    "infected": 7124,
    "id": "19MvIhipqTyYv1H37Upw",
    "pop": 2077000,
    "country": "MK",
    "longitude": 21.668393,
    "name": "North Macedonia",
    "sick": 3579,
    "invisible": false
  },
  {
    "latitude": 53.1355,
    "dead": 3,
    "lastUpdated": "2020-07-06T17:40:02.726Z",
    "recovered": 0,
    "infected": 261,
    "state": "NL",
    "id": "1DOMOmCWDtva46OVSZLv",
    "pop": 521542,
    "country": "CA",
    "longitude": -57.6604,
    "name": "Newfoundland and Labrador",
    "sick": 258,
    "invisible": false
  },
  {
    "latitude": 35.801933,
    "dead": 0,
    "lastUpdated": "2020-07-06T17:53:10.667Z",
    "recovered": 18,
    "infected": 18,
    "id": "1Fap7rZu9SIRqf5TG9Dg",
    "pop": 5627000,
    "country": "CN",
    "longitude": 96.779286,
    "name": "Qinghai",
    "sick": 0,
    "invisible": false
  },
  {
    "id": "1YXQMlVL3fUeDZmcVfJw",
    "pop": 126200000,
    "country": "MX",
    "longitude": -102.5528,
    "invisible": true,
    "name": "Unknown Mexico state",
    "latitude": 23.6345,
    "dead": 0,
    "lastUpdated": "2020-07-06T17:46:03.520Z",
    "recovered": 155604,
    "infected": 0,
    "sick": 0
  },
  {
    "longitude": 73.3167,
    "name": "Omsk Oblast",
    "latitude": 55.0555,
    "dead": 35,
    "lastUpdated": "2020-07-06T17:30:08.483Z",
    "recovered": 2209,
    "infected": 4120,
    "id": "1at5nIap9H51v32otlQl",
    "pop": 1960000,
    "country": "RU",
    "sick": 1876,
    "invisible": false
  },
  {
    "longitude": 8.206944,
    "name": "Piemonte",
    "latitude": 44.9,
    "dead": 4104,
    "lastUpdated": "2020-07-06T17:31:11.741Z",
    "recovered": 26117,
    "infected": 31429,
    "state": "21",
    "id": "1eTSQyfp8RoDPeFrIwun",
    "pop": 4376000,
    "country": "IT",
    "sick": 1208,
    "invisible": false
  },
  {
    "longitude": 15.461,
    "name": "Lubuskie",
    "latitude": 51.993,
    "dead": 0,
    "lastUpdated": "2020-07-06T17:33:01.867Z",
    "recovered": 0,
    "infected": 152,
    "id": "1j1OurxLTpZYuWIWwQ9F",
    "pop": 1003000,
    "country": "PL",
    "sick": 152,
    "invisible": false
  },
  {
    "longitude": 28.3699,
    "name": "Moldova",
    "latitude": 47.4116,
    "dead": 592,
    "lastUpdated": "2020-07-06T17:46:03.530Z",
    "recovered": 11047,
    "infected": 17906,
    "id": "1qTPB8X3tyLyIdsb5TN3",
    "pop": 3550000,
    "country": "MD",
    "sick": 6267,
    "invisible": false
  },
  {
    "longitude": -95.7129,
    "invisible": true,
    "name": "Federal Bureau of Prisons",
    "latitude": 37.0902,
    "dead": 95,
    "lastUpdated": "2020-07-06T17:47:01.600Z",
    "recovered": 0,
    "infected": 7925,
    "id": "22PJOAThcDFKgSbyQIkD",
    "country": "US",
    "sick": 7830
  },
  {
    "longitude": 88.787865,
    "name": "Tibet",
    "latitude": 30.15336,
    "dead": 0,
    "lastUpdated": "2020-07-06T17:53:10.667Z",
    "recovered": 1,
    "infected": 1,
    "id": "25qIBtsW2nfQj3pwBKg9",
    "pop": 3180000,
    "country": "CN",
    "sick": 0,
    "invisible": false
  },
  {
    "recovered": 29919,
    "infected": 64958,
    "id": "2KHYUb5t3lwzVVmDjwNX",
    "pop": 264000000,
    "country": "ID",
    "longitude": 115.66779,
    "name": "Indonesia",
    "latitude": -1.572184,
    "dead": 3241,
    "lastUpdated": "2020-07-06T17:46:03.525Z",
    "sick": 31798,
    "invisible": false
  },
  {
    "recovered": 0,
    "infected": 10230,
    "state": "OR",
    "id": "2OrsssmGUs4XCzaZzvTv",
    "pop": 4191000,
    "country": "US",
    "longitude": -120.585594,
    "name": "Oregon",
    "latitude": 43.807191,
    "dead": 215,
    "lastUpdated": "2020-07-06T17:47:01.598Z",
    "sick": 10015,
    "invisible": false
  },
  {
    "country": "CL",
    "longitude": -70.400002,
    "name": "Antofagasta",
    "latitude": -23.65,
    "dead": 183,
    "lastUpdated": "2020-07-06T17:51:04.575Z",
    "recovered": 0,
    "infected": 10355,
    "id": "2c5HBZ1ffkCVXnMYUWnY",
    "pop": 425000,
    "sick": 10172,
    "invisible": false
  },
  {
    "country": "BR",
    "longitude": -51.070534,
    "name": "Amapá",
    "latitude": 0.035574,
    "dead": 442,
    "lastUpdated": "2020-07-06T17:45:01.502Z",
    "recovered": 0,
    "infected": 29883,
    "state": "AP",
    "id": "2dzhyWsBSPpENWlNew0b",
    "pop": 9029000,
    "sick": 29441,
    "invisible": false
  },
  {
    "recovered": 153,
    "infected": 155,
    "id": "2jxHvSsxdnom0nPNvOT8",
    "pop": 27460000,
    "country": "CN",
    "longitude": 126.548103,
    "name": "Jilin",
    "latitude": 43.851921,
    "dead": 2,
    "lastUpdated": "2020-07-06T17:53:10.667Z",
    "sick": 0,
    "invisible": false
  },
  {
    "id": "2p11BjSAs3wVyymgqBOe",
    "pop": 34571,
    "country": "GI",
    "longitude": -5.3536,
    "name": "Gibraltar",
    "latitude": 36.1408,
    "dead": 0,
    "lastUpdated": "2020-07-06T17:46:03.539Z",
    "recovered": 176,
    "infected": 179,
    "sick": 3,
    "invisible": false
  },
  {
    "name": "Centre-Val de Loire",
    "latitude": 47.7516,
    "dead": 547,
    "lastUpdated": "2020-07-05T23:42:58.731Z",
    "recovered": 1956,
    "infected": 4492,
    "id": "2sLNkkHpyaHx7dD3aMDO",
    "pop": 2567000,
    "country": "FR",
    "longitude": 1.6751,
    "sick": 1989,
    "invisible": false
  },
  {
    "lastUpdated": "2020-07-06T17:31:11.742Z",
    "recovered": 1358,
    "infected": 1447,
    "state": "55",
    "id": "319tiZOMczx1y0DfvOib",
    "pop": 884640,
    "country": "IT",
    "longitude": 12.643751,
    "name": "Umbria",
    "latitude": 42.565044,
    "dead": 80,
    "sick": 9,
    "invisible": false
  },
  {
    "name": "Cauca",
    "latitude": 2.43823,
    "dead": 20,
    "lastUpdated": "2020-07-06T17:45:12.055Z",
    "recovered": 178,
    "infected": 530,
    "id": "38T96Q3XNjt5FSJygPed",
    "pop": 1355000,
    "country": "CO",
    "longitude": -76.6131592,
    "sick": 332,
    "invisible": false
  },
  {
    "name": "Zambia",
    "latitude": -13.133896,
    "dead": 30,
    "lastUpdated": "2020-07-06T17:46:03.535Z",
    "recovered": 1348,
    "infected": 1632,
    "id": "3IlPjAbP5qVMn1nlgLTJ",
    "pop": 17090000,
    "country": "ZM",
    "longitude": 27.849332,
    "sick": 254,
    "invisible": false
  },
  {
    "longitude": 19.3958,
    "name": "Montenegro",
    "latitude": 42.7044,
    "dead": 14,
    "lastUpdated": "2020-07-06T17:46:03.537Z",
    "recovered": 315,
    "infected": 841,
    "id": "3LstMSN5XMYBkxbe5HN7",
    "pop": 631219,
    "country": "ME",
    "sick": 512,
    "invisible": false
  },
  {
    "recovered": 105,
    "infected": 108,
    "state": "ACT",
    "id": "3OZoQsKrzxZ18EKyfGE6",
    "pop": 418440,
    "country": "AU",
    "longitude": 149.0124,
    "name": "Australian Capital Territory",
    "latitude": -35.4735,
    "dead": 3,
    "lastUpdated": "2020-07-06T17:13:21.349Z",
    "sick": 0,
    "invisible": false
  },
  {
    "longitude": 38.8389,
    "name": "Yaroslavl Oblast",
    "latitude": 57.8992,
    "dead": 19,
    "lastUpdated": "2020-07-06T17:30:08.482Z",
    "recovered": 3763,
    "infected": 5031,
    "id": "3PfzjWjvOkfgxc672BHQ",
    "pop": 608000,
    "country": "RU",
    "sick": 1249,
    "invisible": false
  },
  {
    "id": "3PpqgIUJAtzxo1j7z56i",
    "pop": 321000,
    "country": "RU",
    "longitude": 95.626,
    "name": "Tuva",
    "latitude": 51.8873,
    "dead": 13,
    "lastUpdated": "2020-07-06T17:30:08.482Z",
    "recovered": 1796,
    "infected": 5083,
    "sick": 3274,
    "invisible": false
  },
  {
    "latitude": 26.2006,
    "dead": 14,
    "lastUpdated": "2020-07-06T17:41:01.527Z",
    "recovered": 7883,
    "infected": 11737,
    "id": "3cCbnJCsK7mKlTO08K1o",
    "pop": 30940000,
    "country": "IN",
    "longitude": 92.9376,
    "name": "Assam",
    "sick": 3840,
    "invisible": false
  },
  {
    "latitude": 40.4173,
    "dead": 2935,
    "lastUpdated": "2020-07-06T17:47:01.594Z",
    "recovered": 0,
    "infected": 57194,
    "state": "OH",
    "id": "3fC3bAyIRUquOQOEnQNe",
    "pop": 11690000,
    "country": "US",
    "longitude": -82.9071,
    "name": "Ohio",
    "sick": 54259,
    "invisible": false
  },
  {
    "latitude": 25,
    "dead": 1425,
    "lastUpdated": "2020-07-06T17:32:17.205Z",
    "recovered": 0,
    "infected": 9057,
    "id": "3kFCzJguabtBvXaHxgiu",
    "pop": 3066400,
    "country": "MX",
    "longitude": -107.5,
    "name": "Sinaloa",
    "sick": 7632,
    "invisible": false
  },
  {
    "id": "3mC2LveOpXV8P1PmQGUj",
    "pop": 4708300,
    "country": "CO",
    "longitude": -76.522224,
    "name": "Valle del Cauca",
    "latitude": 3.420556,
    "dead": 355,
    "lastUpdated": "2020-07-06T17:45:12.053Z",
    "recovered": 4350,
    "infected": 10281,
    "sick": 5576,
    "invisible": false
  },
  {
    "name": "Mauritania",
    "latitude": 21.0079,
    "dead": 130,
    "lastUpdated": "2020-07-06T17:46:03.533Z",
    "recovered": 1844,
    "infected": 4879,
    "id": "4NnFMekRK2m14IlnZZoj",
    "pop": 4420000,
    "country": "MR",
    "longitude": -10.9408,
    "sick": 2905,
    "invisible": false
  },
  {
    "longitude": -127.6476,
    "name": "British Columbia",
    "latitude": 53.7267,
    "dead": 177,
    "lastUpdated": "2020-07-06T17:40:02.726Z",
    "recovered": 0,
    "infected": 2947,
    "state": "BC",
    "id": "4hfZRUoUgI4a3vrG0GBk",
    "pop": 5071000,
    "country": "CA",
    "sick": 2770,
    "invisible": false
  },
  {
    "longitude": -43.196388,
    "name": "Rio de Janeiro",
    "latitude": -22.908333,
    "dead": 10667,
    "lastUpdated": "2020-07-06T17:45:01.495Z",
    "recovered": 0,
    "infected": 121292,
    "state": "RJ",
    "id": "4kq0z3kh5zt3YAUWxvtE",
    "pop": 17159960,
    "country": "BR",
    "sick": 110625,
    "invisible": false
  },
  {
    "lastUpdated": "2020-07-06T17:45:01.495Z",
    "recovered": 0,
    "infected": 87048,
    "state": "BA",
    "id": "4yDbkEyqsNzZJjfrciYV",
    "pop": 14812617,
    "country": "BR",
    "longitude": -41.280857,
    "name": "Bahia",
    "latitude": -11.409874,
    "dead": 2107,
    "sick": 84941,
    "invisible": false
  },
  {
    "lastUpdated": "2020-07-06T17:46:03.529Z",
    "recovered": 12182,
    "infected": 20837,
    "id": "4zqzRm2xHn0CDVOUQJ8p",
    "pop": 9898000,
    "country": "AZ",
    "longitude": 47.93802,
    "name": "Azerbaijan",
    "latitude": 40.3426,
    "dead": 258,
    "sick": 8397,
    "invisible": false
  },
  {
    "latitude": 22.233105,
    "dead": 502,
    "lastUpdated": "2020-07-06T17:32:17.206Z",
    "recovered": 0,
    "infected": 8042,
    "id": "54cfsdsRF76XVHWtZs19",
    "pop": 3672300,
    "country": "MX",
    "longitude": -97.861099,
    "name": "Tamaulipas",
    "sick": 7540,
    "invisible": false
  },
  {
    "name": "Flanders",
    "latitude": 51.0109,
    "dead": 4899,
    "lastUpdated": "2020-07-06T17:37:06.015Z",
    "recovered": 9384,
    "infected": 34781,
    "state": "VLG",
    "id": "57ydD48mLRD2YoyteJZj",
    "pop": 6596000,
    "country": "BE",
    "longitude": 3.7265,
    "sick": 20498,
    "invisible": false
  },
  {
    "lastUpdated": "2020-07-06T17:46:03.540Z",
    "recovered": 89,
    "infected": 104,
    "id": "5MHegCUO9L3LiAU7DDey",
    "pop": 395361,
    "country": "BS",
    "longitude": -78.035889,
    "name": "Bahamas",
    "latitude": 25.025885,
    "dead": 11,
    "sick": 4,
    "invisible": false
  },
  {
    "recovered": 2988,
    "infected": 3405,
    "state": "NSW",
    "id": "5N16a2OXXRpsEFanw0TC",
    "pop": 7544000,
    "country": "AU",
    "longitude": 146.921097,
    "name": "New South Wales",
    "latitude": -31.253218,
    "dead": 49,
    "lastUpdated": "2020-07-06T17:13:21.350Z",
    "sick": 368,
    "invisible": false
  },
  {
    "country": "SS",
    "longitude": 31.3069782,
    "name": "South Sudan",
    "latitude": 6.8769908,
    "dead": 38,
    "lastUpdated": "2020-07-06T17:46:03.535Z",
    "recovered": 333,
    "infected": 2021,
    "id": "5N4PRxsCDzzwk7R200V1",
    "pop": 12580000,
    "sick": 1650,
    "invisible": false
  },
  {
    "longitude": -0.7533,
    "name": "C. Valenciana",
    "latitude": 39.484,
    "dead": 1432,
    "lastUpdated": "2020-07-05T23:36:04.061Z",
    "recovered": 9970,
    "infected": 15440,
    "state": "VC",
    "id": "5Va9A7CXR8AXdUz4HTJj",
    "pop": 4975000,
    "country": "ES",
    "sick": 4038,
    "invisible": false
  },
  {
    "id": "5fg04eyDwFw3kEXnrxez",
    "pop": 280460,
    "country": "NC",
    "longitude": 165.618042,
    "name": "New Caledonia",
    "latitude": -20.9043045,
    "dead": 0,
    "lastUpdated": "2020-07-06T17:46:03.541Z",
    "recovered": 21,
    "infected": 21,
    "sick": 0,
    "invisible": false
  },
  {
    "recovered": 6811,
    "infected": 15964,
    "id": "5gXZIjRgAvd6xWN1LOv8",
    "pop": 29300000,
    "country": "NP",
    "longitude": 84.124008,
    "name": "Nepal",
    "latitude": 28.394857,
    "dead": 35,
    "lastUpdated": "2020-07-06T17:46:03.530Z",
    "sick": 9118,
    "invisible": false
  },
  {
    "recovered": 12185,
    "infected": 46333,
    "id": "5pwmh7aSdGRKqRbnuyc0",
    "pop": 104900000,
    "country": "PH",
    "longitude": 121.774017,
    "name": "Philippines",
    "latitude": 12.879721,
    "dead": 1303,
    "lastUpdated": "2020-07-06T17:46:03.527Z",
    "sick": 32845,
    "invisible": false
  },
  {
    "latitude": -17.824858,
    "dead": 8,
    "lastUpdated": "2020-07-06T17:46:03.538Z",
    "recovered": 181,
    "infected": 716,
    "id": "5qtR9nx4BLwu1ODTniaY",
    "pop": 14802190,
    "country": "ZW",
    "longitude": 31.053028,
    "name": "Zimbabwe",
    "sick": 527,
    "invisible": false
  },
  {
    "lastUpdated": "2020-07-06T17:47:01.600Z",
    "state": "NA",
    "id": "5vkKgxTaKq1IH0Go357L",
    "longitude": -109.188,
    "invisible": false,
    "name": "Navajo Nation",
    "dead": 378,
    "latitude": 36.0672,
    "infected": 7840,
    "recovered": 0,
    "pop": 356890,
    "country": "US",
    "sick": 7462
  },
  {
    "longitude": -99.177254,
    "name": "Ciudad de México",
    "latitude": 19.432241,
    "dead": 6963,
    "lastUpdated": "2020-07-06T17:32:17.206Z",
    "recovered": 0,
    "infected": 52210,
    "id": "61E7TGjUwAo9xu6Y6gAH",
    "pop": 8781300,
    "country": "MX",
    "sick": 45247,
    "invisible": false
  },
  {
    "latitude": 54.3873,
    "dead": 48,
    "lastUpdated": "2020-07-06T17:30:08.481Z",
    "recovered": 4004,
    "infected": 6321,
    "id": "63KYOuWe41mvqWQrJbr2",
    "pop": 1012000,
    "country": "RU",
    "longitude": 35.1889,
    "name": "Kaluga Oblast",
    "sick": 2269,
    "invisible": false
  },
  {
    "country": "LT",
    "longitude": 23.804991,
    "name": "Lithuania",
    "latitude": 55.621011,
    "dead": 79,
    "lastUpdated": "2020-07-06T17:46:03.535Z",
    "recovered": 1547,
    "infected": 1841,
    "id": "694ON7d0mRJDeM1gHBTR",
    "pop": 2794000,
    "sick": 215,
    "invisible": false
  },
  {
    "id": "6IQAsvrmBv0HPdeTnh4x",
    "pop": 9175000,
    "country": "GB",
    "longitude": -0.5596,
    "name": "South East",
    "latitude": 51.1781,
    "dead": 0,
    "lastUpdated": "2020-07-06T17:43:11.165Z",
    "recovered": 0,
    "infected": 33863,
    "state": "EN",
    "sick": 33863,
    "invisible": false
  },
  {
    "longitude": 114.109497,
    "name": "Hong Kong",
    "latitude": 22.396427,
    "dead": 7,
    "lastUpdated": "2020-07-06T17:46:03.536Z",
    "recovered": 1157,
    "infected": 1286,
    "id": "6IcHIIH0zXpY0POmBZTv",
    "pop": 7392000,
    "country": "HK",
    "sick": 122,
    "invisible": false
  },
  {
    "lastUpdated": "2020-07-06T17:45:01.503Z",
    "recovered": 0,
    "infected": 14622,
    "state": "AC",
    "id": "6LQesrx5bHJsVUi1TXBp",
    "pop": 869265,
    "country": "BR",
    "longitude": -72.4,
    "name": "Acre",
    "latitude": -8.65,
    "dead": 391,
    "sick": 14231,
    "invisible": false
  },
  {
    "recovered": 333,
    "infected": 1199,
    "id": "6SlpghTyB6lpMFvx3g9U",
    "pop": 11180000,
    "country": "BJ",
    "longitude": 2.3158,
    "name": "Benin",
    "latitude": 9.3077,
    "dead": 21,
    "lastUpdated": "2020-07-06T17:46:03.536Z",
    "sick": 845,
    "invisible": false
  },
  {
    "name": "Lombardia",
    "latitude": 45.6667,
    "dead": 16700,
    "lastUpdated": "2020-07-06T17:31:11.740Z",
    "recovered": 68335,
    "infected": 94527,
    "state": "25",
    "id": "6ZHcvMIzVWIaRnc4R3Qp",
    "pop": 10040000,
    "country": "IT",
    "longitude": 9.5,
    "sick": 9492,
    "invisible": false
  },
  {
    "recovered": 1384,
    "infected": 1716,
    "id": "6ahNiyKDSDAftCctgLH3",
    "pop": 2067000,
    "country": "SI",
    "longitude": 14.5058,
    "name": "Slovenia",
    "latitude": 46.0569,
    "dead": 111,
    "lastUpdated": "2020-07-06T17:46:03.535Z",
    "sick": 221,
    "invisible": false
  },
  {
    "name": "Atacama",
    "latitude": -27.3667908,
    "dead": 5,
    "lastUpdated": "2020-07-06T17:51:04.575Z",
    "recovered": 0,
    "infected": 1301,
    "id": "6nyns7UGGgkU7pxrHf8i",
    "pop": 300000,
    "country": "CL",
    "longitude": -70.331398,
    "sick": 1296,
    "invisible": false
  },
  {
    "recovered": 2555,
    "infected": 5620,
    "id": "6pBi38TUgYfFm0bry2uh",
    "pop": 2025000,
    "country": "GA",
    "longitude": 11.6094,
    "name": "Gabon",
    "latitude": -0.8037,
    "dead": 44,
    "lastUpdated": "2020-07-06T17:46:03.532Z",
    "sick": 3021,
    "invisible": false
  },
  {
    "latitude": 22.1498,
    "dead": 229,
    "lastUpdated": "2020-07-06T17:32:17.207Z",
    "recovered": 0,
    "infected": 3641,
    "id": "6vjIVg1gSANFZghV7xtS",
    "pop": 2831900,
    "country": "MX",
    "longitude": -100.9792,
    "name": "San Luis Potosí",
    "sick": 3412,
    "invisible": false
  },
  {
    "lastUpdated": "2020-07-06T17:46:03.543Z",
    "recovered": 6,
    "infected": 6,
    "id": "78Ox26bNHDA2Pk2b3Uwn",
    "pop": 9131,
    "country": "FR",
    "longitude": -62.818544,
    "name": "Saint-Barthélémy",
    "alwaysShow": true,
    "latitude": 17.901672,
    "dead": 0,
    "sick": 0,
    "invisible": false
  },
  {
    "lastUpdated": "2020-07-06T17:33:01.867Z",
    "recovered": 0,
    "infected": 688,
    "id": "7JDx6UJiwGSJyL1fChaJ",
    "pop": 2305000,
    "country": "PL",
    "longitude": 18.633,
    "name": "Pomorskie",
    "latitude": 54.367,
    "dead": 38,
    "sick": 650,
    "invisible": false
  },
  {
    "lastUpdated": "2020-07-05T23:37:14.558Z",
    "recovered": 125,
    "infected": 139,
    "state": "ML",
    "id": "7UASdZTZ1nPzzBwSTEA9",
    "pop": 84690,
    "country": "ES",
    "longitude": -2.9381,
    "name": "Melilla",
    "latitude": 35.2923,
    "dead": 2,
    "sick": 12,
    "invisible": false
  },
  {
    "name": "Antigua and Barbuda",
    "latitude": 17.0608,
    "dead": 3,
    "lastUpdated": "2020-07-06T17:46:03.540Z",
    "recovered": 23,
    "infected": 68,
    "id": "7hVFcEV7nV0MrQr3LHrl",
    "pop": 102012,
    "country": "AG",
    "longitude": -61.7964,
    "sick": 42,
    "invisible": false
  },
  {
    "longitude": 11.4979,
    "name": "Bayern",
    "latitude": 48.7904,
    "dead": 2642,
    "lastUpdated": "2020-07-06T17:30:08.878Z",
    "recovered": 45433,
    "infected": 49095,
    "state": "BY",
    "id": "7kCrrlOBE3jN6FtOVNUB",
    "pop": 13000000,
    "country": "DE",
    "sick": 1020,
    "invisible": false
  },
  {
    "latitude": 47.4979,
    "dead": 589,
    "lastUpdated": "2020-07-06T17:46:03.533Z",
    "recovered": 2860,
    "infected": 4189,
    "id": "7rYC2iFB50c55Ihgbs4Q",
    "pop": 9773000,
    "country": "HU",
    "longitude": 19.0402,
    "name": "Hungary",
    "sick": 740,
    "invisible": false
  },
  {
    "latitude": 10.9685,
    "dead": 874,
    "lastUpdated": "2020-07-06T17:45:12.055Z",
    "recovered": 5169,
    "infected": 14987,
    "id": "7tqLvLyXcBDK808nJv0m",
    "pop": 1206000,
    "country": "CO",
    "longitude": -74.7813,
    "name": "Barranquilla D.E.",
    "sick": 8944,
    "invisible": false
  },
  {
    "longitude": 12.3547,
    "name": "Cameroon",
    "latitude": 7.3697,
    "dead": 313,
    "lastUpdated": "2020-07-06T17:46:03.530Z",
    "recovered": 10100,
    "infected": 12592,
    "id": "8C0d7WVCjyUGtnc2gUAR",
    "pop": 24050000,
    "country": "CM",
    "sick": 2179,
    "invisible": false
  },
  {
    "country": "BE",
    "longitude": 4.3517,
    "name": "Brussels",
    "latitude": 50.8503,
    "dead": 1484,
    "lastUpdated": "2020-07-06T17:37:06.016Z",
    "recovered": 2814,
    "infected": 6421,
    "state": "BRU",
    "id": "8DOZWbN6bDdgaLXVlUEu",
    "pop": 1209000,
    "sick": 2123,
    "invisible": false
  },
  {
    "longitude": -63.5887,
    "name": "Bolivia",
    "latitude": -16.2902,
    "dead": 1434,
    "lastUpdated": "2020-07-06T17:46:03.527Z",
    "recovered": 11667,
    "infected": 39297,
    "id": "8RihJrXw4NQXPxaRxr1u",
    "pop": 11050000,
    "country": "BO",
    "sick": 26196,
    "invisible": false
  },
  {
    "recovered": 29,
    "infected": 29,
    "id": "8ZTySQROQejkDAad0qxQ",
    "pop": 109897,
    "country": "VC",
    "longitude": -61.2872,
    "name": "St. Vincent Grenadines",
    "latitude": 12.9843,
    "dead": 0,
    "lastUpdated": "2020-07-06T17:46:03.541Z",
    "sick": 0,
    "invisible": false
  },
  {
    "name": "Singapore",
    "latitude": 1.352083,
    "dead": 26,
    "lastUpdated": "2020-07-06T17:46:03.527Z",
    "recovered": 40717,
    "infected": 44983,
    "id": "8pA3fM4xC2c2wv1b4TnE",
    "pop": 5621000,
    "country": "SG",
    "longitude": 103.819839,
    "sick": 4240,
    "invisible": false
  },
  {
    "country": "FR",
    "longitude": -1.5536,
    "name": "Pays de la Loire",
    "latitude": 47.2184,
    "dead": 469,
    "lastUpdated": "2020-07-05T23:43:33.995Z",
    "recovered": 2091,
    "infected": 4164,
    "id": "98hwAoohgWEOQVa3NlM5",
    "pop": 3787000,
    "sick": 1604,
    "invisible": false
  },
  {
    "lastUpdated": "2020-07-06T17:32:17.206Z",
    "recovered": 0,
    "infected": 2500,
    "id": "9DAvxOObTqIvMOU93nlY",
    "pop": 952300,
    "country": "MX",
    "longitude": -90.19885,
    "name": "Campeche",
    "latitude": 19.30754,
    "dead": 250,
    "sick": 2250,
    "invisible": false
  },
  {
    "latitude": 12.8628,
    "dead": 608,
    "lastUpdated": "2020-07-06T17:46:03.531Z",
    "recovered": 4673,
    "infected": 9767,
    "id": "9DPOkpIqrFy9mR4e9fuv",
    "pop": 40530000,
    "country": "SD",
    "longitude": 30.2176,
    "name": "Sudan",
    "sick": 4486,
    "invisible": false
  },
  {
    "lastUpdated": "2020-07-06T17:30:08.485Z",
    "recovered": 1051,
    "infected": 1696,
    "id": "9JFYfvpcejMIgYlHpngA",
    "pop": 643000,
    "country": "RU",
    "longitude": 43.9541,
    "name": "Kostroma Oblast",
    "latitude": 58.5501,
    "dead": 21,
    "sick": 624,
    "invisible": false
  },
  {
    "id": "9QcETqEcM2fTv9zRvx5T",
    "pop": 19530000,
    "country": "RO",
    "longitude": 24.966761,
    "name": "Romania",
    "latitude": 45.943161,
    "dead": 1768,
    "lastUpdated": "2020-07-06T17:46:03.529Z",
    "recovered": 20213,
    "infected": 29223,
    "sick": 7242,
    "invisible": false
  },
  {
    "latitude": 12.136389,
    "dead": 83,
    "lastUpdated": "2020-07-06T17:46:03.534Z",
    "recovered": 1238,
    "infected": 2519,
    "id": "9Y5wmCqNCC6ZrenM31uA",
    "pop": 6218000,
    "country": "NI",
    "longitude": -86.251389,
    "name": "Nicaragua",
    "sick": 1198,
    "invisible": false
  },
  {
    "latitude": 17.5706921,
    "dead": 119,
    "lastUpdated": "2020-07-06T17:46:03.535Z",
    "recovered": 1547,
    "infected": 2331,
    "id": "9dIzxqDSVqPyINkHqwGv",
    "pop": 18540000,
    "country": "ML",
    "longitude": -3.996166,
    "name": "Mali",
    "sick": 665,
    "invisible": false
  },
  {
    "id": "9p6OCdZbUUwBLA60Gk3W",
    "pop": 5513000,
    "country": "FI",
    "longitude": 25.748152,
    "name": "Finland",
    "latitude": 61.92411,
    "dead": 329,
    "lastUpdated": "2020-07-06T17:46:03.532Z",
    "recovered": 6700,
    "infected": 7257,
    "sick": 228,
    "invisible": false
  },
  {
    "id": "A6Us0fpQVCc85SoIqzg3",
    "pop": 2876000,
    "country": "RU",
    "longitude": 95.1104,
    "name": "Krasnoyarsk Krai",
    "latitude": 64.248,
    "dead": 164,
    "lastUpdated": "2020-07-06T17:30:08.479Z",
    "recovered": 5143,
    "infected": 9716,
    "sick": 4409,
    "invisible": false
  },
  {
    "latitude": 43.311643,
    "dead": 381,
    "lastUpdated": "2020-07-06T17:47:01.599Z",
    "recovered": 0,
    "infected": 5897,
    "state": "NH",
    "id": "A84CwQ52kA46Hr7pn6Bm",
    "pop": 1356000,
    "country": "US",
    "longitude": -71.590315,
    "name": "New Hampshire",
    "sick": 5516,
    "invisible": false
  },
  {
    "latitude": 41.823261,
    "dead": 960,
    "lastUpdated": "2020-07-06T17:47:01.598Z",
    "recovered": 0,
    "infected": 16991,
    "state": "RI",
    "id": "AEUWUHS65qvjEslew11c",
    "pop": 1057000,
    "country": "US",
    "longitude": -71.412257,
    "name": "Rhode Island",
    "sick": 16031,
    "invisible": false
  },
  {
    "lastUpdated": "2020-07-06T17:31:11.740Z",
    "recovered": 23343,
    "infected": 28675,
    "state": "45",
    "id": "AJ9jQ0iyKsafsmf5yHAR",
    "pop": 4453000,
    "country": "IT",
    "longitude": 11.327591,
    "name": "Emilia-Romagna",
    "latitude": 44.498955,
    "dead": 4268,
    "sick": 1064,
    "invisible": false
  },
  {
    "longitude": 7.023,
    "name": "Saarland",
    "latitude": 49.3964,
    "dead": 178,
    "lastUpdated": "2020-07-06T17:30:08.880Z",
    "recovered": 2615,
    "infected": 2829,
    "state": "SL",
    "id": "AKjFRQGnzuuZQhv5Qwx7",
    "pop": 990509,
    "country": "DE",
    "sick": 36,
    "invisible": false
  },
  {
    "longitude": 60.8789,
    "name": "Chelyabinsk Oblast",
    "latitude": 54.4319,
    "dead": 88,
    "lastUpdated": "2020-07-06T17:30:08.480Z",
    "recovered": 4150,
    "infected": 7989,
    "id": "AOapJ3gElQApd8Gnt8EL",
    "pop": 3493000,
    "country": "RU",
    "sick": 3751,
    "invisible": false
  },
  {
    "id": "APTPgjAsjFi0nsGyJV7M",
    "pop": 1125002,
    "country": "CL",
    "longitude": -71.167,
    "name": "Maule",
    "latitude": -35.717,
    "dead": 73,
    "lastUpdated": "2020-07-06T17:51:04.576Z",
    "recovered": 0,
    "infected": 6378,
    "sick": 6305,
    "invisible": false
  },
  {
    "name": "Greenland",
    "latitude": 71.7069,
    "dead": 0,
    "lastUpdated": "2020-07-06T17:46:03.541Z",
    "recovered": 13,
    "infected": 13,
    "id": "APaZzlGCEeuoLBtzTJMe",
    "pop": 56171,
    "country": "GL",
    "longitude": -42.6043,
    "sick": 0,
    "invisible": false
  },
  {
    "recovered": 2224,
    "infected": 3141,
    "id": "ATxF6ZoDJ2ibdE6ZRYIX",
    "pop": 984000,
    "country": "RU",
    "longitude": 112.4061,
    "name": "Buryatia",
    "latitude": 54.8331,
    "dead": 22,
    "lastUpdated": "2020-07-06T17:30:08.484Z",
    "sick": 895,
    "invisible": false
  },
  {
    "longitude": -63.582687,
    "name": "Nova Scotia",
    "latitude": 45.65107,
    "dead": 63,
    "lastUpdated": "2020-07-06T17:40:02.726Z",
    "recovered": 0,
    "infected": 1064,
    "state": "NS",
    "id": "AVCpxeh0fuH2WrHWNDYH",
    "pop": 971395,
    "country": "CA",
    "sick": 1001,
    "invisible": false
  },
  {
    "latitude": 47.012918,
    "dead": 23,
    "lastUpdated": "2020-07-06T17:47:01.599Z",
    "recovered": 0,
    "infected": 1249,
    "state": "MT",
    "id": "AcULcZBozObOhwuRKMjJ",
    "pop": 1062000,
    "country": "US",
    "longitude": -109.128641,
    "name": "Montana",
    "sick": 1226,
    "invisible": false
  },
  {
    "name": "Tajikistan",
    "latitude": 38.861,
    "dead": 53,
    "lastUpdated": "2020-07-06T17:46:03.532Z",
    "recovered": 4858,
    "infected": 6213,
    "id": "AiIGs3ybYZZhm1ytVopr",
    "pop": 9275000,
    "country": "TJ",
    "longitude": 71.2761,
    "sick": 1302,
    "invisible": false
  },
  {
    "lastUpdated": "2020-07-06T17:53:10.666Z",
    "recovered": 931,
    "infected": 932,
    "id": "AmBYm5J6E9Cuez1FQjiN",
    "pop": 45200000,
    "country": "CN",
    "longitude": 116.01609,
    "name": "Jiangxi",
    "latitude": 27.285971,
    "dead": 1,
    "sick": 0,
    "invisible": false
  },
  {
    "recovered": 0,
    "infected": 15898,
    "state": "WA",
    "id": "AoLhHdTydeWTfmp9koEX",
    "pop": 3136000,
    "country": "GB",
    "longitude": -3.7837,
    "name": "Wales",
    "latitude": 52.1307,
    "dead": 1531,
    "lastUpdated": "2020-07-06T17:43:11.158Z",
    "sick": 14367,
    "invisible": false
  },
  {
    "longitude": 90.3982,
    "name": "Khakassia",
    "latitude": 53.0452,
    "dead": 18,
    "lastUpdated": "2020-07-06T17:30:08.484Z",
    "recovered": 1450,
    "infected": 2083,
    "id": "Avls64fLKoEsBFH0Ol0b",
    "pop": 537000,
    "country": "RU",
    "sick": 615,
    "invisible": false
  },
  {
    "latitude": 28.033886,
    "dead": 959,
    "lastUpdated": "2020-07-06T17:46:03.530Z",
    "recovered": 11884,
    "infected": 16404,
    "id": "AwN0CScPDApcLFgz6e3z",
    "pop": 41320000,
    "country": "DZ",
    "longitude": 1.659626,
    "name": "Algeria",
    "sick": 3561,
    "invisible": false
  },
  {
    "longitude": 15.2,
    "name": "Croatia",
    "latitude": 45.099998,
    "dead": 113,
    "lastUpdated": "2020-07-06T17:46:03.534Z",
    "recovered": 2210,
    "infected": 3220,
    "id": "B82Ef45M8cDu4q7VsSHF",
    "pop": 4076000,
    "country": "HR",
    "sick": 897,
    "invisible": false
  },
  {
    "longitude": 8.081666,
    "name": "Niger",
    "latitude": 17.6077881,
    "dead": 68,
    "lastUpdated": "2020-07-06T17:46:03.537Z",
    "recovered": 968,
    "infected": 1093,
    "id": "BENubqQInFUJzhpZTsLT",
    "pop": 23716000,
    "country": "NE",
    "sick": 57,
    "invisible": false
  },
  {
    "name": "Maryland",
    "latitude": 39.509109,
    "dead": 3246,
    "lastUpdated": "2020-07-06T17:47:01.591Z",
    "recovered": 0,
    "infected": 69904,
    "state": "MD",
    "id": "BF51mWl51fgEcyBpCSzb",
    "pop": 6043000,
    "country": "US",
    "longitude": -76.98432,
    "sick": 66658,
    "invisible": false
  },
  {
    "latitude": 53.709808,
    "dead": 429,
    "lastUpdated": "2020-07-06T17:46:03.526Z",
    "recovered": 51120,
    "infected": 63804,
    "id": "BGg6yVU5VP71B8NXU0oh",
    "pop": 9508000,
    "country": "BY",
    "longitude": 27.953388,
    "name": "Belarus",
    "sick": 12255,
    "invisible": false
  },
  {
    "id": "BGtoyzb7y54LVlJ91rbf",
    "pop": 3319000,
    "country": "FR",
    "longitude": 0.1713,
    "name": "Normandie",
    "latitude": 48.8799,
    "dead": 434,
    "lastUpdated": "2020-07-05T23:43:20.967Z",
    "recovered": 1665,
    "infected": 3573,
    "sick": 1474,
    "invisible": false
  },
  {
    "longitude": -3.9995,
    "name": "South West",
    "latitude": 50.7772,
    "dead": 0,
    "lastUpdated": "2020-07-06T17:43:11.165Z",
    "recovered": 0,
    "infected": 12759,
    "state": "EN",
    "id": "BQqMOlPFD36ZEDTGd3WC",
    "pop": 5616000,
    "country": "GB",
    "sick": 12759,
    "invisible": false
  },
  {
    "longitude": -111.093735,
    "name": "Arizona",
    "latitude": 34.048927,
    "dead": 1810,
    "lastUpdated": "2020-07-06T17:47:01.591Z",
    "recovered": 0,
    "infected": 101441,
    "state": "AZ",
    "id": "BTEESCuD2ZbS1afunR2A",
    "pop": 7172000,
    "country": "US",
    "sick": 99631,
    "invisible": false
  },
  {
    "longitude": 32.6677,
    "name": "Smolensk Oblast",
    "latitude": 54.9883,
    "dead": 70,
    "lastUpdated": "2020-07-06T17:30:08.483Z",
    "recovered": 2619,
    "infected": 4823,
    "id": "BUb7oDHcBM4lQ5cufNoG",
    "pop": 949000,
    "country": "RU",
    "sick": 2134,
    "invisible": false
  },
  {
    "recovered": 2969,
    "infected": 3459,
    "id": "BWojXmuKU3szKlS7CE4k",
    "pop": 1283000,
    "country": "RU",
    "longitude": 50.2097,
    "name": "Kirov Oblast",
    "latitude": 58.4199,
    "dead": 42,
    "lastUpdated": "2020-07-06T17:30:08.484Z",
    "sick": 448,
    "invisible": false
  },
  {
    "lastUpdated": "2020-07-06T17:33:01.867Z",
    "recovered": 0,
    "infected": 621,
    "id": "BZwZOAlDJ8AIiaRVLyC9",
    "pop": 1676000,
    "country": "PL",
    "longitude": 14.552812,
    "name": "Zachodniopomorskie",
    "latitude": 53.428543,
    "dead": 22,
    "sick": 599,
    "invisible": false
  },
  {
    "recovered": 264371,
    "infected": 0,
    "id": "BbiuZcm8oURX7cZwaa5U",
    "country": "CL",
    "longitude": -70.6693,
    "invisible": true,
    "name": "Unknown Chile region",
    "latitude": -33.4489,
    "dead": 0,
    "lastUpdated": "2020-07-06T17:46:03.520Z",
    "sick": 0
  },
  {
    "id": "BfT8o5DaEixC6JIZ28kY",
    "pop": 18620000,
    "country": "MW",
    "longitude": 34.3015,
    "name": "Malawi",
    "latitude": -13.2543,
    "dead": 19,
    "lastUpdated": "2020-07-06T17:46:03.535Z",
    "recovered": 317,
    "infected": 1742,
    "sick": 1406,
    "invisible": false
  },
  {
    "country": "BI",
    "longitude": 29.9188862,
    "name": "Burundi",
    "latitude": -3.3730559,
    "dead": 1,
    "lastUpdated": "2020-07-06T17:46:03.539Z",
    "recovered": 118,
    "infected": 191,
    "id": "BnpMamidC5yYzeK8tPUL",
    "pop": 10860000,
    "sick": 72,
    "invisible": false
  },
  {
    "longitude": 21.002,
    "name": "Mazowieckie",
    "latitude": 52.257,
    "dead": 346,
    "lastUpdated": "2020-07-06T17:33:01.865Z",
    "recovered": 0,
    "infected": 5208,
    "id": "BrToMzyq8y2xdwXn75kM",
    "pop": 5385000,
    "country": "PL",
    "sick": 4862,
    "invisible": false
  },
  {
    "recovered": 2039,
    "infected": 2364,
    "id": "C25xSDm4iYibX5RYML14",
    "pop": 74751,
    "country": "CO",
    "longitude": -71.347573,
    "name": "Amazonas (Colombia)",
    "latitude": -1.333845,
    "dead": 89,
    "lastUpdated": "2020-07-06T17:45:12.057Z",
    "sick": 236,
    "invisible": false
  },
  {
    "longitude": -73.982597,
    "name": "New York",
    "latitude": 40.719042,
    "dead": 32262,
    "lastUpdated": "2020-07-06T17:47:01.590Z",
    "recovered": 0,
    "infected": 422717,
    "state": "NY",
    "id": "C3BCUzV80z9GfiuByIcr",
    "pop": 19540000,
    "country": "US",
    "sick": 390455,
    "invisible": false
  },
  {
    "country": "CO",
    "longitude": -67.92389,
    "name": "Guainía",
    "latitude": 3.86528,
    "dead": 1,
    "lastUpdated": "2020-07-06T17:45:12.057Z",
    "recovered": 2,
    "infected": 14,
    "id": "C5YXFiytAc1w9swtVGLz",
    "pop": 42800,
    "sick": 11,
    "invisible": false
  },
  {
    "recovered": 7873,
    "infected": 12532,
    "id": "C6S76AggdWVU8G22jFHQ",
    "pop": 10650000,
    "country": "CZ",
    "longitude": 15.359413,
    "name": "Czechia",
    "latitude": 49.731626,
    "dead": 350,
    "lastUpdated": "2020-07-06T17:46:03.531Z",
    "sick": 4309,
    "invisible": false
  },
  {
    "country": "BH",
    "longitude": 50.557701,
    "name": "Bahrain",
    "latitude": 26.0667,
    "dead": 98,
    "lastUpdated": "2020-07-06T17:46:03.528Z",
    "recovered": 24649,
    "infected": 29367,
    "id": "C7cj4nwRITs13KnaJrQ2",
    "pop": 1493000,
    "sick": 4620,
    "invisible": false
  },
  {
    "longitude": -74.4057,
    "name": "Magdalena",
    "latitude": 10.4113,
    "dead": 95,
    "lastUpdated": "2020-07-06T17:45:12.056Z",
    "recovered": 379,
    "infected": 941,
    "id": "CA9LaAl3bNaeAqBuozn4",
    "pop": 1285400,
    "country": "CO",
    "sick": 467,
    "invisible": false
  },
  {
    "country": "MX",
    "longitude": -101.430756,
    "name": "Coahuila",
    "latitude": 26.909979,
    "dead": 268,
    "lastUpdated": "2020-07-06T17:32:17.206Z",
    "recovered": 0,
    "infected": 5776,
    "id": "CCUFp4urvgXPo5unfMGy",
    "pop": 3073500,
    "sick": 5508,
    "invisible": false
  },
  {
    "latitude": 27.0238,
    "dead": 461,
    "lastUpdated": "2020-07-06T17:41:01.520Z",
    "recovered": 16278,
    "infected": 20688,
    "id": "CKZCZTPlrcq5fbfUPA9k",
    "pop": 68890000,
    "country": "IN",
    "longitude": 74.2179,
    "name": "Rajasthan",
    "sick": 3949,
    "invisible": false
  },
  {
    "id": "CX8z9U1iABNBhc1VK2Dy",
    "pop": 218000,
    "country": "RU",
    "longitude": 86.2199,
    "name": "Altai",
    "latitude": 50.6182,
    "dead": 1,
    "lastUpdated": "2020-07-06T17:30:08.485Z",
    "recovered": 397,
    "infected": 869,
    "sick": 471,
    "invisible": false
  },
  {
    "lastUpdated": "2020-07-06T17:46:03.532Z",
    "recovered": 4730,
    "infected": 8027,
    "id": "Cgvmtle61ehMvCzRzYx7",
    "pop": 6378000,
    "country": "SV",
    "longitude": -88.9053,
    "name": "El Salvador",
    "latitude": 13.803,
    "dead": 223,
    "sick": 3074,
    "invisible": false
  },
  {
    "longitude": 153.915,
    "name": "Magadan Oblast",
    "latitude": 62.6643,
    "dead": 4,
    "lastUpdated": "2020-07-06T17:30:08.485Z",
    "recovered": 526,
    "infected": 935,
    "id": "D4WkbqyUXY1pazbOxfKx",
    "pop": 144000,
    "country": "RU",
    "sick": 405,
    "invisible": false
  },
  {
    "lastUpdated": "2020-07-06T17:30:08.484Z",
    "recovered": 1403,
    "infected": 2608,
    "id": "DAp3PFow4BuCMYWWTo3i",
    "pop": 1078000,
    "country": "RU",
    "longitude": 82.6765,
    "name": "Tomsk Oblast",
    "latitude": 58.897,
    "dead": 20,
    "sick": 1185,
    "invisible": false
  },
  {
    "longitude": 44.818474,
    "name": "Armenia",
    "latitude": 40.259003,
    "dead": 491,
    "lastUpdated": "2020-07-06T17:46:03.529Z",
    "recovered": 16302,
    "infected": 28936,
    "id": "DCJCtZoBTWQ4mzdDNljD",
    "pop": 2973000,
    "country": "AM",
    "sick": 12143,
    "invisible": false
  },
  {
    "longitude": -73.368,
    "name": "Boyacá",
    "latitude": 5.535,
    "dead": 12,
    "lastUpdated": "2020-07-06T17:45:12.056Z",
    "recovered": 242,
    "infected": 430,
    "id": "DJJraANgQbEqz1wBBtZz",
    "pop": 1278000,
    "country": "CO",
    "sick": 176,
    "invisible": false
  },
  {
    "longitude": 44.0684,
    "name": "Mordovia",
    "latitude": 54.2369,
    "dead": 27,
    "lastUpdated": "2020-07-06T17:30:08.484Z",
    "recovered": 2437,
    "infected": 3611,
    "id": "DKwy7USk22oXUQGEvO42",
    "pop": 834000,
    "country": "RU",
    "sick": 1147,
    "invisible": false
  },
  {
    "state": "EN",
    "id": "DPwBt2aJuwF0O71vwfM9",
    "pop": 7300000,
    "country": "GB",
    "longitude": -2.5945,
    "name": "North West",
    "latitude": 53.6221,
    "dead": 0,
    "lastUpdated": "2020-07-06T17:43:11.165Z",
    "recovered": 0,
    "infected": 42757,
    "sick": 42757,
    "invisible": false
  },
  {
    "name": "Bermuda",
    "latitude": 32.3213844,
    "dead": 9,
    "lastUpdated": "2020-07-06T17:46:03.539Z",
    "recovered": 137,
    "infected": 146,
    "id": "DZyTD0Mu5WIcK6yTcJ91",
    "pop": 65440,
    "country": "BM",
    "longitude": -64.75737,
    "sick": 0,
    "invisible": false
  },
  {
    "recovered": 11,
    "infected": 48,
    "id": "DaMrRSIGJXIG36nW0Pnc",
    "pop": 35446,
    "country": "TC",
    "longitude": -71.7979,
    "name": "Turks and Caicos",
    "latitude": 21.694,
    "dead": 2,
    "lastUpdated": "2020-07-06T17:46:03.540Z",
    "sick": 35,
    "invisible": false
  },
  {
    "latitude": 39.2796,
    "dead": 3026,
    "lastUpdated": "2020-07-05T23:36:20.808Z",
    "recovered": 6392,
    "infected": 26843,
    "state": "CM",
    "id": "Dbng0NBTH41EEwBxhMzE",
    "pop": 2035000,
    "country": "ES",
    "longitude": -3.0977,
    "name": "Castilla La Mancha",
    "sick": 17425,
    "invisible": false
  },
  {
    "longitude": 20.006,
    "name": "Malopolskie",
    "latitude": 50.023,
    "dead": 44,
    "lastUpdated": "2020-07-06T17:33:01.866Z",
    "recovered": 0,
    "infected": 1863,
    "id": "DcQ3D0WkacXEbv6iznRB",
    "pop": 3361000,
    "country": "PL",
    "sick": 1819,
    "invisible": false
  },
  {
    "name": "Macao",
    "latitude": 22.192039,
    "dead": 0,
    "lastUpdated": "2020-07-06T17:46:03.541Z",
    "recovered": 45,
    "infected": 46,
    "id": "DdBt8qsG6A3g92oOR3ow",
    "pop": 622567,
    "country": "MO",
    "longitude": 113.551262,
    "sick": 1,
    "invisible": false
  },
  {
    "country": "IN",
    "longitude": 91.3662,
    "name": "Meghalaya",
    "latitude": 25.467,
    "dead": 1,
    "lastUpdated": "2020-07-06T17:41:01.529Z",
    "recovered": 43,
    "infected": 88,
    "id": "Dh0O1vmhrVfmsCsfZCUg",
    "pop": 2651000,
    "sick": 44,
    "invisible": false
  },
  {
    "longitude": 41.8259,
    "name": "Rostov Oblast",
    "latitude": 47.6853,
    "dead": 141,
    "lastUpdated": "2020-07-06T17:30:08.479Z",
    "recovered": 6869,
    "infected": 10166,
    "id": "DqzAhNFTJFQVm88ma21P",
    "pop": 4220000,
    "country": "RU",
    "sick": 3156,
    "invisible": false
  },
  {
    "state": "WY",
    "id": "DrGzziUglmBognCGY7R2",
    "pop": 577737,
    "country": "US",
    "longitude": -107.534868,
    "name": "Wyoming",
    "latitude": 42.962334,
    "dead": 20,
    "lastUpdated": "2020-07-06T17:47:01.599Z",
    "recovered": 0,
    "infected": 1634,
    "sick": 1614,
    "invisible": false
  },
  {
    "recovered": 1374,
    "infected": 3562,
    "id": "Dtr1lap1RpJpXJdXGJiW",
    "pop": 10740000,
    "country": "GR",
    "longitude": 23.7275,
    "name": "Greece",
    "latitude": 37.9838,
    "dead": 192,
    "lastUpdated": "2020-07-06T17:46:03.534Z",
    "sick": 1996,
    "invisible": false
  },
  {
    "longitude": 56.5872,
    "name": "Perm Krai",
    "latitude": 58.8232,
    "dead": 85,
    "lastUpdated": "2020-07-06T17:30:08.483Z",
    "recovered": 2945,
    "infected": 4017,
    "id": "E8vIyXLVNtcY9dxLHICp",
    "pop": 2623000,
    "country": "RU",
    "sick": 987,
    "invisible": false
  },
  {
    "id": "EHKZ6ivhrJUs3XqNDBOw",
    "pop": 3692000,
    "country": "RU",
    "longitude": 66.9483,
    "name": "Tyumen Oblast",
    "latitude": 56.9634,
    "dead": 18,
    "lastUpdated": "2020-07-06T17:30:08.484Z",
    "recovered": 2141,
    "infected": 3560,
    "sick": 1401,
    "invisible": false
  },
  {
    "lastUpdated": "2020-07-06T17:46:03.538Z",
    "recovered": 438,
    "infected": 449,
    "id": "EKTfs8e7M6DXzI1HqyyX",
    "pop": 23780000,
    "country": "TW",
    "longitude": 121.563698,
    "name": "Taiwan",
    "latitude": 25.03841,
    "dead": 7,
    "sick": 4,
    "invisible": false
  },
  {
    "latitude": 10.327273,
    "dead": 22,
    "lastUpdated": "2020-07-06T17:46:03.533Z",
    "recovered": 1745,
    "infected": 4996,
    "id": "EQzJvzVHKjs8kLmK7BMu",
    "pop": 4906000,
    "country": "CR",
    "longitude": -84.387618,
    "name": "Costa Rica",
    "sick": 3229,
    "invisible": false
  },
  {
    "longitude": 71.1924,
    "name": "Gujarat",
    "latitude": 22.2587,
    "dead": 1961,
    "lastUpdated": "2020-07-06T17:41:01.520Z",
    "recovered": 26323,
    "infected": 36858,
    "id": "ERwk9R9en4m9WbdoMbIg",
    "pop": 62700000,
    "country": "IN",
    "sick": 8574,
    "invisible": false
  },
  {
    "country": "RU",
    "longitude": 42.5884,
    "name": "Arkhangelsk Oblast",
    "latitude": 63.2853,
    "dead": 68,
    "lastUpdated": "2020-07-06T17:30:08.481Z",
    "recovered": 3300,
    "infected": 6300,
    "id": "EVMBsgCJedjHy91mDYEC",
    "pop": 1155000,
    "sick": 2932,
    "invisible": false
  },
  {
    "country": "IN",
    "longitude": 76.7794,
    "name": "Chandigarh",
    "latitude": 30.7333,
    "dead": 6,
    "lastUpdated": "2020-07-06T17:41:01.528Z",
    "recovered": 401,
    "infected": 487,
    "id": "Esl5UlCVB9s8pmGB5Ofr",
    "pop": 1055000,
    "sick": 80,
    "invisible": false
  },
  {
    "recovered": 0,
    "infected": 718,
    "id": "Esy1La2CxwH5uB8bGVWZ",
    "pop": 2148000,
    "country": "PL",
    "longitude": 22.653,
    "name": "Lubelskie",
    "latitude": 51.24,
    "dead": 18,
    "lastUpdated": "2020-07-06T17:33:01.867Z",
    "sick": 700,
    "invisible": false
  },
  {
    "longitude": -66.664513,
    "name": "Puerto Rico",
    "alwaysShow": true,
    "dead": 155,
    "latitude": 18.200178,
    "infected": 8585,
    "recovered": 0,
    "pop": 3195000,
    "country": "US",
    "lastUpdated": "2020-07-06T17:47:01.599Z",
    "state": "PR",
    "id": "F4rPrEVGAIMM5rfPEMv4",
    "sick": 8430,
    "invisible": false
  },
  {
    "lastUpdated": "2020-07-06T17:45:12.055Z",
    "recovered": 1595,
    "infected": 3238,
    "id": "F7MED5VwEhi3JvJu6KjB",
    "pop": 2919000,
    "country": "CO",
    "longitude": -74.058655,
    "name": "Cundinamarca",
    "latitude": 4.862437,
    "dead": 68,
    "sick": 1575,
    "invisible": false
  },
  {
    "longitude": 43.3333,
    "name": "Comoros",
    "latitude": -11.6455,
    "dead": 7,
    "lastUpdated": "2020-07-06T17:46:03.539Z",
    "recovered": 266,
    "infected": 311,
    "id": "F8LnLqvuWoWh8awBqiw1",
    "pop": 832322,
    "country": "KM",
    "sick": 38,
    "invisible": false
  },
  {
    "lastUpdated": "2020-07-06T17:46:03.528Z",
    "recovered": 20103,
    "infected": 33190,
    "id": "FCDmlmnIIswd8bQiUjfN",
    "pop": 35530000,
    "country": "AF",
    "longitude": 67.709953,
    "name": "Afghanistan",
    "latitude": 33.93911,
    "dead": 898,
    "sick": 12189,
    "invisible": false
  },
  {
    "lastUpdated": "2020-07-06T17:53:10.665Z",
    "recovered": 574,
    "infected": 582,
    "id": "FErOU1m4Tj7jIkRam3vF",
    "pop": 30480000,
    "country": "CN",
    "longitude": 106.912254,
    "name": "Chongqing",
    "latitude": 29.431585,
    "dead": 6,
    "sick": 2,
    "invisible": false
  },
  {
    "longitude": 47.481766,
    "name": "Kuwait",
    "latitude": 29.311661,
    "dead": 373,
    "lastUpdated": "2020-07-06T17:46:03.527Z",
    "recovered": 41001,
    "infected": 50644,
    "id": "FZsUkhxBEgqsPb4eO0PN",
    "pop": 4137000,
    "country": "KW",
    "sick": 9270,
    "invisible": false
  },
  {
    "state": "SE",
    "id": "FboWeolpM62SZCLwdilT",
    "pop": 2278308,
    "country": "BR",
    "longitude": -37.0717,
    "name": "Sergipe",
    "latitude": -10.9111,
    "dead": 798,
    "lastUpdated": "2020-07-06T17:45:01.502Z",
    "recovered": 0,
    "infected": 30217,
    "sick": 29419,
    "invisible": false
  },
  {
    "longitude": 78.6569,
    "name": "Tamil Nadu",
    "latitude": 11.1271,
    "dead": 1571,
    "lastUpdated": "2020-07-06T17:41:01.519Z",
    "recovered": 66571,
    "infected": 114978,
    "id": "FeS45oMNC27pI17F0xEV",
    "pop": 67860000,
    "country": "IN",
    "sick": 46836,
    "invisible": false
  },
  {
    "latitude": 18.947829,
    "dead": 804,
    "lastUpdated": "2020-07-06T17:46:03.528Z",
    "recovered": 19489,
    "infected": 38128,
    "id": "FuiVEJvWb0QMCpxJ3563",
    "pop": 10770000,
    "country": "DO",
    "longitude": -70.430399,
    "name": "Dominican Republic",
    "sick": 17835,
    "invisible": false
  },
  {
    "id": "FyC551oNwmENxbr9Yght",
    "pop": 35190000,
    "country": "IN",
    "longitude": 79.0193,
    "name": "Telengana",
    "latitude": 18.1124,
    "dead": 306,
    "lastUpdated": "2020-07-06T17:41:01.527Z",
    "recovered": 14781,
    "infected": 25733,
    "sick": 10646,
    "invisible": false
  },
  {
    "id": "FzIDXoqWnTI3nUfhPyT2",
    "pop": 5450000,
    "country": "SK",
    "longitude": 19.699,
    "name": "Slovakia",
    "latitude": 48.669,
    "dead": 28,
    "lastUpdated": "2020-07-06T17:46:03.535Z",
    "recovered": 1466,
    "infected": 1765,
    "sick": 271,
    "invisible": false
  },
  {
    "country": "PK",
    "longitude": 69.345116,
    "name": "Pakistan",
    "latitude": 30.37532,
    "dead": 4762,
    "lastUpdated": "2020-07-06T17:46:03.521Z",
    "recovered": 131649,
    "infected": 231818,
    "id": "GAp7Wb6IMhdgbvEtMza9",
    "pop": 197000000,
    "sick": 95407,
    "invisible": false
  },
  {
    "longitude": 75.3412,
    "name": "Punjab",
    "latitude": 31.1471,
    "dead": 169,
    "lastUpdated": "2020-07-06T17:41:01.527Z",
    "recovered": 4494,
    "infected": 6491,
    "id": "GGru8cG08mANO8XDDUtZ",
    "pop": 27980000,
    "country": "IN",
    "sick": 1828,
    "invisible": false
  },
  {
    "latitude": 23.424076,
    "dead": 323,
    "lastUpdated": "2020-07-06T17:46:03.526Z",
    "recovered": 40297,
    "infected": 51540,
    "id": "GHzBIsHy2GiBc5JV2HMs",
    "pop": 9400000,
    "country": "AE",
    "longitude": 53.847816,
    "name": "United Arab Emirates",
    "sick": 10920,
    "invisible": false
  },
  {
    "lastUpdated": "2020-07-06T17:47:01.600Z",
    "recovered": 0,
    "infected": 103,
    "id": "GLViSIjDjwvptOphedAu",
    "country": "US",
    "longitude": -95.7129,
    "invisible": true,
    "name": "Grand Princess",
    "latitude": 37.0902,
    "dead": 3,
    "sick": 100
  },
  {
    "lastUpdated": "2020-07-06T17:43:11.165Z",
    "recovered": 0,
    "infected": 33836,
    "state": "EN",
    "id": "GPtoS0Yy2EnNafpmmTqY",
    "pop": 10100000,
    "country": "GB",
    "longitude": -0.1278,
    "name": "London",
    "latitude": 51.5074,
    "dead": 0,
    "sick": 33836,
    "invisible": false
  },
  {
    "lastUpdated": "2020-07-06T17:47:01.590Z",
    "recovered": 0,
    "infected": 265200,
    "state": "CA",
    "id": "Gh46r6vuaY7fbGt3IboN",
    "pop": 39560000,
    "country": "US",
    "longitude": -119.339046,
    "name": "California",
    "latitude": 36.621981,
    "dead": 6373,
    "sick": 258827,
    "invisible": false
  },
  {
    "lastUpdated": "2020-07-06T17:41:01.528Z",
    "recovered": 175,
    "infected": 400,
    "id": "GljWeVnun6o9DeW6rlEm",
    "pop": 343709,
    "country": "IN",
    "longitude": 72.8397,
    "name": "Dadra and Nagar Haveli",
    "latitude": 20.4283,
    "dead": 0,
    "sick": 225,
    "invisible": false
  },
  {
    "latitude": 35.87189,
    "dead": 399,
    "lastUpdated": "2020-07-06T17:47:01.598Z",
    "recovered": 0,
    "infected": 16362,
    "state": "OK",
    "id": "GpF8ULuKOQiFDCUHN44h",
    "pop": 3943000,
    "country": "US",
    "longitude": -97.145514,
    "name": "Oklahoma",
    "sick": 15963,
    "invisible": false
  },
  {
    "latitude": 6.492,
    "dead": 0,
    "lastUpdated": "2020-07-06T17:45:12.057Z",
    "recovered": 7,
    "infected": 96,
    "id": "Gr09a1wn3BnMqjQbgEun",
    "pop": 256627,
    "country": "CO",
    "longitude": -71.557,
    "name": "Arauca",
    "sick": 89,
    "invisible": false
  },
  {
    "longitude": 41.483,
    "name": "Ivanovo Oblast",
    "latitude": 57.1057,
    "dead": 49,
    "lastUpdated": "2020-07-06T17:30:08.482Z",
    "recovered": 3131,
    "infected": 5102,
    "id": "GsecjBfopdgTOnyRgtCA",
    "pop": 1014000,
    "country": "RU",
    "sick": 1922,
    "invisible": false
  },
  {
    "name": "P.A. Bolzano",
    "latitude": 46.5,
    "dead": 292,
    "lastUpdated": "2020-07-06T17:31:11.741Z",
    "recovered": 2272,
    "infected": 2647,
    "state": "BA",
    "id": "Gzx6GX1qhBm714BkEC6l",
    "pop": 520891,
    "country": "IT",
    "longitude": 11.35,
    "sick": 83,
    "invisible": false
  },
  {
    "latitude": 42.83263,
    "dead": 1,
    "lastUpdated": "2020-07-06T17:53:10.666Z",
    "recovered": 237,
    "infected": 239,
    "id": "H3JeVigVbo5CSYfZG4WI",
    "pop": 24710000,
    "country": "CN",
    "longitude": 113.750972,
    "name": "Inner Mongolia",
    "sick": 1,
    "invisible": false
  },
  {
    "name": "Nevada",
    "latitude": 39.74536,
    "dead": 537,
    "lastUpdated": "2020-07-06T17:47:01.598Z",
    "recovered": 0,
    "infected": 22909,
    "state": "NV",
    "id": "H3bDg4eV30up4WWrIDAS",
    "pop": 3034000,
    "country": "US",
    "longitude": -116.724977,
    "sick": 22372,
    "invisible": false
  },
  {
    "lastUpdated": "2020-07-06T17:45:01.495Z",
    "recovered": 0,
    "infected": 121464,
    "state": "CE",
    "id": "HEMWNnFxeFEoeOCBOLJD",
    "pop": 9075649,
    "country": "BR",
    "longitude": -38.526669,
    "name": "Ceará",
    "latitude": -3.731862,
    "dead": 6441,
    "sick": 115023,
    "invisible": false
  },
  {
    "lastUpdated": "2020-07-06T17:41:01.526Z",
    "recovered": 10529,
    "infected": 25317,
    "id": "HN5mGmxlqlSeFSNeu1K5",
    "pop": 64060000,
    "country": "IN",
    "longitude": 75.7139,
    "name": "Karnataka",
    "latitude": 15.3173,
    "dead": 402,
    "sick": 14386,
    "invisible": false
  },
  {
    "latitude": 27.5142,
    "dead": 0,
    "lastUpdated": "2020-07-06T17:46:03.540Z",
    "recovered": 53,
    "infected": 80,
    "id": "HRDpwyxpqW9RN0xLFyNu",
    "pop": 807610,
    "country": "BT",
    "longitude": 90.4336,
    "name": "Bhutan",
    "sick": 27,
    "invisible": false
  },
  {
    "recovered": 6584,
    "infected": 10284,
    "id": "HRTA10dtrruDEwjJEGMp",
    "pop": 32390000,
    "country": "UZ",
    "longitude": 64.5853,
    "name": "Uzbekistan",
    "latitude": 41.3775,
    "dead": 36,
    "lastUpdated": "2020-07-06T17:46:03.531Z",
    "sick": 3664,
    "invisible": false
  },
  {
    "lastUpdated": "2020-07-06T17:47:01.598Z",
    "recovered": 0,
    "infected": 13256,
    "state": "NM",
    "id": "HSSFomRju0doHhWgW8On",
    "pop": 2095000,
    "country": "US",
    "longitude": -105.576255,
    "name": "New Mexico",
    "latitude": 34.138916,
    "dead": 513,
    "sick": 12743,
    "invisible": false
  },
  {
    "lastUpdated": "2020-07-06T17:51:04.663Z",
    "recovered": 0,
    "infected": 731,
    "id": "HZkACHjW7NlYjg8vEMj2",
    "pop": 412812,
    "country": "CL",
    "longitude": -72.3311,
    "name": "Los Ríos",
    "latitude": -40.231,
    "dead": 10,
    "sick": 721,
    "invisible": false
  },
  {
    "longitude": 12.4296,
    "name": "Mecklenburg-Vorpommern",
    "latitude": 53.6127,
    "dead": 21,
    "lastUpdated": "2020-07-06T17:30:08.879Z",
    "recovered": 772,
    "infected": 809,
    "state": "MV",
    "id": "He1gSS1v50t06i3YrqvB",
    "pop": 1635000,
    "country": "DE",
    "sick": 16,
    "invisible": false
  },
  {
    "recovered": 2689,
    "infected": 3309,
    "state": "65",
    "id": "I9EqrZfbPnkioNU4wZGz",
    "pop": 1315000,
    "country": "IT",
    "longitude": 13.75,
    "name": "Abruzzo",
    "latitude": 42.25,
    "dead": 464,
    "lastUpdated": "2020-07-06T17:31:11.733Z",
    "sick": 156,
    "invisible": false
  },
  {
    "id": "IAX0OQLVnUwU7FX0ENF1",
    "pop": 113460000,
    "country": "CN",
    "longitude": 113.373448,
    "name": "Guangdong",
    "latitude": 23.363855,
    "dead": 8,
    "lastUpdated": "2020-07-06T17:53:10.665Z",
    "recovered": 1631,
    "infected": 1643,
    "sick": 4,
    "invisible": false
  },
  {
    "longitude": 113.484016,
    "name": "Henan",
    "latitude": 33.875408,
    "dead": 22,
    "lastUpdated": "2020-07-06T17:53:10.666Z",
    "recovered": 1254,
    "infected": 1276,
    "id": "IFuMrMvSjoiX5agYvllh",
    "pop": 94000000,
    "country": "CN",
    "sick": 0,
    "invisible": false
  },
  {
    "lastUpdated": "2020-07-06T17:53:01.122Z",
    "recovered": 0,
    "infected": 663,
    "id": "IHqRHC8K3OZPN8gniM7V",
    "pop": 451000,
    "country": "PT",
    "longitude": -8.16667,
    "name": "Algarve",
    "latitude": 37.2,
    "dead": 15,
    "sick": 648,
    "invisible": false
  },
  {
    "lastUpdated": "2020-07-06T17:45:12.056Z",
    "recovered": 912,
    "infected": 1579,
    "id": "IKWjRUo0SYgHQKdWjTvq",
    "pop": 333194,
    "country": "CO",
    "longitude": -77.0197,
    "name": "Buenaventura D.E.",
    "latitude": 3.883,
    "dead": 97,
    "sick": 570,
    "invisible": false
  },
  {
    "longitude": -0.995,
    "name": "East Midlands",
    "latitude": 52.87,
    "dead": 0,
    "lastUpdated": "2020-07-06T17:43:11.165Z",
    "recovered": 0,
    "infected": 21251,
    "state": "EN",
    "id": "INyu1R48Ppv8cfW4Nuz4",
    "pop": 4811000,
    "country": "GB",
    "sick": 21251,
    "invisible": false
  },
  {
    "name": "Aguascalientes",
    "latitude": 22.017,
    "dead": 166,
    "lastUpdated": "2020-07-06T17:32:17.207Z",
    "recovered": 0,
    "infected": 3288,
    "id": "ISRKMzEDojyrZ9iyWwex",
    "pop": 1342600,
    "country": "MX",
    "longitude": -102.317,
    "sick": 3122,
    "invisible": false
  },
  {
    "longitude": -100.316116,
    "name": "Nuevo León",
    "latitude": 25.686613,
    "dead": 472,
    "lastUpdated": "2020-07-06T17:32:17.207Z",
    "recovered": 0,
    "infected": 14489,
    "id": "IdKbgzgKLpjBFh4UPOwu",
    "pop": 5321300,
    "country": "MX",
    "sick": 14017,
    "invisible": false
  },
  {
    "longitude": -106.069099,
    "name": "Chihuahua",
    "latitude": 28.632996,
    "dead": 685,
    "lastUpdated": "2020-07-06T17:32:17.205Z",
    "recovered": 0,
    "infected": 4900,
    "id": "IhhiYI6T0TX4CYVPcnmH",
    "pop": 3826900,
    "country": "MX",
    "sick": 4215,
    "invisible": false
  },
  {
    "longitude": -72.57,
    "name": "Ñuble",
    "latitude": -36.7,
    "dead": 33,
    "lastUpdated": "2020-07-06T17:51:04.576Z",
    "recovered": 0,
    "infected": 2617,
    "id": "ImnOiVx9Cb8Nw7cbRcQ7",
    "pop": 480600,
    "country": "CL",
    "sick": 2584,
    "invisible": false
  },
  {
    "lastUpdated": "2020-07-06T17:46:03.532Z",
    "recovered": 1549,
    "infected": 6333,
    "id": "InZ38sIqyK7FN7XAOZoX",
    "pop": 10980000,
    "country": "HT",
    "longitude": -73.0513,
    "name": "Haiti",
    "latitude": 19.0558,
    "dead": 113,
    "sick": 4671,
    "invisible": false
  },
  {
    "id": "IvQkDJkTAsoIqPRAU25n",
    "pop": 10520000,
    "country": "US",
    "longitude": -83.280125,
    "name": "Georgia (US)",
    "latitude": 32.528564,
    "dead": 2860,
    "lastUpdated": "2020-07-06T17:47:01.591Z",
    "recovered": 0,
    "infected": 95516,
    "state": "GA",
    "sick": 92656,
    "invisible": false
  },
  {
    "recovered": 1490,
    "infected": 1534,
    "id": "IvVhpOoGpH6JVkGyUhXN",
    "pop": 4794000,
    "country": "NZ",
    "longitude": 172.488081,
    "name": "New Zealand",
    "latitude": -42.8285,
    "dead": 22,
    "lastUpdated": "2020-07-06T17:46:03.536Z",
    "sick": 22,
    "invisible": false
  },
  {
    "latitude": 28.218,
    "dead": 2,
    "lastUpdated": "2020-07-06T17:41:01.528Z",
    "recovered": 92,
    "infected": 270,
    "id": "IwYKiIVY18NGwdGQFGWW",
    "pop": 1255000,
    "country": "IN",
    "longitude": 94.7278,
    "name": "Arunachal Pradesh",
    "sick": 176,
    "invisible": false
  },
  {
    "latitude": 6.4238,
    "dead": 65,
    "lastUpdated": "2020-07-06T17:46:03.532Z",
    "recovered": 2100,
    "infected": 7169,
    "id": "J3mZXlfEnnJx4CDZLvRG",
    "pop": 28870000,
    "country": "VE",
    "longitude": -66.5897,
    "name": "Venezuela",
    "sick": 5004,
    "invisible": false
  },
  {
    "id": "JEMCwkwXK39jd1lZ7VgJ",
    "pop": 107932,
    "country": "CO",
    "longitude": -72.633,
    "name": "Guaviare",
    "latitude": 2.567,
    "dead": 0,
    "lastUpdated": "2020-07-06T17:45:12.057Z",
    "recovered": 7,
    "infected": 39,
    "sick": 32,
    "invisible": false
  },
  {
    "id": "JOJVBvOnsLDJPVeYJaI2",
    "pop": 453000,
    "country": "RU",
    "longitude": 40.1754,
    "name": "Adygea",
    "latitude": 44.8229,
    "dead": 14,
    "lastUpdated": "2020-07-06T17:30:08.484Z",
    "recovered": 1502,
    "infected": 2121,
    "sick": 605,
    "invisible": false
  },
  {
    "recovered": 839,
    "infected": 1003,
    "id": "JQByE4l2OA6sGOqIcWrM",
    "pop": 1170000,
    "country": "CY",
    "longitude": 33.4299,
    "name": "Cyprus",
    "latitude": 35.1264,
    "dead": 19,
    "lastUpdated": "2020-07-06T17:46:03.537Z",
    "sick": 145,
    "invisible": false
  },
  {
    "latitude": 25.0961,
    "dead": 97,
    "lastUpdated": "2020-07-06T17:41:01.526Z",
    "recovered": 9014,
    "infected": 12140,
    "id": "JR7hOGked7CZtIs2nCV5",
    "pop": 99020000,
    "country": "IN",
    "longitude": 85.3131,
    "name": "Bihar",
    "sick": 3029,
    "invisible": false
  },
  {
    "recovered": 3382,
    "infected": 23248,
    "id": "JUWE6bG3b5oL7fKQMSvv",
    "pop": 17250000,
    "country": "GT",
    "longitude": -90.522713,
    "name": "Guatemala",
    "latitude": 14.628434,
    "dead": 947,
    "lastUpdated": "2020-07-06T17:46:03.529Z",
    "sick": 18919,
    "invisible": false
  },
  {
    "recovered": 4016,
    "infected": 4522,
    "id": "JcFsHSn2WvZ5LJW42ovG",
    "pop": 602005,
    "country": "LU",
    "longitude": 6.1296,
    "name": "Luxembourg",
    "latitude": 49.8153,
    "dead": 110,
    "lastUpdated": "2020-07-06T17:46:03.533Z",
    "sick": 396,
    "invisible": false
  },
  {
    "longitude": -74.167,
    "name": "Bolívar",
    "latitude": 8.8,
    "dead": 49,
    "lastUpdated": "2020-07-06T17:45:12.056Z",
    "recovered": 366,
    "infected": 1117,
    "id": "JmOyaFe25yZCIV64JbZj",
    "pop": 2049000,
    "country": "CO",
    "sick": 702,
    "invisible": false
  },
  {
    "name": "Baja California",
    "latitude": 31.4,
    "dead": 2011,
    "lastUpdated": "2020-07-06T17:32:17.205Z",
    "recovered": 0,
    "infected": 9854,
    "id": "Jp9ePErcc8i1aOozEAMf",
    "pop": 3648100,
    "country": "MX",
    "longitude": -115.783,
    "sick": 7843,
    "invisible": false
  },
  {
    "id": "Jr8syCB0lydmPDXw8Q6N",
    "pop": 1786500,
    "country": "CO",
    "longitude": -75.8814316,
    "name": "Córdoba",
    "latitude": 8.7479801,
    "dead": 77,
    "lastUpdated": "2020-07-06T17:45:12.056Z",
    "recovered": 261,
    "infected": 1052,
    "sick": 714,
    "invisible": false
  },
  {
    "latitude": 8.6195,
    "dead": 15,
    "lastUpdated": "2020-07-06T17:46:03.538Z",
    "recovered": 447,
    "infected": 680,
    "id": "JrBbirlBKGdWSdcDt7PF",
    "pop": 7798000,
    "country": "TG",
    "longitude": 0.8248,
    "name": "Togo",
    "sick": 218,
    "invisible": false
  },
  {
    "lastUpdated": "2020-07-06T17:46:03.532Z",
    "recovered": 2915,
    "infected": 5740,
    "id": "JzZ8sbqzjutThVjkPKPL",
    "pop": 7050000,
    "country": "BG",
    "longitude": 25.4858,
    "name": "Bulgaria",
    "latitude": 42.7339,
    "dead": 246,
    "sick": 2579,
    "invisible": false
  },
  {
    "recovered": 0,
    "infected": 839,
    "id": "KGrK7gafkeWjmU6sHQd2",
    "pop": 1263000,
    "country": "PL",
    "longitude": 20.709,
    "name": "Świętokrzyskie",
    "latitude": 50.823,
    "dead": 40,
    "lastUpdated": "2020-07-06T17:33:01.867Z",
    "sick": 799,
    "invisible": false
  },
  {
    "recovered": 8442,
    "infected": 14303,
    "id": "KLBR5QHW6DePaGcFxlqH",
    "pop": 4325000,
    "country": "RU",
    "longitude": 61.9316,
    "name": "Sverdlovsk Oblast",
    "latitude": 59.0077,
    "dead": 131,
    "lastUpdated": "2020-07-06T17:30:08.479Z",
    "sick": 5730,
    "invisible": false
  },
  {
    "recovered": 8154,
    "infected": 10001,
    "state": "42",
    "id": "KLXicxFogWnu0dLp4bNK",
    "pop": 1557000,
    "country": "IT",
    "longitude": 8.833,
    "name": "Liguria",
    "latitude": 44.5,
    "dead": 1558,
    "lastUpdated": "2020-07-06T17:31:11.740Z",
    "sick": 289,
    "invisible": false
  },
  {
    "name": "Mari El Republic",
    "latitude": 56.4385,
    "dead": 24,
    "lastUpdated": "2020-07-06T17:30:08.484Z",
    "recovered": 2857,
    "infected": 3128,
    "id": "KUnAVGJH6fLwFetE8A2x",
    "pop": 682000,
    "country": "RU",
    "longitude": 47.9608,
    "sick": 247,
    "invisible": false
  },
  {
    "latitude": 10.4631,
    "dead": 31,
    "lastUpdated": "2020-07-06T17:45:12.056Z",
    "recovered": 565,
    "infected": 1299,
    "id": "KpOz3WmiZkrXUMlUJNlV",
    "pop": 1201000,
    "country": "CO",
    "longitude": -73.2532,
    "name": "Cesar",
    "sick": 703,
    "invisible": false
  },
  {
    "lastUpdated": "2020-07-06T17:31:11.742Z",
    "recovered": 8841,
    "infected": 10287,
    "state": "52",
    "id": "KrLrJbpDqqiXgUPGCCW9",
    "pop": 3737000,
    "country": "IT",
    "longitude": 11,
    "name": "Toscana",
    "latitude": 43.4167,
    "dead": 1114,
    "sick": 332,
    "invisible": false
  },
  {
    "longitude": 80.771797,
    "name": "Sri Lanka",
    "latitude": 7.873054,
    "dead": 11,
    "lastUpdated": "2020-07-06T17:46:03.535Z",
    "recovered": 1917,
    "infected": 2077,
    "id": "KsWzJO06cf0d6LJ4ZNh9",
    "pop": 21440000,
    "country": "LK",
    "sick": 149,
    "invisible": false
  },
  {
    "name": "Andhra Pradesh",
    "latitude": 15.9129,
    "dead": 239,
    "lastUpdated": "2020-07-06T17:41:01.526Z",
    "recovered": 8920,
    "infected": 20019,
    "id": "KtQIo2DoqjELtPAlyDVO",
    "pop": 49670000,
    "country": "IN",
    "longitude": 79.74,
    "sick": 10860,
    "invisible": false
  },
  {
    "longitude": -63.0501,
    "name": "Saint-Martin",
    "alwaysShow": true,
    "latitude": 18.0708,
    "dead": 3,
    "lastUpdated": "2020-07-06T17:46:03.541Z",
    "recovered": 37,
    "infected": 43,
    "id": "LBUtrLDKJiupXjlUNTUe",
    "pop": 32125,
    "country": "FR",
    "sick": 3,
    "invisible": false
  },
  {
    "longitude": 36.9242,
    "name": "Oryol Oblast",
    "latitude": 52.7856,
    "dead": 73,
    "lastUpdated": "2020-07-06T17:30:08.483Z",
    "recovered": 3166,
    "infected": 4741,
    "id": "LD8TNScpLrLRvgpQAn9T",
    "pop": 747000,
    "country": "RU",
    "sick": 1502,
    "invisible": false
  },
  {
    "id": "LTGEU2E9MFkrCcFhZYVk",
    "pop": 38557,
    "country": "LI",
    "longitude": 9.5554,
    "name": "Liechtenstein",
    "latitude": 47.166,
    "dead": 1,
    "lastUpdated": "2020-07-06T17:46:03.540Z",
    "recovered": 81,
    "infected": 84,
    "sick": 2,
    "invisible": false
  },
  {
    "longitude": -9.6966,
    "name": "Guinea",
    "latitude": 9.9456,
    "dead": 34,
    "lastUpdated": "2020-07-06T17:46:03.532Z",
    "recovered": 4522,
    "infected": 5610,
    "id": "LU2QWt5ao8IJa8evNYVV",
    "pop": 12720000,
    "country": "GN",
    "sick": 1054,
    "invisible": false
  },
  {
    "latitude": 29.6667,
    "dead": 1034,
    "lastUpdated": "2020-07-06T17:32:17.206Z",
    "recovered": 0,
    "infected": 10332,
    "id": "LYCBHrA9ms6GcxpLGPCT",
    "pop": 3062000,
    "country": "MX",
    "longitude": -110.5,
    "name": "Sonora",
    "sick": 9298,
    "invisible": false
  },
  {
    "name": "Suriname",
    "latitude": 3.9193051,
    "dead": 14,
    "lastUpdated": "2020-07-06T17:46:03.538Z",
    "recovered": 292,
    "infected": 594,
    "id": "LglKINHyQpYpFxjckbQ6",
    "pop": 563402,
    "country": "SR",
    "longitude": -56.0277824,
    "sick": 288,
    "invisible": false
  },
  {
    "lastUpdated": "2020-07-06T17:40:02.726Z",
    "recovered": 0,
    "infected": 796,
    "state": "SK",
    "id": "LkIDKY0CMAqzbwBHyYCP",
    "pop": 1174000,
    "country": "CA",
    "longitude": -106.4509,
    "name": "Saskatchewan",
    "latitude": 52.9399,
    "dead": 14,
    "sick": 782,
    "invisible": false
  },
  {
    "recovered": 8,
    "infected": 10,
    "id": "LooNn6RuMiDhQnwa9svw",
    "pop": 636442,
    "country": "EH",
    "longitude": -12.8858,
    "name": "Western Sahara",
    "latitude": 24.2155,
    "dead": 1,
    "lastUpdated": "2020-07-06T17:46:03.542Z",
    "sick": 1,
    "invisible": false
  },
  {
    "state": "AS",
    "id": "Lsga7AvYNnY0qQ5gEfV8",
    "pop": 1022000,
    "country": "ES",
    "longitude": -5.951843,
    "name": "Principado de Asturias",
    "latitude": 43.363129,
    "dead": 334,
    "lastUpdated": "2020-07-05T23:37:22.693Z",
    "recovered": 1063,
    "infected": 3420,
    "sick": 2023,
    "invisible": false
  },
  {
    "longitude": -6.0679,
    "name": "Extremadura",
    "latitude": 39.4937,
    "dead": 519,
    "lastUpdated": "2020-07-05T23:36:53.791Z",
    "recovered": 2652,
    "infected": 4048,
    "state": "EX",
    "id": "LuEErlF7dVKI0eJsRjFm",
    "pop": 1065000,
    "country": "ES",
    "sick": 877,
    "invisible": false
  },
  {
    "lastUpdated": "2020-07-06T17:32:17.206Z",
    "recovered": 0,
    "infected": 10904,
    "id": "M3wdiueFtwrUHiQ2rOXA",
    "pop": 5965000,
    "country": "MX",
    "longitude": -101.2591,
    "name": "Guanajuato",
    "latitude": 21.0186,
    "dead": 665,
    "sick": 10239,
    "invisible": false
  },
  {
    "lastUpdated": "2020-07-06T17:47:01.598Z",
    "recovered": 0,
    "infected": 16376,
    "state": "KY",
    "id": "MC8MXFw9iXYybnF8v7e6",
    "pop": 4468000,
    "country": "US",
    "longitude": -84.27,
    "name": "Kentucky",
    "latitude": 37.8393,
    "dead": 585,
    "sick": 15791,
    "invisible": false
  },
  {
    "name": "Unknown UK region or state",
    "latitude": 55.3781,
    "dead": 39663,
    "lastUpdated": "2020-07-06T17:43:11.166Z",
    "recovered": 0,
    "infected": 8198,
    "id": "MEjlm8VYdGA28TTTnQmf",
    "country": "GB",
    "longitude": -3.436,
    "invisible": true,
    "sick": 0
  },
  {
    "id": "MG4e9tulLJ010SZJvbYN",
    "pop": 3689000,
    "country": "PT",
    "longitude": -7.7441,
    "name": "Norte",
    "latitude": 41.3006,
    "dead": 820,
    "lastUpdated": "2020-07-06T17:53:01.121Z",
    "recovered": 0,
    "infected": 17766,
    "sick": 16946,
    "invisible": false
  },
  {
    "id": "MObRYyIriHG337L8FyFC",
    "pop": 5450000,
    "country": "GB",
    "longitude": -4.2026,
    "name": "Scotland",
    "latitude": 56.4907,
    "dead": 2488,
    "lastUpdated": "2020-07-06T17:43:11.164Z",
    "recovered": 0,
    "infected": 18300,
    "state": "SC",
    "sick": 15812,
    "invisible": false
  },
  {
    "lastUpdated": "2020-07-06T17:47:01.595Z",
    "recovered": 0,
    "infected": 48331,
    "state": "IN",
    "id": "MOxDkmQ4wBi1CuAdVxDE",
    "pop": 6692000,
    "country": "US",
    "longitude": -86.1349,
    "name": "Indiana",
    "latitude": 40.2672,
    "dead": 2698,
    "sick": 45633,
    "invisible": false
  },
  {
    "name": "Ivory Coast",
    "latitude": 7.54,
    "dead": 74,
    "lastUpdated": "2020-07-06T17:46:03.531Z",
    "recovered": 5067,
    "infected": 10772,
    "id": "MdQOfc1gNh2DOqwSP6UV",
    "pop": 24290000,
    "country": "CI",
    "longitude": -5.5471,
    "sick": 5631,
    "invisible": false
  },
  {
    "state": "NW",
    "id": "MjpYq3zQyAvSQlVVYjD2",
    "pop": 17910000,
    "country": "DE",
    "longitude": 7.6616,
    "name": "Nordrhein-Westfalen",
    "latitude": 51.4332,
    "dead": 1706,
    "lastUpdated": "2020-07-06T17:30:08.880Z",
    "recovered": 40020,
    "infected": 44157,
    "sick": 2431,
    "invisible": false
  },
  {
    "longitude": 105.977203,
    "name": "Ningxia",
    "latitude": 37.330509,
    "dead": 0,
    "lastUpdated": "2020-07-06T17:53:10.667Z",
    "recovered": 75,
    "infected": 75,
    "id": "MntmjjuHljarCdt6aIeE",
    "pop": 6301000,
    "country": "CN",
    "sick": 0,
    "invisible": false
  },
  {
    "id": "MuEB2UgkId5crsxi9zQT",
    "pop": 8513497,
    "country": "BR",
    "longitude": -52.203499186,
    "name": "Pará",
    "latitude": -3.20166586,
    "dead": 5096,
    "lastUpdated": "2020-07-06T17:45:01.495Z",
    "recovered": 0,
    "infected": 113811,
    "state": "PA",
    "sick": 108715,
    "invisible": false
  },
  {
    "name": "Lipetsk Oblast",
    "latitude": 52.5265,
    "dead": 18,
    "lastUpdated": "2020-07-06T17:30:08.483Z",
    "recovered": 2561,
    "infected": 3992,
    "id": "N0KGfqgROVOjAxWcd8wi",
    "pop": 1150000,
    "country": "RU",
    "longitude": 39.2032,
    "sick": 1413,
    "invisible": false
  },
  {
    "id": "N3XsRBwJSsNclkEf7Zz5",
    "pop": 11020000,
    "country": "DE",
    "longitude": 9.3501,
    "name": "Baden-Württemberg",
    "latitude": 48.6616,
    "dead": 1891,
    "lastUpdated": "2020-07-06T17:30:08.873Z",
    "recovered": 33523,
    "infected": 36248,
    "state": "BW",
    "sick": 834,
    "invisible": false
  },
  {
    "id": "N7c13sCQF0G789XAVazJ",
    "pop": 3507000,
    "country": "BA",
    "longitude": 17.824332,
    "name": "Bosnia and Herzegovina",
    "latitude": 44.696652,
    "dead": 199,
    "lastUpdated": "2020-07-06T17:46:03.533Z",
    "recovered": 2598,
    "infected": 5458,
    "sick": 2661,
    "invisible": false
  },
  {
    "longitude": 111.856857,
    "name": "Shanxi",
    "latitude": 37.242565,
    "dead": 0,
    "lastUpdated": "2020-07-06T17:53:10.667Z",
    "recovered": 198,
    "infected": 198,
    "id": "NBRIGIRrJB1Ry8prDNAC",
    "pop": 36500000,
    "country": "CN",
    "sick": 0,
    "invisible": false
  },
  {
    "country": "US",
    "longitude": -79.0193,
    "name": "North Carolina",
    "latitude": 35.7596,
    "dead": 1425,
    "lastUpdated": "2020-07-06T17:47:01.591Z",
    "recovered": 0,
    "infected": 74529,
    "state": "NC",
    "id": "NC64Qp5kTqAfiTuR27k8",
    "pop": 10380000,
    "sick": 73104,
    "invisible": false
  },
  {
    "latitude": 52.4125,
    "dead": 176,
    "lastUpdated": "2020-07-06T17:30:08.879Z",
    "recovered": 3242,
    "infected": 3531,
    "state": "BB",
    "id": "NJjo2gfBvnbK4xatrsUz",
    "pop": 2504000,
    "country": "DE",
    "longitude": 12.5316,
    "name": "Brandenburg",
    "sick": 113,
    "invisible": false
  },
  {
    "longitude": 145.6739,
    "name": "Northern Mariana Islands",
    "alwaysShow": true,
    "dead": 2,
    "latitude": 15.0979,
    "infected": 31,
    "recovered": 0,
    "pop": 55144,
    "country": "US",
    "lastUpdated": "2020-07-06T17:47:01.599Z",
    "state": "MP",
    "id": "NLLL6pJhJSw0lrDMD4uP",
    "sick": 29,
    "invisible": false
  },
  {
    "id": "NMeZEcGToxXfpi16PfFV",
    "pop": 10080000,
    "country": "IN",
    "longitude": 79.0193,
    "name": "Uttarakhand",
    "latitude": 30.0668,
    "dead": 42,
    "lastUpdated": "2020-07-06T17:41:01.527Z",
    "recovered": 2586,
    "infected": 3161,
    "sick": 533,
    "invisible": false
  },
  {
    "state": "HE",
    "id": "Nk5vPgUIXsWVfbWZf15O",
    "pop": 6243000,
    "country": "DE",
    "longitude": 9.1624,
    "name": "Hessen",
    "latitude": 50.6521,
    "dead": 519,
    "lastUpdated": "2020-07-06T16:00:02.893Z",
    "recovered": 10120,
    "infected": 10997,
    "sick": 358,
    "invisible": false
  },
  {
    "id": "NmmMKy0YqA8StHdGzB5N",
    "pop": 1920000,
    "country": "LV",
    "longitude": 25.837107,
    "name": "Latvia",
    "latitude": 56.96776,
    "dead": 30,
    "lastUpdated": "2020-07-06T17:46:03.536Z",
    "recovered": 1000,
    "infected": 1127,
    "sick": 97,
    "invisible": false
  },
  {
    "latitude": -8.472372,
    "dead": 5143,
    "lastUpdated": "2020-07-06T17:45:01.497Z",
    "recovered": 0,
    "infected": 65129,
    "state": "PE",
    "id": "NyGlFL1gATK1Omv9qtcC",
    "pop": 9496294,
    "country": "BR",
    "longitude": -37.946777,
    "name": "Pernambuco",
    "sick": 59986,
    "invisible": false
  },
  {
    "latitude": 6.4281,
    "dead": 37,
    "lastUpdated": "2020-07-06T17:46:03.537Z",
    "recovered": 377,
    "infected": 874,
    "id": "O4g88K49HKEZLFXm5gxb",
    "pop": 4732000,
    "country": "LR",
    "longitude": -9.4295,
    "name": "Liberia",
    "sick": 460,
    "invisible": false
  },
  {
    "latitude": 51.7936,
    "dead": 45,
    "lastUpdated": "2020-07-06T17:30:08.483Z",
    "recovered": 3264,
    "infected": 4538,
    "id": "O5fNOGWKosps6JTrzkpn",
    "pop": 2350000,
    "country": "RU",
    "longitude": 82.6759,
    "name": "Altai Krai",
    "sick": 1229,
    "invisible": false
  },
  {
    "lastUpdated": "2020-07-06T17:30:08.484Z",
    "recovered": 2329,
    "infected": 3399,
    "id": "O6PDzAxKENYbLsLjPx2K",
    "pop": 1072000,
    "country": "RU",
    "longitude": 116.9677,
    "name": "Zabaykalsky Krai",
    "latitude": 53.0929,
    "dead": 44,
    "sick": 1026,
    "invisible": false
  },
  {
    "id": "ONU4CK8QjViFHKg2w5if",
    "pop": 5084000,
    "country": "US",
    "longitude": -80.525613,
    "name": "South Carolina",
    "latitude": 34.003307,
    "dead": 820,
    "lastUpdated": "2020-07-06T17:47:01.596Z",
    "recovered": 0,
    "infected": 44847,
    "state": "SC",
    "sick": 44027,
    "invisible": false
  },
  {
    "country": "US",
    "longitude": -89.582775,
    "name": "Mississippi",
    "latitude": 33.51822,
    "dead": 1114,
    "lastUpdated": "2020-07-06T17:47:01.597Z",
    "recovered": 0,
    "infected": 31257,
    "state": "MS",
    "id": "OYa0jFzdbAgo8zUsRv6q",
    "pop": 2987000,
    "sick": 30143,
    "invisible": false
  },
  {
    "latitude": 45.2538,
    "dead": 109,
    "lastUpdated": "2020-07-06T17:47:01.599Z",
    "recovered": 0,
    "infected": 3423,
    "state": "ME",
    "id": "OcXNp9kNVSwrRlG3bNVN",
    "pop": 1338000,
    "country": "US",
    "longitude": -69.4455,
    "name": "Maine",
    "sick": 3314,
    "invisible": false
  },
  {
    "latitude": 43.4052,
    "dead": 69,
    "lastUpdated": "2020-07-06T17:30:08.484Z",
    "recovered": 2497,
    "infected": 3169,
    "id": "OlKS5SPydHY2TedStFuf",
    "pop": 488000,
    "country": "RU",
    "longitude": 44.8203,
    "name": "Ingushetia",
    "sick": 603,
    "invisible": false
  },
  {
    "recovered": 215,
    "infected": 228,
    "state": "TAS",
    "id": "OnOseaqWdnuP18oruABW",
    "pop": 515000,
    "country": "AU",
    "longitude": 146.725256,
    "name": "Tasmania",
    "latitude": -41.915264,
    "dead": 13,
    "lastUpdated": "2020-07-06T17:13:21.350Z",
    "sick": 0,
    "invisible": false
  },
  {
    "recovered": 0,
    "infected": 20891,
    "state": "MT",
    "id": "P0GHFGUt1pkKTk5PM8uz",
    "pop": 3441998,
    "country": "BR",
    "longitude": -56.666668,
    "name": "Mato Grosso",
    "latitude": -16.35,
    "dead": 807,
    "lastUpdated": "2020-07-06T17:45:01.502Z",
    "sick": 20084,
    "invisible": false
  },
  {
    "lastUpdated": "2020-07-06T17:30:08.483Z",
    "recovered": 3184,
    "infected": 4647,
    "id": "P2I90oqdFSoVk03AaGo4",
    "pop": 1378000,
    "country": "RU",
    "longitude": 40.5927,
    "name": "Vladimir Oblast",
    "latitude": 56.1553,
    "dead": 77,
    "sick": 1386,
    "invisible": false
  },
  {
    "name": "Cayman Islands",
    "latitude": 19.3133,
    "dead": 1,
    "lastUpdated": "2020-07-06T17:46:03.539Z",
    "recovered": 194,
    "infected": 201,
    "id": "P4mwRFLbrvT0t75uD8Wo",
    "pop": 61559,
    "country": "KY",
    "longitude": -81.2546,
    "sick": 6,
    "invisible": false
  },
  {
    "recovered": 10,
    "infected": 11,
    "id": "PEDkeFMTOZpvHiSVxBk7",
    "pop": 5900,
    "country": "MS",
    "longitude": -62.1873665,
    "name": "Montserrat",
    "latitude": 16.7424984,
    "dead": 1,
    "lastUpdated": "2020-07-06T17:46:03.541Z",
    "sick": 0,
    "invisible": false
  },
  {
    "id": "PEcgZGEkyhABztt1Ufgc",
    "pop": 12210000,
    "country": "RW",
    "longitude": 29.8739,
    "name": "Rwanda",
    "latitude": -1.9403,
    "dead": 3,
    "lastUpdated": "2020-07-06T17:46:03.537Z",
    "recovered": 567,
    "infected": 1105,
    "sick": 535,
    "invisible": false
  },
  {
    "longitude": 56.1645,
    "name": "Bashkortostan",
    "latitude": 54.2312,
    "dead": 19,
    "lastUpdated": "2020-07-06T17:30:08.481Z",
    "recovered": 3333,
    "infected": 5638,
    "id": "PHlHdeqYd6KgxsJGfEz0",
    "pop": 4063000,
    "country": "RU",
    "sick": 2286,
    "invisible": false
  },
  {
    "latitude": 46.7296,
    "dead": 1511,
    "lastUpdated": "2020-07-06T17:47:01.596Z",
    "recovered": 0,
    "infected": 38569,
    "state": "MN",
    "id": "PJvVYosLIhbcRZYnKX1R",
    "pop": 5611000,
    "country": "US",
    "longitude": -94.6859,
    "name": "Minnesota",
    "sick": 37058,
    "invisible": false
  },
  {
    "recovered": 0,
    "infected": 148373,
    "state": "IL",
    "id": "PTwQr9ijo0TBBsPH2sdJ",
    "pop": 12740000,
    "country": "US",
    "longitude": -89.3985,
    "name": "Illinois",
    "latitude": 40.6331,
    "dead": 7230,
    "lastUpdated": "2020-07-06T17:47:01.591Z",
    "sick": 141143,
    "invisible": false
  },
  {
    "latitude": 13.909444,
    "dead": 0,
    "lastUpdated": "2020-07-06T17:46:03.541Z",
    "recovered": 19,
    "infected": 22,
    "id": "PjLqCeFdyzdZNcZxMkK1",
    "pop": 178844,
    "country": "LC",
    "longitude": -60.978893,
    "name": "Saint Lucia",
    "sick": 3,
    "invisible": false
  },
  {
    "latitude": 42.6954,
    "dead": 528,
    "lastUpdated": "2020-07-05T23:36:44.395Z",
    "recovered": 3905,
    "infected": 8634,
    "state": "NC",
    "id": "PmUlsNx2uFLU797wwU39",
    "pop": 649900,
    "country": "ES",
    "longitude": -1.6761,
    "name": "Comunidad Foral de Navarra",
    "sick": 4201,
    "invisible": false
  },
  {
    "latitude": 34.201507,
    "dead": 50,
    "lastUpdated": "2020-07-06T17:46:03.536Z",
    "recovered": 1049,
    "infected": 1199,
    "id": "Pr76V4raf108uSRoEXac",
    "pop": 11530000,
    "country": "TN",
    "longitude": 9.460554,
    "name": "Tunisia",
    "sick": 100,
    "invisible": false
  },
  {
    "name": "Eswatini",
    "latitude": -26.5225,
    "dead": 13,
    "lastUpdated": "2020-07-06T17:46:03.537Z",
    "recovered": 547,
    "infected": 988,
    "id": "PuQgOd9KWiMzGZXm11sR",
    "pop": 1367000,
    "country": "SZ",
    "longitude": 31.4659,
    "sick": 428,
    "invisible": false
  },
  {
    "latitude": -37.009609,
    "dead": 20,
    "lastUpdated": "2020-07-06T17:13:21.350Z",
    "recovered": 1992,
    "infected": 2368,
    "state": "VIC",
    "id": "Q18mrGvFWTLX2BU9SqhQ",
    "pop": 6359000,
    "country": "AU",
    "longitude": 143.94853,
    "name": "Victoria",
    "sick": 356,
    "invisible": false
  },
  {
    "name": "Schleswig-Holstein",
    "latitude": 54.2194,
    "dead": 157,
    "lastUpdated": "2020-07-06T17:30:08.880Z",
    "recovered": 2992,
    "infected": 3195,
    "state": "SH",
    "id": "Q39XkabIYxt15mHINzTa",
    "pop": 2890000,
    "country": "DE",
    "longitude": 9.6961,
    "sick": 46,
    "invisible": false
  },
  {
    "lastUpdated": "2020-07-06T17:45:01.501Z",
    "recovered": 0,
    "infected": 31955,
    "state": "RS",
    "id": "QGpQNhuoVTUPHXvS7qcu",
    "pop": 11329605,
    "country": "BR",
    "longitude": -52.031696,
    "name": "Rio Grande do Sul",
    "latitude": -27.953491,
    "dead": 727,
    "sick": 31228,
    "invisible": false
  },
  {
    "longitude": 46.9284,
    "name": "Chuvashia",
    "latitude": 55.5596,
    "dead": 40,
    "lastUpdated": "2020-07-06T17:30:08.481Z",
    "recovered": 3029,
    "infected": 5454,
    "id": "QGyuno7Bc4kwuvGFgMiO",
    "pop": 1231000,
    "country": "RU",
    "sick": 2385,
    "invisible": false
  },
  {
    "lastUpdated": "2020-07-06T17:46:03.535Z",
    "recovered": 1875,
    "infected": 1994,
    "id": "QR9go2hQKXjty7JHUYe4",
    "pop": 1328000,
    "country": "EE",
    "longitude": 25.013607,
    "name": "Estonia",
    "latitude": 58.595272,
    "dead": 69,
    "sick": 50,
    "invisible": false
  },
  {
    "latitude": 63.8631,
    "dead": 35,
    "lastUpdated": "2020-07-06T17:30:08.484Z",
    "recovered": 1972,
    "infected": 3762,
    "id": "QTafh5fpbS8abcuyEjaL",
    "pop": 840000,
    "country": "RU",
    "longitude": 54.8313,
    "name": "Komi Republic",
    "sick": 1755,
    "invisible": false
  },
  {
    "latitude": -20.318,
    "dead": 1804,
    "lastUpdated": "2020-07-06T17:45:01.501Z",
    "recovered": 0,
    "infected": 53393,
    "state": "ES",
    "id": "QaWDLKH8SuwD0Qxq6c38",
    "pop": 3972388,
    "country": "BR",
    "longitude": -40.336,
    "name": "Espírito Santo",
    "sick": 51589,
    "invisible": false
  },
  {
    "latitude": 67.8443,
    "dead": 21,
    "lastUpdated": "2020-07-06T17:30:08.481Z",
    "recovered": 3704,
    "infected": 6038,
    "id": "Qh73PKA4KWeuPoqZfWXz",
    "pop": 795000,
    "country": "RU",
    "longitude": 35.0884,
    "name": "Murmansk Oblast",
    "sick": 2313,
    "invisible": false
  },
  {
    "name": "Jalisco",
    "latitude": 20.3333,
    "dead": 848,
    "lastUpdated": "2020-07-06T17:32:17.207Z",
    "recovered": 0,
    "infected": 15332,
    "id": "Qkho455pBwx88Gohs3hL",
    "pop": 8222700,
    "country": "MX",
    "longitude": -103.6667,
    "sick": 14484,
    "invisible": false
  },
  {
    "longitude": 143.9555,
    "name": "Papua New Guinea",
    "latitude": -6.315,
    "dead": 0,
    "lastUpdated": "2020-07-06T17:46:03.542Z",
    "recovered": 8,
    "infected": 11,
    "id": "QlZrE4nosm5WfdA2aCDg",
    "pop": 8251000,
    "country": "PG",
    "sick": 3,
    "invisible": false
  },
  {
    "lastUpdated": "2020-07-06T17:47:01.600Z",
    "state": "VI",
    "id": "QqhD3YDMKXojvQY3Yu41",
    "longitude": -64.8963,
    "name": "U.S. Virgin Islands",
    "alwaysShow": true,
    "dead": 6,
    "latitude": 18.3358,
    "infected": 112,
    "recovered": 0,
    "pop": 107268,
    "country": "US",
    "sick": 106,
    "invisible": false
  },
  {
    "country": "DM",
    "longitude": -61.3709755,
    "name": "Dominica",
    "latitude": 15.414999,
    "dead": 0,
    "lastUpdated": "2020-07-06T17:46:03.541Z",
    "recovered": 18,
    "infected": 18,
    "id": "Qy2qW2ep5wltnYjPJBxh",
    "pop": 71937,
    "sick": 0,
    "invisible": false
  },
  {
    "longitude": -72.167,
    "name": "Casanare",
    "latitude": 5.167,
    "dead": 0,
    "lastUpdated": "2020-07-06T17:45:12.056Z",
    "recovered": 49,
    "infected": 87,
    "id": "R3IHMWqIUhOJJTlrmbUZ",
    "pop": 344027,
    "country": "CO",
    "sick": 38,
    "invisible": false
  },
  {
    "name": "Panama",
    "latitude": 8.538,
    "dead": 747,
    "lastUpdated": "2020-07-06T17:46:03.528Z",
    "recovered": 17986,
    "infected": 38149,
    "id": "R8YCgephnxTufvcPWMgx",
    "pop": 4099000,
    "country": "PA",
    "longitude": -80.7821,
    "sick": 19416,
    "invisible": false
  },
  {
    "longitude": -86.2419,
    "name": "Honduras",
    "latitude": 15.2,
    "dead": 639,
    "lastUpdated": "2020-07-06T17:46:03.529Z",
    "recovered": 2490,
    "infected": 23943,
    "id": "RA2SE0p2bVhqo0P2hzGY",
    "pop": 9265000,
    "country": "HN",
    "sick": 20814,
    "invisible": false
  },
  {
    "id": "RBt9RiwP7WUbMnJfD0lo",
    "pop": 224500,
    "country": "CL",
    "longitude": -70.2979202,
    "name": "Arica y Parinacota",
    "latitude": -18.4745998,
    "dead": 22,
    "lastUpdated": "2020-07-06T17:51:04.574Z",
    "recovered": 0,
    "infected": 2087,
    "sick": 2065,
    "invisible": false
  },
  {
    "name": "Friuli Venezia Giulia",
    "latitude": 45.633331,
    "dead": 345,
    "lastUpdated": "2020-07-06T17:31:11.740Z",
    "recovered": 2910,
    "infected": 3326,
    "state": "36",
    "id": "RCrDBCdBNYzgLNr0aB2H",
    "pop": 1216000,
    "country": "IT",
    "longitude": 13.8,
    "sick": 71,
    "invisible": false
  },
  {
    "latitude": 41.878,
    "dead": 722,
    "lastUpdated": "2020-07-06T17:47:01.597Z",
    "recovered": 0,
    "infected": 31656,
    "state": "IA",
    "id": "RX0KDu1AFrlCsrRso0nb",
    "pop": 3156000,
    "country": "US",
    "longitude": -93.0977,
    "name": "Iowa",
    "sick": 30934,
    "invisible": false
  },
  {
    "id": "RZ6PCe5TZsO15JjDObwO",
    "pop": 7413000,
    "country": "CO",
    "longitude": -74.063644,
    "name": "Bogotá D.C.",
    "latitude": 4.624335,
    "dead": 826,
    "lastUpdated": "2020-07-06T17:45:12.045Z",
    "recovered": 14099,
    "infected": 36554,
    "sick": 21629,
    "invisible": false
  },
  {
    "recovered": 261,
    "infected": 1046,
    "id": "RaJxbzlnRFTuj4B8IbpC",
    "pop": 6846000,
    "country": "LY",
    "longitude": 17.2283306,
    "name": "Libya",
    "latitude": 26.3351002,
    "dead": 32,
    "lastUpdated": "2020-07-06T17:46:03.537Z",
    "sick": 753,
    "invisible": false
  },
  {
    "name": "Kansas",
    "latitude": 39.0119,
    "dead": 284,
    "lastUpdated": "2020-07-06T17:47:01.598Z",
    "recovered": 0,
    "infected": 16215,
    "state": "KS",
    "id": "Rf4uvBfP3GRDSHdZElRd",
    "pop": 2912000,
    "country": "US",
    "longitude": -98.4842,
    "sick": 15931,
    "invisible": false
  },
  {
    "lastUpdated": "2020-07-05T23:43:07.443Z",
    "recovered": 12253,
    "infected": 25986,
    "id": "RmEgf1xeclWt7XCF9oiR",
    "pop": 5518000,
    "country": "FR",
    "longitude": 6.1878,
    "name": "Grand Est",
    "latitude": 48.6998,
    "dead": 3577,
    "sick": 10156,
    "invisible": false
  },
  {
    "longitude": 4.451,
    "name": "Wallonia",
    "latitude": 50.4176,
    "dead": 3388,
    "lastUpdated": "2020-07-06T17:37:06.016Z",
    "recovered": 4893,
    "infected": 19385,
    "state": "WAL",
    "id": "RryHraSohKQLAsdr1dHO",
    "pop": 3644000,
    "country": "BE",
    "sick": 11104,
    "invisible": false
  },
  {
    "name": "Ontario",
    "latitude": 51.2538,
    "dead": 2744,
    "lastUpdated": "2020-07-05T22:40:01.575Z",
    "recovered": 0,
    "infected": 37588,
    "state": "ON",
    "id": "Rx4TuyMpfGb3S8wYJX0x",
    "pop": 14570000,
    "country": "CA",
    "longitude": -85.3232,
    "sick": 34844,
    "invisible": false
  },
  {
    "lastUpdated": "2020-07-05T23:36:25.659Z",
    "recovered": 8716,
    "infected": 26044,
    "state": "CL",
    "id": "S8ewN4zaYp8mjtuqqOTw",
    "pop": 2408000,
    "country": "ES",
    "longitude": -4.723611,
    "name": "Castilla y León",
    "latitude": 41.652779,
    "dead": 2787,
    "sick": 14541,
    "invisible": false
  },
  {
    "recovered": 98,
    "infected": 249,
    "id": "SDdefnq1bc3ZNr7SpEsW",
    "pop": 376480,
    "country": "FR",
    "longitude": -61.011715,
    "name": "Martinique",
    "alwaysShow": true,
    "latitude": 14.652027,
    "dead": 14,
    "lastUpdated": "2020-07-06T17:46:03.539Z",
    "sick": 137,
    "invisible": false
  },
  {
    "longitude": -1.0232,
    "name": "Ghana",
    "latitude": 7.9465,
    "dead": 122,
    "lastUpdated": "2020-07-06T17:46:03.529Z",
    "recovered": 14870,
    "infected": 20085,
    "id": "SG9VWLOV3x2JsTkXmVSz",
    "pop": 28830000,
    "country": "GH",
    "sick": 5093,
    "invisible": false
  },
  {
    "lastUpdated": "2020-07-06T17:46:03.528Z",
    "recovered": 29300,
    "infected": 32315,
    "id": "SGe9sCPayMqh6RsGFaBA",
    "pop": 8570000,
    "country": "CH",
    "longitude": 8.227512,
    "name": "Switzerland",
    "latitude": 46.818188,
    "dead": 1965,
    "sick": 1050,
    "invisible": false
  },
  {
    "country": "RU",
    "longitude": 124.1238,
    "name": "Yakutia",
    "latitude": 66.7613,
    "dead": 32,
    "lastUpdated": "2020-07-06T17:30:08.483Z",
    "recovered": 3473,
    "infected": 4504,
    "id": "SGhKBmmh5hss7hrNR8hK",
    "pop": 964000,
    "sick": 999,
    "invisible": false
  },
  {
    "recovered": 0,
    "infected": 55863,
    "state": "QC",
    "id": "SHoOE3NiJgWAlDVBzwYH",
    "pop": 8485000,
    "country": "CA",
    "longitude": -71.208,
    "name": "Quebec",
    "latitude": 46.8139,
    "dead": 5574,
    "lastUpdated": "2020-07-06T17:40:02.725Z",
    "sick": 50289,
    "invisible": false
  },
  {
    "latitude": 42.6026,
    "dead": 75,
    "lastUpdated": "2020-07-06T17:25:01.157Z",
    "recovered": 1902,
    "infected": 3508,
    "id": "SMWvuMMuKp2QK7O2tNia",
    "pop": 1831000,
    "country": "XK",
    "longitude": 20.903,
    "name": "Kosovo",
    "sick": 1531,
    "invisible": false
  },
  {
    "lastUpdated": "2020-07-06T17:30:08.483Z",
    "recovered": 3077,
    "infected": 4732,
    "id": "SNWCQwRwqYfxX8HZndTA",
    "pop": 1913000,
    "country": "RU",
    "longitude": 135,
    "name": "Primorsky Krai",
    "latitude": 45.0526,
    "dead": 52,
    "sick": 1603,
    "invisible": false
  },
  {
    "recovered": 1061,
    "infected": 1813,
    "id": "SPcujsH2YlUaoAr8AiWF",
    "pop": 1817000,
    "country": "IN",
    "longitude": 74.124,
    "name": "Goa",
    "latitude": 15.2993,
    "dead": 7,
    "lastUpdated": "2020-07-06T17:41:01.528Z",
    "sick": 745,
    "invisible": false
  },
  {
    "longitude": -48.953403,
    "name": "Goiás",
    "latitude": -16.328547,
    "dead": 621,
    "lastUpdated": "2020-07-06T17:45:01.502Z",
    "recovered": 0,
    "infected": 28526,
    "state": "GO",
    "id": "SV5AMF59J61Vt4cXWLgy",
    "pop": 6921161,
    "country": "BR",
    "sick": 27905,
    "invisible": false
  },
  {
    "lastUpdated": "2020-07-06T17:45:12.057Z",
    "recovered": 1,
    "infected": 1,
    "id": "SYFarIS62W0EW9bOaJmN",
    "pop": 75500,
    "country": "CO",
    "longitude": -68.436,
    "name": "Vichada",
    "latitude": 6.181,
    "dead": 0,
    "sick": 0,
    "invisible": false
  },
  {
    "name": "Calabria",
    "latitude": 39,
    "dead": 97,
    "lastUpdated": "2020-07-06T17:31:11.739Z",
    "recovered": 1060,
    "infected": 1183,
    "state": "78",
    "id": "SZdF624x0v1LlyzZjKFu",
    "pop": 1957000,
    "country": "IT",
    "longitude": 16.5,
    "sick": 26,
    "invisible": false
  },
  {
    "longitude": -99.9018,
    "name": "Nebraska",
    "latitude": 41.4925,
    "dead": 284,
    "lastUpdated": "2020-07-06T17:47:01.598Z",
    "recovered": 0,
    "infected": 19929,
    "state": "NE",
    "id": "SakhKQzKu1LRI8laqdQq",
    "pop": 1929000,
    "country": "US",
    "sick": 19645,
    "invisible": false
  },
  {
    "id": "SgHzWAAYK1j2sipovxM6",
    "pop": 859959,
    "country": "FR",
    "longitude": 55.5364,
    "name": "La Réunion",
    "alwaysShow": true,
    "latitude": -21.1151,
    "dead": 2,
    "lastUpdated": "2020-07-06T17:46:03.538Z",
    "recovered": 472,
    "infected": 547,
    "sick": 73,
    "invisible": false
  },
  {
    "latitude": 12.565679,
    "dead": 0,
    "lastUpdated": "2020-07-06T17:46:03.540Z",
    "recovered": 131,
    "infected": 141,
    "id": "SioMALgUbo7peXmbco2f",
    "pop": 16010000,
    "country": "KH",
    "longitude": 104.990967,
    "name": "Cambodia",
    "sick": 10,
    "invisible": false
  },
  {
    "lastUpdated": "2020-07-06T17:47:01.599Z",
    "state": "GU",
    "id": "SsWhuEElU7dCTTuH5fdQ",
    "longitude": 144.7937,
    "name": "Guam",
    "alwaysShow": true,
    "dead": 5,
    "latitude": 13.4443,
    "infected": 301,
    "recovered": 0,
    "pop": 164229,
    "country": "US",
    "sick": 296,
    "invisible": false
  },
  {
    "longitude": 19.1344,
    "invisible": true,
    "name": "Unknown Poland region",
    "latitude": 51.9189,
    "dead": 0,
    "lastUpdated": "2020-07-06T17:46:03.528Z",
    "recovered": 23966,
    "infected": 0,
    "id": "SuCr5emUaJ9RHTll1P1p",
    "country": "PL",
    "sick": 0
  },
  {
    "longitude": 53.0278,
    "name": "Udmurtia",
    "latitude": 57.067,
    "dead": 17,
    "lastUpdated": "2020-07-06T17:30:08.485Z",
    "recovered": 1139,
    "infected": 1537,
    "id": "Sx03z01BJCAbrYkWhEaD",
    "pop": 1513000,
    "country": "RU",
    "sick": 381,
    "invisible": false
  },
  {
    "longitude": 21.7587,
    "name": "DR Congo",
    "latitude": -4.0383,
    "dead": 182,
    "lastUpdated": "2020-07-06T17:46:03.532Z",
    "recovered": 3226,
    "infected": 7432,
    "id": "T3iRf8mTUTAzbKrORTap",
    "pop": 84070000,
    "country": "CD",
    "sick": 4024,
    "invisible": false
  },
  {
    "lastUpdated": "2020-07-06T17:46:03.521Z",
    "recovered": 149634,
    "infected": 213716,
    "id": "T7NffoeCgTUpAbOHvYwP",
    "pop": 32940000,
    "country": "SA",
    "longitude": 44.344334,
    "name": "Saudi Arabia",
    "latitude": 23.635796,
    "dead": 1968,
    "sick": 62114,
    "invisible": false
  },
  {
    "name": "La Rioja",
    "latitude": 42.2871,
    "dead": 366,
    "lastUpdated": "2020-07-05T23:37:10.820Z",
    "recovered": 3107,
    "infected": 5473,
    "state": "RI",
    "id": "TNDTapyb0k3l7Mds9q9R",
    "pop": 315700,
    "country": "ES",
    "longitude": -2.5396,
    "sick": 2000,
    "invisible": false
  },
  {
    "recovered": 0,
    "infected": 5110,
    "id": "TQCWbhIpJQBQxBjhCGVJ",
    "pop": 2207200,
    "country": "MX",
    "longitude": -89.134857,
    "name": "Yucatán",
    "latitude": 20.400417,
    "dead": 532,
    "lastUpdated": "2020-07-06T17:32:17.206Z",
    "sick": 4578,
    "invisible": false
  },
  {
    "name": "Brunei",
    "latitude": 4.506106,
    "dead": 3,
    "lastUpdated": "2020-07-06T17:46:03.540Z",
    "recovered": 138,
    "infected": 141,
    "id": "TQZmzsLhJqjtCSExAkCP",
    "pop": 428697,
    "country": "BN",
    "longitude": 114.650692,
    "sick": 0,
    "invisible": false
  },
  {
    "recovered": 7747,
    "infected": 15349,
    "state": "",
    "id": "TT0MKODSjrxHvG19xZCa",
    "pop": 8027000,
    "country": "FR",
    "longitude": 4.3853,
    "name": "Auvergne-Rhône-Alpes",
    "latitude": 45.4471,
    "dead": 1740,
    "lastUpdated": "2020-07-05T23:42:45.078Z",
    "sick": 5862,
    "invisible": false
  },
  {
    "lastUpdated": "2020-07-06T17:53:01.122Z",
    "recovered": 0,
    "infected": 539,
    "id": "TeoNTu4aw5riC04sTd73",
    "pop": 758700,
    "country": "PT",
    "longitude": -7.9,
    "name": "Alentejo",
    "latitude": 38.5667,
    "dead": 15,
    "sick": 524,
    "invisible": false
  },