[
  {
    "recovered": 2,
    "latitude": 12.5847,
    "pop": 72600,
    "longitude": -81.7006,
    "name": "San Andrés",
    "country": "CO",
    "lastUpdated": "2020-04-26T00:01:09.166Z",
    "dead": 0,
    "id": "01b09TY4vmuZwzVuiRFK",
    "infected": 6,
    "sick": 4,
    "invisible": false
  },
  {
    "longitude": -2.5895,
    "name": "Guernsey",
    "country": "GG",
    "lastUpdated": "2020-04-25T23:53:09.520Z",
    "dead": 12,
    "id": "0FOJefeLxQYXQ1CnJm9o",
    "infected": 245,
    "recovered": 167,
    "latitude": 49.4482,
    "pop": 67052,
    "sick": 66,
    "invisible": false
  },
  {
    "lastUpdated": "2020-04-26T00:01:01.680Z",
    "dead": 341,
    "id": "0GJcws44NSPsDHAuxJhW",
    "infected": 4299,
    "recovered": 1023,
    "latitude": 41.066666,
    "pop": 5827000,
    "longitude": 14.333333,
    "name": "Campania",
    "country": "IT",
    "sick": 2935,
    "invisible": false
  },
  {
    "lastUpdated": "2020-04-26T00:07:05.784Z",
    "dead": 1,
    "id": "0HDQbiHe462xMCUV5HiI",
    "infected": 143,
    "recovered": 0,
    "latitude": -20.2167,
    "pop": 383870,
    "longitude": -70.14222,
    "name": "Tarapacá",
    "country": "CL",
    "sick": 142,
    "invisible": false
  },
  {
    "infected": 100,
    "recovered": 34,
    "latitude": 20.9517,
    "pop": 45990000,
    "longitude": 85.0985,
    "name": "Odisha",
    "country": "IN",
    "lastUpdated": "2020-04-26T00:11:01.316Z",
    "dead": 1,
    "id": "0VG7S6aaK4eSo59fL9JO",
    "sick": 65,
    "invisible": false
  },
  {
    "recovered": 0,
    "latitude": 20.4737,
    "pop": 2990300,
    "longitude": -98.8582,
    "name": "Hidalgo",
    "country": "MX",
    "lastUpdated": "2020-04-26T00:10:14.670Z",
    "dead": 16,
    "id": "0XmCRqiK2ZaehoEJvfer",
    "infected": 165,
    "sick": 149,
    "invisible": false
  },
  {
    "longitude": 92.6586,
    "name": "Andaman and Nicobar Islands",
    "country": "IN",
    "lastUpdated": "2020-04-26T00:11:01.318Z",
    "dead": 0,
    "id": "0jStOpTUNRaQYJqgmRoK",
    "infected": 33,
    "recovered": 11,
    "latitude": 11.7401,
    "pop": 427246,
    "sick": 22,
    "invisible": false
  },
  {
    "longitude": 51.145517,
    "name": "Qatar",
    "country": "QA",
    "lastUpdated": "2020-04-26T00:21:03.329Z",
    "dead": 10,
    "id": "0m4aECS0Z2DGFEr8ldgI",
    "infected": 9358,
    "recovered": 929,
    "latitude": 25.315058,
    "pop": 2639000,
    "sick": 8419,
    "invisible": false
  },
  {
    "latitude": 22.9868,
    "pop": 90320000,
    "longitude": 87.855,
    "name": "West Bengal",
    "country": "IN",
    "lastUpdated": "2020-04-26T00:11:01.316Z",
    "dead": 18,
    "id": "0n54EMSDJcRoT1QEvw80",
    "infected": 571,
    "recovered": 103,
    "sick": 450,
    "invisible": false
  },
  {
    "lastUpdated": "2020-04-26T00:11:01.315Z",
    "dead": 99,
    "id": "0s18o5DrDAHjbu5MFcrj",
    "infected": 1945,
    "recovered": 281,
    "latitude": 22.9734,
    "pop": 73340000,
    "longitude": 78.6569,
    "name": "Madhya Pradesh",
    "country": "IN",
    "sick": 1565,
    "invisible": false
  },
  {
    "latitude": 37.0902,
    "longitude": -95.7129,
    "name": "Unknown US state",
    "country": "US",
    "lastUpdated": "2020-04-26T00:21:03.325Z",
    "dead": 0,
    "id": "0tFoopNTs6e4tOoaltu2",
    "invisible": true,
    "infected": 0,
    "recovered": 118162,
    "sick": 0
  },
  {
    "lastUpdated": "2020-04-26T00:08:10.447Z",
    "dead": 3,
    "id": "0x2HLhr5z5xAtEdO4iZm",
    "infected": 286,
    "recovered": 253,
    "latitude": 35.64249,
    "pop": 37330000,
    "longitude": 108.472214,
    "name": "Shaanxi",
    "country": "CN",
    "sick": 30,
    "invisible": false
  },
  {
    "longitude": 21.668393,
    "name": "North Macedonia",
    "country": "MK",
    "lastUpdated": "2020-04-26T00:21:03.336Z",
    "dead": 59,
    "id": "19MvIhipqTyYv1H37Upw",
    "infected": 1367,
    "recovered": 374,
    "latitude": 41.643351,
    "pop": 2077000,
    "sick": 934,
    "invisible": false
  },
  {
    "id": "1DOMOmCWDtva46OVSZLv",
    "infected": 257,
    "recovered": 0,
    "latitude": 53.1355,
    "pop": 521542,
    "longitude": -57.6604,
    "name": "Newfoundland and Labrador",
    "country": "CA",
    "lastUpdated": "2020-04-26T00:06:02.227Z",
    "dead": 3,
    "sick": 254,
    "invisible": false
  },
  {
    "infected": 18,
    "recovered": 18,
    "latitude": 35.801933,
    "pop": 5627000,
    "longitude": 96.779286,
    "name": "Qinghai",
    "country": "CN",
    "lastUpdated": "2020-04-26T00:08:10.450Z",
    "dead": 0,
    "id": "1Fap7rZu9SIRqf5TG9Dg",
    "sick": 0,
    "invisible": false
  },
  {
    "recovered": 7149,
    "latitude": 23.6345,
    "pop": 126200000,
    "longitude": -102.5528,
    "name": "Unknown Mexico state",
    "country": "MX",
    "lastUpdated": "2020-04-26T00:21:03.328Z",
    "dead": 0,
    "id": "1YXQMlVL3fUeDZmcVfJw",
    "invisible": true,
    "infected": 0,
    "sick": 0
  },
  {
    "latitude": 44.9,
    "pop": 4376000,
    "longitude": 8.206944,
    "name": "Piemonte",
    "country": "IT",
    "lastUpdated": "2020-04-26T00:01:01.681Z",
    "dead": 2767,
    "id": "1eTSQyfp8RoDPeFrIwun",
    "infected": 24426,
    "recovered": 6157,
    "sick": 15502,
    "invisible": false
  },
  {
    "longitude": 15.461,
    "name": "Lubuskie",
    "country": "PL",
    "lastUpdated": "2020-04-26T00:03:01.232Z",
    "dead": 0,
    "id": "1j1OurxLTpZYuWIWwQ9F",
    "infected": 85,
    "recovered": 0,
    "latitude": 51.993,
    "pop": 1003000,
    "sick": 85,
    "invisible": false
  },
  {
    "latitude": 47.4116,
    "pop": 3550000,
    "longitude": 28.3699,
    "name": "Moldova",
    "country": "MD",
    "lastUpdated": "2020-04-26T00:21:03.333Z",
    "dead": 94,
    "id": "1qTPB8X3tyLyIdsb5TN3",
    "infected": 3304,
    "recovered": 825,
    "sick": 2385,
    "invisible": false
  },
  {
    "latitude": 37.0902,
    "longitude": -95.7129,
    "name": "Federal Bureau of Prisons",
    "country": "US",
    "lastUpdated": "2020-04-26T00:05:21.831Z",
    "dead": 25,
    "id": "22PJOAThcDFKgSbyQIkD",
    "invisible": true,
    "infected": 985,
    "recovered": 0,
    "sick": 960
  },
  {
    "infected": 1,
    "recovered": 1,
    "latitude": 30.15336,
    "pop": 3180000,
    "longitude": 88.787865,
    "name": "Tibet",
    "country": "CN",
    "lastUpdated": "2020-04-26T00:08:10.450Z",
    "dead": 0,
    "id": "25qIBtsW2nfQj3pwBKg9",
    "sick": 0,
    "invisible": false
  },
  {
    "latitude": -1.572184,
    "pop": 264000000,
    "longitude": 115.66779,
    "name": "Indonesia",
    "country": "ID",
    "lastUpdated": "2020-04-26T00:21:03.329Z",
    "dead": 720,
    "id": "2KHYUb5t3lwzVVmDjwNX",
    "infected": 8607,
    "recovered": 1042,
    "sick": 6845,
    "invisible": false
  },
  {
    "longitude": -120.585594,
    "name": "Oregon",
    "country": "US",
    "lastUpdated": "2020-04-26T00:05:21.836Z",
    "dead": 87,
    "id": "2OrsssmGUs4XCzaZzvTv",
    "infected": 2253,
    "recovered": 0,
    "latitude": 43.807191,
    "pop": 4191000,
    "sick": 2166,
    "invisible": false
  },
  {
    "infected": 391,
    "recovered": 0,
    "latitude": -23.65,
    "pop": 425000,
    "longitude": -70.400002,
    "name": "Antofagasta",
    "country": "CL",
    "lastUpdated": "2020-04-26T00:07:05.784Z",
    "dead": 3,
    "id": "2c5HBZ1ffkCVXnMYUWnY",
    "sick": 388,
    "invisible": false
  },
  {
    "longitude": -51.070534,
    "name": "Amapá",
    "country": "BR",
    "lastUpdated": "2020-04-26T00:16:01.675Z",
    "dead": 19,
    "id": "2dzhyWsBSPpENWlNew0b",
    "infected": 685,
    "recovered": 0,
    "latitude": 0.035574,
    "pop": 9029000,
    "sick": 666,
    "invisible": false
  },
  {
    "longitude": 126.548103,
    "name": "Jilin",
    "country": "CN",
    "lastUpdated": "2020-04-26T00:08:10.448Z",
    "dead": 1,
    "id": "2jxHvSsxdnom0nPNvOT8",
    "infected": 109,
    "recovered": 99,
    "latitude": 43.851921,
    "pop": 27460000,
    "sick": 9,
    "invisible": false
  },
  {
    "latitude": 36.1408,
    "pop": 34571,
    "longitude": -5.3536,
    "name": "Gibraltar",
    "country": "GI",
    "lastUpdated": "2020-04-26T00:21:03.346Z",
    "dead": 0,
    "id": "2p11BjSAs3wVyymgqBOe",
    "infected": 136,
    "recovered": 131,
    "sick": 5,
    "invisible": false
  },
  {
    "recovered": 1056,
    "latitude": 47.7516,
    "pop": 2567000,
    "longitude": 1.6751,
    "name": "Centre-Val de Loire",
    "country": "FR",
    "lastUpdated": "2020-04-26T00:19:59.152Z",
    "dead": 348,
    "id": "2sLNkkHpyaHx7dD3aMDO",
    "infected": 3385,
    "sick": 1981,
    "invisible": false
  },
  {
    "longitude": 12.643751,
    "name": "Umbria",
    "country": "IT",
    "lastUpdated": "2020-04-26T00:01:01.682Z",
    "dead": 63,
    "id": "319tiZOMczx1y0DfvOib",
    "infected": 1366,
    "recovered": 1006,
    "latitude": 42.565044,
    "pop": 884640,
    "sick": 297,
    "invisible": false
  },
  {
    "infected": 25,
    "recovered": 10,
    "latitude": 2.43823,
    "pop": 1355000,
    "longitude": -76.6131592,
    "name": "Cauca",
    "country": "CO",
    "lastUpdated": "2020-04-26T00:01:09.165Z",
    "dead": 3,
    "id": "38T96Q3XNjt5FSJygPed",
    "sick": 12,
    "invisible": false
  },
  {
    "latitude": -13.133896,
    "pop": 17090000,
    "longitude": 27.849332,
    "name": "Zambia",
    "country": "ZM",
    "lastUpdated": "2020-04-26T00:21:03.348Z",
    "dead": 3,
    "id": "3IlPjAbP5qVMn1nlgLTJ",
    "infected": 84,
    "recovered": 37,
    "sick": 44,
    "invisible": false
  },
  {
    "infected": 320,
    "recovered": 153,
    "latitude": 42.7044,
    "pop": 631219,
    "longitude": 19.3958,
    "name": "Montenegro",
    "country": "ME",
    "lastUpdated": "2020-04-26T00:21:03.342Z",
    "dead": 6,
    "id": "3LstMSN5XMYBkxbe5HN7",
    "sick": 161,
    "invisible": false
  },
  {
    "infected": 106,
    "recovered": 88,
    "latitude": -35.4735,
    "pop": 418440,
    "longitude": 149.0124,
    "name": "Australian Capital Territory",
    "country": "AU",
    "lastUpdated": "2020-04-26T00:06:02.227Z",
    "dead": 3,
    "id": "3OZoQsKrzxZ18EKyfGE6",
    "sick": 15,
    "invisible": false
  },
  {
    "infected": 36,
    "recovered": 19,
    "latitude": 26.2006,
    "pop": 30940000,
    "longitude": 92.9376,
    "name": "Assam",
    "country": "IN",
    "lastUpdated": "2020-04-26T00:11:01.317Z",
    "dead": 1,
    "id": "3cCbnJCsK7mKlTO08K1o",
    "sick": 16,
    "invisible": false
  },
  {
    "id": "3fC3bAyIRUquOQOEnQNe",
    "infected": 15587,
    "recovered": 0,
    "latitude": 40.4173,
    "pop": 11690000,
    "longitude": -82.9071,
    "name": "Ohio",
    "country": "US",
    "lastUpdated": "2020-04-26T00:05:21.839Z",
    "dead": 711,
    "sick": 14876,
    "invisible": false
  },
  {
    "latitude": 25,
    "pop": 3066400,
    "longitude": -107.5,
    "name": "Sinaloa",
    "country": "MX",
    "lastUpdated": "2020-04-26T00:10:14.668Z",
    "dead": 92,
    "id": "3kFCzJguabtBvXaHxgiu",
    "infected": 708,
    "recovered": 0,
    "sick": 616,
    "invisible": false
  },
  {
    "infected": 792,
    "recovered": 138,
    "latitude": 3.420556,
    "pop": 4708300,
    "longitude": -76.522224,
    "name": "Valle del Cauca",
    "country": "CO",
    "lastUpdated": "2020-04-26T00:01:09.163Z",
    "dead": 48,
    "id": "3mC2LveOpXV8P1PmQGUj",
    "sick": 606,
    "invisible": false
  },
  {
    "infected": 7,
    "recovered": 6,
    "latitude": 21.0079,
    "pop": 4420000,
    "longitude": -10.9408,
    "name": "Mauritania",
    "country": "MR",
    "lastUpdated": "2020-04-26T00:21:03.356Z",
    "dead": 1,
    "id": "4NnFMekRK2m14IlnZZoj",
    "sick": 0,
    "invisible": false
  },
  {
    "latitude": 53.7267,
    "pop": 5071000,
    "longitude": -127.6476,
    "name": "British Columbia",
    "country": "CA",
    "lastUpdated": "2020-04-26T00:06:02.222Z",
    "dead": 100,
    "id": "4hfZRUoUgI4a3vrG0GBk",
    "infected": 1948,
    "recovered": 0,
    "sick": 1848,
    "invisible": false
  },
  {
    "infected": 6828,
    "recovered": 0,
    "latitude": -22.908333,
    "pop": 17159960,
    "longitude": -43.196388,
    "name": "Rio de Janeiro",
    "country": "BR",
    "lastUpdated": "2020-04-26T00:16:01.680Z",
    "dead": 615,
    "id": "4kq0z3kh5zt3YAUWxvtE",
    "sick": 6213,
    "invisible": false
  },
  {
    "longitude": -41.280857,
    "name": "Bahia",
    "country": "BR",
    "lastUpdated": "2020-04-26T00:16:01.675Z",
    "dead": 70,
    "id": "4yDbkEyqsNzZJjfrciYV",
    "infected": 2081,
    "recovered": 0,
    "latitude": -11.409874,
    "pop": 14812617,
    "sick": 2011,
    "invisible": false
  },
  {
    "longitude": 47.93802,
    "name": "Azerbaijan",
    "country": "AZ",
    "lastUpdated": "2020-04-26T00:21:03.335Z",
    "dead": 21,
    "id": "4zqzRm2xHn0CDVOUQJ8p",
    "infected": 1617,
    "recovered": 1080,
    "latitude": 40.3426,
    "pop": 9898000,
    "sick": 516,
    "invisible": false
  },
  {
    "recovered": 0,
    "latitude": 22.233105,
    "pop": 3672300,
    "longitude": -97.861099,
    "name": "Tamaulipas",
    "country": "MX",
    "lastUpdated": "2020-04-26T00:10:14.670Z",
    "dead": 15,
    "id": "54cfsdsRF76XVHWtZs19",
    "infected": 356,
    "sick": 341,
    "invisible": false
  },
  {
    "infected": 25152,
    "recovered": 5858,
    "latitude": 51.0109,
    "pop": 6596000,
    "longitude": 3.7265,
    "name": "Flanders",
    "country": "BE",
    "lastUpdated": "2020-04-25T23:59:10.708Z",
    "dead": 3374,
    "id": "57ydD48mLRD2YoyteJZj",
    "sick": 15920,
    "invisible": false
  },
  {
    "id": "5MHegCUO9L3LiAU7DDey",
    "infected": 78,
    "recovered": 15,
    "latitude": 25.025885,
    "pop": 395361,
    "longitude": -78.035889,
    "name": "Bahamas",
    "country": "BS",
    "lastUpdated": "2020-04-26T00:21:03.349Z",
    "dead": 11,
    "sick": 52,
    "invisible": false
  },
  {
    "infected": 2994,
    "recovered": 2193,
    "latitude": -31.253218,
    "pop": 7544000,
    "longitude": 146.921097,
    "name": "New South Wales",
    "country": "AU",
    "lastUpdated": "2020-04-26T00:06:02.222Z",
    "dead": 33,
    "id": "5N16a2OXXRpsEFanw0TC",
    "sick": 768,
    "invisible": false
  },
  {
    "recovered": 0,
    "latitude": 6.8769908,
    "pop": 12580000,
    "longitude": 31.3069782,
    "name": "South Sudan",
    "country": "SS",
    "lastUpdated": "2020-04-26T00:21:03.356Z",
    "dead": 0,
    "id": "5N4PRxsCDzzwk7R200V1",
    "infected": 5,
    "sick": 5,
    "invisible": false
  },
  {
    "lastUpdated": "2020-04-26T00:15:09.681Z",
    "dead": 1172,
    "id": "5Va9A7CXR8AXdUz4HTJj",
    "infected": 11123,
    "recovered": 6033,
    "latitude": 39.484,
    "pop": 4975000,
    "longitude": -0.7533,
    "name": "C. Valenciana",
    "country": "ES",
    "sick": 3918,
    "invisible": false
  },
  {
    "infected": 18,
    "recovered": 17,
    "latitude": -20.9043045,
    "pop": 280460,
    "longitude": 165.618042,
    "name": "New Caledonia",
    "country": "NC",
    "lastUpdated": "2020-04-26T00:21:03.353Z",
    "dead": 0,
    "id": "5fg04eyDwFw3kEXnrxez",
    "sick": 1,
    "invisible": false
  },
  {
    "longitude": 84.124008,
    "name": "Nepal",
    "country": "NP",
    "lastUpdated": "2020-04-26T00:21:03.350Z",
    "dead": 0,
    "id": "5gXZIjRgAvd6xWN1LOv8",
    "infected": 49,
    "recovered": 12,
    "latitude": 28.394857,
    "pop": 29300000,
    "sick": 37,
    "invisible": false
  },
  {
    "id": "5pwmh7aSdGRKqRbnuyc0",
    "infected": 7294,
    "recovered": 792,
    "latitude": 12.879721,
    "pop": 104900000,
    "longitude": 121.774017,
    "name": "Philippines",
    "country": "PH",
    "lastUpdated": "2020-04-26T00:21:03.330Z",
    "dead": 494,
    "sick": 6008,
    "invisible": false
  },
  {
    "infected": 31,
    "recovered": 2,
    "latitude": -17.824858,
    "pop": 14802190,
    "longitude": 31.053028,
    "name": "Zimbabwe",
    "country": "ZW",
    "lastUpdated": "2020-04-26T00:21:03.351Z",
    "dead": 4,
    "id": "5qtR9nx4BLwu1ODTniaY",
    "sick": 25,
    "invisible": false
  },
  {
    "latitude": 36.0672,
    "pop": 356890,
    "longitude": -109.188,
    "name": "Navajo Nation",
    "country": "US",
    "lastUpdated": "2020-04-26T00:05:21.833Z",
    "dead": 58,
    "id": "5vkKgxTaKq1IH0Go357L",
    "invisible": true,
    "infected": 1540,
    "recovered": 0,
    "sick": 1482
  },
  {
    "lastUpdated": "2020-04-26T00:10:14.669Z",
    "dead": 297,
    "id": "61E7TGjUwAo9xu6Y6gAH",
    "infected": 3764,
    "recovered": 0,
    "latitude": 19.432241,
    "pop": 8781300,
    "longitude": -99.177254,
    "name": "Ciudad de México",
    "country": "MX",
    "sick": 3467,
    "invisible": false
  },
  {
    "lastUpdated": "2020-04-26T00:21:03.335Z",
    "dead": 41,
    "id": "694ON7d0mRJDeM1gHBTR",
    "infected": 1426,
    "recovered": 460,
    "latitude": 55.621011,
    "pop": 2794000,
    "longitude": 23.804991,
    "name": "Lithuania",
    "country": "LT",
    "sick": 925,
    "invisible": false
  },
  {
    "latitude": 51.1781,
    "pop": 9175000,
    "longitude": -0.5596,
    "name": "South East",
    "country": "GB",
    "lastUpdated": "2020-04-26T00:09:23.674Z",
    "dead": 0,
    "id": "6IQAsvrmBv0HPdeTnh4x",
    "infected": 15453,
    "recovered": 0,
    "sick": 15453,
    "invisible": false
  },
  {
    "infected": 1038,
    "recovered": 753,
    "latitude": 22.396427,
    "pop": 7392000,
    "longitude": 114.109497,
    "name": "Hong Kong",
    "country": "HK",
    "lastUpdated": "2020-04-26T00:21:03.336Z",
    "dead": 4,
    "id": "6IcHIIH0zXpY0POmBZTv",
    "sick": 281,
    "invisible": false
  },
  {
    "infected": 258,
    "recovered": 0,
    "latitude": -8.65,
    "pop": 869265,
    "longitude": -72.4,
    "name": "Acre",
    "country": "BR",
    "lastUpdated": "2020-04-26T00:16:01.675Z",
    "dead": 11,
    "id": "6LQesrx5bHJsVUi1TXBp",
    "sick": 247,
    "invisible": false
  },
  {
    "infected": 54,
    "recovered": 27,
    "latitude": 9.3077,
    "pop": 11180000,
    "longitude": 2.3158,
    "name": "Benin",
    "country": "BJ",
    "lastUpdated": "2020-04-26T00:21:03.350Z",
    "dead": 1,
    "id": "6SlpghTyB6lpMFvx3g9U",
    "sick": 26,
    "invisible": false
  },
  {
    "latitude": 45.6667,
    "pop": 10040000,
    "longitude": 9.5,
    "name": "Lombardia",
    "country": "IT",
    "lastUpdated": "2020-04-26T00:01:01.680Z",
    "dead": 13269,
    "id": "6ZHcvMIzVWIaRnc4R3Qp",
    "infected": 71969,
    "recovered": 24227,
    "sick": 34473,
    "invisible": false
  },
  {
    "latitude": 46.0569,
    "pop": 2067000,
    "longitude": 14.5058,
    "name": "Slovenia",
    "country": "SI",
    "lastUpdated": "2020-04-26T00:21:03.335Z",
    "dead": 81,
    "id": "6ahNiyKDSDAftCctgLH3",
    "infected": 1388,
    "recovered": 219,
    "sick": 1088,
    "invisible": false
  },
  {
    "recovered": 0,
    "latitude": -27.3667908,
    "pop": 300000,
    "longitude": -70.331398,
    "name": "Atacama",
    "country": "CL",
    "lastUpdated": "2020-04-26T00:07:05.785Z",
    "dead": 0,
    "id": "6nyns7UGGgkU7pxrHf8i",
    "infected": 24,
    "sick": 24,
    "invisible": false
  },
  {
    "latitude": -0.8037,
    "pop": 2025000,
    "longitude": 11.6094,
    "name": "Gabon",
    "country": "GA",
    "lastUpdated": "2020-04-26T00:21:03.343Z",
    "dead": 3,
    "id": "6pBi38TUgYfFm0bry2uh",
    "infected": 176,
    "recovered": 30,
    "sick": 143,
    "invisible": false
  },
  {
    "latitude": 22.1498,
    "pop": 2831900,
    "longitude": -100.9792,
    "name": "San Luis Potosí",
    "country": "MX",
    "lastUpdated": "2020-04-26T00:10:14.670Z",
    "dead": 8,
    "id": "6vjIVg1gSANFZghV7xtS",
    "infected": 82,
    "recovered": 0,
    "sick": 74,
    "invisible": false
  },
  {
    "latitude": 17.901672,
    "pop": 9131,
    "longitude": -62.818544,
    "name": "Saint-Barthélémy",
    "country": "FR",
    "lastUpdated": "2020-04-26T00:21:44.399Z",
    "dead": 0,
    "id": "78Ox26bNHDA2Pk2b3Uwn",
    "infected": 6,
    "recovered": 6,
    "sick": 0,
    "invisible": false
  },
  {
    "latitude": 54.367,
    "pop": 2305000,
    "longitude": 18.633,
    "name": "Pomorskie",
    "country": "PL",
    "lastUpdated": "2020-04-26T00:03:01.231Z",
    "dead": 3,
    "id": "7JDx6UJiwGSJyL1fChaJ",
    "infected": 296,
    "recovered": 0,
    "sick": 293,
    "invisible": false
  },
  {
    "id": "7UASdZTZ1nPzzBwSTEA9",
    "infected": 118,
    "recovered": 77,
    "latitude": 35.2923,
    "pop": 84690,
    "longitude": -2.9381,
    "name": "Melilla",
    "country": "ES",
    "lastUpdated": "2020-04-26T00:15:09.682Z",
    "dead": 2,
    "sick": 39,
    "invisible": false
  },
  {
    "latitude": 17.0608,
    "pop": 102012,
    "longitude": -61.7964,
    "name": "Antigua and Barbuda",
    "country": "AG",
    "lastUpdated": "2020-04-26T00:21:03.352Z",
    "dead": 3,
    "id": "7hVFcEV7nV0MrQr3LHrl",
    "infected": 24,
    "recovered": 11,
    "sick": 10,
    "invisible": false
  },
  {
    "id": "7kCrrlOBE3jN6FtOVNUB",
    "infected": 41605,
    "recovered": 26340,
    "latitude": 48.7904,
    "pop": 13000000,
    "longitude": 11.4979,
    "name": "Bayern",
    "country": "DE",
    "lastUpdated": "2020-04-26T00:00:03.289Z",
    "dead": 1726,
    "sick": 13539,
    "invisible": false
  },
  {
    "id": "7rYC2iFB50c55Ihgbs4Q",
    "infected": 2443,
    "recovered": 458,
    "latitude": 47.4979,
    "pop": 9773000,
    "longitude": 19.0402,
    "name": "Hungary",
    "country": "HU",
    "lastUpdated": "2020-04-26T00:21:03.334Z",
    "dead": 262,
    "sick": 1723,
    "invisible": false
  },
  {
    "id": "7tqLvLyXcBDK808nJv0m",
    "infected": 101,
    "recovered": 33,
    "latitude": 10.9685,
    "pop": 2400000,
    "longitude": -74.7813,
    "name": "Barranquilla D.E.",
    "country": "CO",
    "lastUpdated": "2020-04-26T00:01:09.165Z",
    "dead": 5,
    "sick": 63,
    "invisible": false
  },
  {
    "lastUpdated": "2020-04-26T00:21:03.335Z",
    "dead": 53,
    "id": "8C0d7WVCjyUGtnc2gUAR",
    "infected": 1518,
    "recovered": 697,
    "latitude": 7.3697,
    "pop": 24050000,
    "longitude": 12.3547,
    "name": "Cameroon",
    "country": "CM",
    "sick": 768,
    "invisible": false
  },
  {
    "id": "8DOZWbN6bDdgaLXVlUEu",
    "infected": 4579,
    "recovered": 1689,
    "latitude": 50.8503,
    "pop": 1209000,
    "longitude": 4.3517,
    "name": "Brussels",
    "country": "BE",
    "lastUpdated": "2020-04-25T23:59:10.703Z",
    "dead": 1085,
    "sick": 1805,
    "invisible": false
  },
  {
    "recovered": 54,
    "latitude": -16.2902,
    "pop": 11050000,
    "longitude": -63.5887,
    "name": "Bolivia",
    "country": "BO",
    "lastUpdated": "2020-04-26T00:21:03.336Z",
    "dead": 44,
    "id": "8RihJrXw4NQXPxaRxr1u",
    "infected": 807,
    "sick": 709,
    "invisible": false
  },
  {
    "latitude": 12.9843,
    "pop": 109897,
    "longitude": -61.2872,
    "name": "St. Vincent Grenadines",
    "country": "VC",
    "lastUpdated": "2020-04-26T00:21:03.354Z",
    "dead": 0,
    "id": "8ZTySQROQejkDAad0qxQ",
    "infected": 14,
    "recovered": 5,
    "sick": 9,
    "invisible": false
  },
  {
    "id": "8pA3fM4xC2c2wv1b4TnE",
    "infected": 12693,
    "recovered": 1002,
    "latitude": 1.352083,
    "pop": 5621000,
    "longitude": 103.819839,
    "name": "Singapore",
    "country": "SG",
    "lastUpdated": "2020-04-26T00:21:03.329Z",
    "dead": 12,
    "sick": 11679,
    "invisible": false
  },
  {
    "infected": 3042,
    "recovered": 1113,
    "latitude": 47.2184,
    "pop": 3787000,
    "longitude": -1.5536,
    "name": "Pays de la Loire",
    "country": "FR",
    "lastUpdated": "2020-04-26T00:21:25.187Z",
    "dead": 307,
    "id": "98hwAoohgWEOQVa3NlM5",
    "sick": 1622,
    "invisible": false
  },
  {
    "recovered": 0,
    "latitude": 19.30754,
    "pop": 952300,
    "longitude": -90.19885,
    "name": "Campeche",
    "country": "MX",
    "lastUpdated": "2020-04-26T00:10:14.670Z",
    "dead": 10,
    "id": "9DAvxOObTqIvMOU93nlY",
    "infected": 84,
    "sick": 74,
    "invisible": false
  },
  {
    "infected": 213,
    "recovered": 19,
    "latitude": 12.8628,
    "pop": 40530000,
    "longitude": 30.2176,
    "name": "Sudan",
    "country": "SD",
    "lastUpdated": "2020-04-26T00:21:03.343Z",
    "dead": 17,
    "id": "9DPOkpIqrFy9mR4e9fuv",
    "sick": 177,
    "invisible": false
  },
  {
    "infected": 10635,
    "recovered": 2890,
    "latitude": 45.943161,
    "pop": 19530000,
    "longitude": 24.966761,
    "name": "Romania",
    "country": "RO",
    "lastUpdated": "2020-04-26T00:21:03.329Z",
    "dead": 601,
    "id": "9QcETqEcM2fTv9zRvx5T",
    "sick": 7144,
    "invisible": false
  },
  {
    "infected": 12,
    "recovered": 7,
    "latitude": 12.136389,
    "pop": 6218000,
    "longitude": -86.251389,
    "name": "Nicaragua",
    "country": "NI",
    "lastUpdated": "2020-04-26T00:21:03.354Z",
    "dead": 3,
    "id": "9Y5wmCqNCC6ZrenM31uA",
    "sick": 2,
    "invisible": false
  },
  {
    "id": "9dIzxqDSVqPyINkHqwGv",
    "infected": 370,
    "recovered": 91,
    "latitude": 17.5706921,
    "pop": 18540000,
    "longitude": -3.996166,
    "name": "Mali",
    "country": "ML",
    "lastUpdated": "2020-04-26T00:21:03.341Z",
    "dead": 21,
    "sick": 258,
    "invisible": false
  },
  {
    "longitude": 25.748152,
    "name": "Finland",
    "country": "FI",
    "lastUpdated": "2020-04-26T00:21:03.332Z",
    "dead": 186,
    "id": "9p6OCdZbUUwBLA60Gk3W",
    "infected": 4475,
    "recovered": 2500,
    "latitude": 61.92411,
    "pop": 5513000,
    "sick": 1789,
    "invisible": false
  },
  {
    "latitude": 43.311643,
    "pop": 1356000,
    "longitude": -71.590315,
    "name": "New Hampshire",
    "country": "US",
    "lastUpdated": "2020-04-26T00:05:21.835Z",
    "dead": 53,
    "id": "A84CwQ52kA46Hr7pn6Bm",
    "infected": 1797,
    "recovered": 0,
    "sick": 1744,
    "invisible": false
  },
  {
    "latitude": 41.823261,
    "pop": 1057000,
    "longitude": -71.412257,
    "name": "Rhode Island",
    "country": "US",
    "lastUpdated": "2020-04-26T00:05:21.833Z",
    "dead": 215,
    "id": "AEUWUHS65qvjEslew11c",
    "infected": 7129,
    "recovered": 0,
    "sick": 6914,
    "invisible": false
  },
  {
    "infected": 24209,
    "recovered": 8515,
    "latitude": 44.498955,
    "pop": 4453000,
    "longitude": 11.327591,
    "name": "Emilia-Romagna",
    "country": "IT",
    "lastUpdated": "2020-04-26T00:01:01.680Z",
    "dead": 3347,
    "id": "AJ9jQ0iyKsafsmf5yHAR",
    "sick": 12347,
    "invisible": false
  },
  {
    "infected": 2496,
    "recovered": 1467,
    "latitude": 49.3964,
    "pop": 990509,
    "longitude": 7.023,
    "name": "Saarland",
    "country": "DE",
    "lastUpdated": "2020-04-26T00:00:03.291Z",
    "dead": 122,
    "id": "AKjFRQGnzuuZQhv5Qwx7",
    "sick": 907,
    "invisible": false
  },
  {
    "latitude": -35.717,
    "pop": 1125002,
    "longitude": -71.167,
    "name": "Maule",
    "country": "CL",
    "lastUpdated": "2020-04-26T00:07:05.785Z",
    "dead": 10,
    "id": "APTPgjAsjFi0nsGyJV7M",
    "infected": 350,
    "recovered": 0,
    "sick": 340,
    "invisible": false
  },
  {
    "id": "APaZzlGCEeuoLBtzTJMe",
    "infected": 11,
    "recovered": 11,
    "latitude": 71.7069,
    "pop": 56171,
    "longitude": -42.6043,
    "name": "Greenland",
    "country": "GL",
    "lastUpdated": "2020-04-26T00:21:03.354Z",
    "dead": 0,
    "sick": 0,
    "invisible": false
  },
  {
    "infected": 865,
    "recovered": 0,
    "latitude": 45.65107,
    "pop": 971395,
    "longitude": -63.582687,
    "name": "Nova Scotia",
    "country": "CA",
    "lastUpdated": "2020-04-26T00:16:53.917Z",
    "dead": 16,
    "id": "AVCpxeh0fuH2WrHWNDYH",
    "sick": 849,
    "invisible": false
  },
  {
    "infected": 445,
    "recovered": 0,
    "latitude": 47.012918,
    "pop": 1062000,
    "longitude": -109.128641,
    "name": "Montana",
    "country": "US",
    "lastUpdated": "2020-04-26T00:05:21.832Z",
    "dead": 14,
    "id": "AcULcZBozObOhwuRKMjJ",
    "sick": 431,
    "invisible": false
  },
  {
    "infected": 937,
    "recovered": 936,
    "latitude": 27.285971,
    "pop": 45200000,
    "longitude": 116.01609,
    "name": "Jiangxi",
    "country": "CN",
    "lastUpdated": "2020-04-26T00:08:10.449Z",
    "dead": 1,
    "id": "AmBYm5J6E9Cuez1FQjiN",
    "sick": 0,
    "invisible": false
  },
  {
    "id": "AoLhHdTydeWTfmp9koEX",
    "infected": 8900,
    "recovered": 0,
    "latitude": 52.1307,
    "pop": 3136000,
    "longitude": -3.7837,
    "name": "Wales",
    "country": "GB",
    "lastUpdated": "2020-04-26T00:09:23.666Z",
    "dead": 774,
    "sick": 8126,
    "invisible": false
  },
  {
    "infected": 3256,
    "recovered": 1479,
    "latitude": 28.033886,
    "pop": 41320000,
    "longitude": 1.659626,
    "name": "Algeria",
    "country": "DZ",
    "lastUpdated": "2020-04-26T00:21:03.333Z",
    "dead": 419,
    "id": "AwN0CScPDApcLFgz6e3z",
    "sick": 1358,
    "invisible": false
  },
  {
    "infected": 2016,
    "recovered": 1034,
    "latitude": 45.099998,
    "pop": 4076000,
    "longitude": 15.2,
    "name": "Croatia",
    "country": "HR",
    "lastUpdated": "2020-04-26T00:21:03.334Z",
    "dead": 54,
    "id": "B82Ef45M8cDu4q7VsSHF",
    "sick": 928,
    "invisible": false
  },
  {
    "lastUpdated": "2020-04-26T00:21:03.337Z",
    "dead": 27,
    "id": "BENubqQInFUJzhpZTsLT",
    "infected": 684,
    "recovered": 325,
    "latitude": 17.6077881,
    "pop": 23716000,
    "longitude": 8.081666,
    "name": "Niger",
    "country": "NE",
    "sick": 332,
    "invisible": false
  },
  {
    "infected": 17766,
    "recovered": 0,
    "latitude": 39.509109,
    "pop": 6043000,
    "longitude": -76.98432,
    "name": "Maryland",
    "country": "US",
    "lastUpdated": "2020-04-26T00:05:21.839Z",
    "dead": 875,
    "id": "BF51mWl51fgEcyBpCSzb",
    "sick": 16891,
    "invisible": false
  },
  {
    "latitude": 53.709808,
    "pop": 9508000,
    "longitude": 27.953388,
    "name": "Belarus",
    "country": "BY",
    "lastUpdated": "2020-04-26T00:21:03.329Z",
    "dead": 67,
    "id": "BGg6yVU5VP71B8NXU0oh",
    "infected": 9590,
    "recovered": 1573,
    "sick": 7950,
    "invisible": false
  },
  {
    "latitude": 48.8799,
    "pop": 3319000,
    "longitude": 0.1713,
    "name": "Normandie",
    "country": "FR",
    "lastUpdated": "2020-04-26T00:21:07.656Z",
    "dead": 314,
    "id": "BGtoyzb7y54LVlJ91rbf",
    "infected": 2709,
    "recovered": 974,
    "sick": 1421,
    "invisible": false
  },
  {
    "id": "BQqMOlPFD36ZEDTGd3WC",
    "infected": 5701,
    "recovered": 0,
    "latitude": 50.7772,
    "pop": 5616000,
    "longitude": -3.9995,
    "name": "South West",
    "country": "GB",
    "lastUpdated": "2020-04-26T00:09:23.674Z",
    "dead": 0,
    "sick": 5701,
    "invisible": false
  },
  {
    "latitude": 34.048927,
    "pop": 7172000,
    "longitude": -111.093735,
    "name": "Arizona",
    "country": "US",
    "lastUpdated": "2020-04-26T00:13:29.319Z",
    "dead": 273,
    "id": "BTEESCuD2ZbS1afunR2A",
    "infected": 6286,
    "recovered": 0,
    "sick": 6013,
    "invisible": false
  },
  {
    "latitude": 53.428543,
    "pop": 1676000,
    "longitude": 14.552812,
    "name": "Zachodniopomorskie",
    "country": "PL",
    "lastUpdated": "2020-04-26T00:03:01.231Z",
    "dead": 7,
    "id": "BZwZOAlDJ8AIiaRVLyC9",
    "infected": 343,
    "recovered": 0,
    "sick": 336,
    "invisible": false
  },
  {
    "invisible": true,
    "infected": 0,
    "recovered": 6746,
    "latitude": -33.4489,
    "longitude": -70.6693,
    "name": "Unknown Chile region",
    "country": "CL",
    "lastUpdated": "2020-04-26T00:07:05.865Z",
    "dead": 0,
    "id": "BbiuZcm8oURX7cZwaa5U",
    "sick": 0
  },
  {
    "id": "BfT8o5DaEixC6JIZ28kY",
    "infected": 33,
    "recovered": 4,
    "latitude": -13.2543,
    "pop": 18620000,
    "longitude": 34.3015,
    "name": "Malawi",
    "country": "MW",
    "lastUpdated": "2020-04-26T00:21:03.351Z",
    "dead": 3,
    "sick": 26,
    "invisible": false
  },
  {
    "id": "BnpMamidC5yYzeK8tPUL",
    "infected": 11,
    "recovered": 4,
    "latitude": -3.3730559,
    "pop": 10860000,
    "longitude": 29.9188862,
    "name": "Burundi",
    "country": "BI",
    "lastUpdated": "2020-04-26T00:21:03.354Z",
    "dead": 1,
    "sick": 6,
    "invisible": false
  },
  {
    "infected": 2302,
    "recovered": 0,
    "latitude": 52.257,
    "pop": 5385000,
    "longitude": 21.002,
    "name": "Mazowieckie",
    "country": "PL",
    "lastUpdated": "2020-04-26T00:03:01.230Z",
    "dead": 172,
    "id": "BrToMzyq8y2xdwXn75kM",
    "sick": 2130,
    "invisible": false
  },
  {
    "recovered": 0,
    "latitude": -1.333845,
    "pop": 74751,
    "longitude": -71.347573,
    "name": "Amazonas (Colombia)",
    "country": "CO",
    "lastUpdated": "2020-04-26T00:01:09.167Z",
    "dead": 2,
    "id": "C25xSDm4iYibX5RYML14",
    "infected": 37,
    "sick": 35,
    "invisible": false
  },
  {
    "longitude": -73.982597,
    "name": "New York",
    "country": "US",
    "lastUpdated": "2020-04-26T00:05:21.842Z",
    "dead": 21802,
    "id": "C3BCUzV80z9GfiuByIcr",
    "infected": 287490,
    "recovered": 0,
    "latitude": 40.719042,
    "pop": 19540000,
    "sick": 265688,
    "invisible": false
  },
  {
    "recovered": 2453,
    "latitude": 49.731626,
    "pop": 10650000,
    "longitude": 15.359413,
    "name": "Czechia",
    "country": "CZ",
    "lastUpdated": "2020-04-26T00:21:03.330Z",
    "dead": 218,
    "id": "C6S76AggdWVU8G22jFHQ",
    "infected": 7352,
    "sick": 4681,
    "invisible": false
  },
  {
    "infected": 2588,
    "recovered": 1160,
    "latitude": 26.0667,
    "pop": 1493000,
    "longitude": 50.557701,
    "name": "Bahrain",
    "country": "BH",
    "lastUpdated": "2020-04-26T00:21:03.334Z",
    "dead": 8,
    "id": "C7cj4nwRITs13KnaJrQ2",
    "sick": 1420,
    "invisible": false
  },
  {
    "latitude": 10.4113,
    "pop": 1285400,
    "longitude": -74.4057,
    "name": "Magdalena",
    "country": "CO",
    "lastUpdated": "2020-04-26T00:01:09.166Z",
    "dead": 2,
    "id": "CA9LaAl3bNaeAqBuozn4",
    "infected": 28,
    "recovered": 1,
    "sick": 25,
    "invisible": false
  },
  {
    "id": "CCUFp4urvgXPo5unfMGy",
    "infected": 367,
    "recovered": 0,
    "latitude": 26.909979,
    "pop": 3073500,
    "longitude": -101.430756,
    "name": "Coahuila",
    "country": "MX",
    "lastUpdated": "2020-04-26T00:10:14.669Z",
    "dead": 34,
    "sick": 333,
    "invisible": false
  },
  {
    "longitude": 74.2179,
    "name": "Rajasthan",
    "country": "IN",
    "lastUpdated": "2020-04-26T00:11:01.314Z",
    "dead": 34,
    "id": "CKZCZTPlrcq5fbfUPA9k",
    "infected": 2083,
    "recovered": 513,
    "latitude": 27.0238,
    "pop": 68890000,
    "sick": 1536,
    "invisible": false
  },
  {
    "latitude": 13.803,
    "pop": 6378000,
    "longitude": -88.9053,
    "name": "El Salvador",
    "country": "SV",
    "lastUpdated": "2020-04-26T00:21:03.342Z",
    "dead": 8,
    "id": "Cgvmtle61ehMvCzRzYx7",
    "infected": 274,
    "recovered": 75,
    "sick": 191,
    "invisible": false
  },
  {
    "latitude": 40.259003,
    "pop": 2973000,
    "longitude": 44.818474,
    "name": "Armenia",
    "country": "AM",
    "lastUpdated": "2020-04-26T00:21:03.335Z",
    "dead": 28,
    "id": "DCJCtZoBTWQ4mzdDNljD",
    "infected": 1677,
    "recovered": 803,
    "sick": 846,
    "invisible": false
  },
  {
    "latitude": 5.535,
    "pop": 1278000,
    "longitude": -73.368,
    "name": "Boyacá",
    "country": "CO",
    "lastUpdated": "2020-04-26T00:01:09.166Z",
    "dead": 1,
    "id": "DJJraANgQbEqz1wBBtZz",
    "infected": 33,
    "recovered": 8,
    "sick": 24,
    "invisible": false
  },
  {
    "longitude": -2.5945,
    "name": "North West",
    "country": "GB",
    "lastUpdated": "2020-04-26T00:09:23.673Z",
    "dead": 0,
    "id": "DPwBt2aJuwF0O71vwfM9",
    "infected": 16709,
    "recovered": 0,
    "latitude": 53.6221,
    "pop": 7300000,
    "sick": 16709,
    "invisible": false
  },
  {
    "latitude": 32.3213844,
    "pop": 65440,
    "longitude": -64.75737,
    "name": "Bermuda",
    "country": "BM",
    "lastUpdated": "2020-04-26T00:21:03.347Z",
    "dead": 5,
    "id": "DZyTD0Mu5WIcK6yTcJ91",
    "infected": 109,
    "recovered": 39,
    "sick": 65,
    "invisible": false
  },
  {
    "latitude": 21.694,
    "pop": 35446,
    "longitude": -71.7979,
    "name": "Turks and Caicos",
    "country": "TC",
    "lastUpdated": "2020-04-26T00:21:03.354Z",
    "dead": 1,
    "id": "DaMrRSIGJXIG36nW0Pnc",
    "infected": 11,
    "recovered": 4,
    "sick": 6,
    "invisible": false
  },
  {
    "infected": 18525,
    "recovered": 4876,
    "latitude": 39.2796,
    "pop": 2035000,
    "longitude": -3.0977,
    "name": "Castilla La Mancha",
    "country": "ES",
    "lastUpdated": "2020-04-26T00:15:09.680Z",
    "dead": 2292,
    "id": "Dbng0NBTH41EEwBxhMzE",
    "sick": 11357,
    "invisible": false
  },
  {
    "id": "DcQ3D0WkacXEbv6iznRB",
    "infected": 812,
    "recovered": 0,
    "latitude": 50.023,
    "pop": 3361000,
    "longitude": 20.006,
    "name": "Malopolskie",
    "country": "PL",
    "lastUpdated": "2020-04-26T00:03:01.231Z",
    "dead": 27,
    "sick": 785,
    "invisible": false
  },
  {
    "latitude": 22.192039,
    "pop": 622567,
    "longitude": 113.551262,
    "name": "Macao",
    "country": "MO",
    "lastUpdated": "2020-04-26T00:21:03.351Z",
    "dead": 0,
    "id": "DdBt8qsG6A3g92oOR3ow",
    "infected": 45,
    "recovered": 27,
    "sick": 18,
    "invisible": false
  },
  {
    "longitude": 91.3662,
    "name": "Meghalaya",
    "country": "IN",
    "lastUpdated": "2020-04-26T00:11:01.318Z",
    "dead": 1,
    "id": "Dh0O1vmhrVfmsCsfZCUg",
    "infected": 12,
    "recovered": 0,
    "latitude": 25.467,
    "pop": 2651000,
    "sick": 11,
    "invisible": false
  },
  {
    "longitude": -107.534868,
    "name": "Wyoming",
    "country": "US",
    "lastUpdated": "2020-04-26T00:05:21.831Z",
    "dead": 7,
    "id": "DrGzziUglmBognCGY7R2",
    "infected": 491,
    "recovered": 0,
    "latitude": 42.962334,
    "pop": 577737,
    "sick": 484,
    "invisible": false
  },
  {
    "recovered": 577,
    "latitude": 37.9838,
    "pop": 10740000,
    "longitude": 23.7275,
    "name": "Greece",
    "country": "GR",
    "lastUpdated": "2020-04-26T00:21:03.334Z",
    "dead": 130,
    "id": "Dtr1lap1RpJpXJdXGJiW",
    "infected": 2506,
    "sick": 1799,
    "invisible": false
  },
  {
    "infected": 429,
    "recovered": 275,
    "latitude": 25.03841,
    "pop": 23780000,
    "longitude": 121.563698,
    "name": "Taiwan",
    "country": "TW",
    "lastUpdated": "2020-04-26T00:21:03.340Z",
    "dead": 6,
    "id": "EKTfs8e7M6DXzI1HqyyX",
    "sick": 148,
    "invisible": false
  },
  {
    "recovered": 242,
    "latitude": 10.327273,
    "pop": 4906000,
    "longitude": -84.387618,
    "name": "Costa Rica",
    "country": "CR",
    "lastUpdated": "2020-04-26T00:21:03.337Z",
    "dead": 6,
    "id": "EQzJvzVHKjs8kLmK7BMu",
    "infected": 693,
    "sick": 445,
    "invisible": false
  },
  {
    "infected": 3071,
    "recovered": 282,
    "latitude": 22.2587,
    "pop": 62700000,
    "longitude": 71.1924,
    "name": "Gujarat",
    "country": "IN",
    "lastUpdated": "2020-04-26T00:11:01.314Z",
    "dead": 133,
    "id": "ERwk9R9en4m9WbdoMbIg",
    "sick": 2656,
    "invisible": false
  },
  {
    "latitude": 30.7333,
    "pop": 1055000,
    "longitude": 76.7794,
    "name": "Chandigarh",
    "country": "IN",
    "lastUpdated": "2020-04-26T00:11:01.317Z",
    "dead": 0,
    "id": "Esl5UlCVB9s8pmGB5Ofr",
    "infected": 28,
    "recovered": 15,
    "sick": 13,
    "invisible": false
  },
  {
    "longitude": 22.653,
    "name": "Lubelskie",
    "country": "PL",
    "lastUpdated": "2020-04-26T00:03:01.231Z",
    "dead": 10,
    "id": "Esy1La2CxwH5uB8bGVWZ",
    "infected": 346,
    "recovered": 0,
    "latitude": 51.24,
    "pop": 2148000,
    "sick": 336,
    "invisible": false
  },
  {
    "lastUpdated": "2020-04-26T00:05:21.832Z",
    "dead": 83,
    "id": "F4rPrEVGAIMM5rfPEMv4",
    "infected": 1307,
    "recovered": 0,
    "latitude": 18.200178,
    "pop": 3195000,
    "longitude": -66.664513,
    "name": "Puerto Rico",
    "country": "PR",
    "sick": 1224,
    "invisible": false
  },
  {
    "infected": 193,
    "recovered": 57,
    "latitude": 4.862437,
    "pop": 2919000,
    "longitude": -74.058655,
    "name": "Cundinamarca",
    "country": "CO",
    "lastUpdated": "2020-04-26T00:01:09.165Z",
    "dead": 9,
    "id": "F7MED5VwEhi3JvJu6KjB",
    "sick": 127,
    "invisible": false
  },
  {
    "infected": 1463,
    "recovered": 188,
    "latitude": 33.93911,
    "pop": 35530000,
    "longitude": 67.709953,
    "name": "Afghanistan",
    "country": "AF",
    "lastUpdated": "2020-04-26T00:21:03.335Z",
    "dead": 47,
    "id": "FCDmlmnIIswd8bQiUjfN",
    "sick": 1228,
    "invisible": false
  },
  {
    "latitude": 29.431585,
    "pop": 30480000,
    "longitude": 106.912254,
    "name": "Chongqing",
    "country": "CN",
    "lastUpdated": "2020-04-26T00:08:10.449Z",
    "dead": 6,
    "id": "FErOU1m4Tj7jIkRam3vF",
    "infected": 579,
    "recovered": 573,
    "sick": 0,
    "invisible": false
  },
  {
    "recovered": 656,
    "latitude": 29.311661,
    "pop": 4137000,
    "longitude": 47.481766,
    "name": "Kuwait",
    "country": "KW",
    "lastUpdated": "2020-04-26T00:21:03.333Z",
    "dead": 19,
    "id": "FZsUkhxBEgqsPb4eO0PN",
    "infected": 2892,
    "sick": 2217,
    "invisible": false
  },
  {
    "id": "FboWeolpM62SZCLwdilT",
    "infected": 153,
    "recovered": 0,
    "latitude": -10.9111,
    "pop": 2278308,
    "longitude": -37.0717,
    "name": "Sergipe",
    "country": "BR",
    "lastUpdated": "2020-04-26T00:16:01.680Z",
    "dead": 9,
    "sick": 144,
    "invisible": false
  },
  {
    "longitude": 78.6569,
    "name": "Tamil Nadu",
    "country": "IN",
    "lastUpdated": "2020-04-26T00:11:01.315Z",
    "dead": 23,
    "id": "FeS45oMNC27pI17F0xEV",
    "infected": 1821,
    "recovered": 960,
    "latitude": 11.1271,
    "pop": 67860000,
    "sick": 838,
    "invisible": false
  },
  {
    "latitude": 18.947829,
    "pop": 10770000,
    "longitude": -70.430399,
    "name": "Dominican Republic",
    "country": "DO",
    "lastUpdated": "2020-04-26T00:21:03.330Z",
    "dead": 273,
    "id": "FuiVEJvWb0QMCpxJ3563",
    "infected": 5926,
    "recovered": 822,
    "sick": 4831,
    "invisible": false
  },
  {
    "infected": 990,
    "recovered": 307,
    "latitude": 18.1124,
    "pop": 35190000,
    "longitude": 79.0193,
    "name": "Telengana",
    "country": "IN",
    "lastUpdated": "2020-04-26T00:11:01.315Z",
    "dead": 25,
    "id": "FyC551oNwmENxbr9Yght",
    "sick": 658,
    "invisible": false
  },
  {
    "id": "FzIDXoqWnTI3nUfhPyT2",
    "infected": 1373,
    "recovered": 386,
    "latitude": 48.669,
    "pop": 5450000,
    "longitude": 19.699,
    "name": "Slovakia",
    "country": "SK",
    "lastUpdated": "2020-04-26T00:21:03.335Z",
    "dead": 17,
    "sick": 970,
    "invisible": false
  },
  {
    "recovered": 2866,
    "latitude": 30.37532,
    "pop": 197000000,
    "longitude": 69.345116,
    "name": "Pakistan",
    "country": "PK",
    "lastUpdated": "2020-04-26T00:21:03.328Z",
    "dead": 269,
    "id": "GAp7Wb6IMhdgbvEtMza9",
    "infected": 12723,
    "sick": 9588,
    "invisible": false
  },
  {
    "latitude": 31.1471,
    "pop": 27980000,
    "longitude": 75.3412,
    "name": "Punjab",
    "country": "IN",
    "lastUpdated": "2020-04-26T00:11:01.316Z",
    "dead": 17,
    "id": "GGru8cG08mANO8XDDUtZ",
    "infected": 308,
    "recovered": 72,
    "sick": 219,
    "invisible": false
  },
  {
    "infected": 9813,
    "recovered": 1887,
    "latitude": 23.424076,
    "pop": 9400000,
    "longitude": 53.847816,
    "name": "United Arab Emirates",
    "country": "AE",
    "lastUpdated": "2020-04-26T00:21:03.329Z",
    "dead": 71,
    "id": "GHzBIsHy2GiBc5JV2HMs",
    "sick": 7855,
    "invisible": false
  },
  {
    "longitude": -95.7129,
    "name": "Grand Princess",
    "country": "US",
    "lastUpdated": "2020-04-26T00:05:21.830Z",
    "dead": 3,
    "id": "GLViSIjDjwvptOphedAu",
    "invisible": true,
    "infected": 103,
    "recovered": 0,
    "latitude": 37.0902,
    "sick": 100
  },
  {
    "latitude": 51.5074,
    "pop": 10100000,
    "longitude": -0.1278,
    "name": "London",
    "country": "GB",
    "lastUpdated": "2020-04-26T00:09:23.670Z",
    "dead": 0,
    "id": "GPtoS0Yy2EnNafpmmTqY",
    "infected": 23341,
    "recovered": 0,
    "sick": 23341,
    "invisible": false
  },
  {
    "latitude": 36.621981,
    "pop": 39560000,
    "longitude": -119.339046,
    "name": "California",
    "country": "US",
    "lastUpdated": "2020-04-26T00:05:21.841Z",
    "dead": 1679,
    "id": "Gh46r6vuaY7fbGt3IboN",
    "infected": 42242,
    "recovered": 0,
    "sick": 40563,
    "invisible": false
  },
  {
    "id": "GpF8ULuKOQiFDCUHN44h",
    "infected": 3194,
    "recovered": 0,
    "latitude": 35.87189,
    "pop": 3943000,
    "longitude": -97.145514,
    "name": "Oklahoma",
    "country": "US",
    "lastUpdated": "2020-04-26T00:05:21.835Z",
    "dead": 194,
    "sick": 3000,
    "invisible": false
  },
  {
    "latitude": 46.5,
    "pop": 520891,
    "longitude": 11.35,
    "name": "P.A. Bolzano",
    "country": "IT",
    "lastUpdated": "2020-04-26T00:01:01.680Z",
    "dead": 265,
    "id": "Gzx6GX1qhBm714BkEC6l",
    "infected": 2476,
    "recovered": 1176,
    "sick": 1035,
    "invisible": false
  },
  {
    "infected": 197,
    "recovered": 114,
    "latitude": 42.83263,
    "pop": 24710000,
    "longitude": 113.750972,
    "name": "Inner Mongolia",
    "country": "CN",
    "lastUpdated": "2020-04-26T00:08:10.446Z",
    "dead": 1,
    "id": "H3JeVigVbo5CSYfZG4WI",
    "sick": 82,
    "invisible": false
  },
  {
    "infected": 4398,
    "recovered": 0,
    "latitude": 39.74536,
    "pop": 3034000,
    "longitude": -116.724977,
    "name": "Nevada",
    "country": "US",
    "lastUpdated": "2020-04-26T00:05:21.835Z",
    "dead": 203,
    "id": "H3bDg4eV30up4WWrIDAS",
    "sick": 4195,
    "invisible": false
  },
  {
    "latitude": -3.731862,
    "pop": 9075649,
    "longitude": -38.526669,
    "name": "Ceará",
    "country": "BR",
    "lastUpdated": "2020-04-26T00:16:01.675Z",
    "dead": 310,
    "id": "HEMWNnFxeFEoeOCBOLJD",
    "infected": 5421,
    "recovered": 0,
    "sick": 5111,
    "invisible": false
  },
  {
    "recovered": 158,
    "latitude": 15.3173,
    "pop": 64060000,
    "longitude": 75.7139,
    "name": "Karnataka",
    "country": "IN",
    "lastUpdated": "2020-04-26T00:11:01.315Z",
    "dead": 18,
    "id": "HN5mGmxlqlSeFSNeu1K5",
    "infected": 500,
    "sick": 324,
    "invisible": false
  },
  {
    "infected": 7,
    "recovered": 3,
    "latitude": 27.5142,
    "pop": 807610,
    "longitude": 90.4336,
    "name": "Bhutan",
    "country": "BT",
    "lastUpdated": "2020-04-26T00:21:03.356Z",
    "dead": 0,
    "id": "HRDpwyxpqW9RN0xLFyNu",
    "sick": 4,
    "invisible": false
  },
  {
    "longitude": 64.5853,
    "name": "Uzbekistan",
    "country": "UZ",
    "lastUpdated": "2020-04-26T00:21:03.335Z",
    "dead": 8,
    "id": "HRTA10dtrruDEwjJEGMp",
    "infected": 1862,
    "recovered": 707,
    "latitude": 41.3775,
    "pop": 32390000,
    "sick": 1147,
    "invisible": false
  },
  {
    "longitude": -105.576255,
    "name": "New Mexico",
    "country": "US",
    "lastUpdated": "2020-04-26T00:05:21.836Z",
    "dead": 93,
    "id": "HSSFomRju0doHhWgW8On",
    "infected": 2660,
    "recovered": 0,
    "latitude": 34.138916,
    "pop": 2095000,
    "sick": 2567,
    "invisible": false
  },
  {
    "infected": 177,
    "recovered": 0,
    "latitude": -40.231,
    "pop": 412812,
    "longitude": -72.3311,
    "name": "Los Ríos",
    "country": "CL",
    "lastUpdated": "2020-04-26T00:07:05.864Z",
    "dead": 3,
    "id": "HZkACHjW7NlYjg8vEMj2",
    "sick": 174,
    "invisible": false
  },
  {
    "latitude": 53.6127,
    "pop": 1635000,
    "longitude": 12.4296,
    "name": "Mecklenburg-Vorpommern",
    "country": "DE",
    "lastUpdated": "2020-04-26T00:00:03.291Z",
    "dead": 17,
    "id": "He1gSS1v50t06i3YrqvB",
    "infected": 674,
    "recovered": 529,
    "sick": 128,
    "invisible": false
  },
  {
    "latitude": 42.25,
    "pop": 1315000,
    "longitude": 13.75,
    "name": "Abruzzo",
    "country": "IT",
    "lastUpdated": "2020-04-26T00:01:01.678Z",
    "dead": 293,
    "id": "I9EqrZfbPnkioNU4wZGz",
    "infected": 2832,
    "recovered": 478,
    "sick": 2061,
    "invisible": false
  },
  {
    "longitude": 113.373448,
    "name": "Guangdong",
    "country": "CN",
    "lastUpdated": "2020-04-26T00:08:10.447Z",
    "dead": 8,
    "id": "IAX0OQLVnUwU7FX0ENF1",
    "infected": 1585,
    "recovered": 1534,
    "latitude": 23.363855,
    "pop": 113460000,
    "sick": 43,
    "invisible": false
  },
  {
    "recovered": 1254,
    "latitude": 33.875408,
    "pop": 94000000,
    "longitude": 113.484016,
    "name": "Henan",
    "country": "CN",
    "lastUpdated": "2020-04-26T00:08:10.449Z",
    "dead": 22,
    "id": "IFuMrMvSjoiX5agYvllh",
    "infected": 1276,
    "sick": 0,
    "invisible": false
  },
  {
    "recovered": 0,
    "latitude": 37.2,
    "pop": 451000,
    "longitude": -8.16667,
    "name": "Algarve",
    "country": "PT",
    "lastUpdated": "2020-04-26T00:04:01.256Z",
    "dead": 11,
    "id": "IHqRHC8K3OZPN8gniM7V",
    "infected": 320,
    "sick": 309,
    "invisible": false
  },
  {
    "latitude": 3.883,
    "pop": 333194,
    "longitude": -77.0197,
    "name": "Buenaventura D.E.",
    "country": "CO",
    "lastUpdated": "2020-04-26T00:01:09.166Z",
    "dead": 1,
    "id": "IKWjRUo0SYgHQKdWjTvq",
    "infected": 22,
    "recovered": 0,
    "sick": 21,
    "invisible": false
  },
  {
    "recovered": 0,
    "latitude": 52.87,
    "pop": 4811000,
    "longitude": -0.995,
    "name": "East Midlands",
    "country": "GB",
    "lastUpdated": "2020-04-26T00:09:23.667Z",
    "dead": 0,
    "id": "INyu1R48Ppv8cfW4Nuz4",
    "infected": 6090,
    "sick": 6090,
    "invisible": false
  },
  {
    "latitude": 22.017,
    "pop": 1342600,
    "longitude": -102.317,
    "name": "Aguascalientes",
    "country": "MX",
    "lastUpdated": "2020-04-26T00:10:14.670Z",
    "dead": 5,
    "id": "ISRKMzEDojyrZ9iyWwex",
    "infected": 165,
    "recovered": 0,
    "sick": 160,
    "invisible": false
  },
  {
    "longitude": -100.316116,
    "name": "Nuevo León",
    "country": "MX",
    "lastUpdated": "2020-04-26T00:10:14.670Z",
    "dead": 10,
    "id": "IdKbgzgKLpjBFh4UPOwu",
    "infected": 604,
    "recovered": 0,
    "latitude": 25.686613,
    "pop": 5321300,
    "sick": 594,
    "invisible": false
  },
  {
    "recovered": 0,
    "latitude": 28.632996,
    "pop": 3826900,
    "longitude": -106.069099,
    "name": "Chihuahua",
    "country": "MX",
    "lastUpdated": "2020-04-26T00:10:14.669Z",
    "dead": 56,
    "id": "IhhiYI6T0TX4CYVPcnmH",
    "infected": 296,
    "sick": 240,
    "invisible": false
  },
  {
    "latitude": -36.7,
    "pop": 480600,
    "longitude": -72.57,
    "name": "Ñuble",
    "country": "CL",
    "lastUpdated": "2020-04-26T00:07:05.785Z",
    "dead": 14,
    "id": "ImnOiVx9Cb8Nw7cbRcQ7",
    "infected": 725,
    "recovered": 0,
    "sick": 711,
    "invisible": false
  },
  {
    "latitude": 19.0558,
    "pop": 10980000,
    "longitude": -73.0513,
    "name": "Haiti",
    "country": "HT",
    "lastUpdated": "2020-04-26T00:21:03.350Z",
    "dead": 6,
    "id": "InZ38sIqyK7FN7XAOZoX",
    "infected": 72,
    "recovered": 6,
    "sick": 60,
    "invisible": false
  },
  {
    "latitude": 32.528564,
    "pop": 10520000,
    "longitude": -83.280125,
    "name": "Georgia (US)",
    "country": "US",
    "lastUpdated": "2020-04-26T00:05:21.840Z",
    "dead": 907,
    "id": "IvQkDJkTAsoIqPRAU25n",
    "infected": 23222,
    "recovered": 0,
    "sick": 22315,
    "invisible": false
  },
  {
    "latitude": -42.8285,
    "pop": 4794000,
    "longitude": 172.488081,
    "name": "New Zealand",
    "country": "NZ",
    "lastUpdated": "2020-04-26T00:21:03.335Z",
    "dead": 18,
    "id": "IvVhpOoGpH6JVkGyUhXN",
    "infected": 1461,
    "recovered": 1118,
    "sick": 325,
    "invisible": false
  },
  {
    "latitude": 28.218,
    "pop": 1255000,
    "longitude": 94.7278,
    "name": "Arunachal Pradesh",
    "country": "IN",
    "lastUpdated": "2020-04-26T00:11:01.321Z",
    "dead": 0,
    "id": "IwYKiIVY18NGwdGQFGWW",
    "infected": 1,
    "recovered": 1,
    "sick": 0,
    "invisible": false
  },
  {
    "longitude": -66.5897,
    "name": "Venezuela",
    "country": "VE",
    "lastUpdated": "2020-04-26T00:21:03.342Z",
    "dead": 10,
    "id": "J3mZXlfEnnJx4CDZLvRG",
    "infected": 323,
    "recovered": 132,
    "latitude": 6.4238,
    "pop": 31980000,
    "sick": 181,
    "invisible": false
  },
  {
    "id": "JQByE4l2OA6sGOqIcWrM",
    "infected": 810,
    "recovered": 148,
    "latitude": 35.1264,
    "pop": 1170000,
    "longitude": 33.4299,
    "name": "Cyprus",
    "country": "CY",
    "lastUpdated": "2020-04-26T00:21:03.336Z",
    "dead": 14,
    "sick": 648,
    "invisible": false
  },
  {
    "recovered": 45,
    "latitude": 25.0961,
    "pop": 99020000,
    "longitude": 85.3131,
    "name": "Bihar",
    "country": "IN",
    "lastUpdated": "2020-04-26T00:11:01.316Z",
    "dead": 2,
    "id": "JR7hOGked7CZtIs2nCV5",
    "infected": 251,
    "sick": 204,
    "invisible": false
  },
  {
    "recovered": 30,
    "latitude": 14.628434,
    "pop": 17250000,
    "longitude": -90.522713,
    "name": "Guatemala",
    "country": "GT",
    "lastUpdated": "2020-04-26T00:21:03.338Z",
    "dead": 11,
    "id": "JUWE6bG3b5oL7fKQMSvv",
    "infected": 430,
    "sick": 389,
    "invisible": false
  },
  {
    "latitude": 49.8153,
    "pop": 602005,
    "longitude": 6.1296,
    "name": "Luxembourg",
    "country": "LU",
    "lastUpdated": "2020-04-26T00:21:03.333Z",
    "dead": 85,
    "id": "JcFsHSn2WvZ5LJW42ovG",
    "infected": 3711,
    "recovered": 3088,
    "sick": 538,
    "invisible": false
  },
  {
    "latitude": 8.8,
    "pop": 2049000,
    "longitude": -74.167,
    "name": "Bolívar",
    "country": "CO",
    "lastUpdated": "2020-04-26T00:01:09.166Z",
    "dead": 3,
    "id": "JmOyaFe25yZCIV64JbZj",
    "infected": 20,
    "recovered": 2,
    "sick": 15,
    "invisible": false
  },
  {
    "recovered": 0,
    "latitude": 31.4,
    "pop": 3648100,
    "longitude": -115.783,
    "name": "Baja California",
    "country": "MX",
    "lastUpdated": "2020-04-26T00:10:14.668Z",
    "dead": 171,
    "id": "Jp9ePErcc8i1aOozEAMf",
    "infected": 1215,
    "sick": 1044,
    "invisible": false
  },
  {
    "lastUpdated": "2020-04-26T00:01:09.166Z",
    "dead": 3,
    "id": "Jr8syCB0lydmPDXw8Q6N",
    "infected": 23,
    "recovered": 3,
    "latitude": 8.7479801,
    "pop": 1786500,
    "longitude": -75.8814316,
    "name": "Córdoba",
    "country": "CO",
    "sick": 17,
    "invisible": false
  },
  {
    "lastUpdated": "2020-04-26T00:21:03.347Z",
    "dead": 6,
    "id": "JrBbirlBKGdWSdcDt7PF",
    "infected": 96,
    "recovered": 62,
    "latitude": 8.6195,
    "pop": 7798000,
    "longitude": 0.8248,
    "name": "Togo",
    "country": "TG",
    "sick": 28,
    "invisible": false
  },
  {
    "infected": 1247,
    "recovered": 197,
    "latitude": 42.7339,
    "pop": 7050000,
    "longitude": 25.4858,
    "name": "Bulgaria",
    "country": "BG",
    "lastUpdated": "2020-04-26T00:21:03.336Z",
    "dead": 55,
    "id": "JzZ8sbqzjutThVjkPKPL",
    "sick": 995,
    "invisible": false
  },
  {
    "lastUpdated": "2020-04-26T00:03:01.231Z",
    "dead": 7,
    "id": "KGrK7gafkeWjmU6sHQd2",
    "infected": 255,
    "recovered": 0,
    "latitude": 50.823,
    "pop": 1263000,
    "longitude": 20.709,
    "name": "Świętokrzyskie",
    "country": "PL",
    "sick": 248,
    "invisible": false
  },
  {
    "recovered": 2775,
    "latitude": 44.5,
    "pop": 1557000,
    "longitude": 8.833,
    "name": "Liguria",
    "country": "IT",
    "lastUpdated": "2020-04-26T00:01:01.680Z",
    "dead": 1093,
    "id": "KLXicxFogWnu0dLp4bNK",
    "infected": 7301,
    "sick": 3433,
    "invisible": false
  },
  {
    "recovered": 17,
    "latitude": 10.4631,
    "pop": 1201000,
    "longitude": -73.2532,
    "name": "Cesar",
    "country": "CO",
    "lastUpdated": "2020-04-26T00:01:09.165Z",
    "dead": 3,
    "id": "KpOz3WmiZkrXUMlUJNlV",
    "infected": 44,
    "sick": 24,
    "invisible": false
  },
  {
    "latitude": 43.4167,
    "pop": 3737000,
    "longitude": 11,
    "name": "Toscana",
    "country": "IT",
    "lastUpdated": "2020-04-26T00:01:01.681Z",
    "dead": 760,
    "id": "KrLrJbpDqqiXgUPGCCW9",
    "infected": 9015,
    "recovered": 2109,
    "sick": 6146,
    "invisible": false
  },
  {
    "latitude": 7.873054,
    "pop": 21440000,
    "longitude": 80.771797,
    "name": "Sri Lanka",
    "country": "LK",
    "lastUpdated": "2020-04-26T00:21:03.338Z",
    "dead": 7,
    "id": "KsWzJO06cf0d6LJ4ZNh9",
    "infected": 452,
    "recovered": 118,
    "sick": 327,
    "invisible": false
  },
  {
    "lastUpdated": "2020-04-26T00:11:01.315Z",
    "dead": 31,
    "id": "KtQIo2DoqjELtPAlyDVO",
    "infected": 1016,
    "recovered": 171,
    "latitude": 15.9129,
    "pop": 49670000,
    "longitude": 79.74,
    "name": "Andhra Pradesh",
    "country": "IN",
    "sick": 814,
    "invisible": false
  },
  {
    "infected": 74588,
    "recovered": 6250,
    "latitude": 61.52401,
    "pop": 144500000,
    "longitude": 105.318756,
    "name": "Russia",
    "country": "RU",
    "lastUpdated": "2020-04-26T00:21:03.327Z",
    "dead": 681,
    "id": "KwOuGBKSMRlmwftxAvLX",
    "sick": 67657,
    "invisible": false
  },
  {
    "id": "LBUtrLDKJiupXjlUNTUe",
    "infected": 38,
    "recovered": 24,
    "latitude": 18.0708,
    "pop": 32125,
    "longitude": -63.0501,
    "name": "Saint-Martin",
    "country": "FR",
    "lastUpdated": "2020-04-26T00:21:49.460Z",
    "dead": 3,
    "sick": 11,
    "invisible": false
  },
  {
    "longitude": 9.5554,
    "name": "Liechtenstein",
    "country": "LI",
    "lastUpdated": "2020-04-26T00:21:03.348Z",
    "dead": 1,
    "id": "LTGEU2E9MFkrCcFhZYVk",
    "infected": 81,
    "recovered": 55,
    "latitude": 47.166,
    "pop": 38557,
    "sick": 25,
    "invisible": false
  },
  {
    "recovered": 208,
    "latitude": 9.9456,
    "pop": 12720000,
    "longitude": -9.6966,
    "name": "Guinea",
    "country": "GN",
    "lastUpdated": "2020-04-26T00:21:03.336Z",
    "dead": 7,
    "id": "LU2QWt5ao8IJa8evNYVV",
    "infected": 996,
    "sick": 781,
    "invisible": false
  },
  {
    "infected": 214,
    "recovered": 0,
    "latitude": 29.6667,
    "pop": 3062000,
    "longitude": -110.5,
    "name": "Sonora",
    "country": "MX",
    "lastUpdated": "2020-04-26T00:10:14.669Z",
    "dead": 24,
    "id": "LYCBHrA9ms6GcxpLGPCT",
    "sick": 190,
    "invisible": false
  },
  {
    "id": "LglKINHyQpYpFxjckbQ6",
    "infected": 10,
    "recovered": 7,
    "latitude": 3.9193051,
    "pop": 563402,
    "longitude": -56.0277824,
    "name": "Suriname",
    "country": "SR",
    "lastUpdated": "2020-04-26T00:21:03.355Z",
    "dead": 1,
    "sick": 2,
    "invisible": false
  },
  {
    "infected": 349,
    "recovered": 0,
    "latitude": 52.9399,
    "pop": 1174000,
    "longitude": -106.4509,
    "name": "Saskatchewan",
    "country": "CA",
    "lastUpdated": "2020-04-26T00:06:02.226Z",
    "dead": 4,
    "id": "LkIDKY0CMAqzbwBHyYCP",
    "sick": 345,
    "invisible": false
  },
  {
    "longitude": -12.8858,
    "name": "Western Sahara",
    "country": "EH",
    "lastUpdated": "2020-04-26T00:21:03.356Z",
    "dead": 0,
    "id": "LooNn6RuMiDhQnwa9svw",
    "infected": 6,
    "recovered": 5,
    "latitude": 24.2155,
    "pop": 636442,
    "sick": 1,
    "invisible": false
  },
  {
    "lastUpdated": "2020-04-26T00:15:09.679Z",
    "dead": 239,
    "id": "Lsga7AvYNnY0qQ5gEfV8",
    "infected": 2546,
    "recovered": 716,
    "latitude": 43.363129,
    "pop": 1022000,
    "longitude": -5.951843,
    "name": "Principado de Asturias",
    "country": "ES",
    "sick": 1591,
    "invisible": false
  },
  {
    "lastUpdated": "2020-04-26T00:15:09.681Z",
    "dead": 416,
    "id": "LuEErlF7dVKI0eJsRjFm",
    "infected": 3458,
    "recovered": 1510,
    "latitude": 39.4937,
    "pop": 1065000,
    "longitude": -6.0679,
    "name": "Extremadura",
    "country": "ES",
    "sick": 1532,
    "invisible": false
  },
  {
    "latitude": 21.0186,
    "pop": 5965000,
    "longitude": -101.2591,
    "name": "Guanajuato",
    "country": "MX",
    "lastUpdated": "2020-04-26T00:10:14.669Z",
    "dead": 19,
    "id": "M3wdiueFtwrUHiQ2rOXA",
    "infected": 246,
    "recovered": 0,
    "sick": 227,
    "invisible": false
  },
  {
    "latitude": 37.8393,
    "pop": 4468000,
    "longitude": -84.27,
    "name": "Kentucky",
    "country": "US",
    "lastUpdated": "2020-04-26T00:05:21.835Z",
    "dead": 205,
    "id": "MC8MXFw9iXYybnF8v7e6",
    "infected": 3915,
    "recovered": 0,
    "sick": 3710,
    "invisible": false
  },
  {
    "infected": 22808,
    "recovered": 0,
    "latitude": 55.3781,
    "longitude": -3.436,
    "name": "Unknown UK region or state",
    "country": "GB",
    "lastUpdated": "2020-04-26T00:09:23.674Z",
    "dead": 18083,
    "id": "MEjlm8VYdGA28TTTnQmf",
    "invisible": true,
    "sick": 4725
  },
  {
    "latitude": 41.3006,
    "pop": 3689000,
    "longitude": -7.7441,
    "name": "Norte",
    "country": "PT",
    "lastUpdated": "2020-04-26T00:04:01.184Z",
    "dead": 502,
    "id": "MG4e9tulLJ010SZJvbYN",
    "infected": 14072,
    "recovered": 0,
    "sick": 13570,
    "invisible": false
  },
  {
    "latitude": 56.4907,
    "pop": 5450000,
    "longitude": -4.2026,
    "name": "Scotland",
    "country": "GB",
    "lastUpdated": "2020-04-26T00:09:23.665Z",
    "dead": 1184,
    "id": "MObRYyIriHG337L8FyFC",
    "infected": 10051,
    "recovered": 0,
    "sick": 8867,
    "invisible": false
  },
  {
    "latitude": 40.2672,
    "pop": 6692000,
    "longitude": -86.1349,
    "name": "Indiana",
    "country": "US",
    "lastUpdated": "2020-04-26T00:05:21.838Z",
    "dead": 786,
    "id": "MOxDkmQ4wBi1CuAdVxDE",
    "infected": 14399,
    "recovered": 0,
    "sick": 13613,
    "invisible": false
  },
  {
    "latitude": 7.54,
    "pop": 24290000,
    "longitude": -5.5471,
    "name": "Ivory Coast",
    "country": "CI",
    "lastUpdated": "2020-04-26T00:21:03.336Z",
    "dead": 14,
    "id": "MdQOfc1gNh2DOqwSP6UV",
    "infected": 1077,
    "recovered": 419,
    "sick": 644,
    "invisible": false
  },
  {
    "longitude": 7.6616,
    "name": "Nordrhein-Westfalen",
    "country": "DE",
    "lastUpdated": "2020-04-26T00:00:03.291Z",
    "dead": 1132,
    "id": "MjpYq3zQyAvSQlVVYjD2",
    "infected": 31988,
    "recovered": 20257,
    "latitude": 51.4332,
    "pop": 17910000,
    "sick": 10599,
    "invisible": false
  },
  {
    "recovered": 75,
    "latitude": 37.330509,
    "pop": 6301000,
    "longitude": 105.977203,
    "name": "Ningxia",
    "country": "CN",
    "lastUpdated": "2020-04-26T00:08:10.450Z",
    "dead": 0,
    "id": "MntmjjuHljarCdt6aIeE",
    "infected": 75,
    "sick": 0,
    "invisible": false
  },
  {
    "infected": 1579,
    "recovered": 0,
    "latitude": -3.20166586,
    "pop": 8513497,
    "longitude": -52.203499186,
    "name": "Pará",
    "country": "BR",
    "lastUpdated": "2020-04-26T00:16:01.679Z",
    "dead": 86,
    "id": "MuEB2UgkId5crsxi9zQT",
    "sick": 1493,
    "invisible": false
  },
  {
    "infected": 31847,
    "recovered": 19339,
    "latitude": 48.6616,
    "pop": 11020000,
    "longitude": 9.3501,
    "name": "Baden-Württemberg",
    "country": "DE",
    "lastUpdated": "2020-04-26T00:00:03.288Z",
    "dead": 1290,
    "id": "N3XsRBwJSsNclkEf7Zz5",
    "sick": 11218,
    "invisible": false
  },
  {
    "latitude": 44.696652,
    "pop": 3507000,
    "longitude": 17.824332,
    "name": "Bosnia and Herzegovina",
    "country": "BA",
    "lastUpdated": "2020-04-26T00:21:03.335Z",
    "dead": 57,
    "id": "N7c13sCQF0G789XAVazJ",
    "infected": 1486,
    "recovered": 592,
    "sick": 837,
    "invisible": false
  },
  {
    "infected": 197,
    "recovered": 149,
    "latitude": 37.242565,
    "pop": 36500000,
    "longitude": 111.856857,
    "name": "Shanxi",
    "country": "CN",
    "lastUpdated": "2020-04-26T00:08:10.447Z",
    "dead": 0,
    "id": "NBRIGIRrJB1Ry8prDNAC",
    "sick": 48,
    "invisible": false
  },
  {
    "recovered": 0,
    "latitude": 35.7596,
    "pop": 10380000,
    "longitude": -79.0193,
    "name": "North Carolina",
    "country": "US",
    "lastUpdated": "2020-04-26T00:05:21.833Z",
    "dead": 305,
    "id": "NC64Qp5kTqAfiTuR27k8",
    "infected": 8758,
    "sick": 8453,
    "invisible": false
  },
  {
    "recovered": 1650,
    "latitude": 52.4125,
    "pop": 2504000,
    "longitude": 12.5316,
    "name": "Brandenburg",
    "country": "DE",
    "lastUpdated": "2020-04-26T00:00:03.290Z",
    "dead": 130,
    "id": "NJjo2gfBvnbK4xatrsUz",
    "infected": 2765,
    "sick": 985,
    "invisible": false
  },
  {
    "id": "NLLL6pJhJSw0lrDMD4uP",
    "infected": 14,
    "recovered": 0,
    "latitude": 15.0979,
    "pop": 55144,
    "longitude": -145.6739,
    "name": "Northern Mariana Islands",
    "country": "MP",
    "lastUpdated": "2020-04-26T00:05:21.830Z",
    "dead": 2,
    "sick": 12,
    "invisible": false
  },
  {
    "longitude": 79.0193,
    "name": "Uttarakhand",
    "country": "IN",
    "lastUpdated": "2020-04-26T00:11:01.316Z",
    "dead": 0,
    "id": "NMeZEcGToxXfpi16PfFV",
    "infected": 48,
    "recovered": 26,
    "latitude": 30.0668,
    "pop": 10080000,
    "sick": 22,
    "invisible": false
  },
  {
    "lastUpdated": "2020-04-26T00:00:03.290Z",
    "dead": 329,
    "id": "Nk5vPgUIXsWVfbWZf15O",
    "infected": 8281,
    "recovered": 4032,
    "latitude": 50.6521,
    "pop": 6243000,
    "longitude": 9.1624,
    "name": "Hessen",
    "country": "DE",
    "sick": 3920,
    "invisible": false
  },
  {
    "longitude": 25.837107,
    "name": "Latvia",
    "country": "LV",
    "lastUpdated": "2020-04-26T00:21:03.336Z",
    "dead": 12,
    "id": "NmmMKy0YqA8StHdGzB5N",
    "infected": 804,
    "recovered": 267,
    "latitude": 56.96776,
    "pop": 1920000,
    "sick": 525,
    "invisible": false
  },
  {
    "infected": 4507,
    "recovered": 0,
    "latitude": -8.472372,
    "pop": 9496294,
    "longitude": -37.946777,
    "name": "Pernambuco",
    "country": "BR",
    "lastUpdated": "2020-04-26T00:16:01.680Z",
    "dead": 381,
    "id": "NyGlFL1gATK1Omv9qtcC",
    "sick": 4126,
    "invisible": false
  },
  {
    "longitude": -9.4295,
    "name": "Liberia",
    "country": "LR",
    "lastUpdated": "2020-04-26T00:21:03.347Z",
    "dead": 11,
    "id": "O4g88K49HKEZLFXm5gxb",
    "infected": 120,
    "recovered": 25,
    "latitude": 6.4281,
    "pop": 4732000,
    "sick": 84,
    "invisible": false
  },
  {
    "infected": 5253,
    "recovered": 0,
    "latitude": 34.003307,
    "pop": 5084000,
    "longitude": -80.525613,
    "name": "South Carolina",
    "country": "US",
    "lastUpdated": "2020-04-26T00:05:21.834Z",
    "dead": 166,
    "id": "ONU4CK8QjViFHKg2w5if",
    "sick": 5087,
    "invisible": false
  },
  {
    "infected": 5718,
    "recovered": 0,
    "latitude": 33.51822,
    "pop": 2987000,
    "longitude": -89.582775,
    "name": "Mississippi",
    "country": "US",
    "lastUpdated": "2020-04-26T00:05:21.834Z",
    "dead": 221,
    "id": "OYa0jFzdbAgo8zUsRv6q",
    "sick": 5497,
    "invisible": false
  },
  {
    "infected": 965,
    "recovered": 0,
    "latitude": 45.2538,
    "pop": 1338000,
    "longitude": -69.4455,
    "name": "Maine",
    "country": "US",
    "lastUpdated": "2020-04-26T00:05:21.832Z",
    "dead": 47,
    "id": "OcXNp9kNVSwrRlG3bNVN",
    "sick": 918,
    "invisible": false
  },
  {
    "lastUpdated": "2020-04-26T00:06:02.227Z",
    "dead": 10,
    "id": "OnOseaqWdnuP18oruABW",
    "infected": 209,
    "recovered": 67,
    "latitude": -41.915264,
    "pop": 515000,
    "longitude": 146.725256,
    "name": "Tasmania",
    "country": "AU",
    "sick": 132,
    "invisible": false
  },
  {
    "latitude": -16.35,
    "pop": 3441998,
    "longitude": -56.666668,
    "name": "Mato Grosso",
    "country": "BR",
    "lastUpdated": "2020-04-26T00:16:01.679Z",
    "dead": 9,
    "id": "P0GHFGUt1pkKTk5PM8uz",
    "infected": 247,
    "recovered": 0,
    "sick": 238,
    "invisible": false
  },
  {
    "latitude": 19.3133,
    "pop": 61559,
    "longitude": -81.2546,
    "name": "Cayman Islands",
    "country": "KY",
    "lastUpdated": "2020-04-26T00:21:03.350Z",
    "dead": 1,
    "id": "P4mwRFLbrvT0t75uD8Wo",
    "infected": 70,
    "recovered": 8,
    "sick": 61,
    "invisible": false
  },
  {
    "latitude": 16.7424984,
    "pop": 5900,
    "longitude": -62.1873665,
    "name": "Montserrat",
    "country": "MS",
    "lastUpdated": "2020-04-26T00:21:03.354Z",
    "dead": 1,
    "id": "PEDkeFMTOZpvHiSVxBk7",
    "infected": 11,
    "recovered": 2,
    "sick": 8,
    "invisible": false
  },
  {
    "infected": 183,
    "recovered": 88,
    "latitude": -1.9403,
    "pop": 12210000,
    "longitude": 29.8739,
    "name": "Rwanda",
    "country": "RW",
    "lastUpdated": "2020-04-26T00:21:03.343Z",
    "dead": 0,
    "id": "PEcgZGEkyhABztt1Ufgc",
    "sick": 95,
    "invisible": false
  },
  {
    "latitude": 46.7296,
    "pop": 5611000,
    "longitude": -94.6859,
    "name": "Minnesota",
    "country": "US",
    "lastUpdated": "2020-04-26T00:05:21.835Z",
    "dead": 244,
    "id": "PJvVYosLIhbcRZYnKX1R",
    "infected": 3446,
    "recovered": 0,
    "sick": 3202,
    "invisible": false
  },
  {
    "latitude": 40.6331,
    "pop": 12740000,
    "longitude": -89.3985,
    "name": "Illinois",
    "country": "US",
    "lastUpdated": "2020-04-26T00:08:50.021Z",
    "dead": 1875,
    "id": "PTwQr9ijo0TBBsPH2sdJ",
    "infected": 41776,
    "recovered": 0,
    "sick": 39901,
    "invisible": false
  },
  {
    "longitude": -60.978893,
    "name": "Saint Lucia",
    "country": "LC",
    "lastUpdated": "2020-04-26T00:21:03.354Z",
    "dead": 0,
    "id": "PjLqCeFdyzdZNcZxMkK1",
    "infected": 15,
    "recovered": 15,
    "latitude": 13.909444,
    "pop": 178844,
    "sick": 0,
    "invisible": false
  },
  {
    "infected": 5274,
    "recovered": 1737,
    "latitude": 42.6954,
    "pop": 649900,
    "longitude": -1.6761,
    "name": "Comunidad Foral de Navarra",
    "country": "ES",
    "lastUpdated": "2020-04-26T00:15:09.682Z",
    "dead": 429,
    "id": "PmUlsNx2uFLU797wwU39",
    "sick": 3108,
    "invisible": false
  },
  {
    "infected": 939,
    "recovered": 207,
    "latitude": 34.201507,
    "pop": 11530000,
    "longitude": 9.460554,
    "name": "Tunisia",
    "country": "TN",
    "lastUpdated": "2020-04-26T00:21:03.336Z",
    "dead": 38,
    "id": "Pr76V4raf108uSRoEXac",
    "sick": 694,
    "invisible": false
  },
  {
    "infected": 56,
    "recovered": 10,
    "latitude": -26.5225,
    "pop": 1367000,
    "longitude": 31.4659,
    "name": "Eswatini",
    "country": "SZ",
    "lastUpdated": "2020-04-26T00:21:03.350Z",
    "dead": 1,
    "id": "PuQgOd9KWiMzGZXm11sR",
    "sick": 45,
    "invisible": false
  },
  {
    "latitude": -37.009609,
    "pop": 6359000,
    "longitude": 143.94853,
    "name": "Victoria",
    "country": "AU",
    "lastUpdated": "2020-04-26T00:06:02.225Z",
    "dead": 16,
    "id": "Q18mrGvFWTLX2BU9SqhQ",
    "infected": 1346,
    "recovered": 1172,
    "sick": 158,
    "invisible": false
  },
  {
    "infected": 2591,
    "recovered": 1900,
    "latitude": 54.2194,
    "pop": 2890000,
    "longitude": 9.6961,
    "name": "Schleswig-Holstein",
    "country": "DE",
    "lastUpdated": "2020-04-26T00:00:03.292Z",
    "dead": 107,
    "id": "Q39XkabIYxt15mHINzTa",
    "sick": 584,
    "invisible": false
  },
  {
    "id": "QGpQNhuoVTUPHXvS7qcu",
    "infected": 1096,
    "recovered": 0,
    "latitude": -27.953491,
    "pop": 11329605,
    "longitude": -52.031696,
    "name": "Rio Grande do Sul",
    "country": "BR",
    "lastUpdated": "2020-04-26T00:16:01.680Z",
    "dead": 34,
    "sick": 1062,
    "invisible": false
  },
  {
    "lastUpdated": "2020-04-26T00:21:03.335Z",
    "dead": 46,
    "id": "QR9go2hQKXjty7JHUYe4",
    "infected": 1635,
    "recovered": 228,
    "latitude": 58.595272,
    "pop": 1328000,
    "longitude": 25.013607,
    "name": "Estonia",
    "country": "EE",
    "sick": 1361,
    "invisible": false
  },
  {
    "infected": 1595,
    "recovered": 0,
    "latitude": -20.318,
    "pop": 3972388,
    "longitude": -40.336,
    "name": "Espírito Santo",
    "country": "BR",
    "lastUpdated": "2020-04-26T00:16:01.678Z",
    "dead": 47,
    "id": "QaWDLKH8SuwD0Qxq6c38",
    "sick": 1548,
    "invisible": false
  },
  {
    "infected": 300,
    "recovered": 0,
    "latitude": 20.3333,
    "pop": 8222700,
    "longitude": -103.6667,
    "name": "Jalisco",
    "country": "MX",
    "lastUpdated": "2020-04-26T00:10:14.670Z",
    "dead": 23,
    "id": "Qkho455pBwx88Gohs3hL",
    "sick": 277,
    "invisible": false
  },
  {
    "infected": 8,
    "recovered": 0,
    "latitude": -6.315,
    "pop": 8251000,
    "longitude": 143.9555,
    "name": "Papua New Guinea",
    "country": "PG",
    "lastUpdated": "2020-04-26T00:21:03.356Z",
    "dead": 0,
    "id": "QlZrE4nosm5WfdA2aCDg",
    "sick": 8,
    "invisible": false
  },
  {
    "longitude": -64.8963,
    "name": "U.S. Virgin Islands",
    "country": "US",
    "lastUpdated": "2020-04-26T00:05:21.830Z",
    "dead": 3,
    "id": "QqhD3YDMKXojvQY3Yu41",
    "infected": 54,
    "recovered": 0,
    "latitude": 18.3358,
    "pop": 107268,
    "sick": 51,
    "invisible": false
  },
  {
    "longitude": -61.3709755,
    "name": "Dominica",
    "country": "DM",
    "lastUpdated": "2020-04-26T00:21:03.353Z",
    "dead": 0,
    "id": "Qy2qW2ep5wltnYjPJBxh",
    "infected": 16,
    "recovered": 10,
    "latitude": 15.414999,
    "pop": 71937,
    "sick": 6,
    "invisible": false
  },
  {
    "infected": 10,
    "recovered": 2,
    "latitude": 5.167,
    "pop": 344027,
    "longitude": -72.167,
    "name": "Casanare",
    "country": "CO",
    "lastUpdated": "2020-04-26T00:01:09.166Z",
    "dead": 0,
    "id": "R3IHMWqIUhOJJTlrmbUZ",
    "sick": 8,
    "invisible": false
  },
  {
    "lastUpdated": "2020-04-26T00:21:03.331Z",
    "dead": 154,
    "id": "R8YCgephnxTufvcPWMgx",
    "infected": 5338,
    "recovered": 319,
    "latitude": 8.538,
    "pop": 4099000,
    "longitude": -80.7821,
    "name": "Panama",
    "country": "PA",
    "sick": 4865,
    "invisible": false
  },
  {
    "id": "RA2SE0p2bVhqo0P2hzGY",
    "infected": 591,
    "recovered": 58,
    "latitude": 15.2,
    "pop": 9265000,
    "longitude": -86.2419,
    "name": "Honduras",
    "country": "HN",
    "lastUpdated": "2020-04-26T00:21:03.337Z",
    "dead": 55,
    "sick": 478,
    "invisible": false
  },
  {
    "recovered": 0,
    "latitude": -18.4745998,
    "pop": 224500,
    "longitude": -70.2979202,
    "name": "Arica y Parinacota",
    "country": "CL",
    "lastUpdated": "2020-04-26T00:07:05.779Z",
    "dead": 3,
    "id": "RBt9RiwP7WUbMnJfD0lo",
    "infected": 245,
    "sick": 242,
    "invisible": false
  },
  {
    "latitude": 45.633331,
    "pop": 1216000,
    "longitude": 13.8,
    "name": "Friuli Venezia Giulia",
    "country": "IT",
    "lastUpdated": "2020-04-26T00:01:01.680Z",
    "dead": 263,
    "id": "RCrDBCdBNYzgLNr0aB2H",
    "infected": 2903,
    "recovered": 1556,
    "sick": 1084,
    "invisible": false
  },
  {
    "infected": 5092,
    "recovered": 0,
    "latitude": 41.878,
    "pop": 3156000,
    "longitude": -93.0977,
    "name": "Iowa",
    "country": "US",
    "lastUpdated": "2020-04-26T00:11:39.249Z",
    "dead": 112,
    "id": "RX0KDu1AFrlCsrRso0nb",
    "sick": 4980,
    "invisible": false
  },
  {
    "recovered": 391,
    "latitude": 4.624335,
    "pop": 7413000,
    "longitude": -74.063644,
    "name": "Bogotá D.C.",
    "country": "CO",
    "lastUpdated": "2020-04-26T00:01:09.157Z",
    "dead": 83,
    "id": "RZ6PCe5TZsO15JjDObwO",
    "infected": 2066,
    "sick": 1592,
    "invisible": false
  },
  {
    "recovered": 18,
    "latitude": 26.3351002,
    "pop": 6846000,
    "longitude": 17.2283306,
    "name": "Libya",
    "country": "LY",
    "lastUpdated": "2020-04-26T00:21:03.350Z",
    "dead": 2,
    "id": "RaJxbzlnRFTuj4B8IbpC",
    "infected": 61,
    "sick": 41,
    "invisible": false
  },
  {
    "id": "Rf4uvBfP3GRDSHdZElRd",
    "infected": 3135,
    "recovered": 0,
    "latitude": 39.0119,
    "pop": 2912000,
    "longitude": -98.4842,
    "name": "Kansas",
    "country": "US",
    "lastUpdated": "2020-04-26T00:05:21.836Z",
    "dead": 120,
    "sick": 3015,
    "invisible": false
  },
  {
    "latitude": 48.6998,
    "pop": 5518000,
    "longitude": 6.1878,
    "name": "Grand Est",
    "country": "FR",
    "lastUpdated": "2020-04-26T00:20:15.610Z",
    "dead": 2714,
    "id": "RmEgf1xeclWt7XCF9oiR",
    "infected": 20213,
    "recovered": 7232,
    "sick": 10267,
    "invisible": false
  },
  {
    "longitude": 4.451,
    "name": "Wallonia",
    "country": "BE",
    "lastUpdated": "2020-04-25T23:59:10.708Z",
    "dead": 2458,
    "id": "RryHraSohKQLAsdr1dHO",
    "infected": 14673,
    "recovered": 2870,
    "latitude": 50.4176,
    "pop": 3644000,
    "sick": 9345,
    "invisible": false
  },
  {
    "infected": 15009,
    "recovered": 0,
    "latitude": 51.2538,
    "pop": 14570000,
    "longitude": -85.3232,
    "name": "Ontario",
    "country": "CA",
    "lastUpdated": "2020-04-26T00:06:02.221Z",
    "dead": 914,
    "id": "Rx4TuyMpfGb3S8wYJX0x",
    "sick": 14095,
    "invisible": false
  },
  {
    "longitude": -4.723611,
    "name": "Castilla y León",
    "country": "ES",
    "lastUpdated": "2020-04-26T00:15:09.680Z",
    "dead": 1639,
    "id": "S8ewN4zaYp8mjtuqqOTw",
    "infected": 18259,
    "recovered": 6033,
    "latitude": 41.652779,
    "pop": 2408000,
    "sick": 10587,
    "invisible": false
  },
  {
    "infected": 175,
    "recovered": 77,
    "latitude": 14.652027,
    "pop": 376480,
    "longitude": -61.011715,
    "name": "Martinique",
    "country": "FR",
    "lastUpdated": "2020-04-26T00:21:03.344Z",
    "dead": 14,
    "id": "SDdefnq1bc3ZNr7SpEsW",
    "sick": 84,
    "invisible": false
  },
  {
    "latitude": 7.9465,
    "pop": 28830000,
    "longitude": -1.0232,
    "name": "Ghana",
    "country": "GH",
    "lastUpdated": "2020-04-26T00:21:03.336Z",
    "dead": 10,
    "id": "SG9VWLOV3x2JsTkXmVSz",
    "infected": 1279,
    "recovered": 134,
    "sick": 1135,
    "invisible": false
  },
  {
    "infected": 28894,
    "recovered": 21300,
    "latitude": 46.818188,
    "pop": 8570000,
    "longitude": 8.227512,
    "name": "Switzerland",
    "country": "CH",
    "lastUpdated": "2020-04-26T00:21:03.328Z",
    "dead": 1599,
    "id": "SGe9sCPayMqh6RsGFaBA",
    "sick": 5995,
    "invisible": false
  },
  {
    "latitude": 46.8139,
    "pop": 8485000,
    "longitude": -71.208,
    "name": "Quebec",
    "country": "CA",
    "lastUpdated": "2020-04-26T00:15:40.635Z",
    "dead": 1446,
    "id": "SHoOE3NiJgWAlDVBzwYH",
    "infected": 23267,
    "recovered": 0,
    "sick": 21821,
    "invisible": false
  },
  {
    "infected": 731,
    "recovered": 165,
    "latitude": 42.6026,
    "pop": 1831000,
    "longitude": 20.903,
    "name": "Kosovo",
    "country": "XK",
    "lastUpdated": "2020-04-26T00:10:09.455Z",
    "dead": 20,
    "id": "SMWvuMMuKp2QK7O2tNia",
    "sick": 546,
    "invisible": false
  },
  {
    "lastUpdated": "2020-04-26T00:11:01.318Z",
    "dead": 0,
    "id": "SPcujsH2YlUaoAr8AiWF",
    "infected": 7,
    "recovered": 7,
    "latitude": 15.2993,
    "pop": 1817000,
    "longitude": 74.124,
    "name": "Goa",
    "country": "IN",
    "sick": 0,
    "invisible": false
  },
  {
    "latitude": -16.328547,
    "pop": 6921161,
    "longitude": -48.953403,
    "name": "Goiás",
    "country": "BR",
    "lastUpdated": "2020-04-26T00:16:01.679Z",
    "dead": 25,
    "id": "SV5AMF59J61Vt4cXWLgy",
    "infected": 506,
    "recovered": 0,
    "sick": 481,
    "invisible": false
  },
  {
    "infected": 1088,
    "recovered": 197,
    "latitude": 39,
    "pop": 1957000,
    "longitude": 16.5,
    "name": "Calabria",
    "country": "IT",
    "lastUpdated": "2020-04-26T00:01:01.680Z",
    "dead": 80,
    "id": "SZdF624x0v1LlyzZjKFu",
    "sick": 811,
    "invisible": false
  },
  {
    "id": "SakhKQzKu1LRI8laqdQq",
    "infected": 2719,
    "recovered": 0,
    "latitude": 41.4925,
    "pop": 1929000,
    "longitude": -99.9018,
    "name": "Nebraska",
    "country": "US",
    "lastUpdated": "2020-04-26T00:05:21.836Z",
    "dead": 50,
    "sick": 2669,
    "invisible": false
  },
  {
    "infected": 417,
    "recovered": 300,
    "latitude": -21.1151,
    "pop": 859959,
    "longitude": 55.5364,
    "name": "La Réunion",
    "country": "FR",
    "lastUpdated": "2020-04-26T00:21:03.341Z",
    "dead": 0,
    "id": "SgHzWAAYK1j2sipovxM6",
    "sick": 117,
    "invisible": false
  },
  {
    "infected": 122,
    "recovered": 117,
    "latitude": 12.565679,
    "pop": 16010000,
    "longitude": 104.990967,
    "name": "Cambodia",
    "country": "KH",
    "lastUpdated": "2020-04-26T00:21:03.347Z",
    "dead": 0,
    "id": "SioMALgUbo7peXmbco2f",
    "sick": 5,
    "invisible": false
  },
  {
    "id": "SsWhuEElU7dCTTuH5fdQ",
    "infected": 141,
    "recovered": 0,
    "latitude": 13.4443,
    "pop": 164229,
    "longitude": 144.7937,
    "name": "Guam",
    "country": "GU",
    "lastUpdated": "2020-04-26T00:05:21.831Z",
    "dead": 5,
    "sick": 136,
    "invisible": false
  },
  {
    "lastUpdated": "2020-04-26T00:21:03.329Z",
    "dead": 0,
    "id": "SuCr5emUaJ9RHTll1P1p",
    "invisible": true,
    "infected": 0,
    "recovered": 2126,
    "latitude": 51.9189,
    "longitude": 19.1344,
    "name": "Unknown Poland region",
    "country": "PL",
    "sick": 0
  },
  {
    "latitude": -4.0383,
    "pop": 81340000,
    "longitude": 21.7587,
    "name": "DR Congo",
    "country": "CD",
    "lastUpdated": "2020-04-26T00:21:03.341Z",
    "dead": 28,
    "id": "T3iRf8mTUTAzbKrORTap",
    "infected": 416,
    "recovered": 49,
    "sick": 339,
    "invisible": false
  },
  {
    "lastUpdated": "2020-04-26T00:21:03.328Z",
    "dead": 136,
    "id": "T7NffoeCgTUpAbOHvYwP",
    "infected": 16299,
    "recovered": 2215,
    "latitude": 23.635796,
    "pop": 32940000,
    "longitude": 44.344334,
    "name": "Saudi Arabia",
    "country": "SA",
    "sick": 13948,
    "invisible": false
  },
  {
    "id": "TNDTapyb0k3l7Mds9q9R",
    "infected": 4946,
    "recovered": 1999,
    "latitude": 42.2871,
    "pop": 315700,
    "longitude": -2.5396,
    "name": "La Rioja",
    "country": "ES",
    "lastUpdated": "2020-04-26T00:15:09.682Z",
    "dead": 311,
    "sick": 2636,
    "invisible": false
  },
  {
    "longitude": -89.134857,
    "name": "Yucatán",
    "country": "MX",
    "lastUpdated": "2020-04-26T00:10:14.669Z",
    "dead": 25,
    "id": "TQCWbhIpJQBQxBjhCGVJ",
    "infected": 309,
    "recovered": 0,
    "latitude": 20.400417,
    "pop": 2207200,
    "sick": 284,
    "invisible": false
  },
  {
    "recovered": 121,
    "latitude": 4.506106,
    "pop": 428697,
    "longitude": 114.650692,
    "name": "Brunei",
    "country": "BN",
    "lastUpdated": "2020-04-26T00:21:03.346Z",
    "dead": 1,
    "id": "TQZmzsLhJqjtCSExAkCP",
    "infected": 138,
    "sick": 16,
    "invisible": false
  },
  {
    "infected": 12153,
    "recovered": 4643,
    "latitude": 45.4471,
    "pop": 8027000,
    "longitude": 4.3853,
    "name": "Auvergne-Rhône-Alpes",
    "country": "FR",
    "lastUpdated": "2020-04-26T00:19:17.421Z",
    "dead": 1212,
    "id": "TT0MKODSjrxHvG19xZCa",
    "sick": 6298,
    "invisible": false
  },
  {
    "latitude": 38.5667,
    "pop": 758700,
    "longitude": -7.9,
    "name": "Alentejo",
    "country": "PT",
    "lastUpdated": "2020-04-26T00:04:01.258Z",
    "dead": 1,
    "id": "TeoNTu4aw5riC04sTd73",
    "infected": 185,
    "recovered": 0,
    "sick": 184,
    "invisible": false
  },
  {
    "id": "Th4dlpXXmSDgi1OHs36P",
    "infected": 12968,
    "recovered": 0,
    "latitude": 39.318928,
    "pop": 5696000,
    "longitude": -105.461392,
    "name": "Colorado",
    "country": "US",
    "lastUpdated": "2020-04-26T00:05:21.840Z",
    "dead": 684,
    "sick": 12284,
    "invisible": false
  },
  {
    "longitude": -1.5616,
    "name": "Burkina Faso",
    "country": "BF",
    "lastUpdated": "2020-04-26T00:21:03.337Z",
    "dead": 41,
    "id": "Tup6oDCHj6DgqZR3nQ3x",
    "infected": 629,
    "recovered": 442,
    "latitude": 12.2383,
    "pop": 19190000,
    "sick": 146,
    "invisible": false
  },
  {
    "infected": 18,
    "recovered": 7,
    "latitude": 12.104818,
    "pop": 112381,
    "longitude": -61.670761,
    "name": "Grenada",
    "country": "GD",
    "lastUpdated": "2020-04-26T00:21:03.353Z",
    "dead": 0,
    "id": "TvqURPN5xzVBXsmGP46N",
    "sick": 11,
    "invisible": false
  },
  {
    "longitude": 12.56902,
    "name": "Denmark",
    "country": "DK",
    "lastUpdated": "2020-04-26T00:21:03.329Z",
    "dead": 418,
    "id": "Ty1AY3VLPJcRZgdBIERx",
    "infected": 8445,
    "recovered": 5669,
    "latitude": 55.675758,
    "pop": 5603000,
    "sick": 2358,
    "invisible": false
  },
  {
    "infected": 8659,
    "recovered": 0,
    "latitude": 53.9062,
    "pop": 5486000,
    "longitude": -1.0334,
    "name": "Yorkshire and The Humber",
    "country": "GB",
    "lastUpdated": "2020-04-26T00:09:23.674Z",
    "dead": 0,
    "id": "U0N7cIPJXAc4T6uKV60c",
    "sick": 8659,
    "invisible": false
  },
  {
    "latitude": 36.395859,
    "pop": 100472400,
    "longitude": 118.769882,
    "name": "Shandong",
    "country": "CN",
    "lastUpdated": "2020-04-26T00:08:10.448Z",
    "dead": 7,
    "id": "U0tkTJ9CGsBuFJ2Gdoum",
    "infected": 787,
    "recovered": 767,
    "sick": 13,
    "invisible": false
  },
  {
    "longitude": 12.457777,
    "name": "San Marino",
    "country": "SM",
    "lastUpdated": "2020-04-26T00:21:03.338Z",
    "dead": 40,
    "id": "U12rMD5GDW58Q0lIwrB1",
    "infected": 513,
    "recovered": 64,
    "latitude": 43.94236,
    "pop": 33400,
    "sick": 409,
    "invisible": false
  },
  {
    "longitude": 138.25293,
    "name": "Japan",
    "country": "JP",
    "lastUpdated": "2020-04-26T00:21:03.328Z",
    "dead": 345,
    "id": "U13Gy4BpRLAZ95bPmBXd",
    "infected": 12829,
    "recovered": 1530,
    "latitude": 36.204823,
    "pop": 126800000,
    "sick": 10954,
    "invisible": false
  },
  {
    "infected": 75,
    "recovered": 46,
    "latitude": 1.3733,
    "pop": 42860000,
    "longitude": 32.2903,
    "name": "Uganda",
    "country": "UG",
    "lastUpdated": "2020-04-26T00:21:03.349Z",
    "dead": 0,
    "id": "UCZXEgnHtxUoChWLR6fQ",
    "sick": 29,
    "invisible": false
  },
  {
    "latitude": -11.2027,
    "pop": 29780000,
    "longitude": 17.8739,
    "name": "Angola",
    "country": "AO",
    "lastUpdated": "2020-04-26T00:21:03.352Z",
    "dead": 2,
    "id": "UIbrFy6kiTTF0D37Kqmp",
    "infected": 25,
    "recovered": 6,
    "sick": 17,
    "invisible": false
  },
  {
    "infected": 1964,
    "recovered": 766,
    "latitude": 48.202,
    "pop": 3329000,
    "longitude": -2.9326,
    "name": "Bretagne",
    "country": "FR",
    "lastUpdated": "2020-04-26T00:19:53.257Z",
    "dead": 202,
    "id": "URKMlJ7OTNldjpaxFbjE",
    "sick": 996,
    "invisible": false
  },
  {
    "infected": 4589,
    "recovered": 3100,
    "latitude": 53.5511,
    "pop": 1822000,
    "longitude": 9.9937,
    "name": "Hamburg",
    "country": "DE",
    "lastUpdated": "2020-04-26T00:00:03.290Z",
    "dead": 139,
    "id": "UfFaUECHINUutv1M9tzq",
    "sick": 1350,
    "invisible": false
  },
  {
    "longitude": -102.586899,
    "name": "Zacatecas",
    "country": "MX",
    "lastUpdated": "2020-04-26T00:10:14.669Z",
    "dead": 4,
    "id": "UflxTAb4FnAwve7c5MbY",
    "infected": 58,
    "recovered": 0,
    "latitude": 22.774916,
    "pop": 1615000,
    "sick": 54,
    "invisible": false
  },
  {
    "longitude": -54.646389,
    "name": "Mato Grosso do Sul",
    "country": "BR",
    "lastUpdated": "2020-04-26T00:16:01.679Z",
    "dead": 7,
    "id": "UlA1ubOUhPtf9jjKxxhF",
    "infected": 217,
    "recovered": 0,
    "latitude": -20.4427795,
    "pop": 2748023,
    "sick": 210,
    "invisible": false
  },
  {
    "infected": 27,
    "recovered": 11,
    "latitude": -19.4914,
    "pop": 211945,
    "longitude": 132.551,
    "name": "Northern Territory",
    "country": "AU",
    "lastUpdated": "2020-04-26T00:06:02.227Z",
    "dead": 0,
    "id": "UrF45V1VqMo6YBib2KlL",
    "sick": 16,
    "invisible": false
  },
  {
    "lastUpdated": "2020-04-26T00:21:03.349Z",
    "dead": 12,
    "id": "UsxgpiuFCtlR2CW1UUFm",
    "infected": 73,
    "recovered": 22,
    "latitude": 18.0424805,
    "pop": 41109,
    "longitude": -63.0548286,
    "name": "Sint Maarten",
    "country": "SX",
    "sick": 39,
    "invisible": false
  },
  {
    "infected": 11492,
    "recovered": 0,
    "latitude": 52.4751,
    "pop": 5908000,
    "longitude": -1.8298,
    "name": "West Midlands",
    "country": "GB",
    "lastUpdated": "2020-04-26T00:09:23.674Z",
    "dead": 0,
    "id": "UzOGOMitJmaFTdh2FbvI",
    "sick": 11492,
    "invisible": false
  },
  {
    "latitude": 11.943179,
    "pop": 241773,
    "longitude": 79.808206,
    "name": "Puducherry",
    "country": "IN",
    "lastUpdated": "2020-04-26T00:11:01.318Z",
    "dead": 0,
    "id": "V1qE740s3EUGyKGr6SVv",
    "infected": 8,
    "recovered": 4,
    "sick": 4,
    "invisible": false
  },
  {
    "id": "V9QxUhV4DyYK7iElEhXV",
    "infected": 7,
    "recovered": 0,
    "latitude": -45.5687,
    "pop": 25569,
    "longitude": -72.0597,
    "name": "Aysén",
    "country": "CL",
    "lastUpdated": "2020-04-26T00:07:05.864Z",
    "dead": 0,
    "sick": 7,
    "invisible": false
  },
  {
    "infected": 1337,
    "recovered": 437,
    "latitude": 21.5218,
    "pop": 11480000,
    "longitude": -77.7812,
    "name": "Cuba",
    "country": "CU",
    "lastUpdated": "2020-04-26T00:21:03.336Z",
    "dead": 51,
    "id": "VAG9AcMABTf8oIAfELPh",
    "sick": 849,
    "invisible": false
  },
  {
    "latitude": 25.181129,
    "pop": 45970000,
    "longitude": 101.864143,
    "name": "Yunnan",
    "country": "CN",
    "lastUpdated": "2020-04-26T00:08:10.448Z",
    "dead": 2,
    "id": "VIf8T8PD3ZzlzAm5eBCX",
    "infected": 185,
    "recovered": 181,
    "sick": 2,
    "invisible": false
  },
  {
    "latitude": -3.4653,
    "pop": 4080611,
    "longitude": -62.2159,
    "name": "Amazonas",
    "country": "BR",
    "lastUpdated": "2020-04-26T00:16:01.675Z",
    "dead": 287,
    "id": "VZQiSdZ7cUHgUZWgpNTP",
    "infected": 3635,
    "recovered": 0,
    "sick": 3348,
    "invisible": false
  },
  {
    "infected": 1793,
    "recovered": 261,
    "latitude": 26.8467,
    "pop": 204200000,
    "longitude": 80.9462,
    "name": "Uttar Pradesh",
    "country": "IN",
    "lastUpdated": "2020-04-26T00:11:01.315Z",
    "dead": 27,
    "id": "VcKcLdCkC6YpPfIDnRVD",
    "sick": 1505,
    "invisible": false
  },
  {
    "latitude": 64.8255,
    "pop": 44826,
    "longitude": -124.8457,
    "name": "Northwest Territories",
    "country": "CA",
    "lastUpdated": "2020-04-26T00:06:02.228Z",
    "dead": 0,
    "id": "Vd3lLgrNsr81plzTgZkz",
    "infected": 5,
    "recovered": 0,
    "sick": 5,
    "invisible": false
  },
  {
    "infected": 1907,
    "recovered": 1102,
    "latitude": 39.999079,
    "pop": 1188000,
    "longitude": 3.838942,
    "name": "Islas Baleares",
    "country": "ES",
    "lastUpdated": "2020-04-26T00:15:09.680Z",
    "dead": 174,
    "id": "VyW0IR9vLMdgnKz1cC7j",
    "sick": 631,
    "invisible": false
  },
  {
    "latitude": 43.8927,
    "pop": 5893000,
    "longitude": 3.2828,
    "name": "Occitanie",
    "country": "FR",
    "lastUpdated": "2020-04-26T00:21:19.821Z",
    "dead": 361,
    "id": "WAnbFrEjtZDTCIYBt8rz",
    "infected": 4400,
    "recovered": 2006,
    "sick": 2033,
    "invisible": false
  },
  {
    "lastUpdated": "2020-04-26T00:01:01.679Z",
    "dead": 25,
    "id": "WD502XimGXnWzqYg7zxL",
    "infected": 361,
    "recovered": 118,
    "latitude": 40.5,
    "pop": 567118,
    "longitude": 16.5,
    "name": "Basilicata",
    "country": "IT",
    "sick": 218,
    "invisible": false
  },
  {
    "latitude": 24.6637,
    "pop": 2722000,
    "longitude": 93.9063,
    "name": "Manipur",
    "country": "IN",
    "lastUpdated": "2020-04-26T00:11:01.321Z",
    "dead": 0,
    "id": "WKsJQmcpWKxnp0nCwN77",
    "infected": 2,
    "recovered": 2,
    "sick": 0,
    "invisible": false
  },
  {
    "recovered": 0,
    "latitude": -9.933,
    "pop": 1757589,
    "longitude": -63.067,
    "name": "Rondônia",
    "country": "BR",
    "lastUpdated": "2020-04-26T00:16:01.680Z",
    "dead": 7,
    "id": "WRqKCfMIJFjrjXLMud70",
    "infected": 328,
    "sick": 321,
    "invisible": false
  },
  {
    "latitude": -30.5595,
    "pop": 56720000,
    "longitude": 22.9375,
    "name": "South Africa",
    "country": "ZA",
    "lastUpdated": "2020-04-26T00:21:03.332Z",
    "dead": 86,
    "id": "Whrue10NtwIObLvFFyBr",
    "infected": 4361,
    "recovered": 1473,
    "sick": 2802,
    "invisible": false
  },
  {
    "infected": 10,
    "recovered": 8,
    "latitude": 13.443182,
    "pop": 2101000,
    "longitude": -15.3101387,
    "name": "Gambia",
    "country": "GM",
    "lastUpdated": "2020-04-26T00:21:03.354Z",
    "dead": 1,
    "id": "Wk811YwpQxsOCfz8As86",
    "sick": 1,
    "invisible": false
  },
  {
    "latitude": 19.352498,
    "pop": 17666800,
    "longitude": -99.625164,
    "name": "Estado de México",
    "country": "MX",
    "lastUpdated": "2020-04-26T00:10:14.670Z",
    "dead": 159,
    "id": "WpCXuQjYFLbozSpEhbrZ",
    "infected": 2238,
    "recovered": 0,
    "sick": 2079,
    "invisible": false
  },
  {
    "infected": 4998,
    "recovered": 113,
    "latitude": 23.685,
    "pop": 164700000,
    "longitude": 90.3563,
    "name": "Bangladesh",
    "country": "BD",
    "lastUpdated": "2020-04-26T00:21:03.331Z",
    "dead": 140,
    "id": "WpLayPPLIJ7VcHZdQaoM",
    "sick": 4745,
    "invisible": false
  },
  {
    "recovered": 0,
    "latitude": 20.836,
    "pop": 2100000,
    "longitude": -99.8508,
    "name": "Querétaro",
    "country": "MX",
    "lastUpdated": "2020-04-26T00:10:14.668Z",
    "dead": 7,
    "id": "Wt97UDm6jfYef6WBrS2w",
    "infected": 111,
    "sick": 104,
    "invisible": false
  },
  {
    "id": "X2iRhHF6f9pUnJcxPc3J",
    "infected": 17391,
    "recovered": 6671,
    "latitude": 45.5,
    "pop": 4905000,
    "longitude": 11.75,
    "name": "Veneto",
    "country": "IT",
    "lastUpdated": "2020-04-26T00:01:01.682Z",
    "dead": 1288,
    "sick": 9432,
    "invisible": false
  },
  {
    "lastUpdated": "2020-04-26T00:21:03.352Z",
    "dead": 0,
    "id": "X3GMAVINj2GDzIRVfo7n",
    "infected": 24,
    "recovered": 2,
    "latitude": -8.556856,
    "pop": 1311000,
    "longitude": 125.56031,
    "name": "Timor-Leste",
    "country": "TL",
    "sick": 22,
    "invisible": false
  },
  {
    "id": "X3PZqaJxtnlxcgP4tzya",
    "infected": 20,
    "recovered": 16,
    "latitude": 34.152588,
    "pop": 274289,
    "longitude": 77.577049,
    "name": "Ladakh",
    "country": "IN",
    "lastUpdated": "2020-04-26T00:11:01.318Z",
    "dead": 0,
    "sick": 4,
    "invisible": false
  },
  {
    "lastUpdated": "2020-04-26T00:08:10.448Z",
    "dead": 1,
    "id": "XBBw0iMPrmiEu3qogkbi",
    "infected": 355,
    "recovered": 349,
    "latitude": 25.92448,
    "pop": 38560000,
    "longitude": 118.278992,
    "name": "Fujian",
    "country": "CN",
    "sick": 5,
    "invisible": false
  },
  {
    "infected": 655,
    "recovered": 0,
    "latitude": -52.368,
    "pop": 166533,
    "longitude": -70.9863,
    "name": "Magallanes",
    "country": "CL",
    "lastUpdated": "2020-04-26T00:07:05.865Z",
    "dead": 8,
    "id": "XIYUg6ShQvWyEAJfyJzC",
    "sick": 647,
    "invisible": false
  },
  {
    "infected": 111,
    "recovered": 0,
    "latitude": 37.794597,
    "pop": 246746,
    "longitude": -25.506134,
    "name": "Açores",
    "country": "PT",
    "lastUpdated": "2020-04-26T00:04:01.258Z",
    "dead": 8,
    "id": "XhM7BCQK50gGQ2wIUtDq",
    "sick": 103,
    "invisible": false
  },
  {
    "longitude": -55.7658,
    "name": "Uruguay",
    "country": "UY",
    "lastUpdated": "2020-04-26T00:21:03.337Z",
    "dead": 12,
    "id": "XrsuLstdybIqIvv0E0aJ",
    "infected": 563,
    "recovered": 369,
    "latitude": -32.5228,
    "pop": 3457000,
    "sick": 182,
    "invisible": false
  },
  {
    "recovered": 172,
    "latitude": 42.0396,
    "pop": 339178,
    "longitude": 9.0129,
    "name": "Corse",
    "country": "FR",
    "lastUpdated": "2020-04-26T00:20:09.503Z",
    "dead": 50,
    "id": "YGXgIObKVabP2CYEdcb9",
    "infected": 407,
    "sick": 185,
    "invisible": false
  },
  {
    "infected": 84,
    "recovered": 28,
    "latitude": 2.916112,
    "pop": 1126000,
    "longitude": -75.28344,
    "name": "Huila",
    "country": "CO",
    "lastUpdated": "2020-04-26T00:01:09.164Z",
    "dead": 5,
    "id": "YI9zIOUXJqAcgc0T80yb",
    "sick": 51,
    "invisible": false
  },
  {
    "lastUpdated": "2020-04-26T00:21:03.338Z",
    "dead": 4,
    "id": "YMzKw0SnXG71VT7H1jff",
    "infected": 495,
    "recovered": 92,
    "latitude": 31.9522,
    "pop": 5052000,
    "longitude": 35.2332,
    "name": "Palestine",
    "country": "PS",
    "sick": 399,
    "invisible": false
  },
  {
    "id": "YP3nlz6AKyrnCWYb5mHA",
    "infected": 707,
    "recovered": 0,
    "latitude": 17.97,
    "pop": 2460900,
    "longitude": -92.5867,
    "name": "Tabasco",
    "country": "MX",
    "lastUpdated": "2020-04-26T00:10:14.667Z",
    "dead": 80,
    "sick": 627,
    "invisible": false
  },
  {
    "longitude": -15.1804132,
    "name": "Guinea-Bissau",
    "country": "GW",
    "lastUpdated": "2020-04-26T00:21:03.350Z",
    "dead": 0,
    "id": "YZoy8ReFucvC3IFnWZHn",
    "infected": 52,
    "recovered": 3,
    "latitude": 11.8037491,
    "pop": 1955000,
    "sick": 49,
    "invisible": false
  },
  {
    "infected": 339,
    "recovered": 0,
    "latitude": 64.2008,
    "pop": 737438,
    "longitude": -149.4937,
    "name": "Alaska",
    "country": "US",
    "lastUpdated": "2020-04-26T00:05:21.831Z",
    "dead": 9,
    "id": "YaCODTMD1KKRnrAlkg2u",
    "sick": 330,
    "invisible": false
  },
  {
    "latitude": 42.9896,
    "pop": 2178000,
    "longitude": -2.6189,
    "name": "País Vasco",
    "country": "ES",
    "lastUpdated": "2020-04-26T00:15:09.682Z",
    "dead": 1212,
    "id": "YfA7o2lZP1DhV4JB6Umh",
    "infected": 14132,
    "recovered": 8941,
    "sick": 3979,
    "invisible": false
  },
  {
    "latitude": 16.8922,
    "pop": 4091400,
    "longitude": -96.4085,
    "name": "Oaxaca",
    "country": "MX",
    "lastUpdated": "2020-04-26T00:10:14.661Z",
    "dead": 11,
    "id": "YidRsOGDERjtbaIBGCdu",
    "infected": 104,
    "recovered": 0,
    "sick": 93,
    "invisible": false
  },
  {
    "infected": 10718,
    "recovered": 8635,
    "latitude": 37.568291,
    "pop": 51470000,
    "longitude": 126.99778,
    "name": "South Korea",
    "country": "KR",
    "lastUpdated": "2020-04-26T00:21:03.329Z",
    "dead": 240,
    "id": "Yw9uBekNlefXBcOCNMfP",
    "sick": 1843,
    "invisible": false
  },