[
  {
    "lastUpdated": "2020-04-16T16:50:36.655Z",
    "dead": 0,
    "id": "01b09TY4vmuZwzVuiRFK",
    "infected": 5,
    "recovered": 1,
    "latitude": 12.5847,
    "pop": 72600,
    "longitude": -81.7006,
    "name": "San Andrés",
    "country": "CO",
    "sick": 4,
    "invisible": false
  },
  {
    "recovered": 73,
    "latitude": 49.4482,
    "pop": 67052,
    "longitude": -2.5895,
    "name": "Guernsey",
    "country": "GG",
    "lastUpdated": "2020-04-16T21:35:10.228Z",
    "dead": 9,
    "id": "0FOJefeLxQYXQ1CnJm9o",
    "infected": 234,
    "sick": 152,
    "invisible": false
  },
  {
    "longitude": 14.333333,
    "name": "Campania",
    "country": "IT",
    "lastUpdated": "2020-04-16T22:25:01.438Z",
    "dead": 286,
    "id": "0GJcws44NSPsDHAuxJhW",
    "infected": 3887,
    "recovered": 483,
    "latitude": 41.066666,
    "pop": 5827000,
    "sick": 3118,
    "invisible": false
  },
  {
    "infected": 66,
    "recovered": 0,
    "latitude": -20.2167,
    "pop": 383870,
    "longitude": -70.14222,
    "name": "Tarapacá",
    "country": "CL",
    "lastUpdated": "2020-04-16T22:07:05.966Z",
    "dead": 0,
    "id": "0HDQbiHe462xMCUV5HiI",
    "sick": 66,
    "invisible": false
  },
  {
    "infected": 60,
    "recovered": 19,
    "latitude": 20.9517,
    "pop": 45990000,
    "longitude": 85.0985,
    "name": "Odisha",
    "country": "IN",
    "lastUpdated": "2020-04-16T22:11:06.210Z",
    "dead": 1,
    "id": "0VG7S6aaK4eSo59fL9JO",
    "sick": 40,
    "invisible": false
  },
  {
    "infected": 64,
    "recovered": 0,
    "latitude": 20.4737,
    "pop": 2990300,
    "longitude": -98.8582,
    "name": "Hidalgo",
    "country": "MX",
    "lastUpdated": "2020-04-16T22:10:14.236Z",
    "dead": 12,
    "id": "0XmCRqiK2ZaehoEJvfer",
    "sick": 52,
    "invisible": false
  },
  {
    "infected": 11,
    "recovered": 11,
    "latitude": 11.7401,
    "pop": 427246,
    "longitude": 92.6586,
    "name": "Andaman and Nicobar Islands",
    "country": "IN",
    "lastUpdated": "2020-04-16T22:11:06.211Z",
    "dead": 0,
    "id": "0jStOpTUNRaQYJqgmRoK",
    "sick": 0,
    "invisible": false
  },
  {
    "longitude": 51.145517,
    "name": "Qatar",
    "country": "QA",
    "lastUpdated": "2020-04-16T22:13:02.998Z",
    "dead": 7,
    "id": "0m4aECS0Z2DGFEr8ldgI",
    "infected": 4103,
    "recovered": 415,
    "latitude": 25.315058,
    "pop": 2639000,
    "sick": 3681,
    "invisible": false
  },
  {
    "latitude": 22.9868,
    "pop": 90320000,
    "longitude": 87.855,
    "name": "West Bengal",
    "country": "IN",
    "lastUpdated": "2020-04-16T22:11:06.210Z",
    "dead": 10,
    "id": "0n54EMSDJcRoT1QEvw80",
    "infected": 231,
    "recovered": 42,
    "sick": 179,
    "invisible": false
  },
  {
    "infected": 1164,
    "recovered": 70,
    "latitude": 22.9734,
    "pop": 73340000,
    "longitude": 78.6569,
    "name": "Madhya Pradesh",
    "country": "IN",
    "lastUpdated": "2020-04-16T22:11:06.208Z",
    "dead": 55,
    "id": "0s18o5DrDAHjbu5MFcrj",
    "sick": 1039,
    "invisible": false
  },
  {
    "invisible": true,
    "infected": 0,
    "recovered": 57271,
    "latitude": 37.0902,
    "longitude": -95.7129,
    "name": "Unknown US state",
    "country": "US",
    "lastUpdated": "2020-04-16T22:13:02.995Z",
    "dead": 0,
    "id": "0tFoopNTs6e4tOoaltu2",
    "sick": 0
  },
  {
    "longitude": 108.472214,
    "name": "Shaanxi",
    "country": "CN",
    "lastUpdated": "2020-04-16T21:53:17.753Z",
    "dead": 3,
    "id": "0x2HLhr5z5xAtEdO4iZm",
    "infected": 256,
    "recovered": 251,
    "latitude": 35.64249,
    "pop": 37330000,
    "sick": 2,
    "invisible": false
  },
  {
    "recovered": 121,
    "latitude": 41.643351,
    "pop": 2077000,
    "longitude": 21.668393,
    "name": "North Macedonia",
    "country": "MK",
    "lastUpdated": "2020-04-16T22:13:03.001Z",
    "dead": 46,
    "id": "19MvIhipqTyYv1H37Upw",
    "infected": 1081,
    "sick": 914,
    "invisible": false
  },
  {
    "infected": 252,
    "recovered": 0,
    "latitude": 53.1355,
    "pop": 521542,
    "longitude": -57.6604,
    "name": "Newfoundland and Labrador",
    "country": "CA",
    "lastUpdated": "2020-04-16T22:06:08.817Z",
    "dead": 3,
    "id": "1DOMOmCWDtva46OVSZLv",
    "sick": 249,
    "invisible": false
  },
  {
    "infected": 18,
    "recovered": 18,
    "latitude": 35.801933,
    "pop": 5627000,
    "longitude": 96.779286,
    "name": "Qinghai",
    "country": "CN",
    "lastUpdated": "2020-04-16T21:53:17.754Z",
    "dead": 0,
    "id": "1Fap7rZu9SIRqf5TG9Dg",
    "sick": 0,
    "invisible": false
  },
  {
    "id": "1YXQMlVL3fUeDZmcVfJw",
    "invisible": true,
    "infected": 0,
    "recovered": 2125,
    "latitude": 23.6345,
    "pop": 126200000,
    "longitude": -102.5528,
    "name": "Unknown Mexico state",
    "country": "MX",
    "lastUpdated": "2020-04-16T22:13:02.998Z",
    "dead": 0,
    "sick": 0
  },
  {
    "id": "1eTSQyfp8RoDPeFrIwun",
    "infected": 19108,
    "recovered": 3231,
    "latitude": 44.9,
    "pop": 4376000,
    "longitude": 8.206944,
    "name": "Piemonte",
    "country": "IT",
    "lastUpdated": "2020-04-16T22:25:01.439Z",
    "dead": 2094,
    "sick": 13783,
    "invisible": false
  },
  {
    "infected": 2154,
    "recovered": 235,
    "latitude": 47.4116,
    "pop": 3550000,
    "longitude": 28.3699,
    "name": "Moldova",
    "country": "MD",
    "lastUpdated": "2020-04-16T22:13:02.999Z",
    "dead": 54,
    "id": "1qTPB8X3tyLyIdsb5TN3",
    "sick": 1865,
    "invisible": false
  },
  {
    "longitude": 88.787865,
    "name": "Tibet",
    "country": "CN",
    "lastUpdated": "2020-04-16T21:53:17.754Z",
    "dead": 0,
    "id": "25qIBtsW2nfQj3pwBKg9",
    "infected": 1,
    "recovered": 1,
    "latitude": 30.15336,
    "pop": 3180000,
    "sick": 0,
    "invisible": false
  },
  {
    "lastUpdated": "2020-04-16T22:13:02.998Z",
    "dead": 496,
    "id": "2KHYUb5t3lwzVVmDjwNX",
    "infected": 5516,
    "recovered": 548,
    "latitude": -1.572184,
    "pop": 264000000,
    "longitude": 115.66779,
    "name": "Indonesia",
    "country": "ID",
    "sick": 4472,
    "invisible": false
  },
  {
    "id": "2OrsssmGUs4XCzaZzvTv",
    "infected": 1736,
    "recovered": 0,
    "latitude": 43.807191,
    "pop": 4191000,
    "longitude": -120.585594,
    "name": "Oregon",
    "country": "US",
    "lastUpdated": "2020-04-16T22:01:21.553Z",
    "dead": 64,
    "sick": 1672,
    "invisible": false
  },
  {
    "latitude": -23.65,
    "pop": 425000,
    "longitude": -70.400002,
    "name": "Antofagasta",
    "country": "CL",
    "lastUpdated": "2020-04-16T22:07:05.966Z",
    "dead": 1,
    "id": "2c5HBZ1ffkCVXnMYUWnY",
    "infected": 192,
    "recovered": 0,
    "sick": 191,
    "invisible": false
  },
  {
    "infected": 362,
    "recovered": 0,
    "latitude": 0.035574,
    "pop": 9029000,
    "longitude": -51.070534,
    "name": "Amapá",
    "country": "BR",
    "lastUpdated": "2020-04-16T22:09:05.880Z",
    "dead": 9,
    "id": "2dzhyWsBSPpENWlNew0b",
    "sick": 353,
    "invisible": false
  },
  {
    "infected": 102,
    "recovered": 96,
    "latitude": 43.851921,
    "pop": 27460000,
    "longitude": 126.548103,
    "name": "Jilin",
    "country": "CN",
    "lastUpdated": "2020-04-16T21:53:17.753Z",
    "dead": 1,
    "id": "2jxHvSsxdnom0nPNvOT8",
    "sick": 5,
    "invisible": false
  },
  {
    "latitude": 36.1408,
    "pop": 34571,
    "longitude": -5.3536,
    "name": "Gibraltar",
    "country": "GI",
    "lastUpdated": "2020-04-16T22:13:03.012Z",
    "dead": 0,
    "id": "2p11BjSAs3wVyymgqBOe",
    "infected": 131,
    "recovered": 104,
    "sick": 27,
    "invisible": false
  },
  {
    "lastUpdated": "2020-04-16T18:07:25.588Z",
    "dead": 252,
    "id": "2sLNkkHpyaHx7dD3aMDO",
    "infected": 2868,
    "recovered": 770,
    "latitude": 47.7516,
    "pop": 2567000,
    "longitude": 1.6751,
    "name": "Centre-Val de Loire",
    "country": "FR",
    "sick": 1846,
    "invisible": false
  },
  {
    "lastUpdated": "2020-04-16T22:25:01.442Z",
    "dead": 55,
    "id": "319tiZOMczx1y0DfvOib",
    "infected": 1329,
    "recovered": 738,
    "latitude": 42.565044,
    "pop": 884640,
    "longitude": 12.643751,
    "name": "Umbria",
    "country": "IT",
    "sick": 536,
    "invisible": false
  },
  {
    "lastUpdated": "2020-04-16T16:50:36.647Z",
    "dead": 3,
    "id": "38T96Q3XNjt5FSJygPed",
    "infected": 21,
    "recovered": 4,
    "latitude": 2.43823,
    "pop": 1355000,
    "longitude": -76.6131592,
    "name": "Cauca",
    "country": "CO",
    "sick": 14,
    "invisible": false
  },
  {
    "longitude": 27.849332,
    "name": "Zambia",
    "country": "ZM",
    "lastUpdated": "2020-04-16T22:13:03.025Z",
    "dead": 2,
    "id": "3IlPjAbP5qVMn1nlgLTJ",
    "infected": 48,
    "recovered": 30,
    "latitude": -13.133896,
    "pop": 17090000,
    "sick": 16,
    "invisible": false
  },
  {
    "infected": 294,
    "recovered": 55,
    "latitude": 42.7044,
    "pop": 631219,
    "longitude": 19.3958,
    "name": "Montenegro",
    "country": "ME",
    "lastUpdated": "2020-04-16T22:13:03.011Z",
    "dead": 4,
    "id": "3LstMSN5XMYBkxbe5HN7",
    "sick": 235,
    "invisible": false
  },
  {
    "infected": 103,
    "recovered": 82,
    "latitude": -35.4735,
    "pop": 418440,
    "longitude": 149.0124,
    "name": "Australian Capital Territory",
    "country": "AU",
    "lastUpdated": "2020-04-16T22:06:08.817Z",
    "dead": 3,
    "id": "3OZoQsKrzxZ18EKyfGE6",
    "sick": 18,
    "invisible": false
  },
  {
    "infected": 34,
    "recovered": 5,
    "latitude": 26.2006,
    "pop": 30940000,
    "longitude": 92.9376,
    "name": "Assam",
    "country": "IN",
    "lastUpdated": "2020-04-16T22:11:06.211Z",
    "dead": 1,
    "id": "3cCbnJCsK7mKlTO08K1o",
    "sick": 28,
    "invisible": false
  },
  {
    "latitude": 40.4173,
    "pop": 11690000,
    "longitude": -82.9071,
    "name": "Ohio",
    "country": "US",
    "lastUpdated": "2020-04-16T19:31:24.176Z",
    "dead": 391,
    "id": "3fC3bAyIRUquOQOEnQNe",
    "infected": 8414,
    "recovered": 0,
    "sick": 8023,
    "invisible": false
  },
  {
    "id": "3kFCzJguabtBvXaHxgiu",
    "infected": 295,
    "recovered": 0,
    "latitude": 25,
    "pop": 3066400,
    "longitude": -107.5,
    "name": "Sinaloa",
    "country": "MX",
    "lastUpdated": "2020-04-16T22:10:14.231Z",
    "dead": 39,
    "sick": 256,
    "invisible": false
  },
  {
    "latitude": 3.420556,
    "pop": 4708300,
    "longitude": -76.522224,
    "name": "Valle del Cauca",
    "country": "CO",
    "lastUpdated": "2020-04-16T16:50:36.660Z",
    "dead": 20,
    "id": "3mC2LveOpXV8P1PmQGUj",
    "infected": 522,
    "recovered": 39,
    "sick": 463,
    "invisible": false
  },
  {
    "recovered": 2,
    "latitude": 21.0079,
    "pop": 4420000,
    "longitude": -10.9408,
    "name": "Mauritania",
    "country": "MR",
    "lastUpdated": "2020-04-16T22:13:03.037Z",
    "dead": 1,
    "id": "4NnFMekRK2m14IlnZZoj",
    "infected": 7,
    "sick": 4,
    "invisible": false
  },
  {
    "longitude": -127.6476,
    "name": "British Columbia",
    "country": "CA",
    "lastUpdated": "2020-04-16T22:06:08.816Z",
    "dead": 75,
    "id": "4hfZRUoUgI4a3vrG0GBk",
    "infected": 1561,
    "recovered": 0,
    "latitude": 53.7267,
    "pop": 5071000,
    "sick": 1486,
    "invisible": false
  },
  {
    "id": "4kq0z3kh5zt3YAUWxvtE",
    "infected": 3944,
    "recovered": 0,
    "latitude": -22.908333,
    "pop": 17159960,
    "longitude": -43.196388,
    "name": "Rio de Janeiro",
    "country": "BR",
    "lastUpdated": "2020-04-16T22:09:05.928Z",
    "dead": 300,
    "sick": 3644,
    "invisible": false
  },
  {
    "latitude": -11.409874,
    "pop": 14812617,
    "longitude": -41.280857,
    "name": "Bahia",
    "country": "BR",
    "lastUpdated": "2020-04-16T22:09:05.925Z",
    "dead": 30,
    "id": "4yDbkEyqsNzZJjfrciYV",
    "infected": 951,
    "recovered": 0,
    "sick": 921,
    "invisible": false
  },
  {
    "id": "4zqzRm2xHn0CDVOUQJ8p",
    "infected": 1283,
    "recovered": 460,
    "latitude": 40.3426,
    "pop": 9898000,
    "longitude": 47.93802,
    "name": "Azerbaijan",
    "country": "AZ",
    "lastUpdated": "2020-04-16T22:13:03.001Z",
    "dead": 15,
    "sick": 808,
    "invisible": false
  },
  {
    "infected": 111,
    "recovered": 0,
    "latitude": 22.233105,
    "pop": 3672300,
    "longitude": -97.861099,
    "name": "Tamaulipas",
    "country": "MX",
    "lastUpdated": "2020-04-16T22:10:14.232Z",
    "dead": 5,
    "id": "54cfsdsRF76XVHWtZs19",
    "sick": 106,
    "invisible": false
  },
  {
    "longitude": 3.7265,
    "name": "Flanders",
    "country": "BE",
    "lastUpdated": "2020-04-16T21:59:05.103Z",
    "dead": 2389,
    "id": "57ydD48mLRD2YoyteJZj",
    "infected": 20500,
    "recovered": 4310,
    "latitude": 51.0109,
    "pop": 6596000,
    "sick": 13801,
    "invisible": false
  },
  {
    "recovered": 6,
    "latitude": 25.025885,
    "pop": 395361,
    "longitude": -78.035889,
    "name": "Bahamas",
    "country": "BS",
    "lastUpdated": "2020-04-16T22:13:03.025Z",
    "dead": 8,
    "id": "5MHegCUO9L3LiAU7DDey",
    "infected": 53,
    "sick": 39,
    "invisible": false
  },
  {
    "latitude": -31.253218,
    "pop": 7544000,
    "longitude": 146.921097,
    "name": "New South Wales",
    "country": "AU",
    "lastUpdated": "2020-04-16T22:06:08.814Z",
    "dead": 25,
    "id": "5N16a2OXXRpsEFanw0TC",
    "infected": 2897,
    "recovered": 4,
    "sick": 2868,
    "invisible": false
  },
  {
    "lastUpdated": "2020-04-16T22:13:03.037Z",
    "dead": 0,
    "id": "5N4PRxsCDzzwk7R200V1",
    "infected": 4,
    "recovered": 0,
    "latitude": 6.8769908,
    "pop": 12580000,
    "longitude": 31.3069782,
    "name": "South Sudan",
    "country": "SS",
    "sick": 4,
    "invisible": false
  },
  {
    "infected": 9615,
    "recovered": 3702,
    "latitude": 39.484,
    "pop": 4975000,
    "longitude": -0.7533,
    "name": "C. Valenciana",
    "country": "ES",
    "lastUpdated": "2020-04-16T22:11:09.255Z",
    "dead": 972,
    "id": "5Va9A7CXR8AXdUz4HTJj",
    "sick": 4941,
    "invisible": false
  },
  {
    "latitude": -20.9043045,
    "pop": 280460,
    "longitude": 165.618042,
    "name": "New Caledonia",
    "country": "NC",
    "lastUpdated": "2020-04-16T22:13:03.027Z",
    "dead": 0,
    "id": "5fg04eyDwFw3kEXnrxez",
    "infected": 18,
    "recovered": 1,
    "sick": 17,
    "invisible": false
  },
  {
    "latitude": 28.394857,
    "pop": 29300000,
    "longitude": 84.124008,
    "name": "Nepal",
    "country": "NP",
    "lastUpdated": "2020-04-16T22:13:03.027Z",
    "dead": 0,
    "id": "5gXZIjRgAvd6xWN1LOv8",
    "infected": 16,
    "recovered": 2,
    "sick": 14,
    "invisible": false
  },
  {
    "recovered": 435,
    "latitude": 12.879721,
    "pop": 104900000,
    "longitude": 121.774017,
    "name": "Philippines",
    "country": "PH",
    "lastUpdated": "2020-04-16T22:13:02.998Z",
    "dead": 362,
    "id": "5pwmh7aSdGRKqRbnuyc0",
    "infected": 5660,
    "sick": 4863,
    "invisible": false
  },
  {
    "lastUpdated": "2020-04-16T22:13:03.026Z",
    "dead": 3,
    "id": "5qtR9nx4BLwu1ODTniaY",
    "infected": 23,
    "recovered": 1,
    "latitude": -17.824858,
    "pop": 14802190,
    "longitude": 31.053028,
    "name": "Zimbabwe",
    "country": "ZW",
    "sick": 19,
    "invisible": false
  },
  {
    "id": "5vkKgxTaKq1IH0Go357L",
    "invisible": true,
    "infected": 921,
    "recovered": 0,
    "latitude": 36.0672,
    "pop": 356890,
    "longitude": -109.188,
    "name": "Navajo Nation",
    "country": "US",
    "lastUpdated": "2020-04-16T22:01:21.554Z",
    "dead": 38,
    "sick": 883
  },
  {
    "recovered": 0,
    "latitude": 19.432241,
    "pop": 8781300,
    "longitude": -99.177254,
    "name": "Ciudad de México",
    "country": "MX",
    "lastUpdated": "2020-04-16T22:10:14.232Z",
    "dead": 99,
    "id": "61E7TGjUwAo9xu6Y6gAH",
    "infected": 1686,
    "sick": 1587,
    "invisible": false
  },
  {
    "infected": 1128,
    "recovered": 178,
    "latitude": 55.621011,
    "pop": 2794000,
    "longitude": 23.804991,
    "name": "Lithuania",
    "country": "LT",
    "lastUpdated": "2020-04-16T22:13:03.001Z",
    "dead": 32,
    "id": "694ON7d0mRJDeM1gHBTR",
    "sick": 918,
    "invisible": false
  },
  {
    "latitude": 51.1781,
    "pop": 9175000,
    "longitude": -0.5596,
    "name": "South East",
    "country": "GB",
    "lastUpdated": "2020-04-16T22:22:26.316Z",
    "dead": 0,
    "id": "6IQAsvrmBv0HPdeTnh4x",
    "infected": 10919,
    "recovered": 0,
    "sick": 10919,
    "invisible": false
  },
  {
    "lastUpdated": "2020-04-16T22:13:03.001Z",
    "dead": 4,
    "id": "6IcHIIH0zXpY0POmBZTv",
    "infected": 1018,
    "recovered": 485,
    "latitude": 22.396427,
    "pop": 7392000,
    "longitude": 114.109497,
    "name": "Hong Kong",
    "country": "HK",
    "sick": 529,
    "invisible": false
  },
  {
    "longitude": -72.4,
    "name": "Acre",
    "country": "BR",
    "lastUpdated": "2020-04-16T22:09:05.878Z",
    "dead": 5,
    "id": "6LQesrx5bHJsVUi1TXBp",
    "infected": 110,
    "recovered": 0,
    "latitude": -8.65,
    "pop": 869265,
    "sick": 105,
    "invisible": false
  },
  {
    "infected": 35,
    "recovered": 18,
    "latitude": 9.3077,
    "pop": 11180000,
    "longitude": 2.3158,
    "name": "Benin",
    "country": "BJ",
    "lastUpdated": "2020-04-16T22:13:03.026Z",
    "dead": 1,
    "id": "6SlpghTyB6lpMFvx3g9U",
    "sick": 16,
    "invisible": false
  },
  {
    "latitude": 45.6667,
    "pop": 10040000,
    "longitude": 9.5,
    "name": "Lombardia",
    "country": "IT",
    "lastUpdated": "2020-04-16T22:25:01.439Z",
    "dead": 11608,
    "id": "6ZHcvMIzVWIaRnc4R3Qp",
    "infected": 63094,
    "recovered": 18396,
    "sick": 33090,
    "invisible": false
  },
  {
    "infected": 1268,
    "recovered": 174,
    "latitude": 46.0569,
    "pop": 2067000,
    "longitude": 14.5058,
    "name": "Slovenia",
    "country": "SI",
    "lastUpdated": "2020-04-16T22:13:03.001Z",
    "dead": 61,
    "id": "6ahNiyKDSDAftCctgLH3",
    "sick": 1033,
    "invisible": false
  },
  {
    "recovered": 0,
    "latitude": -27.3667908,
    "pop": 300000,
    "longitude": -70.331398,
    "name": "Atacama",
    "country": "CL",
    "lastUpdated": "2020-04-16T22:07:05.966Z",
    "dead": 0,
    "id": "6nyns7UGGgkU7pxrHf8i",
    "infected": 13,
    "sick": 13,
    "invisible": false
  },
  {
    "latitude": -0.8037,
    "pop": 2025000,
    "longitude": 11.6094,
    "name": "Gabon",
    "country": "GA",
    "lastUpdated": "2020-04-16T22:13:03.013Z",
    "dead": 1,
    "id": "6pBi38TUgYfFm0bry2uh",
    "infected": 80,
    "recovered": 4,
    "sick": 75,
    "invisible": false
  },
  {
    "infected": 56,
    "recovered": 0,
    "latitude": 22.1498,
    "pop": 2831900,
    "longitude": -100.9792,
    "name": "San Luis Potosí",
    "country": "MX",
    "lastUpdated": "2020-04-16T22:10:14.232Z",
    "dead": 4,
    "id": "6vjIVg1gSANFZghV7xtS",
    "sick": 52,
    "invisible": false
  },
  {
    "latitude": 17.901672,
    "pop": 9131,
    "longitude": -62.818544,
    "name": "Saint-Barthélémy",
    "country": "FR",
    "lastUpdated": "2020-04-16T22:13:03.037Z",
    "dead": 0,
    "id": "78Ox26bNHDA2Pk2b3Uwn",
    "infected": 6,
    "recovered": 4,
    "sick": 2,
    "invisible": false
  },
  {
    "id": "7UASdZTZ1nPzzBwSTEA9",
    "infected": 103,
    "recovered": 27,
    "latitude": 35.2923,
    "pop": 84690,
    "longitude": -2.9381,
    "name": "Melilla",
    "country": "ES",
    "lastUpdated": "2020-04-16T22:11:09.256Z",
    "dead": 2,
    "sick": 74,
    "invisible": false
  },
  {
    "infected": 23,
    "recovered": 3,
    "latitude": 17.0608,
    "pop": 102012,
    "longitude": -61.7964,
    "name": "Antigua and Barbuda",
    "country": "AG",
    "lastUpdated": "2020-04-16T22:13:03.026Z",
    "dead": 3,
    "id": "7hVFcEV7nV0MrQr3LHrl",
    "sick": 17,
    "invisible": false
  },
  {
    "lastUpdated": "2020-04-16T22:00:09.367Z",
    "dead": 1147,
    "id": "7kCrrlOBE3jN6FtOVNUB",
    "infected": 36390,
    "recovered": 16310,
    "latitude": 48.7904,
    "pop": 13000000,
    "longitude": 11.4979,
    "name": "Bayern",
    "country": "DE",
    "sick": 18933,
    "invisible": false
  },
  {
    "infected": 1652,
    "recovered": 199,
    "latitude": 47.4979,
    "pop": 9773000,
    "longitude": 19.0402,
    "name": "Hungary",
    "country": "HU",
    "lastUpdated": "2020-04-16T22:13:03.000Z",
    "dead": 142,
    "id": "7rYC2iFB50c55Ihgbs4Q",
    "sick": 1311,
    "invisible": false
  },
  {
    "latitude": 10.9685,
    "pop": 2400000,
    "longitude": -74.7813,
    "name": "Barranquilla D.E.",
    "country": "CO",
    "lastUpdated": "2020-04-16T16:50:36.635Z",
    "dead": 3,
    "id": "7tqLvLyXcBDK808nJv0m",
    "infected": 70,
    "recovered": 14,
    "sick": 53,
    "invisible": false
  },
  {
    "infected": 848,
    "recovered": 165,
    "latitude": 7.3697,
    "pop": 24050000,
    "longitude": 12.3547,
    "name": "Cameroon",
    "country": "CM",
    "lastUpdated": "2020-04-16T19:58:05.550Z",
    "dead": 17,
    "id": "8C0d7WVCjyUGtnc2gUAR",
    "sick": 666,
    "invisible": false
  },
  {
    "infected": 3468,
    "recovered": 1249,
    "latitude": 50.8503,
    "pop": 1209000,
    "longitude": 4.3517,
    "name": "Brussels",
    "country": "BE",
    "lastUpdated": "2020-04-16T21:59:05.102Z",
    "dead": 748,
    "id": "8DOZWbN6bDdgaLXVlUEu",
    "sick": 1471,
    "invisible": false
  },
  {
    "infected": 441,
    "recovered": 14,
    "latitude": -16.2902,
    "pop": 11050000,
    "longitude": -63.5887,
    "name": "Bolivia",
    "country": "BO",
    "lastUpdated": "2020-04-16T22:13:03.003Z",
    "dead": 29,
    "id": "8RihJrXw4NQXPxaRxr1u",
    "sick": 398,
    "invisible": false
  },
  {
    "lastUpdated": "2020-04-16T22:13:03.036Z",
    "dead": 0,
    "id": "8ZTySQROQejkDAad0qxQ",
    "infected": 12,
    "recovered": 1,
    "latitude": 12.9843,
    "pop": 109897,
    "longitude": -61.2872,
    "name": "St. Vincent Grenadines",
    "country": "VC",
    "sick": 11,
    "invisible": false
  },
  {
    "recovered": 683,
    "latitude": 1.352083,
    "pop": 5621000,
    "longitude": 103.819839,
    "name": "Singapore",
    "country": "SG",
    "lastUpdated": "2020-04-16T22:13:02.998Z",
    "dead": 10,
    "id": "8pA3fM4xC2c2wv1b4TnE",
    "infected": 4427,
    "sick": 3734,
    "invisible": false
  },
  {
    "lastUpdated": "2020-04-16T18:03:30.914Z",
    "dead": 235,
    "id": "98hwAoohgWEOQVa3NlM5",
    "infected": 2758,
    "recovered": 876,
    "latitude": 47.2184,
    "pop": 3787000,
    "longitude": -1.5536,
    "name": "Pays de la Loire",
    "country": "FR",
    "sick": 1647,
    "invisible": false
  },
  {
    "id": "9DAvxOObTqIvMOU93nlY",
    "infected": 43,
    "recovered": 0,
    "latitude": 19.30754,
    "pop": 952300,
    "longitude": -90.19885,
    "name": "Campeche",
    "country": "MX",
    "lastUpdated": "2020-04-16T22:10:14.232Z",
    "dead": 2,
    "sick": 41,
    "invisible": false
  },
  {
    "id": "9DPOkpIqrFy9mR4e9fuv",
    "infected": 32,
    "recovered": 4,
    "latitude": 12.8628,
    "pop": 40530000,
    "longitude": 30.2176,
    "name": "Sudan",
    "country": "SD",
    "lastUpdated": "2020-04-16T22:13:03.026Z",
    "dead": 5,
    "sick": 23,
    "invisible": false
  },
  {
    "id": "9QcETqEcM2fTv9zRvx5T",
    "infected": 7707,
    "recovered": 1357,
    "latitude": 45.943161,
    "pop": 19530000,
    "longitude": 24.966761,
    "name": "Romania",
    "country": "RO",
    "lastUpdated": "2020-04-16T22:13:02.997Z",
    "dead": 392,
    "sick": 5958,
    "invisible": false
  },
  {
    "lastUpdated": "2020-04-16T22:13:03.037Z",
    "dead": 1,
    "id": "9Y5wmCqNCC6ZrenM31uA",
    "infected": 9,
    "recovered": 4,
    "latitude": 12.136389,
    "pop": 6218000,
    "longitude": -86.251389,
    "name": "Nicaragua",
    "country": "NI",
    "sick": 4,
    "invisible": false
  },
  {
    "id": "9dIzxqDSVqPyINkHqwGv",
    "infected": 171,
    "recovered": 34,
    "latitude": 17.5706921,
    "pop": 18540000,
    "longitude": -3.996166,
    "name": "Mali",
    "country": "ML",
    "lastUpdated": "2020-04-16T22:13:03.012Z",
    "dead": 13,
    "sick": 124,
    "invisible": false
  },
  {
    "infected": 3369,
    "recovered": 1700,
    "latitude": 61.92411,
    "pop": 5513000,
    "longitude": 25.748152,
    "name": "Finland",
    "country": "FI",
    "lastUpdated": "2020-04-16T22:13:02.998Z",
    "dead": 75,
    "id": "9p6OCdZbUUwBLA60Gk3W",
    "sick": 1594,
    "invisible": false
  },
  {
    "recovered": 0,
    "latitude": 43.311643,
    "pop": 1356000,
    "longitude": -71.590315,
    "name": "New Hampshire",
    "country": "US",
    "lastUpdated": "2020-04-16T22:01:21.554Z",
    "dead": 32,
    "id": "A84CwQ52kA46Hr7pn6Bm",
    "infected": 1139,
    "sick": 1107,
    "invisible": false
  },
  {
    "latitude": 41.823261,
    "pop": 1057000,
    "longitude": -71.412257,
    "name": "Rhode Island",
    "country": "US",
    "lastUpdated": "2020-04-16T22:01:21.553Z",
    "dead": 87,
    "id": "AEUWUHS65qvjEslew11c",
    "infected": 3529,
    "recovered": 0,
    "sick": 3442,
    "invisible": false
  },
  {
    "id": "AJ9jQ0iyKsafsmf5yHAR",
    "infected": 21486,
    "recovered": 4980,
    "latitude": 44.498955,
    "pop": 4453000,
    "longitude": 11.327591,
    "name": "Emilia-Romagna",
    "country": "IT",
    "lastUpdated": "2020-04-16T22:25:01.438Z",
    "dead": 2843,
    "sick": 13663,
    "invisible": false
  },
  {
    "latitude": 49.3964,
    "pop": 990509,
    "longitude": 7.023,
    "name": "Saarland",
    "country": "DE",
    "lastUpdated": "2020-04-16T22:00:09.369Z",
    "dead": 77,
    "id": "AKjFRQGnzuuZQhv5Qwx7",
    "infected": 2225,
    "recovered": 922,
    "sick": 1226,
    "invisible": false
  },
  {
    "recovered": 0,
    "latitude": -35.717,
    "pop": 1125002,
    "longitude": -71.167,
    "name": "Maule",
    "country": "CL",
    "lastUpdated": "2020-04-16T22:07:05.967Z",
    "dead": 4,
    "id": "APTPgjAsjFi0nsGyJV7M",
    "infected": 167,
    "sick": 163,
    "invisible": false
  },
  {
    "infected": 11,
    "recovered": 11,
    "latitude": 71.7069,
    "pop": 56171,
    "longitude": -42.6043,
    "name": "Greenland",
    "country": "GL",
    "lastUpdated": "2020-04-16T22:13:03.036Z",
    "dead": 0,
    "id": "APaZzlGCEeuoLBtzTJMe",
    "sick": 0,
    "invisible": false
  },
  {
    "infected": 579,
    "recovered": 0,
    "latitude": 45.65107,
    "pop": 971395,
    "longitude": -63.582687,
    "name": "Nova Scotia",
    "country": "CA",
    "lastUpdated": "2020-04-16T22:06:08.816Z",
    "dead": 3,
    "id": "AVCpxeh0fuH2WrHWNDYH",
    "sick": 576,
    "invisible": false
  },
  {
    "infected": 415,
    "recovered": 0,
    "latitude": 47.012918,
    "pop": 1062000,
    "longitude": -109.128641,
    "name": "Montana",
    "country": "US",
    "lastUpdated": "2020-04-16T22:01:21.557Z",
    "dead": 7,
    "id": "AcULcZBozObOhwuRKMjJ",
    "sick": 408,
    "invisible": false
  },
  {
    "recovered": 936,
    "latitude": 27.285971,
    "pop": 45200000,
    "longitude": 116.01609,
    "name": "Jiangxi",
    "country": "CN",
    "lastUpdated": "2020-04-16T21:53:17.754Z",
    "dead": 1,
    "id": "AmBYm5J6E9Cuez1FQjiN",
    "infected": 937,
    "sick": 0,
    "invisible": false
  },
  {
    "latitude": 52.1307,
    "pop": 3136000,
    "longitude": -3.7837,
    "name": "Wales",
    "country": "GB",
    "lastUpdated": "2020-04-16T22:22:26.315Z",
    "dead": 495,
    "id": "AoLhHdTydeWTfmp9koEX",
    "infected": 6401,
    "recovered": 0,
    "sick": 5906,
    "invisible": false
  },
  {
    "id": "AwN0CScPDApcLFgz6e3z",
    "infected": 2268,
    "recovered": 783,
    "latitude": 28.033886,
    "pop": 41320000,
    "longitude": 1.659626,
    "name": "Algeria",
    "country": "DZ",
    "lastUpdated": "2020-04-16T22:13:02.999Z",
    "dead": 348,
    "sick": 1137,
    "invisible": false
  },
  {
    "infected": 1791,
    "recovered": 529,
    "latitude": 45.099998,
    "pop": 4076000,
    "longitude": 15.2,
    "name": "Croatia",
    "country": "HR",
    "lastUpdated": "2020-04-16T22:13:02.999Z",
    "dead": 35,
    "id": "B82Ef45M8cDu4q7VsSHF",
    "sick": 1227,
    "invisible": false
  },
  {
    "longitude": 8.081666,
    "name": "Niger",
    "country": "NE",
    "lastUpdated": "2020-04-16T22:13:03.002Z",
    "dead": 14,
    "id": "BENubqQInFUJzhpZTsLT",
    "infected": 584,
    "recovered": 90,
    "latitude": 17.6077881,
    "pop": 23716000,
    "sick": 480,
    "invisible": false
  },
  {
    "longitude": -76.98432,
    "name": "Maryland",
    "country": "US",
    "lastUpdated": "2020-04-16T22:01:21.551Z",
    "dead": 392,
    "id": "BF51mWl51fgEcyBpCSzb",
    "infected": 10784,
    "recovered": 0,
    "latitude": 39.509109,
    "pop": 6043000,
    "sick": 10392,
    "invisible": false
  },
  {
    "latitude": 53.709808,
    "pop": 9508000,
    "longitude": 27.953388,
    "name": "Belarus",
    "country": "BY",
    "lastUpdated": "2020-04-16T22:13:02.998Z",
    "dead": 40,
    "id": "BGg6yVU5VP71B8NXU0oh",
    "infected": 4204,
    "recovered": 203,
    "sick": 3961,
    "invisible": false
  },
  {
    "latitude": 48.8799,
    "pop": 3319000,
    "longitude": 0.1713,
    "name": "Normandie",
    "country": "FR",
    "lastUpdated": "2020-04-16T18:05:04.947Z",
    "dead": 252,
    "id": "BGtoyzb7y54LVlJ91rbf",
    "infected": 2357,
    "recovered": 706,
    "sick": 1399,
    "invisible": false
  },
  {
    "latitude": 50.7772,
    "pop": 5616000,
    "longitude": -3.9995,
    "name": "South West",
    "country": "GB",
    "lastUpdated": "2020-04-16T22:22:26.316Z",
    "dead": 0,
    "id": "BQqMOlPFD36ZEDTGd3WC",
    "infected": 3913,
    "recovered": 0,
    "sick": 3913,
    "invisible": false
  },
  {
    "latitude": 34.048927,
    "pop": 7172000,
    "longitude": -111.093735,
    "name": "Arizona",
    "country": "US",
    "lastUpdated": "2020-04-16T22:01:21.552Z",
    "dead": 150,
    "id": "BTEESCuD2ZbS1afunR2A",
    "infected": 4237,
    "recovered": 0,
    "sick": 4087,
    "invisible": false
  },
  {
    "latitude": -33.4489,
    "longitude": -70.6693,
    "name": "Unknown Chile region",
    "country": "CL",
    "lastUpdated": "2020-04-16T22:07:05.968Z",
    "dead": 0,
    "id": "BbiuZcm8oURX7cZwaa5U",
    "invisible": true,
    "infected": 0,
    "recovered": 3299,
    "sick": 0
  },
  {
    "id": "BfT8o5DaEixC6JIZ28kY",
    "infected": 16,
    "recovered": 0,
    "latitude": -13.2543,
    "pop": 18620000,
    "longitude": 34.3015,
    "name": "Malawi",
    "country": "MW",
    "lastUpdated": "2020-04-16T22:13:03.027Z",
    "dead": 2,
    "sick": 14,
    "invisible": false
  },
  {
    "longitude": 29.9188862,
    "name": "Burundi",
    "country": "BI",
    "lastUpdated": "2020-04-16T22:13:03.037Z",
    "dead": 1,
    "id": "BnpMamidC5yYzeK8tPUL",
    "infected": 5,
    "recovered": 0,
    "latitude": -3.3730559,
    "pop": 10860000,
    "sick": 4,
    "invisible": false
  },
  {
    "latitude": 40.719042,
    "pop": 19540000,
    "longitude": -73.982597,
    "name": "New York",
    "country": "US",
    "lastUpdated": "2020-04-16T22:01:21.542Z",
    "dead": 12248,
    "id": "C3BCUzV80z9GfiuByIcr",
    "infected": 223691,
    "recovered": 0,
    "sick": 211443,
    "invisible": false
  },
  {
    "lastUpdated": "2020-04-16T22:13:02.998Z",
    "dead": 169,
    "id": "C6S76AggdWVU8G22jFHQ",
    "infected": 6359,
    "recovered": 972,
    "latitude": 49.731626,
    "pop": 10650000,
    "longitude": 15.359413,
    "name": "Czechia",
    "country": "CZ",
    "sick": 5218,
    "invisible": false
  },
  {
    "infected": 1700,
    "recovered": 703,
    "latitude": 26.0667,
    "pop": 1493000,
    "longitude": 50.557701,
    "name": "Bahrain",
    "country": "BH",
    "lastUpdated": "2020-04-16T22:13:03.000Z",
    "dead": 7,
    "id": "C7cj4nwRITs13KnaJrQ2",
    "sick": 990,
    "invisible": false
  },
  {
    "latitude": 10.4113,
    "pop": 1285400,
    "longitude": -74.4057,
    "name": "Magdalena",
    "country": "CO",
    "lastUpdated": "2020-04-16T16:50:36.651Z",
    "dead": 1,
    "id": "CA9LaAl3bNaeAqBuozn4",
    "infected": 7,
    "recovered": 0,
    "sick": 6,
    "invisible": false
  },
  {
    "longitude": -101.430756,
    "name": "Coahuila",
    "country": "MX",
    "lastUpdated": "2020-04-16T22:10:14.232Z",
    "dead": 20,
    "id": "CCUFp4urvgXPo5unfMGy",
    "infected": 217,
    "recovered": 0,
    "latitude": 26.909979,
    "pop": 3073500,
    "sick": 197,
    "invisible": false
  },
  {
    "lastUpdated": "2020-04-16T22:11:06.209Z",
    "dead": 11,
    "id": "CKZCZTPlrcq5fbfUPA9k",
    "infected": 1131,
    "recovered": 164,
    "latitude": 27.0238,
    "pop": 68890000,
    "longitude": 74.2179,
    "name": "Rajasthan",
    "country": "IN",
    "sick": 956,
    "invisible": false
  },
  {
    "latitude": 13.803,
    "pop": 6378000,
    "longitude": -88.9053,
    "name": "El Salvador",
    "country": "SV",
    "lastUpdated": "2020-04-16T22:13:03.012Z",
    "dead": 6,
    "id": "Cgvmtle61ehMvCzRzYx7",
    "infected": 164,
    "recovered": 33,
    "sick": 125,
    "invisible": false
  },
  {
    "infected": 1159,
    "recovered": 358,
    "latitude": 40.259003,
    "pop": 2973000,
    "longitude": 44.818474,
    "name": "Armenia",
    "country": "AM",
    "lastUpdated": "2020-04-16T22:13:03.001Z",
    "dead": 18,
    "id": "DCJCtZoBTWQ4mzdDNljD",
    "sick": 783,
    "invisible": false
  },
  {
    "infected": 31,
    "recovered": 2,
    "latitude": 5.535,
    "pop": 1278000,
    "longitude": -73.368,
    "name": "Boyacá",
    "country": "CO",
    "lastUpdated": "2020-04-16T16:50:36.639Z",
    "dead": 1,
    "id": "DJJraANgQbEqz1wBBtZz",
    "sick": 28,
    "invisible": false
  },
  {
    "latitude": 53.6221,
    "pop": 7300000,
    "longitude": -2.5945,
    "name": "North West",
    "country": "GB",
    "lastUpdated": "2020-04-16T22:22:26.316Z",
    "dead": 0,
    "id": "DPwBt2aJuwF0O71vwfM9",
    "infected": 12093,
    "recovered": 0,
    "sick": 12093,
    "invisible": false
  },
  {
    "lastUpdated": "2020-04-16T22:13:03.013Z",
    "dead": 5,
    "id": "DZyTD0Mu5WIcK6yTcJ91",
    "infected": 81,
    "recovered": 33,
    "latitude": 32.3213844,
    "pop": 65440,
    "longitude": -64.75737,
    "name": "Bermuda",
    "country": "BM",
    "sick": 43,
    "invisible": false
  },
  {
    "latitude": 21.694,
    "pop": 35446,
    "longitude": -71.7979,
    "name": "Turks and Caicos",
    "country": "TC",
    "lastUpdated": "2020-04-16T22:13:03.036Z",
    "dead": 1,
    "id": "DaMrRSIGJXIG36nW0Pnc",
    "infected": 11,
    "recovered": 0,
    "sick": 10,
    "invisible": false
  },
  {
    "infected": 15151,
    "recovered": 3378,
    "latitude": 39.2796,
    "pop": 2035000,
    "longitude": -3.0977,
    "name": "Castilla La Mancha",
    "country": "ES",
    "lastUpdated": "2020-04-16T22:11:09.255Z",
    "dead": 1796,
    "id": "Dbng0NBTH41EEwBxhMzE",
    "sick": 9977,
    "invisible": false
  },
  {
    "id": "DdBt8qsG6A3g92oOR3ow",
    "infected": 45,
    "recovered": 16,
    "latitude": 22.192039,
    "pop": 622567,
    "longitude": 113.551262,
    "name": "Macao",
    "country": "MO",
    "lastUpdated": "2020-04-16T22:13:03.025Z",
    "dead": 0,
    "sick": 29,
    "invisible": false
  },
  {
    "latitude": 25.467,
    "pop": 2651000,
    "longitude": 91.3662,
    "name": "Meghalaya",
    "country": "IN",
    "lastUpdated": "2020-04-16T22:11:06.211Z",
    "dead": 1,
    "id": "Dh0O1vmhrVfmsCsfZCUg",
    "infected": 9,
    "recovered": 0,
    "sick": 8,
    "invisible": false
  },
  {
    "latitude": 42.962334,
    "pop": 577737,
    "longitude": -107.534868,
    "name": "Wyoming",
    "country": "US",
    "lastUpdated": "2020-04-16T22:01:21.557Z",
    "dead": 2,
    "id": "DrGzziUglmBognCGY7R2",
    "infected": 288,
    "recovered": 0,
    "sick": 286,
    "invisible": false
  },
  {
    "lastUpdated": "2020-04-16T22:13:02.999Z",
    "dead": 105,
    "id": "Dtr1lap1RpJpXJdXGJiW",
    "infected": 2207,
    "recovered": 269,
    "latitude": 37.9838,
    "pop": 10740000,
    "longitude": 23.7275,
    "name": "Greece",
    "country": "GR",
    "sick": 1833,
    "invisible": false
  },
  {
    "infected": 395,
    "recovered": 155,
    "latitude": 25.03841,
    "pop": 23780000,
    "longitude": 121.563698,
    "name": "Taiwan",
    "country": "TW",
    "lastUpdated": "2020-04-16T22:13:03.003Z",
    "dead": 6,
    "id": "EKTfs8e7M6DXzI1HqyyX",
    "sick": 234,
    "invisible": false
  },
  {
    "latitude": 10.327273,
    "pop": 4906000,
    "longitude": -84.387618,
    "name": "Costa Rica",
    "country": "CR",
    "lastUpdated": "2020-04-16T22:13:03.002Z",
    "dead": 4,
    "id": "EQzJvzVHKjs8kLmK7BMu",
    "infected": 642,
    "recovered": 67,
    "sick": 571,
    "invisible": false
  },
  {
    "lastUpdated": "2020-04-16T22:11:06.209Z",
    "dead": 36,
    "id": "ERwk9R9en4m9WbdoMbIg",
    "infected": 929,
    "recovered": 73,
    "latitude": 22.2587,
    "pop": 62700000,
    "longitude": 71.1924,
    "name": "Gujarat",
    "country": "IN",
    "sick": 820,
    "invisible": false
  },
  {
    "infected": 21,
    "recovered": 9,
    "latitude": 30.7333,
    "pop": 1055000,
    "longitude": 76.7794,
    "name": "Chandigarh",
    "country": "IN",
    "lastUpdated": "2020-04-16T22:11:06.211Z",
    "dead": 0,
    "id": "Esl5UlCVB9s8pmGB5Ofr",
    "sick": 12,
    "invisible": false
  },
  {
    "infected": 1043,
    "recovered": 0,
    "latitude": 18.200178,
    "pop": 3195000,
    "longitude": -66.664513,
    "name": "Puerto Rico",
    "country": "PR",
    "lastUpdated": "2020-04-16T22:01:21.554Z",
    "dead": 56,
    "id": "F4rPrEVGAIMM5rfPEMv4",
    "sick": 987,
    "invisible": false
  },
  {
    "longitude": -74.058655,
    "name": "Cundinamarca",
    "country": "CO",
    "lastUpdated": "2020-04-16T16:50:36.649Z",
    "dead": 5,
    "id": "F7MED5VwEhi3JvJu6KjB",
    "infected": 126,
    "recovered": 16,
    "latitude": 4.862437,
    "pop": 2919000,
    "sick": 105,
    "invisible": false
  },
  {
    "lastUpdated": "2020-04-16T22:13:03.001Z",
    "dead": 30,
    "id": "FCDmlmnIIswd8bQiUjfN",
    "infected": 840,
    "recovered": 54,
    "latitude": 33.93911,
    "pop": 35530000,
    "longitude": 67.709953,
    "name": "Afghanistan",
    "country": "AF",
    "sick": 756,
    "invisible": false
  },
  {
    "recovered": 570,
    "latitude": 29.431585,
    "pop": 30480000,
    "longitude": 106.912254,
    "name": "Chongqing",
    "country": "CN",
    "lastUpdated": "2020-04-16T21:53:17.753Z",
    "dead": 6,
    "id": "FErOU1m4Tj7jIkRam3vF",
    "infected": 579,
    "sick": 3,
    "invisible": false
  },
  {
    "lastUpdated": "2020-04-16T22:13:03.000Z",
    "dead": 3,
    "id": "FZsUkhxBEgqsPb4eO0PN",
    "infected": 1524,
    "recovered": 225,
    "latitude": 29.311661,
    "pop": 4137000,
    "longitude": 47.481766,
    "name": "Kuwait",
    "country": "KW",
    "sick": 1296,
    "invisible": false
  },
  {
    "infected": 48,
    "recovered": 0,
    "latitude": -10.9111,
    "pop": 2278308,
    "longitude": -37.0717,
    "name": "Sergipe",
    "country": "BR",
    "lastUpdated": "2020-04-16T22:09:05.929Z",
    "dead": 4,
    "id": "FboWeolpM62SZCLwdilT",
    "sick": 44,
    "invisible": false
  },
  {
    "recovered": 180,
    "latitude": 11.1271,
    "pop": 67860000,
    "longitude": 78.6569,
    "name": "Tamil Nadu",
    "country": "IN",
    "lastUpdated": "2020-04-16T22:11:06.208Z",
    "dead": 15,
    "id": "FeS45oMNC27pI17F0xEV",
    "infected": 1267,
    "sick": 1072,
    "invisible": false
  },
  {
    "longitude": -70.430399,
    "name": "Dominican Republic",
    "country": "DO",
    "lastUpdated": "2020-04-16T22:13:02.998Z",
    "dead": 196,
    "id": "FuiVEJvWb0QMCpxJ3563",
    "infected": 3755,
    "recovered": 215,
    "latitude": 18.947829,
    "pop": 10770000,
    "sick": 3344,
    "invisible": false
  },
  {
    "longitude": 79.0193,
    "name": "Telengana",
    "country": "IN",
    "lastUpdated": "2020-04-16T22:11:06.209Z",
    "dead": 18,
    "id": "FyC551oNwmENxbr9Yght",
    "infected": 700,
    "recovered": 187,
    "latitude": 18.1124,
    "pop": 35190000,
    "sick": 495,
    "invisible": false
  },
  {
    "recovered": 167,
    "latitude": 48.669,
    "pop": 5450000,
    "longitude": 19.699,
    "name": "Slovakia",
    "country": "SK",
    "lastUpdated": "2020-04-16T22:13:03.001Z",
    "dead": 8,
    "id": "FzIDXoqWnTI3nUfhPyT2",
    "infected": 977,
    "sick": 802,
    "invisible": false
  },
  {
    "infected": 6919,
    "recovered": 1645,
    "latitude": 30.37532,
    "pop": 197000000,
    "longitude": 69.345116,
    "name": "Pakistan",
    "country": "PK",
    "lastUpdated": "2020-04-16T22:13:02.997Z",
    "dead": 128,
    "id": "GAp7Wb6IMhdgbvEtMza9",
    "sick": 5146,
    "invisible": false
  },
  {
    "infected": 197,
    "recovered": 29,
    "latitude": 31.1471,
    "pop": 27980000,
    "longitude": 75.3412,
    "name": "Punjab",
    "country": "IN",
    "lastUpdated": "2020-04-16T22:11:06.210Z",
    "dead": 14,
    "id": "GGru8cG08mANO8XDDUtZ",
    "sick": 154,
    "invisible": false
  },
  {
    "longitude": 53.847816,
    "name": "United Arab Emirates",
    "country": "AE",
    "lastUpdated": "2020-04-16T22:13:02.998Z",
    "dead": 35,
    "id": "GHzBIsHy2GiBc5JV2HMs",
    "infected": 5825,
    "recovered": 1095,
    "latitude": 23.424076,
    "pop": 9400000,
    "sick": 4695,
    "invisible": false
  },
  {
    "infected": 103,
    "recovered": 0,
    "latitude": 37.0902,
    "longitude": -95.7129,
    "name": "Grand Princess",
    "country": "US",
    "lastUpdated": "2020-04-16T22:01:21.557Z",
    "dead": 3,
    "id": "GLViSIjDjwvptOphedAu",
    "invisible": true,
    "sick": 100
  },
  {
    "recovered": 0,
    "latitude": 51.5074,
    "pop": 10100000,
    "longitude": -0.1278,
    "name": "London",
    "country": "GB",
    "lastUpdated": "2020-04-16T22:22:26.316Z",
    "dead": 0,
    "id": "GPtoS0Yy2EnNafpmmTqY",
    "infected": 19511,
    "sick": 19511,
    "invisible": false
  },
  {
    "id": "Gh46r6vuaY7fbGt3IboN",
    "infected": 27618,
    "recovered": 0,
    "latitude": 36.621981,
    "pop": 39560000,
    "longitude": -119.339046,
    "name": "California",
    "country": "US",
    "lastUpdated": "2020-04-16T22:01:21.551Z",
    "dead": 953,
    "sick": 26665,
    "invisible": false
  },
  {
    "lastUpdated": "2020-04-16T22:11:06.212Z",
    "dead": 0,
    "id": "GljWeVnun6o9DeW6rlEm",
    "infected": 1,
    "recovered": 0,
    "latitude": 20.4283,
    "pop": 343709,
    "longitude": 72.8397,
    "name": "Dadra and Nagar Haveli",
    "country": "IN",
    "sick": 1,
    "invisible": false
  },
  {
    "infected": 2357,
    "recovered": 0,
    "latitude": 35.87189,
    "pop": 3943000,
    "longitude": -97.145514,
    "name": "Oklahoma",
    "country": "US",
    "lastUpdated": "2020-04-16T22:01:21.553Z",
    "dead": 131,
    "id": "GpF8ULuKOQiFDCUHN44h",
    "sick": 2226,
    "invisible": false
  },
  {
    "longitude": 11.35,
    "name": "P.A. Bolzano",
    "country": "IT",
    "lastUpdated": "2020-04-16T22:25:01.438Z",
    "dead": 225,
    "id": "Gzx6GX1qhBm714BkEC6l",
    "infected": 2267,
    "recovered": 449,
    "latitude": 46.5,
    "pop": 520891,
    "sick": 1593,
    "invisible": false
  },
  {
    "infected": 193,
    "recovered": 94,
    "latitude": 42.83263,
    "pop": 24710000,
    "longitude": 113.750972,
    "name": "Inner Mongolia",
    "country": "CN",
    "lastUpdated": "2020-04-16T21:53:17.752Z",
    "dead": 1,
    "id": "H3JeVigVbo5CSYfZG4WI",
    "sick": 98,
    "invisible": false
  },
  {
    "infected": 3214,
    "recovered": 0,
    "latitude": 39.74536,
    "pop": 3034000,
    "longitude": -116.724977,
    "name": "Nevada",
    "country": "US",
    "lastUpdated": "2020-04-16T22:01:21.553Z",
    "dead": 137,
    "id": "H3bDg4eV30up4WWrIDAS",
    "sick": 3077,
    "invisible": false
  },
  {
    "id": "HEMWNnFxeFEoeOCBOLJD",
    "infected": 2386,
    "recovered": 0,
    "latitude": -3.731862,
    "pop": 9075649,
    "longitude": -38.526669,
    "name": "Ceará",
    "country": "BR",
    "lastUpdated": "2020-04-16T22:09:05.926Z",
    "dead": 124,
    "sick": 2262,
    "invisible": false
  },
  {
    "latitude": 15.3173,
    "pop": 64060000,
    "longitude": 75.7139,
    "name": "Karnataka",
    "country": "IN",
    "lastUpdated": "2020-04-16T22:11:06.210Z",
    "dead": 13,
    "id": "HN5mGmxlqlSeFSNeu1K5",
    "infected": 315,
    "recovered": 82,
    "sick": 220,
    "invisible": false
  },
  {
    "id": "HRDpwyxpqW9RN0xLFyNu",
    "infected": 5,
    "recovered": 2,
    "latitude": 27.5142,
    "pop": 807610,
    "longitude": 90.4336,
    "name": "Bhutan",
    "country": "BT",
    "lastUpdated": "2020-04-16T22:13:03.037Z",
    "dead": 0,
    "sick": 3,
    "invisible": false
  },
  {
    "longitude": 64.5853,
    "name": "Uzbekistan",
    "country": "UZ",
    "lastUpdated": "2020-04-16T22:13:03.001Z",
    "dead": 4,
    "id": "HRTA10dtrruDEwjJEGMp",
    "infected": 1349,
    "recovered": 129,
    "latitude": 41.3775,
    "pop": 32390000,
    "sick": 1216,
    "invisible": false
  },
  {
    "infected": 1484,
    "recovered": 0,
    "latitude": 34.138916,
    "pop": 2095000,
    "longitude": -105.576255,
    "name": "New Mexico",
    "country": "US",
    "lastUpdated": "2020-04-16T22:01:21.554Z",
    "dead": 36,
    "id": "HSSFomRju0doHhWgW8On",
    "sick": 1448,
    "invisible": false
  },
  {
    "recovered": 0,
    "latitude": -40.231,
    "pop": 412812,
    "longitude": -72.3311,
    "name": "Los Ríos",
    "country": "CL",
    "lastUpdated": "2020-04-16T22:07:05.967Z",
    "dead": 3,
    "id": "HZkACHjW7NlYjg8vEMj2",
    "infected": 153,
    "sick": 150,
    "invisible": false
  },
  {
    "infected": 643,
    "recovered": 390,
    "latitude": 53.6127,
    "pop": 1635000,
    "longitude": 12.4296,
    "name": "Mecklenburg-Vorpommern",
    "country": "DE",
    "lastUpdated": "2020-04-16T22:00:09.369Z",
    "dead": 13,
    "id": "He1gSS1v50t06i3YrqvB",
    "sick": 240,
    "invisible": false
  },
  {
    "infected": 2346,
    "recovered": 253,
    "latitude": 42.25,
    "pop": 1315000,
    "longitude": 13.75,
    "name": "Abruzzo",
    "country": "IT",
    "lastUpdated": "2020-04-16T22:25:01.437Z",
    "dead": 243,
    "id": "I9EqrZfbPnkioNU4wZGz",
    "sick": 1850,
    "invisible": false
  },
  {
    "infected": 1571,
    "recovered": 1471,
    "latitude": 23.363855,
    "pop": 113460000,
    "longitude": 113.373448,
    "name": "Guangdong",
    "country": "CN",
    "lastUpdated": "2020-04-16T21:53:17.752Z",
    "dead": 8,
    "id": "IAX0OQLVnUwU7FX0ENF1",
    "sick": 92,
    "invisible": false
  },
  {
    "lastUpdated": "2020-04-16T21:53:17.754Z",
    "dead": 22,
    "id": "IFuMrMvSjoiX5agYvllh",
    "infected": 1276,
    "recovered": 1254,
    "latitude": 33.875408,
    "pop": 94000000,
    "longitude": 113.484016,
    "name": "Henan",
    "country": "CN",
    "sick": 0,
    "invisible": false
  },
  {
    "infected": 300,
    "recovered": 0,
    "latitude": 37.2,
    "pop": 451000,
    "longitude": -8.16667,
    "name": "Algarve",
    "country": "PT",
    "lastUpdated": "2020-04-16T22:01:10.004Z",
    "dead": 9,
    "id": "IHqRHC8K3OZPN8gniM7V",
    "sick": 291,
    "invisible": false
  },
  {
    "longitude": -77.0197,
    "name": "Buenaventura D.E.",
    "country": "CO",
    "lastUpdated": "2020-04-16T16:46:08.483Z",
    "dead": 0,
    "id": "IKWjRUo0SYgHQKdWjTvq",
    "infected": 9,
    "recovered": 0,
    "latitude": 3.883,
    "pop": 333194,
    "sick": 9,
    "invisible": false
  },
  {
    "recovered": 0,
    "latitude": 52.87,
    "pop": 4811000,
    "longitude": -0.995,
    "name": "East Midlands",
    "country": "GB",
    "lastUpdated": "2020-04-16T22:22:26.315Z",
    "dead": 0,
    "id": "INyu1R48Ppv8cfW4Nuz4",
    "infected": 4611,
    "sick": 4611,
    "invisible": false
  },
  {
    "longitude": -102.317,
    "name": "Aguascalientes",
    "country": "MX",
    "lastUpdated": "2020-04-16T22:10:14.238Z",
    "dead": 2,
    "id": "ISRKMzEDojyrZ9iyWwex",
    "infected": 72,
    "recovered": 0,
    "latitude": 22.017,
    "pop": 1342600,
    "sick": 70,
    "invisible": false
  },
  {
    "latitude": 25.686613,
    "pop": 5321300,
    "longitude": -100.316116,
    "name": "Nuevo León",
    "country": "MX",
    "lastUpdated": "2020-04-16T22:10:14.237Z",
    "dead": 7,
    "id": "IdKbgzgKLpjBFh4UPOwu",
    "infected": 241,
    "recovered": 0,
    "sick": 234,
    "invisible": false
  },
  {
    "recovered": 0,
    "latitude": 28.632996,
    "pop": 3826900,
    "longitude": -106.069099,
    "name": "Chihuahua",
    "country": "MX",
    "lastUpdated": "2020-04-16T22:10:14.231Z",
    "dead": 22,
    "id": "IhhiYI6T0TX4CYVPcnmH",
    "infected": 117,
    "sick": 95,
    "invisible": false
  },
  {
    "infected": 639,
    "recovered": 0,
    "latitude": -49.3692,
    "pop": 480600,
    "longitude": -74.9225,
    "name": "Ñuble",
    "country": "CL",
    "lastUpdated": "2020-04-16T22:07:05.967Z",
    "dead": 10,
    "id": "ImnOiVx9Cb8Nw7cbRcQ7",
    "sick": 629,
    "invisible": false
  },
  {
    "infected": 41,
    "recovered": 0,
    "latitude": 19.0558,
    "pop": 10980000,
    "longitude": -73.0513,
    "name": "Haiti",
    "country": "HT",
    "lastUpdated": "2020-04-16T22:13:03.026Z",
    "dead": 3,
    "id": "InZ38sIqyK7FN7XAOZoX",
    "sick": 38,
    "invisible": false
  },
  {
    "longitude": -83.280125,
    "name": "Georgia (US)",
    "country": "US",
    "lastUpdated": "2020-04-16T22:01:21.551Z",
    "dead": 587,
    "id": "IvQkDJkTAsoIqPRAU25n",
    "infected": 15669,
    "recovered": 0,
    "latitude": 32.528564,
    "pop": 10520000,
    "sick": 15082,
    "invisible": false
  },
  {
    "infected": 1401,
    "recovered": 770,
    "latitude": -42.8285,
    "pop": 4794000,
    "longitude": 172.488081,
    "name": "New Zealand",
    "country": "NZ",
    "lastUpdated": "2020-04-16T22:13:03.000Z",
    "dead": 9,
    "id": "IvVhpOoGpH6JVkGyUhXN",
    "sick": 622,
    "invisible": false
  },
  {
    "id": "IwYKiIVY18NGwdGQFGWW",
    "infected": 1,
    "recovered": 1,
    "latitude": 28.218,
    "pop": 1255000,
    "longitude": 94.7278,
    "name": "Arunachal Pradesh",
    "country": "IN",
    "lastUpdated": "2020-04-16T22:11:06.211Z",
    "dead": 0,
    "sick": 0,
    "invisible": false
  },
  {
    "id": "J3mZXlfEnnJx4CDZLvRG",
    "infected": 197,
    "recovered": 111,
    "latitude": 6.4238,
    "pop": 31980000,
    "longitude": -66.5897,
    "name": "Venezuela",
    "country": "VE",
    "lastUpdated": "2020-04-16T22:13:03.011Z",
    "dead": 9,
    "sick": 77,
    "invisible": false
  },
  {
    "latitude": 35.1264,
    "pop": 1170000,
    "longitude": 33.4299,
    "name": "Cyprus",
    "country": "CY",
    "lastUpdated": "2020-04-16T22:13:03.002Z",
    "dead": 12,
    "id": "JQByE4l2OA6sGOqIcWrM",
    "infected": 735,
    "recovered": 77,
    "sick": 646,
    "invisible": false
  },
  {
    "latitude": 25.0961,
    "pop": 99020000,
    "longitude": 85.3131,
    "name": "Bihar",
    "country": "IN",
    "lastUpdated": "2020-04-16T22:11:06.210Z",
    "dead": 1,
    "id": "JR7hOGked7CZtIs2nCV5",
    "infected": 83,
    "recovered": 37,
    "sick": 45,
    "invisible": false
  },
  {
    "lastUpdated": "2020-04-16T22:13:03.011Z",
    "dead": 5,
    "id": "JUWE6bG3b5oL7fKQMSvv",
    "infected": 196,
    "recovered": 19,
    "latitude": 14.628434,
    "pop": 17250000,
    "longitude": -90.522713,
    "name": "Guatemala",
    "country": "GT",
    "sick": 172,
    "invisible": false
  },
  {
    "infected": 3444,
    "recovered": 552,
    "latitude": 49.8153,
    "pop": 602005,
    "longitude": 6.1296,
    "name": "Luxembourg",
    "country": "LU",
    "lastUpdated": "2020-04-16T22:13:02.998Z",
    "dead": 69,
    "id": "JcFsHSn2WvZ5LJW42ovG",
    "sick": 2823,
    "invisible": false
  },
  {
    "latitude": 8.8,
    "pop": 2049000,
    "longitude": -74.167,
    "name": "Bolívar",
    "country": "CO",
    "lastUpdated": "2020-04-16T16:50:36.638Z",
    "dead": 1,
    "id": "JmOyaFe25yZCIV64JbZj",
    "infected": 10,
    "recovered": 0,
    "sick": 9,
    "invisible": false
  },
  {
    "longitude": -115.783,
    "name": "Baja California",
    "country": "MX",
    "lastUpdated": "2020-04-16T22:10:14.231Z",
    "dead": 65,
    "id": "Jp9ePErcc8i1aOozEAMf",
    "infected": 538,
    "recovered": 0,
    "latitude": 31.4,
    "pop": 3648100,
    "sick": 473,
    "invisible": false
  },
  {
    "infected": 15,
    "recovered": 1,
    "latitude": 8.7479801,
    "pop": 1786500,
    "longitude": -75.8814316,
    "name": "Córdoba",
    "country": "CO",
    "lastUpdated": "2020-04-16T16:50:36.650Z",
    "dead": 2,
    "id": "Jr8syCB0lydmPDXw8Q6N",
    "sick": 12,
    "invisible": false
  },
  {
    "lastUpdated": "2020-04-16T22:13:03.013Z",
    "dead": 5,
    "id": "JrBbirlBKGdWSdcDt7PF",
    "infected": 81,
    "recovered": 45,
    "latitude": 8.6195,
    "pop": 7798000,
    "longitude": 0.8248,
    "name": "Togo",
    "country": "TG",
    "sick": 31,
    "invisible": false
  },
  {
    "latitude": 42.7339,
    "pop": 7050000,
    "longitude": 25.4858,
    "name": "Bulgaria",
    "country": "BG",
    "lastUpdated": "2020-04-16T22:13:03.001Z",
    "dead": 38,
    "id": "JzZ8sbqzjutThVjkPKPL",
    "infected": 800,
    "recovered": 122,
    "sick": 640,
    "invisible": false
  },
  {
    "infected": 6039,
    "recovered": 1774,
    "latitude": 44.5,
    "pop": 1557000,
    "longitude": 8.833,
    "name": "Liguria",
    "country": "IT",
    "lastUpdated": "2020-04-16T22:25:01.438Z",
    "dead": 828,
    "id": "KLXicxFogWnu0dLp4bNK",
    "sick": 3437,
    "invisible": false
  },
  {
    "lastUpdated": "2020-04-16T16:50:36.648Z",
    "dead": 0,
    "id": "KpOz3WmiZkrXUMlUJNlV",
    "infected": 32,
    "recovered": 12,
    "latitude": 10.4631,
    "pop": 1201000,
    "longitude": -73.2532,
    "name": "Cesar",
    "country": "CO",
    "sick": 20,
    "invisible": false
  },
  {
    "latitude": 43.4167,
    "pop": 3737000,
    "longitude": 11,
    "name": "Toscana",
    "country": "IT",
    "lastUpdated": "2020-04-16T22:25:01.441Z",
    "dead": 585,
    "id": "KrLrJbpDqqiXgUPGCCW9",
    "infected": 7943,
    "recovered": 745,
    "sick": 6613,
    "invisible": false
  },
  {
    "latitude": 7.873054,
    "pop": 21440000,
    "longitude": 80.771797,
    "name": "Sri Lanka",
    "country": "LK",
    "lastUpdated": "2020-04-16T22:13:03.011Z",
    "dead": 7,
    "id": "KsWzJO06cf0d6LJ4ZNh9",
    "infected": 238,
    "recovered": 68,
    "sick": 163,
    "invisible": false
  },
  {
    "recovered": 20,
    "latitude": 15.9129,
    "pop": 49670000,
    "longitude": 79.74,
    "name": "Andhra Pradesh",
    "country": "IN",
    "lastUpdated": "2020-04-16T22:11:06.209Z",
    "dead": 14,
    "id": "KtQIo2DoqjELtPAlyDVO",
    "infected": 534,
    "sick": 500,
    "invisible": false
  },
  {
    "longitude": 105.318756,
    "name": "Russia",
    "country": "RU",
    "lastUpdated": "2020-04-16T22:13:02.996Z",
    "dead": 232,
    "id": "KwOuGBKSMRlmwftxAvLX",
    "infected": 27938,
    "recovered": 2304,
    "latitude": 61.52401,
    "pop": 144500000,
    "sick": 25402,
    "invisible": false
  },
  {
    "infected": 35,
    "recovered": 13,
    "latitude": 18.0708,
    "pop": 32125,
    "longitude": -63.0501,
    "name": "Saint-Martin",
    "country": "FR",
    "lastUpdated": "2020-04-16T22:13:03.026Z",
    "dead": 2,
    "id": "LBUtrLDKJiupXjlUNTUe",
    "sick": 20,
    "invisible": false
  },
  {
    "recovered": 55,
    "latitude": 47.166,
    "pop": 38557,
    "longitude": 9.5554,
    "name": "Liechtenstein",
    "country": "LI",
    "lastUpdated": "2020-04-16T22:13:03.013Z",
    "dead": 1,
    "id": "LTGEU2E9MFkrCcFhZYVk",
    "infected": 79,
    "sick": 23,
    "invisible": false
  },
  {
    "infected": 438,
    "recovered": 49,
    "latitude": 9.9456,
    "pop": 12720000,
    "longitude": -9.6966,
    "name": "Guinea",
    "country": "GN",
    "lastUpdated": "2020-04-16T22:13:03.003Z",
    "dead": 1,
    "id": "LU2QWt5ao8IJa8evNYVV",
    "sick": 388,
    "invisible": false
  },
  {
    "longitude": -110.5,
    "name": "Sonora",
    "country": "MX",
    "lastUpdated": "2020-04-16T22:10:14.231Z",
    "dead": 12,
    "id": "LYCBHrA9ms6GcxpLGPCT",
    "infected": 97,
    "recovered": 0,
    "latitude": 29.6667,
    "pop": 3062000,
    "sick": 85,
    "invisible": false
  },
  {
    "recovered": 6,
    "latitude": 3.9193051,
    "pop": 563402,
    "longitude": -56.0277824,
    "name": "Suriname",
    "country": "SR",
    "lastUpdated": "2020-04-16T22:13:03.037Z",
    "dead": 1,
    "id": "LglKINHyQpYpFxjckbQ6",
    "infected": 10,
    "sick": 3,
    "invisible": false
  },
  {
    "latitude": 52.9399,
    "pop": 1174000,
    "longitude": -106.4509,
    "name": "Saskatchewan",
    "country": "CA",
    "lastUpdated": "2020-04-16T22:06:08.817Z",
    "dead": 4,
    "id": "LkIDKY0CMAqzbwBHyYCP",
    "infected": 305,
    "recovered": 0,
    "sick": 301,
    "invisible": false
  },
  {
    "infected": 6,
    "recovered": 0,
    "latitude": 24.2155,
    "pop": 636442,
    "longitude": -12.8858,
    "name": "Western Sahara",
    "country": "EH",
    "lastUpdated": "2020-04-16T22:13:03.037Z",
    "dead": 0,
    "id": "LooNn6RuMiDhQnwa9svw",
    "sick": 6,
    "invisible": false
  },
  {
    "recovered": 522,
    "latitude": 43.363129,
    "pop": 1022000,
    "longitude": -5.951843,
    "name": "Principado de Asturias",
    "country": "ES",
    "lastUpdated": "2020-04-16T22:11:09.254Z",
    "dead": 168,
    "id": "Lsga7AvYNnY0qQ5gEfV8",
    "infected": 2170,
    "sick": 1480,
    "invisible": false
  },
  {
    "id": "LuEErlF7dVKI0eJsRjFm",
    "infected": 2881,
    "recovered": 649,
    "latitude": 39.4937,
    "pop": 1065000,
    "longitude": -6.0679,
    "name": "Extremadura",
    "country": "ES",
    "lastUpdated": "2020-04-16T22:11:09.256Z",
    "dead": 359,
    "sick": 1873,
    "invisible": false
  },
  {
    "recovered": 0,
    "latitude": 21.0186,
    "pop": 5965000,
    "longitude": -101.2591,
    "name": "Guanajuato",
    "country": "MX",
    "lastUpdated": "2020-04-16T22:10:14.232Z",
    "dead": 7,
    "id": "M3wdiueFtwrUHiQ2rOXA",
    "infected": 113,
    "sick": 106,
    "invisible": false
  },
  {
    "infected": 2435,
    "recovered": 0,
    "latitude": 37.8393,
    "pop": 4468000,
    "longitude": -84.27,
    "name": "Kentucky",
    "country": "US",
    "lastUpdated": "2020-04-16T22:01:21.553Z",
    "dead": 128,
    "id": "MC8MXFw9iXYybnF8v7e6",
    "sick": 2307,
    "invisible": false
  },
  {
    "lastUpdated": "2020-04-16T22:22:26.317Z",
    "dead": 12395,
    "id": "MEjlm8VYdGA28TTTnQmf",
    "invisible": true,
    "infected": 10865,
    "recovered": 0,
    "latitude": 55.3781,
    "longitude": -3.436,
    "name": "Unknown UK region or state",
    "country": "GB",
    "sick": 0
  },
  {
    "recovered": 0,
    "latitude": 41.3006,
    "pop": 3689000,
    "longitude": -7.7441,
    "name": "Norte",
    "country": "PT",
    "lastUpdated": "2020-04-16T22:01:09.996Z",
    "dead": 355,
    "id": "MG4e9tulLJ010SZJvbYN",
    "infected": 11237,
    "sick": 10882,
    "invisible": false
  },
  {
    "id": "MObRYyIriHG337L8FyFC",
    "infected": 7102,
    "recovered": 0,
    "latitude": 56.4907,
    "pop": 5450000,
    "longitude": -4.2026,
    "name": "Scotland",
    "country": "GB",
    "lastUpdated": "2020-04-16T22:22:26.314Z",
    "dead": 699,
    "sick": 6403,
    "invisible": false
  },
  {
    "longitude": -86.1349,
    "name": "Indiana",
    "country": "US",
    "lastUpdated": "2020-04-16T22:01:21.552Z",
    "dead": 477,
    "id": "MOxDkmQ4wBi1CuAdVxDE",
    "infected": 9542,
    "recovered": 0,
    "latitude": 40.2672,
    "pop": 6692000,
    "sick": 9065,
    "invisible": false
  },
  {
    "infected": 654,
    "recovered": 146,
    "latitude": 7.54,
    "pop": 24290000,
    "longitude": -5.5471,
    "name": "Ivory Coast",
    "country": "CI",
    "lastUpdated": "2020-04-16T22:13:03.002Z",
    "dead": 6,
    "id": "MdQOfc1gNh2DOqwSP6UV",
    "sick": 502,
    "invisible": false
  },
  {
    "recovered": 14686,
    "latitude": 51.4332,
    "pop": 17910000,
    "longitude": 7.6616,
    "name": "Nordrhein-Westfalen",
    "country": "DE",
    "lastUpdated": "2020-04-16T22:00:09.369Z",
    "dead": 773,
    "id": "MjpYq3zQyAvSQlVVYjD2",
    "infected": 28369,
    "sick": 12910,
    "invisible": false
  },
  {
    "latitude": 37.330509,
    "pop": 6301000,
    "longitude": 105.977203,
    "name": "Ningxia",
    "country": "CN",
    "lastUpdated": "2020-04-16T21:53:17.754Z",
    "dead": 0,
    "id": "MntmjjuHljarCdt6aIeE",
    "infected": 75,
    "recovered": 75,
    "sick": 0,
    "invisible": false
  },
  {
    "latitude": -3.20166586,
    "pop": 8513497,
    "longitude": -52.203499186,
    "name": "Pará",
    "country": "BR",
    "lastUpdated": "2020-04-16T22:09:05.928Z",
    "dead": 24,
    "id": "MuEB2UgkId5crsxi9zQT",
    "infected": 438,
    "recovered": 0,
    "sick": 414,
    "invisible": false
  },
  {
    "latitude": 48.6616,
    "pop": 11020000,
    "longitude": 9.3501,
    "name": "Baden-Württemberg",
    "country": "DE",
    "lastUpdated": "2020-04-16T22:00:09.362Z",
    "dead": 911,
    "id": "N3XsRBwJSsNclkEf7Zz5",
    "infected": 27721,
    "recovered": 12834,
    "sick": 13976,
    "invisible": false
  },
  {
    "recovered": 277,
    "latitude": 44.696652,
    "pop": 3507000,
    "longitude": 17.824332,
    "name": "Bosnia and Herzegovina",
    "country": "BA",
    "lastUpdated": "2020-04-16T22:13:03.001Z",
    "dead": 43,
    "id": "N7c13sCQF0G789XAVazJ",
    "infected": 1167,
    "sick": 847,
    "invisible": false
  },
  {
    "recovered": 135,
    "latitude": 37.242565,
    "pop": 36500000,
    "longitude": 111.856857,
    "name": "Shanxi",
    "country": "CN",
    "lastUpdated": "2020-04-16T21:53:17.752Z",
    "dead": 0,
    "id": "NBRIGIRrJB1Ry8prDNAC",
    "infected": 194,
    "sick": 59,
    "invisible": false
  },
  {
    "infected": 5635,
    "recovered": 0,
    "latitude": 35.7596,
    "pop": 10380000,
    "longitude": -79.0193,
    "name": "North Carolina",
    "country": "US",
    "lastUpdated": "2020-04-16T22:01:21.552Z",
    "dead": 150,
    "id": "NC64Qp5kTqAfiTuR27k8",
    "sick": 5485,
    "invisible": false
  },
  {
    "longitude": 12.5316,
    "name": "Brandenburg",
    "country": "DE",
    "lastUpdated": "2020-04-16T22:00:09.368Z",
    "dead": 76,
    "id": "NJjo2gfBvnbK4xatrsUz",
    "infected": 2255,
    "recovered": 950,
    "latitude": 52.4125,
    "pop": 2504000,
    "sick": 1229,
    "invisible": false
  },
  {
    "lastUpdated": "2020-04-16T22:01:21.557Z",
    "dead": 2,
    "id": "NLLL6pJhJSw0lrDMD4uP",
    "infected": 13,
    "recovered": 0,
    "latitude": 15.0979,
    "pop": 55144,
    "longitude": -145.6739,
    "name": "Northern Mariana Islands",
    "country": "MP",
    "sick": 11,
    "invisible": false
  },
  {
    "latitude": 30.0668,
    "pop": 10080000,
    "longitude": 79.0193,
    "name": "Uttarakhand",
    "country": "IN",
    "lastUpdated": "2020-04-16T22:11:06.210Z",
    "dead": 0,
    "id": "NMeZEcGToxXfpi16PfFV",
    "infected": 37,
    "recovered": 9,
    "sick": 28,
    "invisible": false
  },
  {
    "lastUpdated": "2020-04-16T22:00:09.369Z",
    "dead": 203,
    "id": "Nk5vPgUIXsWVfbWZf15O",
    "infected": 6682,
    "recovered": 2564,
    "latitude": 50.6521,
    "pop": 6243000,
    "longitude": 9.1624,
    "name": "Hessen",
    "country": "DE",
    "sick": 3915,
    "invisible": false
  },
  {
    "infected": 675,
    "recovered": 57,
    "latitude": 56.96776,
    "pop": 1920000,
    "longitude": 25.837107,
    "name": "Latvia",
    "country": "LV",
    "lastUpdated": "2020-04-16T22:13:03.002Z",
    "dead": 5,
    "id": "NmmMKy0YqA8StHdGzB5N",
    "sick": 613,
    "invisible": false
  },
  {
    "id": "NyGlFL1gATK1Omv9qtcC",
    "infected": 1683,
    "recovered": 0,
    "latitude": -8.472372,
    "pop": 9496294,
    "longitude": -37.946777,
    "name": "Pernambuco",
    "country": "BR",
    "lastUpdated": "2020-04-16T22:09:05.928Z",
    "dead": 160,
    "sick": 1523,
    "invisible": false
  },
  {
    "lastUpdated": "2020-04-16T22:13:03.013Z",
    "dead": 6,
    "id": "O4g88K49HKEZLFXm5gxb",
    "infected": 59,
    "recovered": 4,
    "latitude": 6.4281,
    "pop": 4732000,
    "longitude": -9.4295,
    "name": "Liberia",
    "country": "LR",
    "sick": 49,
    "invisible": false
  },
  {
    "recovered": 0,
    "latitude": 34.003307,
    "pop": 5084000,
    "longitude": -80.525613,
    "name": "South Carolina",
    "country": "US",
    "lastUpdated": "2020-04-16T22:01:21.553Z",
    "dead": 107,
    "id": "ONU4CK8QjViFHKg2w5if",
    "infected": 3656,
    "sick": 3549,
    "invisible": false
  },
  {
    "infected": 3624,
    "recovered": 0,
    "latitude": 33.51822,
    "pop": 2987000,
    "longitude": -89.582775,
    "name": "Mississippi",
    "country": "US",
    "lastUpdated": "2020-04-16T22:01:21.553Z",
    "dead": 129,
    "id": "OYa0jFzdbAgo8zUsRv6q",
    "sick": 3495,
    "invisible": false
  },
  {
    "latitude": 45.2538,
    "pop": 1338000,
    "longitude": -69.4455,
    "name": "Maine",
    "country": "US",
    "lastUpdated": "2020-04-16T22:01:21.554Z",
    "dead": 27,
    "id": "OcXNp9kNVSwrRlG3bNVN",
    "infected": 796,
    "recovered": 0,
    "sick": 769,
    "invisible": false
  },
  {
    "id": "OnOseaqWdnuP18oruABW",
    "infected": 170,
    "recovered": 67,
    "latitude": -41.915264,
    "pop": 515000,
    "longitude": 146.725256,
    "name": "Tasmania",
    "country": "AU",
    "lastUpdated": "2020-04-16T22:06:08.817Z",
    "dead": 6,
    "sick": 97,
    "invisible": false
  },
  {
    "infected": 156,
    "recovered": 0,
    "latitude": -16.35,
    "pop": 3441998,
    "longitude": -56.666668,
    "name": "Mato Grosso",
    "country": "BR",
    "lastUpdated": "2020-04-16T22:09:05.927Z",
    "dead": 5,
    "id": "P0GHFGUt1pkKTk5PM8uz",
    "sick": 151,
    "invisible": false
  },
  {
    "latitude": 19.3133,
    "pop": 61559,
    "longitude": -81.2546,
    "name": "Cayman Islands",
    "country": "KY",
    "lastUpdated": "2020-04-16T22:13:03.013Z",
    "dead": 1,
    "id": "P4mwRFLbrvT0t75uD8Wo",
    "infected": 60,
    "recovered": 6,
    "sick": 53,
    "invisible": false
  },
  {
    "lastUpdated": "2020-04-16T22:13:03.036Z",
    "dead": 0,
    "id": "PEDkeFMTOZpvHiSVxBk7",
    "infected": 11,
    "recovered": 1,
    "latitude": 16.7424984,
    "pop": 5900,
    "longitude": -62.1873665,
    "name": "Montserrat",
    "country": "MS",
    "sick": 10,
    "invisible": false
  },
  {
    "longitude": 29.8739,
    "name": "Rwanda",
    "country": "RW",
    "lastUpdated": "2020-04-16T22:13:03.012Z",
    "dead": 0,
    "id": "PEcgZGEkyhABztt1Ufgc",
    "infected": 138,
    "recovered": 60,
    "latitude": -1.9403,
    "pop": 12210000,
    "sick": 78,
    "invisible": false
  },
  {
    "latitude": 46.7296,
    "pop": 5611000,
    "longitude": -94.6859,
    "name": "Minnesota",
    "country": "US",
    "lastUpdated": "2020-04-16T22:01:21.553Z",
    "dead": 87,
    "id": "PJvVYosLIhbcRZYnKX1R",
    "infected": 1809,
    "recovered": 0,
    "sick": 1722,
    "invisible": false
  },
  {
    "latitude": 40.6331,
    "pop": 12740000,
    "longitude": -89.3985,
    "name": "Illinois",
    "country": "US",
    "lastUpdated": "2020-04-16T22:01:21.551Z",
    "dead": 1072,
    "id": "PTwQr9ijo0TBBsPH2sdJ",
    "infected": 25734,
    "recovered": 0,
    "sick": 24662,
    "invisible": false
  },
  {
    "id": "PjLqCeFdyzdZNcZxMkK1",
    "infected": 15,
    "recovered": 11,
    "latitude": 13.909444,
    "pop": 178844,
    "longitude": -60.978893,
    "name": "Saint Lucia",
    "country": "LC",
    "lastUpdated": "2020-04-16T22:13:03.028Z",
    "dead": 0,
    "sick": 4,
    "invisible": false
  },
  {
    "id": "PmUlsNx2uFLU797wwU39",
    "infected": 4348,
    "recovered": 845,
    "latitude": 42.6954,
    "pop": 649900,
    "longitude": -1.6761,
    "name": "Comunidad Foral de Navarra",
    "country": "ES",
    "lastUpdated": "2020-04-16T22:11:09.256Z",
    "dead": 261,
    "sick": 3242,
    "invisible": false
  },
  {
    "id": "Pr76V4raf108uSRoEXac",
    "infected": 822,
    "recovered": 43,
    "latitude": 34.201507,
    "pop": 11530000,
    "longitude": 9.460554,
    "name": "Tunisia",
    "country": "TN",
    "lastUpdated": "2020-04-16T22:13:03.001Z",
    "dead": 37,
    "sick": 742,
    "invisible": false
  },
  {
    "longitude": 31.4659,
    "name": "Eswatini",
    "country": "SZ",
    "lastUpdated": "2020-04-16T22:13:03.027Z",
    "dead": 1,
    "id": "PuQgOd9KWiMzGZXm11sR",
    "infected": 16,
    "recovered": 8,
    "latitude": -26.5225,
    "pop": 1367000,
    "sick": 7,
    "invisible": false
  },
  {
    "latitude": -37.009609,
    "pop": 6359000,
    "longitude": 143.94853,
    "name": "Victoria",
    "country": "AU",
    "lastUpdated": "2020-04-16T22:06:08.816Z",
    "dead": 14,
    "id": "Q18mrGvFWTLX2BU9SqhQ",
    "infected": 1301,
    "recovered": 1137,
    "sick": 150,
    "invisible": false
  },
  {
    "recovered": 1400,
    "latitude": 54.2194,
    "pop": 2890000,
    "longitude": 9.6961,
    "name": "Schleswig-Holstein",
    "country": "DE",
    "lastUpdated": "2020-04-16T22:00:09.370Z",
    "dead": 62,
    "id": "Q39XkabIYxt15mHINzTa",
    "infected": 2310,
    "sick": 848,
    "invisible": false
  },
  {
    "recovered": 0,
    "latitude": -27.953491,
    "pop": 11329605,
    "longitude": -52.031696,
    "name": "Rio Grande do Sul",
    "country": "BR",
    "lastUpdated": "2020-04-16T22:09:05.928Z",
    "dead": 19,
    "id": "QGpQNhuoVTUPHXvS7qcu",
    "infected": 780,
    "sick": 761,
    "invisible": false
  },
  {
    "infected": 1434,
    "recovered": 133,
    "latitude": 58.595272,
    "pop": 1328000,
    "longitude": 25.013607,
    "name": "Estonia",
    "country": "EE",
    "lastUpdated": "2020-04-16T22:13:03.000Z",
    "dead": 36,
    "id": "QR9go2hQKXjty7JHUYe4",
    "sick": 1265,
    "invisible": false
  },
  {
    "id": "QaWDLKH8SuwD0Qxq6c38",
    "infected": 754,
    "recovered": 0,
    "latitude": -20.318,
    "pop": 3972388,
    "longitude": -40.336,
    "name": "Espírito Santo",
    "country": "BR",
    "lastUpdated": "2020-04-16T22:09:05.926Z",
    "dead": 22,
    "sick": 732,
    "invisible": false
  },
  {
    "recovered": 0,
    "latitude": 20.3333,
    "pop": 8222700,
    "longitude": -103.6667,
    "name": "Jalisco",
    "country": "MX",
    "lastUpdated": "2020-04-16T22:10:14.237Z",
    "dead": 11,
    "id": "Qkho455pBwx88Gohs3hL",
    "infected": 176,
    "sick": 165,
    "invisible": false
  },
  {
    "latitude": -6.315,
    "pop": 8251000,
    "longitude": 143.9555,
    "name": "Papua New Guinea",
    "country": "PG",
    "lastUpdated": "2020-04-16T22:13:03.037Z",
    "dead": 0,
    "id": "QlZrE4nosm5WfdA2aCDg",
    "infected": 7,
    "recovered": 0,
    "sick": 7,
    "invisible": false
  },
  {
    "recovered": 0,
    "latitude": 18.3358,
    "pop": 107268,
    "longitude": -64.8963,
    "name": "U.S. Virgin Islands",
    "country": "US",
    "lastUpdated": "2020-04-16T22:01:21.557Z",
    "dead": 1,
    "id": "QqhD3YDMKXojvQY3Yu41",
    "infected": 51,
    "sick": 50,
    "invisible": false
  },
  {
    "id": "Qy2qW2ep5wltnYjPJBxh",
    "infected": 16,
    "recovered": 8,
    "latitude": 15.414999,
    "pop": 71937,
    "longitude": -61.3709755,
    "name": "Dominica",
    "country": "DM",
    "lastUpdated": "2020-04-16T22:13:03.028Z",
    "dead": 0,
    "sick": 8,
    "invisible": false
  },
  {
    "lastUpdated": "2020-04-16T16:50:36.646Z",
    "dead": 0,
    "id": "R3IHMWqIUhOJJTlrmbUZ",
    "infected": 9,
    "recovered": 1,
    "latitude": 5.167,
    "pop": 344027,
    "longitude": -72.167,
    "name": "Casanare",
    "country": "CO",
    "sick": 8,
    "invisible": false
  },
  {
    "lastUpdated": "2020-04-16T22:13:02.998Z",
    "dead": 103,
    "id": "R8YCgephnxTufvcPWMgx",
    "infected": 3751,
    "recovered": 75,
    "latitude": 8.538,
    "pop": 4099000,
    "longitude": -80.7821,
    "name": "Panama",
    "country": "PA",
    "sick": 3573,
    "invisible": false
  },
  {
    "infected": 426,
    "recovered": 9,
    "latitude": 15.2,
    "pop": 9265000,
    "longitude": -86.2419,
    "name": "Honduras",
    "country": "HN",
    "lastUpdated": "2020-04-16T22:13:03.003Z",
    "dead": 35,
    "id": "RA2SE0p2bVhqo0P2hzGY",
    "sick": 382,
    "invisible": false
  },
  {
    "recovered": 0,
    "latitude": -18.4745998,
    "pop": 224500,
    "longitude": -70.2979202,
    "name": "Arica y Parinacota",
    "country": "CL",
    "lastUpdated": "2020-04-16T22:07:05.965Z",
    "dead": 1,
    "id": "RBt9RiwP7WUbMnJfD0lo",
    "infected": 129,
    "sick": 128,
    "invisible": false
  },
  {
    "lastUpdated": "2020-04-16T22:25:01.438Z",
    "dead": 217,
    "id": "RCrDBCdBNYzgLNr0aB2H",
    "infected": 2616,
    "recovered": 1069,
    "latitude": 45.633331,
    "pop": 1216000,
    "longitude": 13.8,
    "name": "Friuli Venezia Giulia",
    "country": "IT",
    "sick": 1330,
    "invisible": false
  },
  {
    "latitude": 41.878,
    "pop": 3156000,
    "longitude": -93.0977,
    "name": "Iowa",
    "country": "US",
    "lastUpdated": "2020-04-16T22:01:21.553Z",
    "dead": 60,
    "id": "RX0KDu1AFrlCsrRso0nb",
    "infected": 2141,
    "recovered": 0,
    "sick": 2081,
    "invisible": false
  },
  {
    "latitude": 4.624335,
    "pop": 7413000,
    "longitude": -74.063644,
    "name": "Bogotá D.C.",
    "country": "CO",
    "lastUpdated": "2020-04-16T16:50:36.637Z",
    "dead": 55,
    "id": "RZ6PCe5TZsO15JjDObwO",
    "infected": 1291,
    "recovered": 110,
    "sick": 1126,
    "invisible": false
  },
  {
    "id": "RaJxbzlnRFTuj4B8IbpC",
    "infected": 48,
    "recovered": 11,
    "latitude": 26.3351002,
    "pop": 6846000,
    "longitude": 17.2283306,
    "name": "Libya",
    "country": "LY",
    "lastUpdated": "2020-04-16T22:13:03.025Z",
    "dead": 1,
    "sick": 36,
    "invisible": false
  },
  {
    "recovered": 0,
    "latitude": 39.0119,
    "pop": 2912000,
    "longitude": -98.4842,
    "name": "Kansas",
    "country": "US",
    "lastUpdated": "2020-04-16T22:01:21.554Z",
    "dead": 80,
    "id": "Rf4uvBfP3GRDSHdZElRd",
    "infected": 1613,
    "sick": 1533,
    "invisible": false
  },
  {
    "lastUpdated": "2020-04-16T17:59:13.351Z",
    "dead": 2306,
    "id": "RmEgf1xeclWt7XCF9oiR",
    "infected": 18331,
    "recovered": 5618,
    "latitude": 48.6998,
    "pop": 5518000,
    "longitude": 6.1878,
    "name": "Grand Est",
    "country": "FR",
    "sick": 10407,
    "invisible": false
  },
  {
    "lastUpdated": "2020-04-16T21:59:05.103Z",
    "dead": 1720,
    "id": "RryHraSohKQLAsdr1dHO",
    "infected": 10328,
    "recovered": 2003,
    "latitude": 50.4176,
    "pop": 3644000,
    "longitude": 4.451,
    "name": "Wallonia",
    "country": "BE",
    "sick": 6605,
    "invisible": false
  },
  {
    "longitude": -85.3232,
    "name": "Ontario",
    "country": "CA",
    "lastUpdated": "2020-04-16T22:06:08.813Z",
    "dead": 490,
    "id": "Rx4TuyMpfGb3S8wYJX0x",
    "infected": 9808,
    "recovered": 0,
    "latitude": 51.2538,
    "pop": 14570000,
    "sick": 9318,
    "invisible": false
  },
  {
    "infected": 14380,
    "recovered": 4725,
    "latitude": 41.652779,
    "pop": 2408000,
    "longitude": -4.723611,
    "name": "Castilla y León",
    "country": "ES",
    "lastUpdated": "2020-04-16T22:11:09.255Z",
    "dead": 1372,
    "id": "S8ewN4zaYp8mjtuqqOTw",
    "sick": 8283,
    "invisible": false
  },
  {
    "infected": 159,
    "recovered": 73,
    "latitude": 14.652027,
    "pop": 376480,
    "longitude": -61.011715,
    "name": "Martinique",
    "country": "FR",
    "lastUpdated": "2020-04-16T17:58:15.568Z",
    "dead": 8,
    "id": "SDdefnq1bc3ZNr7SpEsW",
    "sick": 78,
    "invisible": false
  },
  {
    "latitude": 7.9465,
    "pop": 28830000,
    "longitude": -1.0232,
    "name": "Ghana",
    "country": "GH",
    "lastUpdated": "2020-04-16T22:13:03.002Z",
    "dead": 8,
    "id": "SG9VWLOV3x2JsTkXmVSz",
    "infected": 641,
    "recovered": 83,
    "sick": 550,
    "invisible": false
  },
  {
    "infected": 26732,
    "recovered": 15900,
    "latitude": 46.818188,
    "pop": 8570000,
    "longitude": 8.227512,
    "name": "Switzerland",
    "country": "CH",
    "lastUpdated": "2020-04-16T22:13:02.996Z",
    "dead": 1281,
    "id": "SGe9sCPayMqh6RsGFaBA",
    "sick": 9551,
    "invisible": false
  },
  {
    "id": "SHoOE3NiJgWAlDVBzwYH",
    "infected": 15857,
    "recovered": 0,
    "latitude": 46.8139,
    "pop": 8485000,
    "longitude": -71.208,
    "name": "Quebec",
    "country": "CA",
    "lastUpdated": "2020-04-16T22:06:08.804Z",
    "dead": 630,
    "sick": 15227,
    "invisible": false
  },
  {
    "lastUpdated": "2020-04-16T21:55:01.605Z",
    "dead": 11,
    "id": "SMWvuMMuKp2QK7O2tNia",
    "infected": 449,
    "recovered": 79,
    "latitude": 42.6026,
    "pop": 1831000,
    "longitude": 20.903,
    "name": "Kosovo",
    "country": "XK",
    "sick": 359,
    "invisible": false
  },
  {
    "lastUpdated": "2020-04-16T22:11:06.211Z",
    "dead": 0,
    "id": "SPcujsH2YlUaoAr8AiWF",
    "infected": 7,
    "recovered": 6,
    "latitude": 15.2993,
    "pop": 1817000,
    "longitude": 74.124,
    "name": "Goa",
    "country": "IN",
    "sick": 1,
    "invisible": false
  },
  {
    "recovered": 0,
    "latitude": -16.328547,
    "pop": 6921161,
    "longitude": -48.953403,
    "name": "Goiás",
    "country": "BR",
    "lastUpdated": "2020-04-16T22:09:05.927Z",
    "dead": 16,
    "id": "SV5AMF59J61Vt4cXWLgy",
    "infected": 318,
    "sick": 302,
    "invisible": false
  },
  {
    "longitude": 16.5,
    "name": "Calabria",
    "country": "IT",
    "lastUpdated": "2020-04-16T22:25:01.438Z",
    "dead": 72,
    "id": "SZdF624x0v1LlyzZjKFu",
    "infected": 1009,
    "recovered": 90,
    "latitude": 39,
    "pop": 1957000,
    "sick": 847,
    "invisible": false
  },
  {
    "recovered": 0,
    "latitude": 41.4925,
    "pop": 1929000,
    "longitude": -99.9018,
    "name": "Nebraska",
    "country": "US",
    "lastUpdated": "2020-04-16T22:01:21.554Z",
    "dead": 21,
    "id": "SakhKQzKu1LRI8laqdQq",
    "infected": 952,
    "sick": 931,
    "invisible": false
  },
  {
    "longitude": 55.5364,
    "name": "La Réunion",
    "country": "FR",
    "lastUpdated": "2020-04-16T18:05:43.666Z",
    "dead": 0,
    "id": "SgHzWAAYK1j2sipovxM6",
    "infected": 394,
    "recovered": 40,
    "latitude": -21.1151,
    "pop": 859959,
    "sick": 354,
    "invisible": false
  },
  {
    "longitude": 104.990967,
    "name": "Cambodia",
    "country": "KH",
    "lastUpdated": "2020-04-16T22:13:03.012Z",
    "dead": 0,
    "id": "SioMALgUbo7peXmbco2f",
    "infected": 122,
    "recovered": 98,
    "latitude": 12.565679,
    "pop": 16010000,
    "sick": 24,
    "invisible": false
  },
  {
    "recovered": 0,
    "latitude": 13.4443,
    "pop": 164229,
    "longitude": 144.7937,
    "name": "Guam",
    "country": "GU",
    "lastUpdated": "2020-04-16T22:01:21.557Z",
    "dead": 5,
    "id": "SsWhuEElU7dCTTuH5fdQ",
    "infected": 135,
    "sick": 130,
    "invisible": false
  },
  {
    "id": "T3iRf8mTUTAzbKrORTap",
    "infected": 267,
    "recovered": 23,
    "latitude": -4.0383,
    "pop": 81340000,
    "longitude": 21.7587,
    "name": "DR Congo",
    "country": "CD",
    "lastUpdated": "2020-04-16T22:13:03.011Z",
    "dead": 22,
    "sick": 222,
    "invisible": false
  },
  {
    "longitude": 44.344334,
    "name": "Saudi Arabia",
    "country": "SA",
    "lastUpdated": "2020-04-16T22:13:02.998Z",
    "dead": 83,
    "id": "T7NffoeCgTUpAbOHvYwP",
    "infected": 6380,
    "recovered": 990,
    "latitude": 23.635796,
    "pop": 32940000,
    "sick": 5307,
    "invisible": false
  },
  {
    "latitude": 42.2871,
    "pop": 315700,
    "longitude": -2.5396,
    "name": "La Rioja",
    "country": "ES",
    "lastUpdated": "2020-04-16T22:11:09.256Z",
    "dead": 257,
    "id": "TNDTapyb0k3l7Mds9q9R",
    "infected": 3916,
    "recovered": 1654,
    "sick": 2005,
    "invisible": false
  },
  {
    "longitude": -89.134857,
    "name": "Yucatán",
    "country": "MX",
    "lastUpdated": "2020-04-16T22:10:14.232Z",
    "dead": 9,
    "id": "TQCWbhIpJQBQxBjhCGVJ",
    "infected": 128,
    "recovered": 0,
    "latitude": 20.400417,
    "pop": 2207200,
    "sick": 119,
    "invisible": false
  },
  {
    "latitude": 4.506106,
    "pop": 428697,
    "longitude": 114.650692,
    "name": "Brunei",
    "country": "BN",
    "lastUpdated": "2020-04-16T22:13:03.012Z",
    "dead": 1,
    "id": "TQZmzsLhJqjtCSExAkCP",
    "infected": 136,
    "recovered": 108,
    "sick": 27,
    "invisible": false
  },
  {
    "lastUpdated": "2020-04-16T18:00:33.600Z",
    "dead": 927,
    "id": "TT0MKODSjrxHvG19xZCa",
    "infected": 10625,
    "recovered": 3460,
    "latitude": 45.4471,
    "pop": 8027000,
    "longitude": 4.3853,
    "name": "Auvergne-Rhône-Alpes",
    "country": "FR",
    "sick": 6238,
    "invisible": false
  },
  {
    "lastUpdated": "2020-04-16T22:01:10.004Z",
    "dead": 0,
    "id": "TeoNTu4aw5riC04sTd73",
    "infected": 156,
    "recovered": 0,
    "latitude": 38.5667,
    "pop": 758700,
    "longitude": -7.9,
    "name": "Alentejo",
    "country": "PT",
    "sick": 156,
    "invisible": false
  },
  {
    "lastUpdated": "2020-04-16T22:01:21.552Z",
    "dead": 357,
    "id": "Th4dlpXXmSDgi1OHs36P",
    "infected": 8286,
    "recovered": 0,
    "latitude": 39.318928,
    "pop": 5696000,
    "longitude": -105.461392,
    "name": "Colorado",
    "country": "US",
    "sick": 7929,
    "invisible": false
  },
  {
    "lastUpdated": "2020-04-16T22:13:03.002Z",
    "dead": 32,
    "id": "Tup6oDCHj6DgqZR3nQ3x",
    "infected": 542,
    "recovered": 226,
    "latitude": 12.2383,
    "pop": 19190000,
    "longitude": -1.5616,
    "name": "Burkina Faso",
    "country": "BF",
    "sick": 284,
    "invisible": false
  },
  {
    "infected": 14,
    "recovered": 0,
    "latitude": 12.104818,
    "pop": 112381,
    "longitude": -61.670761,
    "name": "Grenada",
    "country": "GD",
    "lastUpdated": "2020-04-16T22:13:03.028Z",
    "dead": 0,
    "id": "TvqURPN5xzVBXsmGP46N",
    "sick": 14,
    "invisible": false
  },
  {
    "lastUpdated": "2020-04-16T22:13:02.997Z",
    "dead": 321,
    "id": "Ty1AY3VLPJcRZgdBIERx",
    "infected": 6879,
    "recovered": 3023,
    "latitude": 55.675758,
    "pop": 5603000,
    "longitude": 12.56902,
    "name": "Denmark",
    "country": "DK",
    "sick": 3535,
    "invisible": false
  },
  {
    "recovered": 0,
    "latitude": 53.9062,
    "pop": 5486000,
    "longitude": -1.0334,
    "name": "Yorkshire and The Humber",
    "country": "GB",
    "lastUpdated": "2020-04-16T22:22:26.316Z",
    "dead": 0,
    "id": "U0N7cIPJXAc4T6uKV60c",
    "infected": 5939,
    "sick": 5939,
    "invisible": false
  },
  {
    "recovered": 761,
    "latitude": 36.395859,
    "pop": 100472400,
    "longitude": 118.769882,
    "name": "Shandong",
    "country": "CN",
    "lastUpdated": "2020-04-16T21:53:17.752Z",
    "dead": 7,
    "id": "U0tkTJ9CGsBuFJ2Gdoum",
    "infected": 784,
    "sick": 16,
    "invisible": false
  },
  {
    "recovered": 55,
    "latitude": 43.94236,
    "pop": 33400,
    "longitude": 12.457777,
    "name": "San Marino",
    "country": "SM",
    "lastUpdated": "2020-04-16T22:13:03.003Z",
    "dead": 38,
    "id": "U12rMD5GDW58Q0lIwrB1",
    "infected": 426,
    "sick": 333,
    "invisible": false
  },
  {
    "longitude": 138.25293,
    "name": "Japan",
    "country": "JP",
    "lastUpdated": "2020-04-16T22:13:02.997Z",
    "dead": 178,
    "id": "U13Gy4BpRLAZ95bPmBXd",
    "infected": 8626,
    "recovered": 901,
    "latitude": 36.204823,
    "pop": 126800000,
    "sick": 7547,
    "invisible": false
  },
  {
    "recovered": 20,
    "latitude": 1.3733,
    "pop": 42860000,
    "longitude": 32.2903,
    "name": "Uganda",
    "country": "UG",
    "lastUpdated": "2020-04-16T22:13:03.025Z",
    "dead": 0,
    "id": "UCZXEgnHtxUoChWLR6fQ",
    "infected": 55,
    "sick": 35,
    "invisible": false
  },
  {
    "recovered": 5,
    "latitude": -11.2027,
    "pop": 29780000,
    "longitude": 17.8739,
    "name": "Angola",
    "country": "AO",
    "lastUpdated": "2020-04-16T22:13:03.026Z",
    "dead": 2,
    "id": "UIbrFy6kiTTF0D37Kqmp",
    "infected": 19,
    "sick": 12,
    "invisible": false
  },
  {
    "recovered": 576,
    "latitude": 48.202,
    "pop": 3329000,
    "longitude": -2.9326,
    "name": "Bretagne",
    "country": "FR",
    "lastUpdated": "2020-04-16T18:01:22.312Z",
    "dead": 166,
    "id": "URKMlJ7OTNldjpaxFbjE",
    "infected": 1771,
    "sick": 1029,
    "invisible": false
  },
  {
    "longitude": 9.9937,
    "name": "Hamburg",
    "country": "DE",
    "lastUpdated": "2020-04-16T22:00:09.369Z",
    "dead": 80,
    "id": "UfFaUECHINUutv1M9tzq",
    "infected": 4064,
    "recovered": 2200,
    "latitude": 53.5511,
    "pop": 1822000,
    "sick": 1784,
    "invisible": false
  },
  {
    "latitude": 22.774916,
    "pop": 1615000,
    "longitude": -102.586899,
    "name": "Zacatecas",
    "country": "MX",
    "lastUpdated": "2020-04-16T22:10:14.232Z",
    "dead": 2,
    "id": "UflxTAb4FnAwve7c5MbY",
    "infected": 22,
    "recovered": 0,
    "sick": 20,
    "invisible": false
  },
  {
    "recovered": 0,
    "latitude": -20.4427795,
    "pop": 2748023,
    "longitude": -54.646389,
    "name": "Mato Grosso do Sul",
    "country": "BR",
    "lastUpdated": "2020-04-16T22:09:05.927Z",
    "dead": 5,
    "id": "UlA1ubOUhPtf9jjKxxhF",
    "infected": 131,
    "sick": 126,
    "invisible": false
  },
  {
    "recovered": 6,
    "latitude": -19.4914,
    "pop": 211945,
    "longitude": 132.551,
    "name": "Northern Territory",
    "country": "AU",
    "lastUpdated": "2020-04-16T22:06:08.817Z",
    "dead": 0,
    "id": "UrF45V1VqMo6YBib2KlL",
    "infected": 27,
    "sick": 21,
    "invisible": false
  },
  {
    "lastUpdated": "2020-04-16T22:13:03.013Z",
    "dead": 9,
    "id": "UsxgpiuFCtlR2CW1UUFm",
    "infected": 57,
    "recovered": 12,
    "latitude": 18.0424805,
    "pop": 41109,
    "longitude": -63.0548286,
    "name": "Sint Maarten",
    "country": "SX",
    "sick": 36,
    "invisible": false
  },
  {
    "lastUpdated": "2020-04-16T22:22:26.316Z",
    "dead": 0,
    "id": "UzOGOMitJmaFTdh2FbvI",
    "infected": 8345,
    "recovered": 0,
    "latitude": 52.4751,
    "pop": 5908000,
    "longitude": -1.8298,
    "name": "West Midlands",
    "country": "GB",
    "sick": 8345,
    "invisible": false
  },
  {
    "recovered": 1,
    "latitude": 11.943179,
    "pop": 241773,
    "longitude": 79.808206,
    "name": "Puducherry",
    "country": "IN",
    "lastUpdated": "2020-04-16T22:11:06.211Z",
    "dead": 0,
    "id": "V1qE740s3EUGyKGr6SVv",
    "infected": 7,
    "sick": 6,
    "invisible": false
  },
  {
    "lastUpdated": "2020-04-16T22:07:05.968Z",
    "dead": 0,
    "id": "V9QxUhV4DyYK7iElEhXV",
    "infected": 7,
    "recovered": 0,
    "latitude": -45.5687,
    "pop": 25569,
    "longitude": -72.0597,
    "name": "Aysén",
    "country": "CL",
    "sick": 7,
    "invisible": false
  },
  {
    "infected": 862,
    "recovered": 171,
    "latitude": 21.5218,
    "pop": 11480000,
    "longitude": -77.7812,
    "name": "Cuba",
    "country": "CU",
    "lastUpdated": "2020-04-16T22:13:03.001Z",
    "dead": 27,
    "id": "VAG9AcMABTf8oIAfELPh",
    "sick": 664,
    "invisible": false
  },
  {
    "recovered": 176,
    "latitude": 25.181129,
    "pop": 45970000,
    "longitude": 101.864143,
    "name": "Yunnan",
    "country": "CN",
    "lastUpdated": "2020-04-16T21:53:17.753Z",
    "dead": 2,
    "id": "VIf8T8PD3ZzlzAm5eBCX",
    "infected": 184,
    "sick": 6,
    "invisible": false
  },
  {
    "latitude": -3.117034,
    "pop": 4080611,
    "longitude": -60.02578,
    "name": "Amazonas",
    "country": "BR",
    "lastUpdated": "2020-04-16T22:09:05.880Z",
    "dead": 124,
    "id": "VZQiSdZ7cUHgUZWgpNTP",
    "infected": 1719,
    "recovered": 0,
    "sick": 1595,
    "invisible": false
  },
  {
    "infected": 805,
    "recovered": 68,
    "latitude": 26.8467,
    "pop": 204200000,
    "longitude": 80.9462,
    "name": "Uttar Pradesh",
    "country": "IN",
    "lastUpdated": "2020-04-16T22:11:06.209Z",
    "dead": 13,
    "id": "VcKcLdCkC6YpPfIDnRVD",
    "sick": 724,
    "invisible": false
  },
  {
    "id": "Vd3lLgrNsr81plzTgZkz",
    "infected": 5,
    "recovered": 0,
    "latitude": 64.8255,
    "pop": 44826,
    "longitude": -124.8457,
    "name": "Northwest Territories",
    "country": "CA",
    "lastUpdated": "2020-04-16T22:06:08.818Z",
    "dead": 0,
    "sick": 5,
    "invisible": false
  },
  {
    "infected": 1637,
    "recovered": 918,
    "latitude": 39.999079,
    "pop": 1188000,
    "longitude": 3.838942,
    "name": "Islas Baleares",
    "country": "ES",
    "lastUpdated": "2020-04-16T22:11:09.255Z",
    "dead": 131,
    "id": "VyW0IR9vLMdgnKz1cC7j",
    "sick": 588,
    "invisible": false
  },
  {
    "id": "WAnbFrEjtZDTCIYBt8rz",
    "infected": 3866,
    "recovered": 1526,
    "latitude": 43.8927,
    "pop": 5893000,
    "longitude": 3.2828,
    "name": "Occitanie",
    "country": "FR",
    "lastUpdated": "2020-04-16T18:02:03.065Z",
    "dead": 281,
    "sick": 2059,
    "invisible": false
  },
  {
    "recovered": 41,
    "latitude": 40.5,
    "pop": 567118,
    "longitude": 16.5,
    "name": "Basilicata",
    "country": "IT",
    "lastUpdated": "2020-04-16T22:25:01.437Z",
    "dead": 22,
    "id": "WD502XimGXnWzqYg7zxL",
    "infected": 336,
    "sick": 273,
    "invisible": false
  },
  {
    "id": "WKsJQmcpWKxnp0nCwN77",
    "infected": 2,
    "recovered": 1,
    "latitude": 24.6637,
    "pop": 2722000,
    "longitude": 93.9063,
    "name": "Manipur",
    "country": "IN",
    "lastUpdated": "2020-04-16T22:11:06.211Z",
    "dead": 0,
    "sick": 1,
    "invisible": false
  },
  {
    "latitude": -9.933,
    "pop": 1757589,
    "longitude": -63.067,
    "name": "Rondônia",
    "country": "BR",
    "lastUpdated": "2020-04-16T22:09:05.928Z",
    "dead": 3,
    "id": "WRqKCfMIJFjrjXLMud70",
    "infected": 76,
    "recovered": 0,
    "sick": 73,
    "invisible": false
  },
  {
    "invisible": true,
    "infected": 15,
    "recovered": 41,
    "latitude": 4.5709,
    "longitude": -74.2973,
    "name": "Unknown Colombia region",
    "country": "CO",
    "lastUpdated": "2020-04-16T17:00:56.459Z",
    "dead": 0,
    "id": "WUJbfWJGbPML9bMjpqEp",
    "sick": 0
  },
  {
    "recovered": 410,
    "latitude": -30.5595,
    "pop": 56720000,
    "longitude": 22.9375,
    "name": "South Africa",
    "country": "ZA",
    "lastUpdated": "2020-04-16T18:43:02.684Z",
    "dead": 48,
    "id": "Whrue10NtwIObLvFFyBr",
    "infected": 2605,
    "sick": 2147,
    "invisible": false
  },
  {
    "id": "Wk811YwpQxsOCfz8As86",
    "infected": 9,
    "recovered": 2,
    "latitude": 13.443182,
    "pop": 2101000,
    "longitude": -15.3101387,
    "name": "Gambia",
    "country": "GM",
    "lastUpdated": "2020-04-16T22:13:03.037Z",
    "dead": 1,
    "sick": 6,
    "invisible": false
  },
  {
    "latitude": 19.352498,
    "pop": 17666800,
    "longitude": -99.625164,
    "name": "Estado de México",
    "country": "MX",
    "lastUpdated": "2020-04-16T22:10:14.237Z",
    "dead": 43,
    "id": "WpCXuQjYFLbozSpEhbrZ",
    "infected": 659,
    "recovered": 0,
    "sick": 616,
    "invisible": false
  },
  {
    "infected": 1572,
    "recovered": 49,
    "latitude": 23.685,
    "pop": 164700000,
    "longitude": 90.3563,
    "name": "Bangladesh",
    "country": "BD",
    "lastUpdated": "2020-04-16T22:13:03.000Z",
    "dead": 60,
    "id": "WpLayPPLIJ7VcHZdQaoM",
    "sick": 1463,
    "invisible": false
  },
  {
    "id": "Wt97UDm6jfYef6WBrS2w",
    "infected": 74,
    "recovered": 0,
    "latitude": 20.836,
    "pop": 2100000,
    "longitude": -99.8508,
    "name": "Querétaro",
    "country": "MX",
    "lastUpdated": "2020-04-16T22:10:14.231Z",
    "dead": 6,
    "sick": 68,
    "invisible": false
  },
  {
    "latitude": 45.5,
    "pop": 4905000,
    "longitude": 11.75,
    "name": "Veneto",
    "country": "IT",
    "lastUpdated": "2020-04-16T22:25:01.442Z",
    "dead": 981,
    "id": "X2iRhHF6f9pUnJcxPc3J",
    "infected": 14990,
    "recovered": 3209,
    "sick": 10800,
    "invisible": false
  },
  {
    "infected": 18,
    "recovered": 1,
    "latitude": -8.556856,
    "pop": 1311000,
    "longitude": 125.56031,
    "name": "Timor-Leste",
    "country": "TL",
    "lastUpdated": "2020-04-16T22:13:03.027Z",
    "dead": 0,
    "id": "X3GMAVINj2GDzIRVfo7n",
    "sick": 17,
    "invisible": false
  },
  {
    "latitude": 34.152588,
    "pop": 274289,
    "longitude": 77.577049,
    "name": "Ladakh",
    "country": "IN",
    "lastUpdated": "2020-04-16T22:11:06.211Z",
    "dead": 0,
    "id": "X3PZqaJxtnlxcgP4tzya",
    "infected": 18,
    "recovered": 14,
    "sick": 4,
    "invisible": false
  },
  {
    "recovered": 333,
    "latitude": 25.92448,
    "pop": 38560000,
    "longitude": 118.278992,
    "name": "Fujian",
    "country": "CN",
    "lastUpdated": "2020-04-16T21:53:17.752Z",
    "dead": 1,
    "id": "XBBw0iMPrmiEu3qogkbi",
    "infected": 353,
    "sick": 19,
    "invisible": false
  },
  {
    "longitude": -70.9863,
    "name": "Magallanes",
    "country": "CL",
    "lastUpdated": "2020-04-16T22:07:05.968Z",
    "dead": 6,
    "id": "XIYUg6ShQvWyEAJfyJzC",
    "infected": 467,
    "recovered": 0,
    "latitude": -52.368,
    "pop": 166533,
    "sick": 461,
    "invisible": false
  },
  {
    "infected": 102,
    "recovered": 0,
    "latitude": 37.794597,
    "pop": 246746,
    "longitude": -25.506134,
    "name": "Açores",
    "country": "PT",
    "lastUpdated": "2020-04-16T22:01:10.004Z",
    "dead": 4,
    "id": "XhM7BCQK50gGQ2wIUtDq",
    "sick": 98,
    "invisible": false
  },
  {
    "latitude": -32.5228,
    "pop": 3457000,
    "longitude": -55.7658,
    "name": "Uruguay",
    "country": "UY",
    "lastUpdated": "2020-04-16T22:13:03.002Z",
    "dead": 9,
    "id": "XrsuLstdybIqIvv0E0aJ",
    "infected": 493,
    "recovered": 272,
    "sick": 212,
    "invisible": false
  },
  {
    "latitude": 42.0396,
    "pop": 339178,
    "longitude": 9.0129,
    "name": "Corse",
    "country": "FR",
    "lastUpdated": "2020-04-16T18:02:24.963Z",
    "dead": 41,
    "id": "YGXgIObKVabP2CYEdcb9",
    "infected": 374,
    "recovered": 134,
    "sick": 199,
    "invisible": false
  },
  {
    "infected": 55,
    "recovered": 16,
    "latitude": 2.916112,
    "pop": 1126000,
    "longitude": -75.28344,
    "name": "Huila",
    "country": "CO",
    "lastUpdated": "2020-04-16T16:50:36.650Z",
    "dead": 3,
    "id": "YI9zIOUXJqAcgc0T80yb",
    "sick": 36,
    "invisible": false
  },
  {
    "recovered": 63,
    "latitude": 31.9522,
    "pop": 5052000,
    "longitude": 35.2332,
    "name": "Palestine",
    "country": "PS",
    "lastUpdated": "2020-04-16T22:13:03.009Z",
    "dead": 2,
    "id": "YMzKw0SnXG71VT7H1jff",
    "infected": 374,
    "sick": 309,
    "invisible": false
  },
  {
    "lastUpdated": "2020-04-16T22:10:14.230Z",
    "dead": 21,
    "id": "YP3nlz6AKyrnCWYb5mHA",
    "infected": 210,
    "recovered": 0,
    "latitude": 17.97,
    "pop": 2460900,
    "longitude": -92.5867,
    "name": "Tabasco",
    "country": "MX",
    "sick": 189,
    "invisible": false
  },
  {
    "infected": 43,
    "recovered": 0,
    "latitude": 11.8037491,
    "pop": 1955000,
    "longitude": -15.1804132,
    "name": "Guinea-Bissau",
    "country": "GW",
    "lastUpdated": "2020-04-16T22:13:03.026Z",
    "dead": 0,
    "id": "YZoy8ReFucvC3IFnWZHn",
    "sick": 43,
    "invisible": false
  },
  {
    "longitude": -149.4937,
    "name": "Alaska",
    "country": "US",
    "lastUpdated": "2020-04-16T22:01:21.557Z",
    "dead": 9,
    "id": "YaCODTMD1KKRnrAlkg2u",
    "infected": 300,
    "recovered": 0,
    "latitude": 64.2008,
    "pop": 737438,
    "sick": 291,
    "invisible": false
  },
  {
    "infected": 11790,
    "recovered": 5813,
    "latitude": 42.9896,
    "pop": 2178000,
    "longitude": -2.6189,
    "name": "País Vasco",
    "country": "ES",
    "lastUpdated": "2020-04-16T22:11:09.256Z",
    "dead": 956,
    "id": "YfA7o2lZP1DhV4JB6Umh",
    "sick": 5021,
    "invisible": false
  },
  {
    "infected": 50,
    "recovered": 0,
    "latitude": 16.8922,
    "pop": 4091400,
    "longitude": -96.4085,
    "name": "Oaxaca",
    "country": "MX",
    "lastUpdated": "2020-04-16T22:10:14.221Z",
    "dead": 5,
    "id": "YidRsOGDERjtbaIBGCdu",
    "sick": 45,
    "invisible": false
  },
  {
    "recovered": 7757,
    "latitude": 37.568291,
    "pop": 51470000,
    "longitude": 126.99778,
    "name": "South Korea",
    "country": "KR",
    "lastUpdated": "2020-04-16T22:13:02.997Z",
    "dead": 229,
    "id": "Yw9uBekNlefXBcOCNMfP",
    "infected": 10613,
    "sick": 2627,
    "invisible": false
  },
  {
    "latitude": 13.193887,
    "pop": 285719,
    "longitude": -59.543198,
    "name": "Barbados",
    "country": "BB",
    "lastUpdated": "2020-04-16T22:13:03.013Z",
    "dead": 5,
    "id": "YzZqZMJGvG6joQCdiuXC",
    "infected": 75,
    "recovered": 15,
    "sick": 55,
    "invisible": false
  },
  {
    "infected": 7918,
    "recovered": 774,
    "latitude": 52.2297,
    "pop": 37980000,
    "longitude": 21.0122,
    "name": "Poland",
    "country": "PL",
    "lastUpdated": "2020-04-16T22:13:02.997Z",
    "dead": 314,
    "id": "ZAZNuCK1VweBaTLCFzCk",
    "sick": 6830,
    "invisible": false
  },
  {
    "recovered": 0,
    "latitude": 19.167832,
    "pop": 4695300,
    "longitude": -101.893163,
    "name": "Michoacán",
    "country": "MX",
    "lastUpdated": "2020-04-16T22:10:14.232Z",
    "dead": 14,
    "id": "ZQSkzcEvJtBLgGbrf9gH",
    "infected": 85,
    "sick": 71,
    "invisible": false
  },
  {
    "infected": 832,
    "recovered": 0,
    "latitude": -25.441105,
    "pop": 11348937,
    "longitude": -49.276855,
    "name": "Paraná",
    "country": "BR",
    "lastUpdated": "2020-04-16T22:09:05.927Z",
    "dead": 41,
    "id": "ZQwG7RjZDbW1H8toEEOL",
    "sick": 791,
    "invisible": false
  },
  {
    "infected": 17,
    "recovered": 0,
    "latitude": -17.713371,
    "pop": 905502,
    "longitude": 178.065033,
    "name": "Fiji",
    "country": "FJ",
    "lastUpdated": "2020-04-16T22:13:03.027Z",
    "dead": 0,
    "id": "ZmzOT0sJgfWXEpRImItC",
    "sick": 17,
    "invisible": false
  },
  {
    "lastUpdated": "2020-04-16T22:01:21.551Z",
    "dead": 971,
    "id": "Zqy0gftQzocR49jEJNMl",
    "infected": 15884,
    "recovered": 0,
    "latitude": 41.6032,
    "pop": 3573000,
    "longitude": -73.0877,
    "name": "Connecticut",
    "country": "US",
    "sick": 14913,
    "invisible": false
  },
  {
    "infected": 5582,
    "recovered": 1694,
    "latitude": 43.616943,
    "pop": 1532000,
    "longitude": 13.516667,
    "name": "Marche",
    "country": "IT",
    "lastUpdated": "2020-04-16T22:25:01.439Z",
    "dead": 764,
    "id": "Zwbjs4XN7P9s849Q3zFj",
    "sick": 3124,
    "invisible": false
  },
  {
    "lastUpdated": "2020-04-16T22:00:09.370Z",
    "dead": 47,
    "id": "a9OgUWo6ZSWA3HyF0xnj",
    "infected": 1620,
    "recovered": 1040,
    "latitude": 51.011,
    "pop": 2137000,
    "longitude": 10.8453,
    "name": "Thüringen",
    "country": "DE",
    "sick": 533,
    "invisible": false
  },
  {
    "latitude": -30.000233,
    "pop": 1677000,
    "longitude": 136.209152,
    "name": "South Australia",
    "country": "AU",
    "lastUpdated": "2020-04-16T22:06:08.816Z",
    "dead": 4,
    "id": "a9p9pAOsjg1WAjPGc2a6",
    "infected": 434,
    "recovered": 279,
    "sick": 151,
    "invisible": false
  },