[
  {
    "recovered": 1,
    "latitude": 12.5847,
    "pop": 72600,
    "longitude": -81.7006,
    "name": "San Andrés",
    "country": "CO",
    "lastUpdated": "2020-04-23T12:32:11.009Z",
    "dead": 0,
    "id": "01b09TY4vmuZwzVuiRFK",
    "infected": 6,
    "sick": 5,
    "invisible": false
  },
  {
    "latitude": 49.4482,
    "pop": 67052,
    "longitude": -2.5895,
    "name": "Guernsey",
    "country": "GG",
    "lastUpdated": "2020-04-23T18:47:10.266Z",
    "dead": 10,
    "id": "0FOJefeLxQYXQ1CnJm9o",
    "infected": 245,
    "recovered": 139,
    "sick": 96,
    "invisible": false
  },
  {
    "longitude": 14.333333,
    "name": "Campania",
    "country": "IT",
    "lastUpdated": "2020-04-23T18:31:02.102Z",
    "dead": 332,
    "id": "0GJcws44NSPsDHAuxJhW",
    "infected": 4238,
    "recovered": 928,
    "latitude": 41.066666,
    "pop": 5827000,
    "sick": 2978,
    "invisible": false
  },
  {
    "id": "0HDQbiHe462xMCUV5HiI",
    "infected": 128,
    "recovered": 0,
    "latitude": -20.2167,
    "pop": 383870,
    "longitude": -70.14222,
    "name": "Tarapacá",
    "country": "CL",
    "lastUpdated": "2020-04-23T18:37:06.124Z",
    "dead": 0,
    "sick": 128,
    "invisible": false
  },
  {
    "id": "0VG7S6aaK4eSo59fL9JO",
    "infected": 89,
    "recovered": 33,
    "latitude": 20.9517,
    "pop": 45990000,
    "longitude": 85.0985,
    "name": "Odisha",
    "country": "IN",
    "lastUpdated": "2020-04-23T18:41:01.474Z",
    "dead": 1,
    "sick": 55,
    "invisible": false
  },
  {
    "latitude": 20.4737,
    "pop": 2990300,
    "longitude": -98.8582,
    "name": "Hidalgo",
    "country": "MX",
    "lastUpdated": "2020-04-23T18:40:09.250Z",
    "dead": 16,
    "id": "0XmCRqiK2ZaehoEJvfer",
    "infected": 125,
    "recovered": 0,
    "sick": 109,
    "invisible": false
  },
  {
    "infected": 22,
    "recovered": 11,
    "latitude": 11.7401,
    "pop": 427246,
    "longitude": 92.6586,
    "name": "Andaman and Nicobar Islands",
    "country": "IN",
    "lastUpdated": "2020-04-23T18:41:01.475Z",
    "dead": 0,
    "id": "0jStOpTUNRaQYJqgmRoK",
    "sick": 11,
    "invisible": false
  },
  {
    "latitude": 25.315058,
    "pop": 2639000,
    "longitude": 51.145517,
    "name": "Qatar",
    "country": "QA",
    "lastUpdated": "2020-04-23T18:38:03.066Z",
    "dead": 10,
    "id": "0m4aECS0Z2DGFEr8ldgI",
    "infected": 7764,
    "recovered": 750,
    "sick": 7004,
    "invisible": false
  },
  {
    "latitude": 22.9868,
    "pop": 90320000,
    "longitude": 87.855,
    "name": "West Bengal",
    "country": "IN",
    "lastUpdated": "2020-04-23T18:41:01.473Z",
    "dead": 15,
    "id": "0n54EMSDJcRoT1QEvw80",
    "infected": 456,
    "recovered": 79,
    "sick": 362,
    "invisible": false
  },
  {
    "recovered": 203,
    "latitude": 22.9734,
    "pop": 73340000,
    "longitude": 78.6569,
    "name": "Madhya Pradesh",
    "country": "IN",
    "lastUpdated": "2020-04-23T18:41:01.472Z",
    "dead": 83,
    "id": "0s18o5DrDAHjbu5MFcrj",
    "infected": 1687,
    "sick": 1401,
    "invisible": false
  },
  {
    "latitude": 37.0902,
    "longitude": -95.7129,
    "name": "Unknown US state",
    "country": "US",
    "lastUpdated": "2020-04-23T18:38:03.061Z",
    "dead": 0,
    "id": "0tFoopNTs6e4tOoaltu2",
    "invisible": true,
    "infected": 0,
    "recovered": 84812,
    "sick": 0
  },
  {
    "latitude": 35.64249,
    "pop": 37330000,
    "longitude": 108.472214,
    "name": "Shaanxi",
    "country": "CN",
    "lastUpdated": "2020-04-23T18:08:10.644Z",
    "dead": 3,
    "id": "0x2HLhr5z5xAtEdO4iZm",
    "infected": 279,
    "recovered": 253,
    "sick": 23,
    "invisible": false
  },
  {
    "infected": 1300,
    "recovered": 301,
    "latitude": 41.643351,
    "pop": 2077000,
    "longitude": 21.668393,
    "name": "North Macedonia",
    "country": "MK",
    "lastUpdated": "2020-04-23T18:38:03.078Z",
    "dead": 56,
    "id": "19MvIhipqTyYv1H37Upw",
    "sick": 943,
    "invisible": false
  },
  {
    "id": "1DOMOmCWDtva46OVSZLv",
    "infected": 256,
    "recovered": 0,
    "latitude": 53.1355,
    "pop": 521542,
    "longitude": -57.6604,
    "name": "Newfoundland and Labrador",
    "country": "CA",
    "lastUpdated": "2020-04-23T18:36:07.322Z",
    "dead": 3,
    "sick": 253,
    "invisible": false
  },
  {
    "lastUpdated": "2020-04-23T18:08:10.646Z",
    "dead": 0,
    "id": "1Fap7rZu9SIRqf5TG9Dg",
    "infected": 18,
    "recovered": 18,
    "latitude": 35.801933,
    "pop": 5627000,
    "longitude": 96.779286,
    "name": "Qinghai",
    "country": "CN",
    "sick": 0,
    "invisible": false
  },
  {
    "id": "1YXQMlVL3fUeDZmcVfJw",
    "invisible": true,
    "infected": 0,
    "recovered": 2627,
    "latitude": 23.6345,
    "pop": 126200000,
    "longitude": -102.5528,
    "name": "Unknown Mexico state",
    "country": "MX",
    "lastUpdated": "2020-04-23T18:38:03.065Z",
    "dead": 0,
    "sick": 0
  },
  {
    "latitude": 44.9,
    "pop": 4376000,
    "longitude": 8.206944,
    "name": "Piemonte",
    "country": "IT",
    "lastUpdated": "2020-04-23T18:31:02.104Z",
    "dead": 2630,
    "id": "1eTSQyfp8RoDPeFrIwun",
    "infected": 23140,
    "recovered": 5358,
    "sick": 15152,
    "invisible": false
  },
  {
    "lastUpdated": "2020-04-23T18:33:08.638Z",
    "dead": 0,
    "id": "1j1OurxLTpZYuWIWwQ9F",
    "infected": 85,
    "recovered": 0,
    "latitude": 51.993,
    "pop": 1003000,
    "longitude": 15.461,
    "name": "Lubuskie",
    "country": "PL",
    "sick": 85,
    "invisible": false
  },
  {
    "infected": 2926,
    "recovered": 661,
    "latitude": 47.4116,
    "pop": 3550000,
    "longitude": 28.3699,
    "name": "Moldova",
    "country": "MD",
    "lastUpdated": "2020-04-23T18:38:03.069Z",
    "dead": 80,
    "id": "1qTPB8X3tyLyIdsb5TN3",
    "sick": 2185,
    "invisible": false
  },
  {
    "id": "22PJOAThcDFKgSbyQIkD",
    "invisible": true,
    "infected": 908,
    "recovered": 0,
    "latitude": 37.0902,
    "longitude": -95.7129,
    "name": "Federal Bureau of Prisons",
    "country": "US",
    "lastUpdated": "2020-04-23T18:26:21.546Z",
    "dead": 24,
    "sick": 884
  },
  {
    "id": "25qIBtsW2nfQj3pwBKg9",
    "infected": 1,
    "recovered": 1,
    "latitude": 30.15336,
    "pop": 3180000,
    "longitude": 88.787865,
    "name": "Tibet",
    "country": "CN",
    "lastUpdated": "2020-04-23T18:08:10.646Z",
    "dead": 0,
    "sick": 0,
    "invisible": false
  },
  {
    "id": "2KHYUb5t3lwzVVmDjwNX",
    "infected": 7775,
    "recovered": 960,
    "latitude": -1.572184,
    "pop": 264000000,
    "longitude": 115.66779,
    "name": "Indonesia",
    "country": "ID",
    "lastUpdated": "2020-04-23T18:38:03.066Z",
    "dead": 647,
    "sick": 6168,
    "invisible": false
  },
  {
    "infected": 2059,
    "recovered": 0,
    "latitude": 43.807191,
    "pop": 4191000,
    "longitude": -120.585594,
    "name": "Oregon",
    "country": "US",
    "lastUpdated": "2020-04-23T18:26:21.545Z",
    "dead": 78,
    "id": "2OrsssmGUs4XCzaZzvTv",
    "sick": 1981,
    "invisible": false
  },
  {
    "latitude": -23.65,
    "pop": 425000,
    "longitude": -70.400002,
    "name": "Antofagasta",
    "country": "CL",
    "lastUpdated": "2020-04-23T18:37:06.126Z",
    "dead": 2,
    "id": "2c5HBZ1ffkCVXnMYUWnY",
    "infected": 340,
    "recovered": 0,
    "sick": 338,
    "invisible": false
  },
  {
    "infected": 479,
    "recovered": 0,
    "latitude": 0.035574,
    "pop": 9029000,
    "longitude": -51.070534,
    "name": "Amapá",
    "country": "BR",
    "lastUpdated": "2020-04-23T18:46:14.248Z",
    "dead": 14,
    "id": "2dzhyWsBSPpENWlNew0b",
    "sick": 465,
    "invisible": false
  },
  {
    "lastUpdated": "2020-04-23T18:08:10.645Z",
    "dead": 1,
    "id": "2jxHvSsxdnom0nPNvOT8",
    "infected": 107,
    "recovered": 98,
    "latitude": 43.851921,
    "pop": 27460000,
    "longitude": 126.548103,
    "name": "Jilin",
    "country": "CN",
    "sick": 8,
    "invisible": false
  },
  {
    "lastUpdated": "2020-04-23T18:38:03.084Z",
    "dead": 0,
    "id": "2p11BjSAs3wVyymgqBOe",
    "infected": 133,
    "recovered": 129,
    "latitude": 36.1408,
    "pop": 34571,
    "longitude": -5.3536,
    "name": "Gibraltar",
    "country": "GI",
    "sick": 4,
    "invisible": false
  },
  {
    "longitude": 1.6751,
    "name": "Centre-Val de Loire",
    "country": "FR",
    "lastUpdated": "2020-04-22T23:49:26.070Z",
    "dead": 328,
    "id": "2sLNkkHpyaHx7dD3aMDO",
    "infected": 3235,
    "recovered": 977,
    "latitude": 47.7516,
    "pop": 2567000,
    "sick": 1930,
    "invisible": false
  },
  {
    "infected": 1362,
    "recovered": 946,
    "latitude": 42.565044,
    "pop": 884640,
    "longitude": 12.643751,
    "name": "Umbria",
    "country": "IT",
    "lastUpdated": "2020-04-23T18:31:02.105Z",
    "dead": 61,
    "id": "319tiZOMczx1y0DfvOib",
    "sick": 355,
    "invisible": false
  },
  {
    "infected": 24,
    "recovered": 9,
    "latitude": 2.43823,
    "pop": 1355000,
    "longitude": -76.6131592,
    "name": "Cauca",
    "country": "CO",
    "lastUpdated": "2020-04-23T12:32:11.009Z",
    "dead": 3,
    "id": "38T96Q3XNjt5FSJygPed",
    "sick": 12,
    "invisible": false
  },
  {
    "latitude": -13.133896,
    "pop": 17090000,
    "longitude": 27.849332,
    "name": "Zambia",
    "country": "ZM",
    "lastUpdated": "2020-04-23T18:38:03.086Z",
    "dead": 3,
    "id": "3IlPjAbP5qVMn1nlgLTJ",
    "infected": 76,
    "recovered": 37,
    "sick": 36,
    "invisible": false
  },
  {
    "infected": 316,
    "recovered": 123,
    "latitude": 42.7044,
    "pop": 631219,
    "longitude": 19.3958,
    "name": "Montenegro",
    "country": "ME",
    "lastUpdated": "2020-04-23T18:38:03.082Z",
    "dead": 5,
    "id": "3LstMSN5XMYBkxbe5HN7",
    "sick": 188,
    "invisible": false
  },
  {
    "id": "3OZoQsKrzxZ18EKyfGE6",
    "infected": 104,
    "recovered": 88,
    "latitude": -35.4735,
    "pop": 418440,
    "longitude": 149.0124,
    "name": "Australian Capital Territory",
    "country": "AU",
    "lastUpdated": "2020-04-23T18:36:07.323Z",
    "dead": 3,
    "sick": 13,
    "invisible": false
  },
  {
    "lastUpdated": "2020-04-23T18:41:01.475Z",
    "dead": 1,
    "id": "3cCbnJCsK7mKlTO08K1o",
    "infected": 36,
    "recovered": 19,
    "latitude": 26.2006,
    "pop": 30940000,
    "longitude": 92.9376,
    "name": "Assam",
    "country": "IN",
    "sick": 16,
    "invisible": false
  },
  {
    "infected": 14697,
    "recovered": 0,
    "latitude": 40.4173,
    "pop": 11690000,
    "longitude": -82.9071,
    "name": "Ohio",
    "country": "US",
    "lastUpdated": "2020-04-23T18:26:21.540Z",
    "dead": 655,
    "id": "3fC3bAyIRUquOQOEnQNe",
    "sick": 14042,
    "invisible": false
  },
  {
    "recovered": 0,
    "latitude": 25,
    "pop": 3066400,
    "longitude": -107.5,
    "name": "Sinaloa",
    "country": "MX",
    "lastUpdated": "2020-04-23T18:40:09.248Z",
    "dead": 61,
    "id": "3kFCzJguabtBvXaHxgiu",
    "infected": 573,
    "sick": 512,
    "invisible": false
  },
  {
    "lastUpdated": "2020-04-23T12:32:11.008Z",
    "dead": 43,
    "id": "3mC2LveOpXV8P1PmQGUj",
    "infected": 724,
    "recovered": 108,
    "latitude": 3.420556,
    "pop": 4708300,
    "longitude": -76.522224,
    "name": "Valle del Cauca",
    "country": "CO",
    "sick": 573,
    "invisible": false
  },
  {
    "infected": 7,
    "recovered": 6,
    "latitude": 21.0079,
    "pop": 4420000,
    "longitude": -10.9408,
    "name": "Mauritania",
    "country": "MR",
    "lastUpdated": "2020-04-23T18:38:03.098Z",
    "dead": 1,
    "id": "4NnFMekRK2m14IlnZZoj",
    "sick": 0,
    "invisible": false
  },
  {
    "lastUpdated": "2020-04-23T18:36:07.321Z",
    "dead": 93,
    "id": "4hfZRUoUgI4a3vrG0GBk",
    "infected": 1795,
    "recovered": 0,
    "latitude": 53.7267,
    "pop": 5071000,
    "longitude": -127.6476,
    "name": "British Columbia",
    "country": "CA",
    "sick": 1702,
    "invisible": false
  },
  {
    "id": "4kq0z3kh5zt3YAUWxvtE",
    "infected": 5552,
    "recovered": 0,
    "latitude": -22.908333,
    "pop": 17159960,
    "longitude": -43.196388,
    "name": "Rio de Janeiro",
    "country": "BR",
    "lastUpdated": "2020-04-23T18:46:14.249Z",
    "dead": 490,
    "sick": 5062,
    "invisible": false
  },
  {
    "latitude": -11.409874,
    "pop": 14812617,
    "longitude": -41.280857,
    "name": "Bahia",
    "country": "BR",
    "lastUpdated": "2020-04-23T18:46:14.248Z",
    "dead": 50,
    "id": "4yDbkEyqsNzZJjfrciYV",
    "infected": 1644,
    "recovered": 0,
    "sick": 1594,
    "invisible": false
  },
  {
    "infected": 1548,
    "recovered": 948,
    "latitude": 40.3426,
    "pop": 9898000,
    "longitude": 47.93802,
    "name": "Azerbaijan",
    "country": "AZ",
    "lastUpdated": "2020-04-23T18:38:03.070Z",
    "dead": 20,
    "id": "4zqzRm2xHn0CDVOUQJ8p",
    "sick": 580,
    "invisible": false
  },
  {
    "id": "54cfsdsRF76XVHWtZs19",
    "infected": 275,
    "recovered": 0,
    "latitude": 22.233105,
    "pop": 3672300,
    "longitude": -97.861099,
    "name": "Tamaulipas",
    "country": "MX",
    "lastUpdated": "2020-04-23T18:40:09.250Z",
    "dead": 10,
    "sick": 265,
    "invisible": false
  },
  {
    "id": "57ydD48mLRD2YoyteJZj",
    "infected": 24119,
    "recovered": 5515,
    "latitude": 51.0109,
    "pop": 6596000,
    "longitude": 3.7265,
    "name": "Flanders",
    "country": "BE",
    "lastUpdated": "2020-04-23T18:29:05.074Z",
    "dead": 3184,
    "sick": 15420,
    "invisible": false
  },
  {
    "recovered": 12,
    "latitude": 25.025885,
    "pop": 395361,
    "longitude": -78.035889,
    "name": "Bahamas",
    "country": "BS",
    "lastUpdated": "2020-04-23T18:38:03.086Z",
    "dead": 9,
    "id": "5MHegCUO9L3LiAU7DDey",
    "infected": 70,
    "sick": 49,
    "invisible": false
  },
  {
    "infected": 2976,
    "recovered": 1379,
    "latitude": -31.253218,
    "pop": 7544000,
    "longitude": 146.921097,
    "name": "New South Wales",
    "country": "AU",
    "lastUpdated": "2020-04-23T18:36:07.320Z",
    "dead": 26,
    "id": "5N16a2OXXRpsEFanw0TC",
    "sick": 1571,
    "invisible": false
  },
  {
    "id": "5N4PRxsCDzzwk7R200V1",
    "infected": 4,
    "recovered": 0,
    "latitude": 6.8769908,
    "pop": 12580000,
    "longitude": 31.3069782,
    "name": "South Sudan",
    "country": "SS",
    "lastUpdated": "2020-04-23T18:38:03.099Z",
    "dead": 0,
    "sick": 4,
    "invisible": false
  },
  {
    "recovered": 5388,
    "latitude": 39.484,
    "pop": 4975000,
    "longitude": -0.7533,
    "name": "C. Valenciana",
    "country": "ES",
    "lastUpdated": "2020-04-23T18:41:10.988Z",
    "dead": 1124,
    "id": "5Va9A7CXR8AXdUz4HTJj",
    "infected": 10692,
    "sick": 4180,
    "invisible": false
  },
  {
    "longitude": 165.618042,
    "name": "New Caledonia",
    "country": "NC",
    "lastUpdated": "2020-04-23T18:38:03.095Z",
    "dead": 0,
    "id": "5fg04eyDwFw3kEXnrxez",
    "infected": 18,
    "recovered": 17,
    "latitude": -20.9043045,
    "pop": 280460,
    "sick": 1,
    "invisible": false
  },
  {
    "recovered": 9,
    "latitude": 28.394857,
    "pop": 29300000,
    "longitude": 84.124008,
    "name": "Nepal",
    "country": "NP",
    "lastUpdated": "2020-04-23T18:38:03.087Z",
    "dead": 0,
    "id": "5gXZIjRgAvd6xWN1LOv8",
    "infected": 47,
    "sick": 38,
    "invisible": false
  },
  {
    "id": "5pwmh7aSdGRKqRbnuyc0",
    "infected": 6981,
    "recovered": 722,
    "latitude": 12.879721,
    "pop": 104900000,
    "longitude": 121.774017,
    "name": "Philippines",
    "country": "PH",
    "lastUpdated": "2020-04-23T18:38:03.066Z",
    "dead": 462,
    "sick": 5797,
    "invisible": false
  },
  {
    "id": "5qtR9nx4BLwu1ODTniaY",
    "infected": 28,
    "recovered": 2,
    "latitude": -17.824858,
    "pop": 14802190,
    "longitude": 31.053028,
    "name": "Zimbabwe",
    "country": "ZW",
    "lastUpdated": "2020-04-23T18:38:03.091Z",
    "dead": 4,
    "sick": 22,
    "invisible": false
  },
  {
    "latitude": 36.0672,
    "pop": 356890,
    "longitude": -109.188,
    "name": "Navajo Nation",
    "country": "US",
    "lastUpdated": "2020-04-23T18:26:21.545Z",
    "dead": 45,
    "id": "5vkKgxTaKq1IH0Go357L",
    "invisible": true,
    "infected": 1501,
    "recovered": 0,
    "sick": 1456
  },
  {
    "infected": 2857,
    "recovered": 0,
    "latitude": 19.432241,
    "pop": 8781300,
    "longitude": -99.177254,
    "name": "Ciudad de México",
    "country": "MX",
    "lastUpdated": "2020-04-23T18:40:09.249Z",
    "dead": 224,
    "id": "61E7TGjUwAo9xu6Y6gAH",
    "sick": 2633,
    "invisible": false
  },
  {
    "lastUpdated": "2020-04-23T18:38:03.077Z",
    "dead": 40,
    "id": "694ON7d0mRJDeM1gHBTR",
    "infected": 1398,
    "recovered": 399,
    "latitude": 55.621011,
    "pop": 2794000,
    "longitude": 23.804991,
    "name": "Lithuania",
    "country": "LT",
    "sick": 959,
    "invisible": false
  },
  {
    "longitude": -0.5596,
    "name": "South East",
    "country": "GB",
    "lastUpdated": "2020-04-23T18:39:24.735Z",
    "dead": 0,
    "id": "6IQAsvrmBv0HPdeTnh4x",
    "infected": 14412,
    "recovered": 0,
    "latitude": 51.1781,
    "pop": 9175000,
    "sick": 14412,
    "invisible": false
  },
  {
    "infected": 1036,
    "recovered": 699,
    "latitude": 22.396427,
    "pop": 7392000,
    "longitude": 114.109497,
    "name": "Hong Kong",
    "country": "HK",
    "lastUpdated": "2020-04-23T18:38:03.079Z",
    "dead": 4,
    "id": "6IcHIIH0zXpY0POmBZTv",
    "sick": 333,
    "invisible": false
  },
  {
    "id": "6LQesrx5bHJsVUi1TXBp",
    "infected": 214,
    "recovered": 0,
    "latitude": -8.65,
    "pop": 869265,
    "longitude": -72.4,
    "name": "Acre",
    "country": "BR",
    "lastUpdated": "2020-04-23T18:46:14.239Z",
    "dead": 8,
    "sick": 206,
    "invisible": false
  },
  {
    "id": "6SlpghTyB6lpMFvx3g9U",
    "infected": 54,
    "recovered": 27,
    "latitude": 9.3077,
    "pop": 11180000,
    "longitude": 2.3158,
    "name": "Benin",
    "country": "BJ",
    "lastUpdated": "2020-04-23T18:38:03.087Z",
    "dead": 1,
    "sick": 26,
    "invisible": false
  },
  {
    "longitude": 9.5,
    "name": "Lombardia",
    "country": "IT",
    "lastUpdated": "2020-04-23T18:31:02.103Z",
    "dead": 12940,
    "id": "6ZHcvMIzVWIaRnc4R3Qp",
    "infected": 70165,
    "recovered": 23352,
    "latitude": 45.6667,
    "pop": 10040000,
    "sick": 33873,
    "invisible": false
  },
  {
    "id": "6ahNiyKDSDAftCctgLH3",
    "infected": 1366,
    "recovered": 211,
    "latitude": 46.0569,
    "pop": 2067000,
    "longitude": 14.5058,
    "name": "Slovenia",
    "country": "SI",
    "lastUpdated": "2020-04-23T18:38:03.078Z",
    "dead": 79,
    "sick": 1076,
    "invisible": false
  },
  {
    "lastUpdated": "2020-04-23T18:37:06.126Z",
    "dead": 0,
    "id": "6nyns7UGGgkU7pxrHf8i",
    "infected": 18,
    "recovered": 0,
    "latitude": -27.3667908,
    "pop": 300000,
    "longitude": -70.331398,
    "name": "Atacama",
    "country": "CL",
    "sick": 18,
    "invisible": false
  },
  {
    "infected": 166,
    "recovered": 24,
    "latitude": -0.8037,
    "pop": 2025000,
    "longitude": 11.6094,
    "name": "Gabon",
    "country": "GA",
    "lastUpdated": "2020-04-23T18:38:03.082Z",
    "dead": 2,
    "id": "6pBi38TUgYfFm0bry2uh",
    "sick": 140,
    "invisible": false
  },
  {
    "infected": 74,
    "recovered": 0,
    "latitude": 22.1498,
    "pop": 2831900,
    "longitude": -100.9792,
    "name": "San Luis Potosí",
    "country": "MX",
    "lastUpdated": "2020-04-23T18:40:09.250Z",
    "dead": 8,
    "id": "6vjIVg1gSANFZghV7xtS",
    "sick": 66,
    "invisible": false
  },
  {
    "lastUpdated": "2020-04-23T18:38:03.099Z",
    "dead": 0,
    "id": "78Ox26bNHDA2Pk2b3Uwn",
    "infected": 6,
    "recovered": 6,
    "latitude": 17.901672,
    "pop": 9131,
    "longitude": -62.818544,
    "name": "Saint-Barthélémy",
    "country": "FR",
    "sick": 0,
    "invisible": false
  },
  {
    "lastUpdated": "2020-04-23T18:33:08.638Z",
    "dead": 3,
    "id": "7JDx6UJiwGSJyL1fChaJ",
    "infected": 243,
    "recovered": 0,
    "latitude": 54.367,
    "pop": 2305000,
    "longitude": 18.633,
    "name": "Pomorskie",
    "country": "PL",
    "sick": 240,
    "invisible": false
  },
  {
    "id": "7UASdZTZ1nPzzBwSTEA9",
    "infected": 106,
    "recovered": 55,
    "latitude": 35.2923,
    "pop": 84690,
    "longitude": -2.9381,
    "name": "Melilla",
    "country": "ES",
    "lastUpdated": "2020-04-23T18:41:10.988Z",
    "dead": 2,
    "sick": 49,
    "invisible": false
  },
  {
    "recovered": 10,
    "latitude": 17.0608,
    "pop": 102012,
    "longitude": -61.7964,
    "name": "Antigua and Barbuda",
    "country": "AG",
    "lastUpdated": "2020-04-23T18:38:03.091Z",
    "dead": 3,
    "id": "7hVFcEV7nV0MrQr3LHrl",
    "infected": 24,
    "sick": 11,
    "invisible": false
  },
  {
    "longitude": 11.4979,
    "name": "Bayern",
    "country": "DE",
    "lastUpdated": "2020-04-23T18:30:09.327Z",
    "dead": 1603,
    "id": "7kCrrlOBE3jN6FtOVNUB",
    "infected": 40397,
    "recovered": 23860,
    "latitude": 48.7904,
    "pop": 13000000,
    "sick": 14934,
    "invisible": false
  },
  {
    "infected": 2284,
    "recovered": 390,
    "latitude": 47.4979,
    "pop": 9773000,
    "longitude": 19.0402,
    "name": "Hungary",
    "country": "HU",
    "lastUpdated": "2020-04-23T18:38:03.069Z",
    "dead": 239,
    "id": "7rYC2iFB50c55Ihgbs4Q",
    "sick": 1655,
    "invisible": false
  },
  {
    "lastUpdated": "2020-04-23T12:32:11.009Z",
    "dead": 4,
    "id": "7tqLvLyXcBDK808nJv0m",
    "infected": 87,
    "recovered": 32,
    "latitude": 10.9685,
    "pop": 2400000,
    "longitude": -74.7813,
    "name": "Barranquilla D.E.",
    "country": "CO",
    "sick": 51,
    "invisible": false
  },
  {
    "latitude": 7.3697,
    "pop": 24050000,
    "longitude": 12.3547,
    "name": "Cameroon",
    "country": "CM",
    "lastUpdated": "2020-04-23T18:38:03.078Z",
    "dead": 43,
    "id": "8C0d7WVCjyUGtnc2gUAR",
    "infected": 1334,
    "recovered": 668,
    "sick": 623,
    "invisible": false
  },
  {
    "longitude": 4.3517,
    "name": "Brussels",
    "country": "BE",
    "lastUpdated": "2020-04-23T18:29:05.074Z",
    "dead": 1014,
    "id": "8DOZWbN6bDdgaLXVlUEu",
    "infected": 4345,
    "recovered": 1605,
    "latitude": 50.8503,
    "pop": 1209000,
    "sick": 1726,
    "invisible": false
  },
  {
    "id": "8RihJrXw4NQXPxaRxr1u",
    "infected": 672,
    "recovered": 44,
    "latitude": -16.2902,
    "pop": 11050000,
    "longitude": -63.5887,
    "name": "Bolivia",
    "country": "BO",
    "lastUpdated": "2020-04-23T18:38:03.079Z",
    "dead": 40,
    "sick": 588,
    "invisible": false
  },
  {
    "longitude": -61.2872,
    "name": "St. Vincent Grenadines",
    "country": "VC",
    "lastUpdated": "2020-04-23T18:38:03.096Z",
    "dead": 0,
    "id": "8ZTySQROQejkDAad0qxQ",
    "infected": 13,
    "recovered": 3,
    "latitude": 12.9843,
    "pop": 109897,
    "sick": 10,
    "invisible": false
  },
  {
    "lastUpdated": "2020-04-23T18:38:03.065Z",
    "dead": 12,
    "id": "8pA3fM4xC2c2wv1b4TnE",
    "infected": 11178,
    "recovered": 924,
    "latitude": 1.352083,
    "pop": 5621000,
    "longitude": 103.819839,
    "name": "Singapore",
    "country": "SG",
    "sick": 10242,
    "invisible": false
  },
  {
    "longitude": -1.5536,
    "name": "Pays de la Loire",
    "country": "FR",
    "lastUpdated": "2020-04-22T23:50:35.322Z",
    "dead": 285,
    "id": "98hwAoohgWEOQVa3NlM5",
    "infected": 2923,
    "recovered": 1026,
    "latitude": 47.2184,
    "pop": 3787000,
    "sick": 1612,
    "invisible": false
  },
  {
    "infected": 71,
    "recovered": 0,
    "latitude": 19.30754,
    "pop": 952300,
    "longitude": -90.19885,
    "name": "Campeche",
    "country": "MX",
    "lastUpdated": "2020-04-23T18:40:09.249Z",
    "dead": 6,
    "id": "9DAvxOObTqIvMOU93nlY",
    "sick": 65,
    "invisible": false
  },
  {
    "latitude": 12.8628,
    "pop": 40530000,
    "longitude": 30.2176,
    "name": "Sudan",
    "country": "SD",
    "lastUpdated": "2020-04-23T18:38:03.083Z",
    "dead": 13,
    "id": "9DPOkpIqrFy9mR4e9fuv",
    "infected": 162,
    "recovered": 14,
    "sick": 135,
    "invisible": false
  },
  {
    "recovered": 2478,
    "latitude": 45.943161,
    "pop": 19530000,
    "longitude": 24.966761,
    "name": "Romania",
    "country": "RO",
    "lastUpdated": "2020-04-23T18:38:03.066Z",
    "dead": 545,
    "id": "9QcETqEcM2fTv9zRvx5T",
    "infected": 10096,
    "sick": 7073,
    "invisible": false
  },
  {
    "latitude": 12.136389,
    "pop": 6218000,
    "longitude": -86.251389,
    "name": "Nicaragua",
    "country": "NI",
    "lastUpdated": "2020-04-23T18:38:03.096Z",
    "dead": 3,
    "id": "9Y5wmCqNCC6ZrenM31uA",
    "infected": 11,
    "recovered": 7,
    "sick": 1,
    "invisible": false
  },
  {
    "lastUpdated": "2020-04-23T18:38:03.082Z",
    "dead": 21,
    "id": "9dIzxqDSVqPyINkHqwGv",
    "infected": 309,
    "recovered": 77,
    "latitude": 17.5706921,
    "pop": 18540000,
    "longitude": -3.996166,
    "name": "Mali",
    "country": "ML",
    "sick": 211,
    "invisible": false
  },
  {
    "infected": 4284,
    "recovered": 2000,
    "latitude": 61.92411,
    "pop": 5513000,
    "longitude": 25.748152,
    "name": "Finland",
    "country": "FI",
    "lastUpdated": "2020-04-23T18:38:03.067Z",
    "dead": 172,
    "id": "9p6OCdZbUUwBLA60Gk3W",
    "sick": 2112,
    "invisible": false
  },
  {
    "latitude": 43.311643,
    "pop": 1356000,
    "longitude": -71.590315,
    "name": "New Hampshire",
    "country": "US",
    "lastUpdated": "2020-04-23T18:26:21.545Z",
    "dead": 48,
    "id": "A84CwQ52kA46Hr7pn6Bm",
    "infected": 1588,
    "recovered": 0,
    "sick": 1540,
    "invisible": false
  },
  {
    "longitude": -71.412257,
    "name": "Rhode Island",
    "country": "US",
    "lastUpdated": "2020-04-23T18:26:21.541Z",
    "dead": 189,
    "id": "AEUWUHS65qvjEslew11c",
    "infected": 6256,
    "recovered": 0,
    "latitude": 41.823261,
    "pop": 1057000,
    "sick": 6067,
    "invisible": false
  },
  {
    "longitude": 11.327591,
    "name": "Emilia-Romagna",
    "country": "IT",
    "lastUpdated": "2020-04-23T18:31:02.103Z",
    "dead": 3269,
    "id": "AJ9jQ0iyKsafsmf5yHAR",
    "infected": 23723,
    "recovered": 7609,
    "latitude": 44.498955,
    "pop": 4453000,
    "sick": 12845,
    "invisible": false
  },
  {
    "infected": 2414,
    "recovered": 1283,
    "latitude": 49.3964,
    "pop": 990509,
    "longitude": 7.023,
    "name": "Saarland",
    "country": "DE",
    "lastUpdated": "2020-04-23T18:30:09.329Z",
    "dead": 115,
    "id": "AKjFRQGnzuuZQhv5Qwx7",
    "sick": 1016,
    "invisible": false
  },
  {
    "recovered": 0,
    "latitude": -35.717,
    "pop": 1125002,
    "longitude": -71.167,
    "name": "Maule",
    "country": "CL",
    "lastUpdated": "2020-04-23T18:37:06.130Z",
    "dead": 10,
    "id": "APTPgjAsjFi0nsGyJV7M",
    "infected": 333,
    "sick": 323,
    "invisible": false
  },
  {
    "longitude": -42.6043,
    "name": "Greenland",
    "country": "GL",
    "lastUpdated": "2020-04-23T18:38:03.096Z",
    "dead": 0,
    "id": "APaZzlGCEeuoLBtzTJMe",
    "infected": 11,
    "recovered": 11,
    "latitude": 71.7069,
    "pop": 56171,
    "sick": 0,
    "invisible": false
  },
  {
    "infected": 827,
    "recovered": 0,
    "latitude": 45.65107,
    "pop": 971395,
    "longitude": -63.582687,
    "name": "Nova Scotia",
    "country": "CA",
    "lastUpdated": "2020-04-23T18:36:07.321Z",
    "dead": 16,
    "id": "AVCpxeh0fuH2WrHWNDYH",
    "sick": 811,
    "invisible": false
  },
  {
    "infected": 442,
    "recovered": 0,
    "latitude": 47.012918,
    "pop": 1062000,
    "longitude": -109.128641,
    "name": "Montana",
    "country": "US",
    "lastUpdated": "2020-04-23T18:26:21.546Z",
    "dead": 14,
    "id": "AcULcZBozObOhwuRKMjJ",
    "sick": 428,
    "invisible": false
  },
  {
    "infected": 937,
    "recovered": 936,
    "latitude": 27.285971,
    "pop": 45200000,
    "longitude": 116.01609,
    "name": "Jiangxi",
    "country": "CN",
    "lastUpdated": "2020-04-23T18:08:10.646Z",
    "dead": 1,
    "id": "AmBYm5J6E9Cuez1FQjiN",
    "sick": 0,
    "invisible": false
  },
  {
    "lastUpdated": "2020-04-23T18:39:24.734Z",
    "dead": 641,
    "id": "AoLhHdTydeWTfmp9koEX",
    "infected": 8358,
    "recovered": 0,
    "latitude": 52.1307,
    "pop": 3136000,
    "longitude": -3.7837,
    "name": "Wales",
    "country": "GB",
    "sick": 7717,
    "invisible": false
  },
  {
    "infected": 3007,
    "recovered": 1355,
    "latitude": 28.033886,
    "pop": 41320000,
    "longitude": 1.659626,
    "name": "Algeria",
    "country": "DZ",
    "lastUpdated": "2020-04-23T18:38:03.069Z",
    "dead": 407,
    "id": "AwN0CScPDApcLFgz6e3z",
    "sick": 1245,
    "invisible": false
  },
  {
    "longitude": 15.2,
    "name": "Croatia",
    "country": "HR",
    "lastUpdated": "2020-04-23T18:38:03.069Z",
    "dead": 50,
    "id": "B82Ef45M8cDu4q7VsSHF",
    "infected": 1981,
    "recovered": 883,
    "latitude": 45.099998,
    "pop": 4076000,
    "sick": 1048,
    "invisible": false
  },
  {
    "latitude": 17.6077881,
    "pop": 23716000,
    "longitude": 8.081666,
    "name": "Niger",
    "country": "NE",
    "lastUpdated": "2020-04-23T18:38:03.080Z",
    "dead": 22,
    "id": "BENubqQInFUJzhpZTsLT",
    "infected": 662,
    "recovered": 193,
    "sick": 447,
    "invisible": false
  },
  {
    "recovered": 0,
    "latitude": 39.509109,
    "pop": 6043000,
    "longitude": -76.98432,
    "name": "Maryland",
    "country": "US",
    "lastUpdated": "2020-04-23T18:26:21.540Z",
    "dead": 750,
    "id": "BF51mWl51fgEcyBpCSzb",
    "infected": 15737,
    "sick": 14987,
    "invisible": false
  },
  {
    "latitude": 53.709808,
    "pop": 9508000,
    "longitude": 27.953388,
    "name": "Belarus",
    "country": "BY",
    "lastUpdated": "2020-04-23T18:38:03.066Z",
    "dead": 60,
    "id": "BGg6yVU5VP71B8NXU0oh",
    "infected": 8022,
    "recovered": 938,
    "sick": 7024,
    "invisible": false
  },
  {
    "id": "BGtoyzb7y54LVlJ91rbf",
    "infected": 2585,
    "recovered": 896,
    "latitude": 48.8799,
    "pop": 3319000,
    "longitude": 0.1713,
    "name": "Normandie",
    "country": "FR",
    "lastUpdated": "2020-04-22T23:50:16.540Z",
    "dead": 299,
    "sick": 1390,
    "invisible": false
  },
  {
    "id": "BQqMOlPFD36ZEDTGd3WC",
    "infected": 5411,
    "recovered": 0,
    "latitude": 50.7772,
    "pop": 5616000,
    "longitude": -3.9995,
    "name": "South West",
    "country": "GB",
    "lastUpdated": "2020-04-23T18:39:24.735Z",
    "dead": 0,
    "sick": 5411,
    "invisible": false
  },
  {
    "longitude": -111.093735,
    "name": "Arizona",
    "country": "US",
    "lastUpdated": "2020-04-23T18:26:21.542Z",
    "dead": 249,
    "id": "BTEESCuD2ZbS1afunR2A",
    "infected": 5772,
    "recovered": 0,
    "latitude": 34.048927,
    "pop": 7172000,
    "sick": 5523,
    "invisible": false
  },
  {
    "infected": 304,
    "recovered": 0,
    "latitude": 53.428543,
    "pop": 1676000,
    "longitude": 14.552812,
    "name": "Zachodniopomorskie",
    "country": "PL",
    "lastUpdated": "2020-04-23T18:33:08.638Z",
    "dead": 4,
    "id": "BZwZOAlDJ8AIiaRVLyC9",
    "sick": 300,
    "invisible": false
  },
  {
    "latitude": -33.4489,
    "longitude": -70.6693,
    "name": "Unknown Chile region",
    "country": "CL",
    "lastUpdated": "2020-04-23T18:37:06.212Z",
    "dead": 0,
    "id": "BbiuZcm8oURX7cZwaa5U",
    "invisible": true,
    "infected": 0,
    "recovered": 5804,
    "sick": 0
  },
  {
    "latitude": -13.2543,
    "pop": 18620000,
    "longitude": 34.3015,
    "name": "Malawi",
    "country": "MW",
    "lastUpdated": "2020-04-23T18:38:03.091Z",
    "dead": 3,
    "id": "BfT8o5DaEixC6JIZ28kY",
    "infected": 33,
    "recovered": 3,
    "sick": 27,
    "invisible": false
  },
  {
    "id": "BnpMamidC5yYzeK8tPUL",
    "infected": 11,
    "recovered": 4,
    "latitude": -3.3730559,
    "pop": 10860000,
    "longitude": 29.9188862,
    "name": "Burundi",
    "country": "BI",
    "lastUpdated": "2020-04-23T18:38:03.096Z",
    "dead": 1,
    "sick": 6,
    "invisible": false
  },
  {
    "latitude": 52.257,
    "pop": 5385000,
    "longitude": 21.002,
    "name": "Mazowieckie",
    "country": "PL",
    "lastUpdated": "2020-04-23T18:33:08.629Z",
    "dead": 142,
    "id": "BrToMzyq8y2xdwXn75kM",
    "infected": 2166,
    "recovered": 0,
    "sick": 2024,
    "invisible": false
  },
  {
    "recovered": 0,
    "latitude": -1.333845,
    "pop": 74751,
    "longitude": -71.347573,
    "name": "Amazonas (Colombia)",
    "country": "CO",
    "lastUpdated": "2020-04-23T12:32:11.010Z",
    "dead": 0,
    "id": "C25xSDm4iYibX5RYML14",
    "infected": 6,
    "sick": 6,
    "invisible": false
  },
  {
    "infected": 269756,
    "recovered": 0,
    "latitude": 40.719042,
    "pop": 19540000,
    "longitude": -73.982597,
    "name": "New York",
    "country": "US",
    "lastUpdated": "2020-04-23T18:26:21.509Z",
    "dead": 20865,
    "id": "C3BCUzV80z9GfiuByIcr",
    "sick": 248891,
    "invisible": false
  },
  {
    "infected": 7138,
    "recovered": 2152,
    "latitude": 49.731626,
    "pop": 10650000,
    "longitude": 15.359413,
    "name": "Czechia",
    "country": "CZ",
    "lastUpdated": "2020-04-23T18:38:03.066Z",
    "dead": 210,
    "id": "C6S76AggdWVU8G22jFHQ",
    "sick": 4776,
    "invisible": false
  },
  {
    "longitude": 50.557701,
    "name": "Bahrain",
    "country": "BH",
    "lastUpdated": "2020-04-23T18:38:03.069Z",
    "dead": 8,
    "id": "C7cj4nwRITs13KnaJrQ2",
    "infected": 2098,
    "recovered": 1082,
    "latitude": 26.0667,
    "pop": 1493000,
    "sick": 1008,
    "invisible": false
  },
  {
    "infected": 21,
    "recovered": 1,
    "latitude": 10.4113,
    "pop": 1285400,
    "longitude": -74.4057,
    "name": "Magdalena",
    "country": "CO",
    "lastUpdated": "2020-04-23T12:32:11.010Z",
    "dead": 2,
    "id": "CA9LaAl3bNaeAqBuozn4",
    "sick": 18,
    "invisible": false
  },
  {
    "id": "CCUFp4urvgXPo5unfMGy",
    "infected": 323,
    "recovered": 0,
    "latitude": 26.909979,
    "pop": 3073500,
    "longitude": -101.430756,
    "name": "Coahuila",
    "country": "MX",
    "lastUpdated": "2020-04-23T18:40:09.249Z",
    "dead": 31,
    "sick": 292,
    "invisible": false
  },
  {
    "lastUpdated": "2020-04-23T18:41:01.472Z",
    "dead": 28,
    "id": "CKZCZTPlrcq5fbfUPA9k",
    "infected": 1964,
    "recovered": 451,
    "latitude": 27.0238,
    "pop": 68890000,
    "longitude": 74.2179,
    "name": "Rajasthan",
    "country": "IN",
    "sick": 1485,
    "invisible": false
  },
  {
    "latitude": 13.803,
    "pop": 6378000,
    "longitude": -88.9053,
    "name": "El Salvador",
    "country": "SV",
    "lastUpdated": "2020-04-23T18:38:03.082Z",
    "dead": 8,
    "id": "Cgvmtle61ehMvCzRzYx7",
    "infected": 250,
    "recovered": 67,
    "sick": 175,
    "invisible": false
  },
  {
    "recovered": 659,
    "latitude": 40.259003,
    "pop": 2973000,
    "longitude": 44.818474,
    "name": "Armenia",
    "country": "AM",
    "lastUpdated": "2020-04-23T18:38:03.070Z",
    "dead": 24,
    "id": "DCJCtZoBTWQ4mzdDNljD",
    "infected": 1523,
    "sick": 840,
    "invisible": false
  },
  {
    "longitude": -73.368,
    "name": "Boyacá",
    "country": "CO",
    "lastUpdated": "2020-04-23T12:32:11.010Z",
    "dead": 1,
    "id": "DJJraANgQbEqz1wBBtZz",
    "infected": 33,
    "recovered": 7,
    "latitude": 5.535,
    "pop": 1278000,
    "sick": 25,
    "invisible": false
  },
  {
    "id": "DPwBt2aJuwF0O71vwfM9",
    "infected": 15682,
    "recovered": 0,
    "latitude": 53.6221,
    "pop": 7300000,
    "longitude": -2.5945,
    "name": "North West",
    "country": "GB",
    "lastUpdated": "2020-04-23T18:39:24.735Z",
    "dead": 0,
    "sick": 15682,
    "invisible": false
  },
  {
    "infected": 99,
    "recovered": 39,
    "latitude": 32.3213844,
    "pop": 65440,
    "longitude": -64.75737,
    "name": "Bermuda",
    "country": "BM",
    "lastUpdated": "2020-04-23T18:38:03.085Z",
    "dead": 5,
    "id": "DZyTD0Mu5WIcK6yTcJ91",
    "sick": 55,
    "invisible": false
  },
  {
    "lastUpdated": "2020-04-23T18:38:03.096Z",
    "dead": 1,
    "id": "DaMrRSIGJXIG36nW0Pnc",
    "infected": 11,
    "recovered": 4,
    "latitude": 21.694,
    "pop": 35446,
    "longitude": -71.7979,
    "name": "Turks and Caicos",
    "country": "TC",
    "sick": 6,
    "invisible": false
  },
  {
    "infected": 17557,
    "recovered": 4577,
    "latitude": 39.2796,
    "pop": 2035000,
    "longitude": -3.0977,
    "name": "Castilla La Mancha",
    "country": "ES",
    "lastUpdated": "2020-04-23T18:41:10.987Z",
    "dead": 2188,
    "id": "Dbng0NBTH41EEwBxhMzE",
    "sick": 10792,
    "invisible": false
  },
  {
    "lastUpdated": "2020-04-23T18:33:08.637Z",
    "dead": 23,
    "id": "DcQ3D0WkacXEbv6iznRB",
    "infected": 766,
    "recovered": 0,
    "latitude": 50.023,
    "pop": 3361000,
    "longitude": 20.006,
    "name": "Malopolskie",
    "country": "PL",
    "sick": 743,
    "invisible": false
  },
  {
    "latitude": 22.192039,
    "pop": 622567,
    "longitude": 113.551262,
    "name": "Macao",
    "country": "MO",
    "lastUpdated": "2020-04-23T18:38:03.090Z",
    "dead": 0,
    "id": "DdBt8qsG6A3g92oOR3ow",
    "infected": 45,
    "recovered": 27,
    "sick": 18,
    "invisible": false
  },
  {
    "infected": 12,
    "recovered": 0,
    "latitude": 25.467,
    "pop": 2651000,
    "longitude": 91.3662,
    "name": "Meghalaya",
    "country": "IN",
    "lastUpdated": "2020-04-23T18:41:01.475Z",
    "dead": 1,
    "id": "Dh0O1vmhrVfmsCsfZCUg",
    "sick": 11,
    "invisible": false
  },
  {
    "latitude": 42.962334,
    "pop": 577737,
    "longitude": -107.534868,
    "name": "Wyoming",
    "country": "US",
    "lastUpdated": "2020-04-23T18:26:21.546Z",
    "dead": 6,
    "id": "DrGzziUglmBognCGY7R2",
    "infected": 447,
    "recovered": 0,
    "sick": 441,
    "invisible": false
  },
  {
    "lastUpdated": "2020-04-23T18:38:03.069Z",
    "dead": 125,
    "id": "Dtr1lap1RpJpXJdXGJiW",
    "infected": 2463,
    "recovered": 577,
    "latitude": 37.9838,
    "pop": 10740000,
    "longitude": 23.7275,
    "name": "Greece",
    "country": "GR",
    "sick": 1761,
    "invisible": false
  },
  {
    "id": "EKTfs8e7M6DXzI1HqyyX",
    "infected": 427,
    "recovered": 253,
    "latitude": 25.03841,
    "pop": 23780000,
    "longitude": 121.563698,
    "name": "Taiwan",
    "country": "TW",
    "lastUpdated": "2020-04-23T18:38:03.081Z",
    "dead": 6,
    "sick": 168,
    "invisible": false
  },
  {
    "infected": 681,
    "recovered": 180,
    "latitude": 10.327273,
    "pop": 4906000,
    "longitude": -84.387618,
    "name": "Costa Rica",
    "country": "CR",
    "lastUpdated": "2020-04-23T18:38:03.079Z",
    "dead": 6,
    "id": "EQzJvzVHKjs8kLmK7BMu",
    "sick": 495,
    "invisible": false
  },
  {
    "infected": 2624,
    "recovered": 258,
    "latitude": 22.2587,
    "pop": 62700000,
    "longitude": 71.1924,
    "name": "Gujarat",
    "country": "IN",
    "lastUpdated": "2020-04-23T18:41:01.471Z",
    "dead": 112,
    "id": "ERwk9R9en4m9WbdoMbIg",
    "sick": 2254,
    "invisible": false
  },
  {
    "lastUpdated": "2020-04-23T18:41:01.475Z",
    "dead": 0,
    "id": "Esl5UlCVB9s8pmGB5Ofr",
    "infected": 27,
    "recovered": 14,
    "latitude": 30.7333,
    "pop": 1055000,
    "longitude": 76.7794,
    "name": "Chandigarh",
    "country": "IN",
    "sick": 13,
    "invisible": false
  },
  {
    "longitude": 22.653,
    "name": "Lubelskie",
    "country": "PL",
    "lastUpdated": "2020-04-23T18:33:08.638Z",
    "dead": 10,
    "id": "Esy1La2CxwH5uB8bGVWZ",
    "infected": 336,
    "recovered": 0,
    "latitude": 51.24,
    "pop": 2148000,
    "sick": 326,
    "invisible": false
  },
  {
    "latitude": 18.200178,
    "pop": 3195000,
    "longitude": -66.664513,
    "name": "Puerto Rico",
    "country": "PR",
    "lastUpdated": "2020-04-23T18:26:21.545Z",
    "dead": 69,
    "id": "F4rPrEVGAIMM5rfPEMv4",
    "infected": 1378,
    "recovered": 0,
    "sick": 1309,
    "invisible": false
  },
  {
    "latitude": 4.862437,
    "pop": 2919000,
    "longitude": -74.058655,
    "name": "Cundinamarca",
    "country": "CO",
    "lastUpdated": "2020-04-23T12:32:11.009Z",
    "dead": 9,
    "id": "F7MED5VwEhi3JvJu6KjB",
    "infected": 175,
    "recovered": 46,
    "sick": 120,
    "invisible": false
  },
  {
    "latitude": 33.93911,
    "pop": 35530000,
    "longitude": 67.709953,
    "name": "Afghanistan",
    "country": "AF",
    "lastUpdated": "2020-04-23T18:38:03.078Z",
    "dead": 42,
    "id": "FCDmlmnIIswd8bQiUjfN",
    "infected": 1279,
    "recovered": 179,
    "sick": 1058,
    "invisible": false
  },
  {
    "recovered": 570,
    "latitude": 29.431585,
    "pop": 30480000,
    "longitude": 106.912254,
    "name": "Chongqing",
    "country": "CN",
    "lastUpdated": "2020-04-23T18:08:10.645Z",
    "dead": 6,
    "id": "FErOU1m4Tj7jIkRam3vF",
    "infected": 579,
    "sick": 3,
    "invisible": false
  },
  {
    "infected": 2399,
    "recovered": 498,
    "latitude": 29.311661,
    "pop": 4137000,
    "longitude": 47.481766,
    "name": "Kuwait",
    "country": "KW",
    "lastUpdated": "2020-04-23T18:38:03.069Z",
    "dead": 14,
    "id": "FZsUkhxBEgqsPb4eO0PN",
    "sick": 1887,
    "invisible": false
  },
  {
    "longitude": -37.0717,
    "name": "Sergipe",
    "country": "BR",
    "lastUpdated": "2020-04-23T18:46:14.250Z",
    "dead": 7,
    "id": "FboWeolpM62SZCLwdilT",
    "infected": 117,
    "recovered": 0,
    "latitude": -10.9111,
    "pop": 2278308,
    "sick": 110,
    "invisible": false
  },
  {
    "lastUpdated": "2020-04-23T18:41:01.472Z",
    "dead": 20,
    "id": "FeS45oMNC27pI17F0xEV",
    "infected": 1683,
    "recovered": 752,
    "latitude": 11.1271,
    "pop": 67860000,
    "longitude": 78.6569,
    "name": "Tamil Nadu",
    "country": "IN",
    "sick": 911,
    "invisible": false
  },
  {
    "lastUpdated": "2020-04-23T18:38:03.067Z",
    "dead": 265,
    "id": "FuiVEJvWb0QMCpxJ3563",
    "infected": 5543,
    "recovered": 581,
    "latitude": 18.947829,
    "pop": 10770000,
    "longitude": -70.430399,
    "name": "Dominican Republic",
    "country": "DO",
    "sick": 4697,
    "invisible": false
  },
  {
    "lastUpdated": "2020-04-23T18:41:01.473Z",
    "dead": 25,
    "id": "FyC551oNwmENxbr9Yght",
    "infected": 970,
    "recovered": 252,
    "latitude": 18.1124,
    "pop": 35190000,
    "longitude": 79.0193,
    "name": "Telengana",
    "country": "IN",
    "sick": 693,
    "invisible": false
  },
  {
    "recovered": 288,
    "latitude": 48.669,
    "pop": 5450000,
    "longitude": 19.699,
    "name": "Slovakia",
    "country": "SK",
    "lastUpdated": "2020-04-23T18:38:03.078Z",
    "dead": 15,
    "id": "FzIDXoqWnTI3nUfhPyT2",
    "infected": 1325,
    "sick": 1022,
    "invisible": false
  },
  {
    "latitude": 30.37532,
    "pop": 197000000,
    "longitude": 69.345116,
    "name": "Pakistan",
    "country": "PK",
    "lastUpdated": "2020-04-23T18:38:03.065Z",
    "dead": 235,
    "id": "GAp7Wb6IMhdgbvEtMza9",
    "infected": 11057,
    "recovered": 2337,
    "sick": 8485,
    "invisible": false
  },
  {
    "latitude": 31.1471,
    "pop": 27980000,
    "longitude": 75.3412,
    "name": "Punjab",
    "country": "IN",
    "lastUpdated": "2020-04-23T18:41:01.474Z",
    "dead": 17,
    "id": "GGru8cG08mANO8XDDUtZ",
    "infected": 283,
    "recovered": 66,
    "sick": 200,
    "invisible": false
  },
  {
    "latitude": 23.424076,
    "pop": 9400000,
    "longitude": 53.847816,
    "name": "United Arab Emirates",
    "country": "AE",
    "lastUpdated": "2020-04-23T18:38:03.066Z",
    "dead": 56,
    "id": "GHzBIsHy2GiBc5JV2HMs",
    "infected": 8756,
    "recovered": 1637,
    "sick": 7063,
    "invisible": false
  },
  {
    "infected": 103,
    "recovered": 0,
    "latitude": 37.0902,
    "longitude": -95.7129,
    "name": "Grand Princess",
    "country": "US",
    "lastUpdated": "2020-04-23T18:26:21.546Z",
    "dead": 3,
    "id": "GLViSIjDjwvptOphedAu",
    "invisible": true,
    "sick": 100
  },
  {
    "infected": 22767,
    "recovered": 0,
    "latitude": 51.5074,
    "pop": 10100000,
    "longitude": -0.1278,
    "name": "London",
    "country": "GB",
    "lastUpdated": "2020-04-23T18:39:24.734Z",
    "dead": 0,
    "id": "GPtoS0Yy2EnNafpmmTqY",
    "sick": 22767,
    "invisible": false
  },
  {
    "id": "Gh46r6vuaY7fbGt3IboN",
    "infected": 37788,
    "recovered": 0,
    "latitude": 36.621981,
    "pop": 39560000,
    "longitude": -119.339046,
    "name": "California",
    "country": "US",
    "lastUpdated": "2020-04-23T18:26:21.536Z",
    "dead": 1440,
    "sick": 36348,
    "invisible": false
  },
  {
    "longitude": -97.145514,
    "name": "Oklahoma",
    "country": "US",
    "lastUpdated": "2020-04-23T18:26:21.544Z",
    "dead": 179,
    "id": "GpF8ULuKOQiFDCUHN44h",
    "infected": 3017,
    "recovered": 0,
    "latitude": 35.87189,
    "pop": 3943000,
    "sick": 2838,
    "invisible": false
  },
  {
    "latitude": 46.5,
    "pop": 520891,
    "longitude": 11.35,
    "name": "P.A. Bolzano",
    "country": "IT",
    "lastUpdated": "2020-04-23T18:31:02.102Z",
    "dead": 261,
    "id": "Gzx6GX1qhBm714BkEC6l",
    "infected": 2435,
    "recovered": 680,
    "sick": 1494,
    "invisible": false
  },
  {
    "id": "H3JeVigVbo5CSYfZG4WI",
    "infected": 194,
    "recovered": 108,
    "latitude": 42.83263,
    "pop": 24710000,
    "longitude": 113.750972,
    "name": "Inner Mongolia",
    "country": "CN",
    "lastUpdated": "2020-04-23T18:08:10.644Z",
    "dead": 1,
    "sick": 85,
    "invisible": false
  },
  {
    "longitude": -116.724977,
    "name": "Nevada",
    "country": "US",
    "lastUpdated": "2020-04-23T18:26:21.543Z",
    "dead": 188,
    "id": "H3bDg4eV30up4WWrIDAS",
    "infected": 4176,
    "recovered": 0,
    "latitude": 39.74536,
    "pop": 3034000,
    "sick": 3988,
    "invisible": false
  },
  {
    "longitude": -38.526669,
    "name": "Ceará",
    "country": "BR",
    "lastUpdated": "2020-04-23T18:46:14.248Z",
    "dead": 233,
    "id": "HEMWNnFxeFEoeOCBOLJD",
    "infected": 3910,
    "recovered": 0,
    "latitude": -3.731862,
    "pop": 9075649,
    "sick": 3677,
    "invisible": false
  },
  {
    "latitude": 15.3173,
    "pop": 64060000,
    "longitude": 75.7139,
    "name": "Karnataka",
    "country": "IN",
    "lastUpdated": "2020-04-23T18:41:01.473Z",
    "dead": 17,
    "id": "HN5mGmxlqlSeFSNeu1K5",
    "infected": 445,
    "recovered": 145,
    "sick": 283,
    "invisible": false
  },
  {
    "recovered": 3,
    "latitude": 27.5142,
    "pop": 807610,
    "longitude": 90.4336,
    "name": "Bhutan",
    "country": "BT",
    "lastUpdated": "2020-04-23T18:38:03.098Z",
    "dead": 0,
    "id": "HRDpwyxpqW9RN0xLFyNu",
    "infected": 7,
    "sick": 4,
    "invisible": false
  },
  {
    "latitude": 41.3775,
    "pop": 32390000,
    "longitude": 64.5853,
    "name": "Uzbekistan",
    "country": "UZ",
    "lastUpdated": "2020-04-23T18:38:03.069Z",
    "dead": 7,
    "id": "HRTA10dtrruDEwjJEGMp",
    "infected": 1758,
    "recovered": 561,
    "sick": 1190,
    "invisible": false
  },
  {
    "recovered": 0,
    "latitude": 34.138916,
    "pop": 2095000,
    "longitude": -105.576255,
    "name": "New Mexico",
    "country": "US",
    "lastUpdated": "2020-04-23T18:26:21.545Z",
    "dead": 71,
    "id": "HSSFomRju0doHhWgW8On",
    "infected": 2210,
    "sick": 2139,
    "invisible": false
  },
  {
    "recovered": 0,
    "latitude": -40.231,
    "pop": 412812,
    "longitude": -72.3311,
    "name": "Los Ríos",
    "country": "CL",
    "lastUpdated": "2020-04-23T18:37:06.131Z",
    "dead": 3,
    "id": "HZkACHjW7NlYjg8vEMj2",
    "infected": 173,
    "sick": 170,
    "invisible": false
  },
  {
    "lastUpdated": "2020-04-23T18:30:09.328Z",
    "dead": 16,
    "id": "He1gSS1v50t06i3YrqvB",
    "infected": 661,
    "recovered": 504,
    "latitude": 53.6127,
    "pop": 1635000,
    "longitude": 12.4296,
    "name": "Mecklenburg-Vorpommern",
    "country": "DE",
    "sick": 141,
    "invisible": false
  },
  {
    "id": "I9EqrZfbPnkioNU4wZGz",
    "infected": 2785,
    "recovered": 405,
    "latitude": 42.25,
    "pop": 1315000,
    "longitude": 13.75,
    "name": "Abruzzo",
    "country": "IT",
    "lastUpdated": "2020-04-23T18:31:02.099Z",
    "dead": 280,
    "sick": 2100,
    "invisible": false
  },
  {
    "latitude": 23.363855,
    "pop": 113460000,
    "longitude": 113.373448,
    "name": "Guangdong",
    "country": "CN",
    "lastUpdated": "2020-04-23T18:08:10.644Z",
    "dead": 8,
    "id": "IAX0OQLVnUwU7FX0ENF1",
    "infected": 1584,
    "recovered": 1518,
    "sick": 58,
    "invisible": false
  },
  {
    "latitude": 33.875408,
    "pop": 94000000,
    "longitude": 113.484016,
    "name": "Henan",
    "country": "CN",
    "lastUpdated": "2020-04-23T18:08:10.646Z",
    "dead": 22,
    "id": "IFuMrMvSjoiX5agYvllh",
    "infected": 1276,
    "recovered": 1254,
    "sick": 0,
    "invisible": false
  },
  {
    "infected": 318,
    "recovered": 0,
    "latitude": 37.2,
    "pop": 451000,
    "longitude": -8.16667,
    "name": "Algarve",
    "country": "PT",
    "lastUpdated": "2020-04-23T18:34:01.403Z",
    "dead": 11,
    "id": "IHqRHC8K3OZPN8gniM7V",
    "sick": 307,
    "invisible": false
  },
  {
    "latitude": 3.883,
    "pop": 333194,
    "longitude": -77.0197,
    "name": "Buenaventura D.E.",
    "country": "CO",
    "lastUpdated": "2020-04-23T12:32:11.010Z",
    "dead": 1,
    "id": "IKWjRUo0SYgHQKdWjTvq",
    "infected": 17,
    "recovered": 0,
    "sick": 16,
    "invisible": false
  },
  {
    "id": "INyu1R48Ppv8cfW4Nuz4",
    "infected": 5802,
    "recovered": 0,
    "latitude": 52.87,
    "pop": 4811000,
    "longitude": -0.995,
    "name": "East Midlands",
    "country": "GB",
    "lastUpdated": "2020-04-23T18:39:24.734Z",
    "dead": 0,
    "sick": 5802,
    "invisible": false
  },
  {
    "latitude": 22.017,
    "pop": 1342600,
    "longitude": -102.317,
    "name": "Aguascalientes",
    "country": "MX",
    "lastUpdated": "2020-04-23T18:40:09.250Z",
    "dead": 5,
    "id": "ISRKMzEDojyrZ9iyWwex",
    "infected": 136,
    "recovered": 0,
    "sick": 131,
    "invisible": false
  },
  {
    "recovered": 0,
    "latitude": 25.686613,
    "pop": 5321300,
    "longitude": -100.316116,
    "name": "Nuevo León",
    "country": "MX",
    "lastUpdated": "2020-04-23T18:40:09.250Z",
    "dead": 8,
    "id": "IdKbgzgKLpjBFh4UPOwu",
    "infected": 331,
    "sick": 323,
    "invisible": false
  },
  {
    "id": "IhhiYI6T0TX4CYVPcnmH",
    "infected": 236,
    "recovered": 0,
    "latitude": 28.632996,
    "pop": 3826900,
    "longitude": -106.069099,
    "name": "Chihuahua",
    "country": "MX",
    "lastUpdated": "2020-04-23T18:40:09.248Z",
    "dead": 40,
    "sick": 196,
    "invisible": false
  },
  {
    "infected": 708,
    "recovered": 0,
    "latitude": -36.7,
    "pop": 480600,
    "longitude": -72.57,
    "name": "Ñuble",
    "country": "CL",
    "lastUpdated": "2020-04-23T18:37:06.130Z",
    "dead": 13,
    "id": "ImnOiVx9Cb8Nw7cbRcQ7",
    "sick": 695,
    "invisible": false
  },
  {
    "longitude": -73.0513,
    "name": "Haiti",
    "country": "HT",
    "lastUpdated": "2020-04-23T18:38:03.086Z",
    "dead": 4,
    "id": "InZ38sIqyK7FN7XAOZoX",
    "infected": 62,
    "recovered": 2,
    "latitude": 19.0558,
    "pop": 10980000,
    "sick": 56,
    "invisible": false
  },
  {
    "recovered": 0,
    "latitude": 32.528564,
    "pop": 10520000,
    "longitude": -83.280125,
    "name": "Georgia (US)",
    "country": "US",
    "lastUpdated": "2020-04-23T18:26:21.540Z",
    "dead": 871,
    "id": "IvQkDJkTAsoIqPRAU25n",
    "infected": 21571,
    "sick": 20700,
    "invisible": false
  },
  {
    "infected": 1451,
    "recovered": 1065,
    "latitude": -42.8285,
    "pop": 4794000,
    "longitude": 172.488081,
    "name": "New Zealand",
    "country": "NZ",
    "lastUpdated": "2020-04-23T18:38:03.077Z",
    "dead": 16,
    "id": "IvVhpOoGpH6JVkGyUhXN",
    "sick": 370,
    "invisible": false
  },
  {
    "infected": 1,
    "recovered": 1,
    "latitude": 28.218,
    "pop": 1255000,
    "longitude": 94.7278,
    "name": "Arunachal Pradesh",
    "country": "IN",
    "lastUpdated": "2020-04-23T18:41:01.476Z",
    "dead": 0,
    "id": "IwYKiIVY18NGwdGQFGWW",
    "sick": 0,
    "invisible": false
  },
  {
    "id": "J3mZXlfEnnJx4CDZLvRG",
    "infected": 298,
    "recovered": 122,
    "latitude": 6.4238,
    "pop": 31980000,
    "longitude": -66.5897,
    "name": "Venezuela",
    "country": "VE",
    "lastUpdated": "2020-04-23T18:38:03.082Z",
    "dead": 10,
    "sick": 166,
    "invisible": false
  },
  {
    "id": "JQByE4l2OA6sGOqIcWrM",
    "infected": 795,
    "recovered": 98,
    "latitude": 35.1264,
    "pop": 1170000,
    "longitude": 33.4299,
    "name": "Cyprus",
    "country": "CY",
    "lastUpdated": "2020-04-23T18:38:03.079Z",
    "dead": 13,
    "sick": 684,
    "invisible": false
  },
  {
    "infected": 170,
    "recovered": 44,
    "latitude": 25.0961,
    "pop": 99020000,
    "longitude": 85.3131,
    "name": "Bihar",
    "country": "IN",
    "lastUpdated": "2020-04-23T18:41:01.474Z",
    "dead": 2,
    "id": "JR7hOGked7CZtIs2nCV5",
    "sick": 124,
    "invisible": false
  },
  {
    "longitude": -90.522713,
    "name": "Guatemala",
    "country": "GT",
    "lastUpdated": "2020-04-23T18:38:03.081Z",
    "dead": 10,
    "id": "JUWE6bG3b5oL7fKQMSvv",
    "infected": 342,
    "recovered": 25,
    "latitude": 14.628434,
    "pop": 17250000,
    "sick": 307,
    "invisible": false
  },
  {
    "id": "JcFsHSn2WvZ5LJW42ovG",
    "infected": 3665,
    "recovered": 728,
    "latitude": 49.8153,
    "pop": 602005,
    "longitude": 6.1296,
    "name": "Luxembourg",
    "country": "LU",
    "lastUpdated": "2020-04-23T18:38:03.067Z",
    "dead": 83,
    "sick": 2854,
    "invisible": false
  },
  {
    "infected": 14,
    "recovered": 2,
    "latitude": 8.8,
    "pop": 2049000,
    "longitude": -74.167,
    "name": "Bolívar",
    "country": "CO",
    "lastUpdated": "2020-04-23T12:32:11.010Z",
    "dead": 2,
    "id": "JmOyaFe25yZCIV64JbZj",
    "sick": 10,
    "invisible": false
  },
  {
    "id": "Jp9ePErcc8i1aOozEAMf",
    "infected": 1047,
    "recovered": 0,
    "latitude": 31.4,
    "pop": 3648100,
    "longitude": -115.783,
    "name": "Baja California",
    "country": "MX",
    "lastUpdated": "2020-04-23T18:40:09.243Z",
    "dead": 136,
    "sick": 911,
    "invisible": false
  },
  {
    "latitude": 8.7479801,
    "pop": 1786500,
    "longitude": -75.8814316,
    "name": "Córdoba",
    "country": "CO",
    "lastUpdated": "2020-04-23T12:32:11.010Z",
    "dead": 2,
    "id": "Jr8syCB0lydmPDXw8Q6N",
    "infected": 21,
    "recovered": 3,
    "sick": 16,
    "invisible": false
  },
  {
    "infected": 88,
    "recovered": 59,
    "latitude": 8.6195,
    "pop": 7798000,
    "longitude": 0.8248,
    "name": "Togo",
    "country": "TG",
    "lastUpdated": "2020-04-23T18:38:03.085Z",
    "dead": 6,
    "id": "JrBbirlBKGdWSdcDt7PF",
    "sick": 23,
    "invisible": false
  },
  {
    "latitude": 42.7339,
    "pop": 7050000,
    "longitude": 25.4858,
    "name": "Bulgaria",
    "country": "BG",
    "lastUpdated": "2020-04-23T18:38:03.079Z",
    "dead": 52,
    "id": "JzZ8sbqzjutThVjkPKPL",
    "infected": 1097,
    "recovered": 190,
    "sick": 855,
    "invisible": false
  },
  {
    "recovered": 0,
    "latitude": 50.823,
    "pop": 1263000,
    "longitude": 20.709,
    "name": "Świętokrzyskie",
    "country": "PL",
    "lastUpdated": "2020-04-23T18:33:08.638Z",
    "dead": 6,
    "id": "KGrK7gafkeWjmU6sHQd2",
    "infected": 248,
    "sick": 242,
    "invisible": false
  },
  {
    "latitude": 44.5,
    "pop": 1557000,
    "longitude": 8.833,
    "name": "Liguria",
    "country": "IT",
    "lastUpdated": "2020-04-23T18:31:02.103Z",
    "dead": 1047,
    "id": "KLXicxFogWnu0dLp4bNK",
    "infected": 7049,
    "recovered": 2536,
    "sick": 3466,
    "invisible": false
  },
  {
    "infected": 35,
    "recovered": 17,
    "latitude": 10.4631,
    "pop": 1201000,
    "longitude": -73.2532,
    "name": "Cesar",
    "country": "CO",
    "lastUpdated": "2020-04-23T12:32:11.009Z",
    "dead": 1,
    "id": "KpOz3WmiZkrXUMlUJNlV",
    "sick": 17,
    "invisible": false
  },
  {
    "infected": 8780,
    "recovered": 1886,
    "latitude": 43.4167,
    "pop": 3737000,
    "longitude": 11,
    "name": "Toscana",
    "country": "IT",
    "lastUpdated": "2020-04-23T18:31:02.104Z",
    "dead": 723,
    "id": "KrLrJbpDqqiXgUPGCCW9",
    "sick": 6171,
    "invisible": false
  },
  {
    "recovered": 107,
    "latitude": 7.873054,
    "pop": 21440000,
    "longitude": 80.771797,
    "name": "Sri Lanka",
    "country": "LK",
    "lastUpdated": "2020-04-23T18:38:03.081Z",
    "dead": 7,
    "id": "KsWzJO06cf0d6LJ4ZNh9",
    "infected": 368,
    "sick": 254,
    "invisible": false
  },
  {
    "infected": 893,
    "recovered": 141,
    "latitude": 15.9129,
    "pop": 49670000,
    "longitude": 79.74,
    "name": "Andhra Pradesh",
    "country": "IN",
    "lastUpdated": "2020-04-23T18:41:01.473Z",
    "dead": 27,
    "id": "KtQIo2DoqjELtPAlyDVO",
    "sick": 725,
    "invisible": false
  },
  {
    "infected": 62773,
    "recovered": 4891,
    "latitude": 61.52401,
    "pop": 144500000,
    "longitude": 105.318756,
    "name": "Russia",
    "country": "RU",
    "lastUpdated": "2020-04-23T18:38:03.062Z",
    "dead": 555,
    "id": "KwOuGBKSMRlmwftxAvLX",
    "sick": 57327,
    "invisible": false
  },
  {
    "latitude": 18.0708,
    "pop": 32125,
    "longitude": -63.0501,
    "name": "Saint-Martin",
    "country": "FR",
    "lastUpdated": "2020-04-23T18:38:03.091Z",
    "dead": 2,
    "id": "LBUtrLDKJiupXjlUNTUe",
    "infected": 38,
    "recovered": 19,
    "sick": 17,
    "invisible": false
  },
  {
    "infected": 81,
    "recovered": 55,
    "latitude": 47.166,
    "pop": 38557,
    "longitude": 9.5554,
    "name": "Liechtenstein",
    "country": "LI",
    "lastUpdated": "2020-04-23T18:38:03.086Z",
    "dead": 1,
    "id": "LTGEU2E9MFkrCcFhZYVk",
    "sick": 25,
    "invisible": false
  },
  {
    "id": "LU2QWt5ao8IJa8evNYVV",
    "infected": 862,
    "recovered": 170,
    "latitude": 9.9456,
    "pop": 12720000,
    "longitude": -9.6966,
    "name": "Guinea",
    "country": "GN",
    "lastUpdated": "2020-04-23T18:38:03.079Z",
    "dead": 6,
    "sick": 686,
    "invisible": false
  },
  {
    "lastUpdated": "2020-04-23T18:40:09.249Z",
    "dead": 22,
    "id": "LYCBHrA9ms6GcxpLGPCT",
    "infected": 181,
    "recovered": 0,
    "latitude": 29.6667,
    "pop": 3062000,
    "longitude": -110.5,
    "name": "Sonora",
    "country": "MX",
    "sick": 159,
    "invisible": false
  },
  {
    "infected": 10,
    "recovered": 6,
    "latitude": 3.9193051,
    "pop": 563402,
    "longitude": -56.0277824,
    "name": "Suriname",
    "country": "SR",
    "lastUpdated": "2020-04-23T18:38:03.097Z",
    "dead": 1,
    "id": "LglKINHyQpYpFxjckbQ6",
    "sick": 3,
    "invisible": false
  },
  {
    "longitude": -106.4509,
    "name": "Saskatchewan",
    "country": "CA",
    "lastUpdated": "2020-04-23T18:36:07.322Z",
    "dead": 4,
    "id": "LkIDKY0CMAqzbwBHyYCP",
    "infected": 326,
    "recovered": 0,
    "latitude": 52.9399,
    "pop": 1174000,
    "sick": 322,
    "invisible": false
  },
  {
    "id": "LooNn6RuMiDhQnwa9svw",
    "infected": 6,
    "recovered": 5,
    "latitude": 24.2155,
    "pop": 636442,
    "longitude": -12.8858,
    "name": "Western Sahara",
    "country": "EH",
    "lastUpdated": "2020-04-23T18:38:03.099Z",
    "dead": 0,
    "sick": 1,
    "invisible": false
  },
  {
    "lastUpdated": "2020-04-23T18:41:10.986Z",
    "dead": 223,
    "id": "Lsga7AvYNnY0qQ5gEfV8",
    "infected": 2453,
    "recovered": 665,
    "latitude": 43.363129,
    "pop": 1022000,
    "longitude": -5.951843,
    "name": "Principado de Asturias",
    "country": "ES",
    "sick": 1565,
    "invisible": false
  },
  {
    "lastUpdated": "2020-04-23T18:41:10.988Z",
    "dead": 407,
    "id": "LuEErlF7dVKI0eJsRjFm",
    "infected": 3260,
    "recovered": 1237,
    "latitude": 39.4937,
    "pop": 1065000,
    "longitude": -6.0679,
    "name": "Extremadura",
    "country": "ES",
    "sick": 1616,
    "invisible": false
  },
  {
    "lastUpdated": "2020-04-23T18:40:09.249Z",
    "dead": 12,
    "id": "M3wdiueFtwrUHiQ2rOXA",
    "infected": 215,
    "recovered": 0,
    "latitude": 21.0186,
    "pop": 5965000,
    "longitude": -101.2591,
    "name": "Guanajuato",
    "country": "MX",
    "sick": 203,
    "invisible": false
  },
  {
    "latitude": 37.8393,
    "pop": 4468000,
    "longitude": -84.27,
    "name": "Kentucky",
    "country": "US",
    "lastUpdated": "2020-04-23T18:26:21.544Z",
    "dead": 185,
    "id": "MC8MXFw9iXYybnF8v7e6",
    "infected": 3373,
    "recovered": 0,
    "sick": 3188,
    "invisible": false
  },
  {
    "infected": 19460,
    "recovered": 0,
    "latitude": 55.3781,
    "longitude": -3.436,
    "name": "Unknown UK region or state",
    "country": "GB",
    "lastUpdated": "2020-04-23T18:39:24.735Z",
    "dead": 16785,
    "id": "MEjlm8VYdGA28TTTnQmf",
    "invisible": true,
    "sick": 2675
  },
  {
    "infected": 13382,
    "recovered": 0,
    "latitude": 41.3006,
    "pop": 3689000,
    "longitude": -7.7441,
    "name": "Norte",
    "country": "PT",
    "lastUpdated": "2020-04-23T18:34:01.403Z",
    "dead": 475,
    "id": "MG4e9tulLJ010SZJvbYN",
    "sick": 12907,
    "invisible": false
  },
  {
    "infected": 9409,
    "recovered": 0,
    "latitude": 56.4907,
    "pop": 5450000,
    "longitude": -4.2026,
    "name": "Scotland",
    "country": "GB",
    "lastUpdated": "2020-04-23T18:39:24.733Z",
    "dead": 1062,
    "id": "MObRYyIriHG337L8FyFC",
    "sick": 8347,
    "invisible": false
  },
  {
    "longitude": -86.1349,
    "name": "Indiana",
    "country": "US",
    "lastUpdated": "2020-04-23T18:26:21.541Z",
    "dead": 666,
    "id": "MOxDkmQ4wBi1CuAdVxDE",
    "infected": 12438,
    "recovered": 0,
    "latitude": 40.2672,
    "pop": 6692000,
    "sick": 11772,
    "invisible": false
  },
  {
    "recovered": 310,
    "latitude": 7.54,
    "pop": 24290000,
    "longitude": -5.5471,
    "name": "Ivory Coast",
    "country": "CI",
    "lastUpdated": "2020-04-23T18:38:03.079Z",
    "dead": 14,
    "id": "MdQOfc1gNh2DOqwSP6UV",
    "infected": 952,
    "sick": 628,
    "invisible": false
  },
  {
    "recovered": 19049,
    "latitude": 51.4332,
    "pop": 17910000,
    "longitude": 7.6616,
    "name": "Nordrhein-Westfalen",
    "country": "DE",
    "lastUpdated": "2020-04-23T18:30:09.329Z",
    "dead": 1036,
    "id": "MjpYq3zQyAvSQlVVYjD2",
    "infected": 31320,
    "sick": 11235,
    "invisible": false
  },
  {
    "infected": 75,
    "recovered": 75,
    "latitude": 37.330509,
    "pop": 6301000,
    "longitude": 105.977203,
    "name": "Ningxia",
    "country": "CN",
    "lastUpdated": "2020-04-23T18:08:10.646Z",
    "dead": 0,
    "id": "MntmjjuHljarCdt6aIeE",
    "sick": 0,
    "invisible": false
  },
  {
    "infected": 1195,
    "recovered": 0,
    "latitude": -3.20166586,
    "pop": 8513497,
    "longitude": -52.203499186,
    "name": "Pará",
    "country": "BR",
    "lastUpdated": "2020-04-23T18:46:14.249Z",
    "dead": 43,
    "id": "MuEB2UgkId5crsxi9zQT",
    "sick": 1152,
    "invisible": false
  },
  {
    "longitude": 9.3501,
    "name": "Baden-Württemberg",
    "country": "DE",
    "lastUpdated": "2020-04-23T18:30:09.318Z",
    "dead": 1208,
    "id": "N3XsRBwJSsNclkEf7Zz5",
    "infected": 30932,
    "recovered": 17807,
    "latitude": 48.6616,
    "pop": 11020000,
    "sick": 11917,
    "invisible": false
  },
  {
    "latitude": 44.696652,
    "pop": 3507000,
    "longitude": 17.824332,
    "name": "Bosnia and Herzegovina",
    "country": "BA",
    "lastUpdated": "2020-04-23T18:38:03.077Z",
    "dead": 54,
    "id": "N7c13sCQF0G789XAVazJ",
    "infected": 1413,
    "recovered": 485,
    "sick": 874,
    "invisible": false
  },
  {
    "latitude": 37.242565,
    "pop": 36500000,
    "longitude": 111.856857,
    "name": "Shanxi",
    "country": "CN",
    "lastUpdated": "2020-04-23T18:08:10.644Z",
    "dead": 0,
    "id": "NBRIGIRrJB1Ry8prDNAC",
    "infected": 197,
    "recovered": 142,
    "sick": 55,
    "invisible": false
  },
  {
    "latitude": 35.7596,
    "pop": 10380000,
    "longitude": -79.0193,
    "name": "North Carolina",
    "country": "US",
    "lastUpdated": "2020-04-23T18:26:21.541Z",
    "dead": 275,
    "id": "NC64Qp5kTqAfiTuR27k8",
    "infected": 7762,
    "recovered": 0,
    "sick": 7487,
    "invisible": false
  },
  {
    "longitude": 12.5316,
    "name": "Brandenburg",
    "country": "DE",
    "lastUpdated": "2020-04-23T18:30:09.327Z",
    "dead": 111,
    "id": "NJjo2gfBvnbK4xatrsUz",
    "infected": 2581,
    "recovered": 1490,
    "latitude": 52.4125,
    "pop": 2504000,
    "sick": 980,
    "invisible": false
  },
  {
    "infected": 14,
    "recovered": 0,
    "latitude": 15.0979,
    "pop": 55144,
    "longitude": -145.6739,
    "name": "Northern Mariana Islands",
    "country": "MP",
    "lastUpdated": "2020-04-23T18:26:21.547Z",
    "dead": 2,
    "id": "NLLL6pJhJSw0lrDMD4uP",
    "sick": 12,
    "invisible": false
  },
  {
    "infected": 47,
    "recovered": 24,
    "latitude": 30.0668,
    "pop": 10080000,
    "longitude": 79.0193,
    "name": "Uttarakhand",
    "country": "IN",
    "lastUpdated": "2020-04-23T18:41:01.474Z",
    "dead": 0,
    "id": "NMeZEcGToxXfpi16PfFV",
    "sick": 23,
    "invisible": false
  },
  {
    "latitude": 50.6521,
    "pop": 6243000,
    "longitude": 9.1624,
    "name": "Hessen",
    "country": "DE",
    "lastUpdated": "2020-04-23T18:30:09.328Z",
    "dead": 293,
    "id": "Nk5vPgUIXsWVfbWZf15O",
    "infected": 7683,
    "recovered": 3781,
    "sick": 3609,
    "invisible": false
  },
  {
    "id": "NmmMKy0YqA8StHdGzB5N",
    "infected": 778,
    "recovered": 133,
    "latitude": 56.96776,
    "pop": 1920000,
    "longitude": 25.837107,
    "name": "Latvia",
    "country": "LV",
    "lastUpdated": "2020-04-23T18:38:03.079Z",
    "dead": 11,
    "sick": 634,
    "invisible": false
  },
  {
    "recovered": 0,
    "latitude": -8.472372,
    "pop": 9496294,
    "longitude": -37.946777,
    "name": "Pernambuco",
    "country": "BR",
    "lastUpdated": "2020-04-23T18:46:14.249Z",
    "dead": 282,
    "id": "NyGlFL1gATK1Omv9qtcC",
    "infected": 3298,
    "sick": 3016,
    "invisible": false
  },
  {
    "id": "O4g88K49HKEZLFXm5gxb",
    "infected": 101,
    "recovered": 20,
    "latitude": 6.4281,
    "pop": 4732000,
    "longitude": -9.4295,
    "name": "Liberia",
    "country": "LR",
    "lastUpdated": "2020-04-23T18:38:03.085Z",
    "dead": 8,
    "sick": 73,
    "invisible": false
  },
  {
    "infected": 4761,
    "recovered": 0,
    "latitude": 34.003307,
    "pop": 5084000,
    "longitude": -80.525613,
    "name": "South Carolina",
    "country": "US",
    "lastUpdated": "2020-04-23T18:26:21.542Z",
    "dead": 140,
    "id": "ONU4CK8QjViFHKg2w5if",
    "sick": 4621,
    "invisible": false
  },
  {
    "longitude": -89.582775,
    "name": "Mississippi",
    "country": "US",
    "lastUpdated": "2020-04-23T17:26:19.996Z",
    "dead": 201,
    "id": "OYa0jFzdbAgo8zUsRv6q",
    "infected": 5154,
    "recovered": 0,
    "latitude": 33.51822,
    "pop": 2987000,
    "sick": 4953,
    "invisible": false
  },
  {
    "lastUpdated": "2020-04-23T17:26:19.998Z",
    "dead": 44,
    "id": "OcXNp9kNVSwrRlG3bNVN",
    "infected": 939,
    "recovered": 0,
    "latitude": 45.2538,
    "pop": 1338000,
    "longitude": -69.4455,
    "name": "Maine",
    "country": "US",
    "sick": 895,
    "invisible": false
  },
  {
    "infected": 207,
    "recovered": 67,
    "latitude": -41.915264,
    "pop": 515000,
    "longitude": 146.725256,
    "name": "Tasmania",
    "country": "AU",
    "lastUpdated": "2020-04-23T18:36:07.322Z",
    "dead": 7,
    "id": "OnOseaqWdnuP18oruABW",
    "sick": 133,
    "invisible": false
  },
  {
    "id": "P0GHFGUt1pkKTk5PM8uz",
    "infected": 183,
    "recovered": 0,
    "latitude": -16.35,
    "pop": 3441998,
    "longitude": -56.666668,
    "name": "Mato Grosso",
    "country": "BR",
    "lastUpdated": "2020-04-23T18:46:14.249Z",
    "dead": 6,
    "sick": 177,
    "invisible": false
  },
  {
    "latitude": 19.3133,
    "pop": 61559,
    "longitude": -81.2546,
    "name": "Cayman Islands",
    "country": "KY",
    "lastUpdated": "2020-04-23T18:38:03.086Z",
    "dead": 1,
    "id": "P4mwRFLbrvT0t75uD8Wo",
    "infected": 66,
    "recovered": 7,
    "sick": 58,
    "invisible": false
  },
  {
    "id": "PEDkeFMTOZpvHiSVxBk7",
    "infected": 11,
    "recovered": 2,
    "latitude": 16.7424984,
    "pop": 5900,
    "longitude": -62.1873665,
    "name": "Montserrat",
    "country": "MS",
    "lastUpdated": "2020-04-23T18:38:03.097Z",
    "dead": 0,
    "sick": 9,
    "invisible": false
  },
  {
    "latitude": -1.9403,
    "pop": 12210000,
    "longitude": 29.8739,
    "name": "Rwanda",
    "country": "RW",
    "lastUpdated": "2020-04-23T18:38:03.083Z",
    "dead": 0,
    "id": "PEcgZGEkyhABztt1Ufgc",
    "infected": 154,
    "recovered": 87,
    "sick": 67,
    "invisible": false
  },
  {
    "infected": 2942,
    "recovered": 0,
    "latitude": 46.7296,
    "pop": 5611000,
    "longitude": -94.6859,
    "name": "Minnesota",
    "country": "US",
    "lastUpdated": "2020-04-23T18:26:21.544Z",
    "dead": 200,
    "id": "PJvVYosLIhbcRZYnKX1R",
    "sick": 2742,
    "invisible": false
  },
  {
    "infected": 35109,
    "recovered": 0,
    "latitude": 40.6331,
    "pop": 12740000,
    "longitude": -89.3985,
    "name": "Illinois",
    "country": "US",
    "lastUpdated": "2020-04-23T18:26:21.537Z",
    "dead": 1565,
    "id": "PTwQr9ijo0TBBsPH2sdJ",
    "sick": 33544,
    "invisible": false
  },
  {
    "latitude": 13.909444,
    "pop": 178844,
    "longitude": -60.978893,
    "name": "Saint Lucia",
    "country": "LC",
    "lastUpdated": "2020-04-23T18:38:03.096Z",
    "dead": 0,
    "id": "PjLqCeFdyzdZNcZxMkK1",
    "infected": 15,
    "recovered": 15,
    "sick": 0,
    "invisible": false
  },
  {
    "longitude": -1.6761,
    "name": "Comunidad Foral de Navarra",
    "country": "ES",
    "lastUpdated": "2020-04-23T18:41:10.988Z",
    "dead": 409,
    "id": "PmUlsNx2uFLU797wwU39",
    "infected": 4994,
    "recovered": 1445,
    "latitude": 42.6954,
    "pop": 649900,
    "sick": 3140,
    "invisible": false
  },
  {
    "longitude": 9.460554,
    "name": "Tunisia",
    "country": "TN",
    "lastUpdated": "2020-04-23T18:38:03.079Z",
    "dead": 38,
    "id": "Pr76V4raf108uSRoEXac",
    "infected": 909,
    "recovered": 190,
    "latitude": 34.201507,
    "pop": 11530000,
    "sick": 681,
    "invisible": false
  },
  {
    "longitude": 31.4659,
    "name": "Eswatini",
    "country": "SZ",
    "lastUpdated": "2020-04-23T18:38:03.091Z",
    "dead": 1,
    "id": "PuQgOd9KWiMzGZXm11sR",
    "infected": 31,
    "recovered": 8,
    "latitude": -26.5225,
    "pop": 1367000,
    "sick": 22,
    "invisible": false
  },
  {
    "infected": 1337,
    "recovered": 1172,
    "latitude": -37.009609,
    "pop": 6359000,
    "longitude": 143.94853,
    "name": "Victoria",
    "country": "AU",
    "lastUpdated": "2020-04-23T18:36:07.321Z",
    "dead": 14,
    "id": "Q18mrGvFWTLX2BU9SqhQ",
    "sick": 151,
    "invisible": false
  },
  {
    "latitude": 54.2194,
    "pop": 2890000,
    "longitude": 9.6961,
    "name": "Schleswig-Holstein",
    "country": "DE",
    "lastUpdated": "2020-04-23T18:30:09.330Z",
    "dead": 91,
    "id": "Q39XkabIYxt15mHINzTa",
    "infected": 2524,
    "recovered": 1800,
    "sick": 633,
    "invisible": false
  },
  {
    "latitude": -27.953491,
    "pop": 11329605,
    "longitude": -52.031696,
    "name": "Rio Grande do Sul",
    "country": "BR",
    "lastUpdated": "2020-04-23T18:46:14.249Z",
    "dead": 27,
    "id": "QGpQNhuoVTUPHXvS7qcu",
    "infected": 923,
    "recovered": 0,
    "sick": 896,
    "invisible": false
  },
  {
    "lastUpdated": "2020-04-23T18:38:03.070Z",
    "dead": 45,
    "id": "QR9go2hQKXjty7JHUYe4",
    "infected": 1592,
    "recovered": 192,
    "latitude": 58.595272,
    "pop": 1328000,
    "longitude": 25.013607,
    "name": "Estonia",
    "country": "EE",
    "sick": 1355,
    "invisible": false
  },
  {
    "lastUpdated": "2020-04-23T18:46:14.248Z",
    "dead": 34,
    "id": "QaWDLKH8SuwD0Qxq6c38",
    "infected": 1313,
    "recovered": 0,
    "latitude": -20.318,
    "pop": 3972388,
    "longitude": -40.336,
    "name": "Espírito Santo",
    "country": "BR",
    "sick": 1279,
    "invisible": false
  },
  {
    "infected": 253,
    "recovered": 0,
    "latitude": 20.3333,
    "pop": 8222700,
    "longitude": -103.6667,
    "name": "Jalisco",
    "country": "MX",
    "lastUpdated": "2020-04-23T18:40:09.250Z",
    "dead": 15,
    "id": "Qkho455pBwx88Gohs3hL",
    "sick": 238,
    "invisible": false
  },
  {
    "infected": 8,
    "recovered": 0,
    "latitude": -6.315,
    "pop": 8251000,
    "longitude": 143.9555,
    "name": "Papua New Guinea",
    "country": "PG",
    "lastUpdated": "2020-04-23T18:38:03.098Z",
    "dead": 0,
    "id": "QlZrE4nosm5WfdA2aCDg",
    "sick": 8,
    "invisible": false
  },
  {
    "latitude": 18.3358,
    "pop": 107268,
    "longitude": -64.8963,
    "name": "U.S. Virgin Islands",
    "country": "US",
    "lastUpdated": "2020-04-23T18:26:21.547Z",
    "dead": 3,
    "id": "QqhD3YDMKXojvQY3Yu41",
    "infected": 54,
    "recovered": 0,
    "sick": 51,
    "invisible": false
  },
  {
    "recovered": 9,
    "latitude": 15.414999,
    "pop": 71937,
    "longitude": -61.3709755,
    "name": "Dominica",
    "country": "DM",
    "lastUpdated": "2020-04-23T18:38:03.095Z",
    "dead": 0,
    "id": "Qy2qW2ep5wltnYjPJBxh",
    "infected": 16,
    "sick": 7,
    "invisible": false
  },
  {
    "infected": 10,
    "recovered": 2,
    "latitude": 5.167,
    "pop": 344027,
    "longitude": -72.167,
    "name": "Casanare",
    "country": "CO",
    "lastUpdated": "2020-04-23T12:32:11.009Z",
    "dead": 0,
    "id": "R3IHMWqIUhOJJTlrmbUZ",
    "sick": 8,
    "invisible": false
  },
  {
    "longitude": -80.7821,
    "name": "Panama",
    "country": "PA",
    "lastUpdated": "2020-04-23T18:38:03.067Z",
    "dead": 144,
    "id": "R8YCgephnxTufvcPWMgx",
    "infected": 4992,
    "recovered": 255,
    "latitude": 8.538,
    "pop": 4099000,
    "sick": 4593,
    "invisible": false
  },
  {
    "recovered": 31,
    "latitude": 15.2,
    "pop": 9265000,
    "longitude": -86.2419,
    "name": "Honduras",
    "country": "HN",
    "lastUpdated": "2020-04-23T18:38:03.081Z",
    "dead": 47,
    "id": "RA2SE0p2bVhqo0P2hzGY",
    "infected": 519,
    "sick": 441,
    "invisible": false
  },
  {
    "infected": 210,
    "recovered": 0,
    "latitude": -18.4745998,
    "pop": 224500,
    "longitude": -70.2979202,
    "name": "Arica y Parinacota",
    "country": "CL",
    "lastUpdated": "2020-04-23T18:37:06.123Z",
    "dead": 2,
    "id": "RBt9RiwP7WUbMnJfD0lo",
    "sick": 208,
    "invisible": false
  },
  {
    "lastUpdated": "2020-04-23T18:31:02.103Z",
    "dead": 256,
    "id": "RCrDBCdBNYzgLNr0aB2H",
    "infected": 2858,
    "recovered": 1467,
    "latitude": 45.633331,
    "pop": 1216000,
    "longitude": 13.8,
    "name": "Friuli Venezia Giulia",
    "country": "IT",
    "sick": 1135,
    "invisible": false
  },
  {
    "infected": 3926,
    "recovered": 0,
    "latitude": 41.878,
    "pop": 3156000,
    "longitude": -93.0977,
    "name": "Iowa",
    "country": "US",
    "lastUpdated": "2020-04-23T17:26:19.996Z",
    "dead": 95,
    "id": "RX0KDu1AFrlCsrRso0nb",
    "sick": 3831,
    "invisible": false
  },
  {
    "infected": 1836,
    "recovered": 294,
    "latitude": 4.624335,
    "pop": 7413000,
    "longitude": -74.063644,
    "name": "Bogotá D.C.",
    "country": "CO",
    "lastUpdated": "2020-04-23T12:32:10.993Z",
    "dead": 77,
    "id": "RZ6PCe5TZsO15JjDObwO",
    "sick": 1465,
    "invisible": false
  },
  {
    "latitude": 26.3351002,
    "pop": 6846000,
    "longitude": 17.2283306,
    "name": "Libya",
    "country": "LY",
    "lastUpdated": "2020-04-23T18:38:03.086Z",
    "dead": 1,
    "id": "RaJxbzlnRFTuj4B8IbpC",
    "infected": 60,
    "recovered": 15,
    "sick": 44,
    "invisible": false
  },
  {
    "lastUpdated": "2020-04-23T18:26:21.544Z",
    "dead": 112,
    "id": "Rf4uvBfP3GRDSHdZElRd",
    "infected": 2592,
    "recovered": 0,
    "latitude": 39.0119,
    "pop": 2912000,
    "longitude": -98.4842,
    "name": "Kansas",
    "country": "US",
    "sick": 2480,
    "invisible": false
  },
  {
    "longitude": 6.1878,
    "name": "Grand Est",
    "country": "FR",
    "lastUpdated": "2020-04-22T23:49:35.500Z",
    "dead": 2612,
    "id": "RmEgf1xeclWt7XCF9oiR",
    "infected": 19557,
    "recovered": 6672,
    "latitude": 48.6998,
    "pop": 5518000,
    "sick": 10273,
    "invisible": false
  },
  {
    "infected": 13672,
    "recovered": 2680,
    "latitude": 50.4176,
    "pop": 3644000,
    "longitude": 4.451,
    "name": "Wallonia",
    "country": "BE",
    "lastUpdated": "2020-04-23T18:29:05.074Z",
    "dead": 2292,
    "id": "RryHraSohKQLAsdr1dHO",
    "sick": 8700,
    "invisible": false
  },
  {
    "latitude": 51.2538,
    "pop": 14570000,
    "longitude": -85.3232,
    "name": "Ontario",
    "country": "CA",
    "lastUpdated": "2020-04-23T17:36:08.021Z",
    "dead": 776,
    "id": "Rx4TuyMpfGb3S8wYJX0x",
    "infected": 13825,
    "recovered": 0,
    "sick": 13049,
    "invisible": false
  },
  {
    "latitude": 41.652779,
    "pop": 2408000,
    "longitude": -4.723611,
    "name": "Castilla y León",
    "country": "ES",
    "lastUpdated": "2020-04-23T18:41:10.987Z",
    "dead": 1582,
    "id": "S8ewN4zaYp8mjtuqqOTw",
    "infected": 17402,
    "recovered": 5777,
    "sick": 10043,
    "invisible": false
  },
  {
    "latitude": 14.652027,
    "pop": 376480,
    "longitude": -61.011715,
    "name": "Martinique",
    "country": "FR",
    "lastUpdated": "2020-04-23T18:38:03.082Z",
    "dead": 14,
    "id": "SDdefnq1bc3ZNr7SpEsW",
    "infected": 164,
    "recovered": 73,
    "sick": 77,
    "invisible": false
  },
  {
    "infected": 1154,
    "recovered": 99,
    "latitude": 7.9465,
    "pop": 28830000,
    "longitude": -1.0232,
    "name": "Ghana",
    "country": "GH",
    "lastUpdated": "2020-04-23T18:38:03.079Z",
    "dead": 9,
    "id": "SG9VWLOV3x2JsTkXmVSz",
    "sick": 1046,
    "invisible": false
  },
  {
    "recovered": 19900,
    "latitude": 46.818188,
    "pop": 8570000,
    "longitude": 8.227512,
    "name": "Switzerland",
    "country": "CH",
    "lastUpdated": "2020-04-23T18:38:03.062Z",
    "dead": 1549,
    "id": "SGe9sCPayMqh6RsGFaBA",
    "infected": 28496,
    "sick": 7047,
    "invisible": false
  },
  {
    "latitude": 46.8139,
    "pop": 8485000,
    "longitude": -71.208,
    "name": "Quebec",
    "country": "CA",
    "lastUpdated": "2020-04-23T18:36:07.315Z",
    "dead": 1243,
    "id": "SHoOE3NiJgWAlDVBzwYH",
    "infected": 21838,
    "recovered": 0,
    "sick": 20595,
    "invisible": false
  },
  {
    "infected": 630,
    "recovered": 138,
    "latitude": 42.6026,
    "pop": 1831000,
    "longitude": 20.903,
    "name": "Kosovo",
    "country": "XK",
    "lastUpdated": "2020-04-23T18:10:11.437Z",
    "dead": 18,
    "id": "SMWvuMMuKp2QK7O2tNia",
    "sick": 474,
    "invisible": false
  },
  {
    "lastUpdated": "2020-04-23T18:41:01.476Z",
    "dead": 0,
    "id": "SPcujsH2YlUaoAr8AiWF",
    "infected": 7,
    "recovered": 7,
    "latitude": 15.2993,
    "pop": 1817000,
    "longitude": 74.124,
    "name": "Goa",
    "country": "IN",
    "sick": 0,
    "invisible": false
  },
  {
    "latitude": -16.328547,
    "pop": 6921161,
    "longitude": -48.953403,
    "name": "Goiás",
    "country": "BR",
    "lastUpdated": "2020-04-23T18:46:14.248Z",
    "dead": 21,
    "id": "SV5AMF59J61Vt4cXWLgy",
    "infected": 438,
    "recovered": 0,
    "sick": 417,
    "invisible": false
  },
  {
    "latitude": 39,
    "pop": 1957000,
    "longitude": 16.5,
    "name": "Calabria",
    "country": "IT",
    "lastUpdated": "2020-04-23T18:31:02.102Z",
    "dead": 76,
    "id": "SZdF624x0v1LlyzZjKFu",
    "infected": 1069,
    "recovered": 170,
    "sick": 823,
    "invisible": false
  },
  {
    "infected": 1813,
    "recovered": 0,
    "latitude": 41.4925,
    "pop": 1929000,
    "longitude": -99.9018,
    "name": "Nebraska",
    "country": "US",
    "lastUpdated": "2020-04-23T18:26:21.545Z",
    "dead": 45,
    "id": "SakhKQzKu1LRI8laqdQq",
    "sick": 1768,
    "invisible": false
  },
  {
    "longitude": 55.5364,
    "name": "La Réunion",
    "country": "FR",
    "lastUpdated": "2020-04-23T18:38:03.081Z",
    "dead": 0,
    "id": "SgHzWAAYK1j2sipovxM6",
    "infected": 410,
    "recovered": 238,
    "latitude": -21.1151,
    "pop": 859959,
    "sick": 172,
    "invisible": false
  },
  {
    "infected": 122,
    "recovered": 110,
    "latitude": 12.565679,
    "pop": 16010000,
    "longitude": 104.990967,
    "name": "Cambodia",
    "country": "KH",
    "lastUpdated": "2020-04-23T18:38:03.084Z",
    "dead": 0,
    "id": "SioMALgUbo7peXmbco2f",
    "sick": 12,
    "invisible": false
  },
  {
    "longitude": 144.7937,
    "name": "Guam",
    "country": "GU",
    "lastUpdated": "2020-04-23T18:26:21.546Z",
    "dead": 5,
    "id": "SsWhuEElU7dCTTuH5fdQ",
    "infected": 139,
    "recovered": 0,
    "latitude": 13.4443,
    "pop": 164229,
    "sick": 134,
    "invisible": false
  },
  {
    "recovered": 1740,
    "latitude": 51.9189,
    "longitude": 19.1344,
    "name": "Unknown Poland region",
    "country": "PL",
    "lastUpdated": "2020-04-23T18:38:03.065Z",
    "dead": 0,
    "id": "SuCr5emUaJ9RHTll1P1p",
    "invisible": true,
    "infected": 0,
    "sick": 0
  },
  {
    "infected": 377,
    "recovered": 47,
    "latitude": -4.0383,
    "pop": 81340000,
    "longitude": 21.7587,
    "name": "DR Congo",
    "country": "CD",
    "lastUpdated": "2020-04-23T18:38:03.081Z",
    "dead": 25,
    "id": "T3iRf8mTUTAzbKrORTap",
    "sick": 305,
    "invisible": false
  },
  {
    "infected": 13930,
    "recovered": 1925,
    "latitude": 23.635796,
    "pop": 32940000,
    "longitude": 44.344334,
    "name": "Saudi Arabia",
    "country": "SA",
    "lastUpdated": "2020-04-23T18:38:03.064Z",
    "dead": 121,
    "id": "T7NffoeCgTUpAbOHvYwP",
    "sick": 11884,
    "invisible": false
  },
  {
    "infected": 3839,
    "recovered": 1937,
    "latitude": 42.2871,
    "pop": 315700,
    "longitude": -2.5396,
    "name": "La Rioja",
    "country": "ES",
    "lastUpdated": "2020-04-23T18:41:10.988Z",
    "dead": 303,
    "id": "TNDTapyb0k3l7Mds9q9R",
    "sick": 1599,
    "invisible": false
  },
  {
    "longitude": -89.134857,
    "name": "Yucatán",
    "country": "MX",
    "lastUpdated": "2020-04-23T18:40:09.249Z",
    "dead": 19,
    "id": "TQCWbhIpJQBQxBjhCGVJ",
    "infected": 207,
    "recovered": 0,
    "latitude": 20.400417,
    "pop": 2207200,
    "sick": 188,
    "invisible": false
  },
  {
    "recovered": 119,
    "latitude": 4.506106,
    "pop": 428697,
    "longitude": 114.650692,
    "name": "Brunei",
    "country": "BN",
    "lastUpdated": "2020-04-23T18:38:03.084Z",
    "dead": 1,
    "id": "TQZmzsLhJqjtCSExAkCP",
    "infected": 138,
    "sick": 18,
    "invisible": false
  },
  {
    "latitude": 45.4471,
    "pop": 8027000,
    "longitude": 4.3853,
    "name": "Auvergne-Rhône-Alpes",
    "country": "FR",
    "lastUpdated": "2020-04-22T23:48:30.385Z",
    "dead": 1133,
    "id": "TT0MKODSjrxHvG19xZCa",
    "infected": 11648,
    "recovered": 4253,
    "sick": 6262,
    "invisible": false
  },
  {
    "lastUpdated": "2020-04-23T18:34:01.404Z",
    "dead": 1,
    "id": "TeoNTu4aw5riC04sTd73",
    "infected": 181,
    "recovered": 0,
    "latitude": 38.5667,
    "pop": 758700,
    "longitude": -7.9,
    "name": "Alentejo",
    "country": "PT",
    "sick": 180,
    "invisible": false
  },
  {
    "longitude": -105.461392,
    "name": "Colorado",
    "country": "US",
    "lastUpdated": "2020-04-23T18:26:21.541Z",
    "dead": 508,
    "id": "Th4dlpXXmSDgi1OHs36P",
    "infected": 10891,
    "recovered": 0,
    "latitude": 39.318928,
    "pop": 5696000,
    "sick": 10383,
    "invisible": false
  },
  {
    "recovered": 389,
    "latitude": 12.2383,
    "pop": 19190000,
    "longitude": -1.5616,
    "name": "Burkina Faso",
    "country": "BF",
    "lastUpdated": "2020-04-23T18:38:03.081Z",
    "dead": 39,
    "id": "Tup6oDCHj6DgqZR3nQ3x",
    "infected": 609,
    "sick": 181,
    "invisible": false
  },
  {
    "latitude": 12.104818,
    "pop": 112381,
    "longitude": -61.670761,
    "name": "Grenada",
    "country": "GD",
    "lastUpdated": "2020-04-23T18:38:03.095Z",
    "dead": 0,
    "id": "TvqURPN5xzVBXsmGP46N",
    "infected": 15,
    "recovered": 6,
    "sick": 9,
    "invisible": false
  },
  {
    "lastUpdated": "2020-04-23T18:38:03.066Z",
    "dead": 394,
    "id": "Ty1AY3VLPJcRZgdBIERx",
    "infected": 8073,
    "recovered": 5384,
    "latitude": 55.675758,
    "pop": 5603000,
    "longitude": 12.56902,
    "name": "Denmark",
    "country": "DK",
    "sick": 2295,
    "invisible": false
  },
  {
    "lastUpdated": "2020-04-23T18:39:24.735Z",
    "dead": 0,
    "id": "U0N7cIPJXAc4T6uKV60c",
    "infected": 7928,
    "recovered": 0,
    "latitude": 53.9062,
    "pop": 5486000,
    "longitude": -1.0334,
    "name": "Yorkshire and The Humber",
    "country": "GB",
    "sick": 7928,
    "invisible": false
  },
  {
    "longitude": 118.769882,
    "name": "Shandong",
    "country": "CN",
    "lastUpdated": "2020-04-23T18:08:10.645Z",
    "dead": 7,
    "id": "U0tkTJ9CGsBuFJ2Gdoum",
    "infected": 787,
    "recovered": 766,
    "latitude": 36.395859,
    "pop": 100472400,
    "sick": 14,
    "invisible": false
  },
  {
    "latitude": 43.94236,
    "pop": 33400,
    "longitude": 12.457777,
    "name": "San Marino",
    "country": "SM",
    "lastUpdated": "2020-04-23T18:38:03.081Z",
    "dead": 40,
    "id": "U12rMD5GDW58Q0lIwrB1",
    "infected": 501,
    "recovered": 63,
    "sick": 398,
    "invisible": false
  },
  {
    "latitude": 36.204823,
    "pop": 126800000,
    "longitude": 138.25293,
    "name": "Japan",
    "country": "JP",
    "lastUpdated": "2020-04-23T18:38:03.064Z",
    "dead": 299,
    "id": "U13Gy4BpRLAZ95bPmBXd",
    "infected": 11950,
    "recovered": 1424,
    "sick": 10227,
    "invisible": false
  },
  {
    "infected": 63,
    "recovered": 46,
    "latitude": 1.3733,
    "pop": 42860000,
    "longitude": 32.2903,
    "name": "Uganda",
    "country": "UG",
    "lastUpdated": "2020-04-23T18:38:03.086Z",
    "dead": 0,
    "id": "UCZXEgnHtxUoChWLR6fQ",
    "sick": 17,
    "invisible": false
  },
  {
    "lastUpdated": "2020-04-23T18:38:03.091Z",
    "dead": 2,
    "id": "UIbrFy6kiTTF0D37Kqmp",
    "infected": 25,
    "recovered": 6,
    "latitude": -11.2027,
    "pop": 29780000,
    "longitude": 17.8739,
    "name": "Angola",
    "country": "AO",
    "sick": 17,
    "invisible": false
  },
  {
    "lastUpdated": "2020-04-22T23:49:21.355Z",
    "dead": 193,
    "id": "URKMlJ7OTNldjpaxFbjE",
    "infected": 1882,
    "recovered": 702,
    "latitude": 48.202,
    "pop": 3329000,
    "longitude": -2.9326,
    "name": "Bretagne",
    "country": "FR",
    "sick": 987,
    "invisible": false
  },
  {
    "id": "UfFaUECHINUutv1M9tzq",
    "infected": 4511,
    "recovered": 2900,
    "latitude": 53.5511,
    "pop": 1822000,
    "longitude": 9.9937,
    "name": "Hamburg",
    "country": "DE",
    "lastUpdated": "2020-04-23T18:30:09.328Z",
    "dead": 113,
    "sick": 1498,
    "invisible": false
  },
  {
    "lastUpdated": "2020-04-23T18:40:09.249Z",
    "dead": 3,
    "id": "UflxTAb4FnAwve7c5MbY",
    "infected": 49,
    "recovered": 0,
    "latitude": 22.774916,
    "pop": 1615000,
    "longitude": -102.586899,
    "name": "Zacatecas",
    "country": "MX",
    "sick": 46,
    "invisible": false
  },
  {
    "latitude": -20.4427795,
    "pop": 2748023,
    "longitude": -54.646389,
    "name": "Mato Grosso do Sul",
    "country": "BR",
    "lastUpdated": "2020-04-23T18:46:14.249Z",
    "dead": 6,
    "id": "UlA1ubOUhPtf9jjKxxhF",
    "infected": 175,
    "recovered": 0,
    "sick": 169,
    "invisible": false
  },
  {
    "latitude": -19.4914,
    "pop": 211945,
    "longitude": 132.551,
    "name": "Northern Territory",
    "country": "AU",
    "lastUpdated": "2020-04-23T18:36:07.323Z",
    "dead": 0,
    "id": "UrF45V1VqMo6YBib2KlL",
    "infected": 27,
    "recovered": 11,
    "sick": 16,
    "invisible": false
  },
  {
    "infected": 73,
    "recovered": 22,
    "latitude": 18.0424805,
    "pop": 41109,
    "longitude": -63.0548286,
    "name": "Sint Maarten",
    "country": "SX",
    "lastUpdated": "2020-04-23T18:38:03.086Z",
    "dead": 12,
    "id": "UsxgpiuFCtlR2CW1UUFm",
    "sick": 39,
    "invisible": false
  },
  {
    "id": "UzOGOMitJmaFTdh2FbvI",
    "infected": 10861,
    "recovered": 0,
    "latitude": 52.4751,
    "pop": 5908000,
    "longitude": -1.8298,
    "name": "West Midlands",
    "country": "GB",
    "lastUpdated": "2020-04-23T18:39:24.735Z",
    "dead": 0,
    "sick": 10861,
    "invisible": false
  },
  {
    "infected": 7,
    "recovered": 4,
    "latitude": 11.943179,
    "pop": 241773,
    "longitude": 79.808206,
    "name": "Puducherry",
    "country": "IN",
    "lastUpdated": "2020-04-23T18:41:01.476Z",
    "dead": 0,
    "id": "V1qE740s3EUGyKGr6SVv",
    "sick": 3,
    "invisible": false
  },
  {
    "latitude": -45.5687,
    "pop": 25569,
    "longitude": -72.0597,
    "name": "Aysén",
    "country": "CL",
    "lastUpdated": "2020-04-23T18:37:06.211Z",
    "dead": 0,
    "id": "V9QxUhV4DyYK7iElEhXV",
    "infected": 7,
    "recovered": 0,
    "sick": 7,
    "invisible": false
  },
  {
    "latitude": 21.5218,
    "pop": 11480000,
    "longitude": -77.7812,
    "name": "Cuba",
    "country": "CU",
    "lastUpdated": "2020-04-23T18:38:03.079Z",
    "dead": 43,
    "id": "VAG9AcMABTf8oIAfELPh",
    "infected": 1235,
    "recovered": 365,
    "sick": 827,
    "invisible": false
  },
  {
    "recovered": 178,
    "latitude": 25.181129,
    "pop": 45970000,
    "longitude": 101.864143,
    "name": "Yunnan",
    "country": "CN",
    "lastUpdated": "2020-04-23T18:08:10.645Z",
    "dead": 2,
    "id": "VIf8T8PD3ZzlzAm5eBCX",
    "infected": 184,
    "sick": 4,
    "invisible": false
  },
  {
    "recovered": 0,
    "latitude": -3.4653,
    "pop": 4080611,
    "longitude": -62.2159,
    "name": "Amazonas",
    "country": "BR",
    "lastUpdated": "2020-04-23T18:46:14.248Z",
    "dead": 207,
    "id": "VZQiSdZ7cUHgUZWgpNTP",
    "infected": 2479,
    "sick": 2272,
    "invisible": false
  },
  {
    "id": "VcKcLdCkC6YpPfIDnRVD",
    "infected": 1510,
    "recovered": 206,
    "latitude": 26.8467,
    "pop": 204200000,
    "longitude": 80.9462,
    "name": "Uttar Pradesh",
    "country": "IN",
    "lastUpdated": "2020-04-23T18:41:01.473Z",
    "dead": 24,
    "sick": 1280,
    "invisible": false
  },
  {
    "id": "Vd3lLgrNsr81plzTgZkz",
    "infected": 5,
    "recovered": 0,
    "latitude": 64.8255,
    "pop": 44826,
    "longitude": -124.8457,
    "name": "Northwest Territories",
    "country": "CA",
    "lastUpdated": "2020-04-23T18:36:07.327Z",
    "dead": 0,
    "sick": 5,
    "invisible": false
  },
  {
    "recovered": 1047,
    "latitude": 39.999079,
    "pop": 1188000,
    "longitude": 3.838942,
    "name": "Islas Baleares",
    "country": "ES",
    "lastUpdated": "2020-04-23T18:41:10.987Z",
    "dead": 168,
    "id": "VyW0IR9vLMdgnKz1cC7j",
    "infected": 1861,
    "sick": 646,
    "invisible": false
  },
  {
    "longitude": 3.2828,
    "name": "Occitanie",
    "country": "FR",
    "lastUpdated": "2020-04-22T23:50:29.556Z",
    "dead": 328,
    "id": "WAnbFrEjtZDTCIYBt8rz",
    "infected": 4276,
    "recovered": 1826,
    "latitude": 43.8927,
    "pop": 5893000,
    "sick": 2122,
    "invisible": false
  },
  {
    "latitude": 40.5,
    "pop": 567118,
    "longitude": 16.5,
    "name": "Basilicata",
    "country": "IT",
    "lastUpdated": "2020-04-23T18:31:02.101Z",
    "dead": 24,
    "id": "WD502XimGXnWzqYg7zxL",
    "infected": 356,
    "recovered": 103,
    "sick": 229,
    "invisible": false
  },
  {
    "latitude": 24.6637,
    "pop": 2722000,
    "longitude": 93.9063,
    "name": "Manipur",
    "country": "IN",
    "lastUpdated": "2020-04-23T18:41:01.476Z",
    "dead": 0,
    "id": "WKsJQmcpWKxnp0nCwN77",
    "infected": 2,
    "recovered": 2,
    "sick": 0,
    "invisible": false
  },
  {
    "infected": 223,
    "recovered": 0,
    "latitude": -9.933,
    "pop": 1757589,
    "longitude": -63.067,
    "name": "Rondônia",
    "country": "BR",
    "lastUpdated": "2020-04-23T18:46:14.250Z",
    "dead": 5,
    "id": "WRqKCfMIJFjrjXLMud70",
    "sick": 218,
    "invisible": false
  },
  {
    "latitude": -30.5595,
    "pop": 56720000,
    "longitude": 22.9375,
    "name": "South Africa",
    "country": "ZA",
    "lastUpdated": "2020-04-23T18:38:03.067Z",
    "dead": 75,
    "id": "Whrue10NtwIObLvFFyBr",
    "infected": 3953,
    "recovered": 1473,
    "sick": 2405,
    "invisible": false
  },
  {
    "latitude": 13.443182,
    "pop": 2101000,
    "longitude": -15.3101387,
    "name": "Gambia",
    "country": "GM",
    "lastUpdated": "2020-04-23T18:38:03.097Z",
    "dead": 1,
    "id": "Wk811YwpQxsOCfz8As86",
    "infected": 10,
    "recovered": 2,
    "sick": 7,
    "invisible": false
  },
  {
    "infected": 1593,
    "recovered": 0,
    "latitude": 19.352498,
    "pop": 17666800,
    "longitude": -99.625164,
    "name": "Estado de México",
    "country": "MX",
    "lastUpdated": "2020-04-23T18:40:09.250Z",
    "dead": 119,
    "id": "WpCXuQjYFLbozSpEhbrZ",
    "sick": 1474,
    "invisible": false
  },
  {
    "infected": 4186,
    "recovered": 108,
    "latitude": 23.685,
    "pop": 164700000,
    "longitude": 90.3563,
    "name": "Bangladesh",
    "country": "BD",
    "lastUpdated": "2020-04-23T18:38:03.067Z",
    "dead": 127,
    "id": "WpLayPPLIJ7VcHZdQaoM",
    "sick": 3951,
    "invisible": false
  },
  {
    "latitude": 20.836,
    "pop": 2100000,
    "longitude": -99.8508,
    "name": "Querétaro",
    "country": "MX",
    "lastUpdated": "2020-04-23T18:40:09.248Z",
    "dead": 7,
    "id": "Wt97UDm6jfYef6WBrS2w",
    "infected": 94,
    "recovered": 0,
    "sick": 87,
    "invisible": false
  },
  {
    "lastUpdated": "2020-04-23T18:31:02.105Z",
    "dead": 1206,
    "id": "X2iRhHF6f9pUnJcxPc3J",
    "infected": 16881,
    "recovered": 5750,
    "latitude": 45.5,
    "pop": 4905000,
    "longitude": 11.75,
    "name": "Veneto",
    "country": "IT",
    "sick": 9925,
    "invisible": false
  },
  {
    "recovered": 1,
    "latitude": -8.556856,
    "pop": 1311000,
    "longitude": 125.56031,
    "name": "Timor-Leste",
    "country": "TL",
    "lastUpdated": "2020-04-23T18:38:03.092Z",
    "dead": 0,
    "id": "X3GMAVINj2GDzIRVfo7n",
    "infected": 23,
    "sick": 22,
    "invisible": false
  },
  {
    "lastUpdated": "2020-04-23T18:41:01.475Z",
    "dead": 0,
    "id": "X3PZqaJxtnlxcgP4tzya",
    "infected": 18,
    "recovered": 16,
    "latitude": 34.152588,
    "pop": 274289,
    "longitude": 77.577049,
    "name": "Ladakh",
    "country": "IN",
    "sick": 2,
    "invisible": false
  },
  {
    "latitude": 25.92448,
    "pop": 38560000,
    "longitude": 118.278992,
    "name": "Fujian",
    "country": "CN",
    "lastUpdated": "2020-04-23T18:08:10.645Z",
    "dead": 1,
    "id": "XBBw0iMPrmiEu3qogkbi",
    "infected": 355,
    "recovered": 342,
    "sick": 12,
    "invisible": false
  },
  {
    "latitude": -52.368,
    "pop": 166533,
    "longitude": -70.9863,
    "name": "Magallanes",
    "country": "CL",
    "lastUpdated": "2020-04-23T18:37:06.211Z",
    "dead": 7,
    "id": "XIYUg6ShQvWyEAJfyJzC",
    "infected": 615,
    "recovered": 0,
    "sick": 608,
    "invisible": false
  },
  {
    "infected": 109,
    "recovered": 0,
    "latitude": 37.794597,
    "pop": 246746,
    "longitude": -25.506134,
    "name": "Açores",
    "country": "PT",
    "lastUpdated": "2020-04-23T18:34:01.404Z",
    "dead": 8,
    "id": "XhM7BCQK50gGQ2wIUtDq",
    "sick": 101,
    "invisible": false
  },
  {
    "latitude": -32.5228,
    "pop": 3457000,
    "longitude": -55.7658,
    "name": "Uruguay",
    "country": "UY",
    "lastUpdated": "2020-04-23T18:38:03.081Z",
    "dead": 12,
    "id": "XrsuLstdybIqIvv0E0aJ",
    "infected": 549,
    "recovered": 337,
    "sick": 200,
    "invisible": false
  },
  {
    "latitude": 42.0396,
    "pop": 339178,
    "longitude": 9.0129,
    "name": "Corse",
    "country": "FR",
    "lastUpdated": "2020-04-22T23:49:30.717Z",
    "dead": 49,
    "id": "YGXgIObKVabP2CYEdcb9",
    "infected": 398,
    "recovered": 162,
    "sick": 187,
    "invisible": false
  },
  {
    "latitude": 2.916112,
    "pop": 1126000,
    "longitude": -75.28344,
    "name": "Huila",
    "country": "CO",
    "lastUpdated": "2020-04-23T12:32:11.008Z",
    "dead": 5,
    "id": "YI9zIOUXJqAcgc0T80yb",
    "infected": 81,
    "recovered": 26,
    "sick": 50,
    "invisible": false
  },
  {
    "longitude": 35.2332,
    "name": "Palestine",
    "country": "PS",
    "lastUpdated": "2020-04-23T18:38:03.081Z",
    "dead": 4,
    "id": "YMzKw0SnXG71VT7H1jff",
    "infected": 480,
    "recovered": 92,
    "latitude": 31.9522,
    "pop": 5052000,
    "sick": 384,
    "invisible": false
  },
  {
    "id": "YP3nlz6AKyrnCWYb5mHA",
    "infected": 510,
    "recovered": 0,
    "latitude": 17.97,
    "pop": 2460900,
    "longitude": -92.5867,
    "name": "Tabasco",
    "country": "MX",
    "lastUpdated": "2020-04-23T18:40:09.242Z",
    "dead": 61,
    "sick": 449,
    "invisible": false
  },
  {
    "longitude": -15.1804132,
    "name": "Guinea-Bissau",
    "country": "GW",
    "lastUpdated": "2020-04-23T18:38:03.087Z",
    "dead": 0,
    "id": "YZoy8ReFucvC3IFnWZHn",
    "infected": 50,
    "recovered": 3,
    "latitude": 11.8037491,
    "pop": 1955000,
    "sick": 47,
    "invisible": false
  },
  {
    "infected": 337,
    "recovered": 0,
    "latitude": 64.2008,
    "pop": 737438,
    "longitude": -149.4937,
    "name": "Alaska",
    "country": "US",
    "lastUpdated": "2020-04-23T18:26:21.546Z",
    "dead": 9,
    "id": "YaCODTMD1KKRnrAlkg2u",
    "sick": 328,
    "invisible": false
  },
  {
    "lastUpdated": "2020-04-23T18:41:10.988Z",
    "dead": 1167,
    "id": "YfA7o2lZP1DhV4JB6Umh",
    "infected": 13436,
    "recovered": 8136,
    "latitude": 42.9896,
    "pop": 2178000,
    "longitude": -2.6189,
    "name": "País Vasco",
    "country": "ES",
    "sick": 4133,
    "invisible": false
  },
  {
    "latitude": 16.8922,
    "pop": 4091400,
    "longitude": -96.4085,
    "name": "Oaxaca",
    "country": "MX",
    "lastUpdated": "2020-04-23T18:40:09.222Z",
    "dead": 8,
    "id": "YidRsOGDERjtbaIBGCdu",
    "infected": 81,
    "recovered": 0,
    "sick": 73,
    "invisible": false
  },
  {
    "lastUpdated": "2020-04-23T18:38:03.065Z",
    "dead": 240,
    "id": "Yw9uBekNlefXBcOCNMfP",
    "infected": 10702,
    "recovered": 8411,
    "latitude": 37.568291,
    "pop": 51470000,
    "longitude": 126.99778,
    "name": "South Korea",
    "country": "KR",
    "sick": 2051,
    "invisible": false
  },
  {
    "infected": 76,
    "recovered": 27,
    "latitude": 13.193887,
    "pop": 285719,
    "longitude": -59.543198,
    "name": "Barbados",
    "country": "BB",
    "lastUpdated": "2020-04-23T18:38:03.086Z",
    "dead": 6,
    "id": "YzZqZMJGvG6joQCdiuXC",
    "sick": 43,
    "invisible": false
  },