[
  {
    "recovered": 23,
    "country": "CO",
    "dead": 0,
    "infected": 30,
    "longitude": -81.7006,
    "lastUpdated": "2020-07-19T07:15:07.869Z",
    "pop": 72600,
    "id": "01b09TY4vmuZwzVuiRFK",
    "name": "San Andrés",
    "latitude": 12.5847,
    "sick": 7,
    "invisible": false
  },
  {
    "lastUpdated": "2020-07-19T07:49:03.206Z",
    "latitude": 49.4482,
    "id": "0FOJefeLxQYXQ1CnJm9o",
    "country": "GG",
    "infected": 252,
    "longitude": -2.5895,
    "name": "Guernsey",
    "recovered": 238,
    "pop": 63196,
    "alwaysShow": false,
    "dead": 13,
    "sick": 1,
    "invisible": false
  },
  {
    "id": "0GJcws44NSPsDHAuxJhW",
    "country": "IT",
    "dead": 433,
    "longitude": 14.333333,
    "name": "Campania",
    "pop": 5827000,
    "latitude": 41.066666,
    "lastUpdated": "2020-07-19T08:01:02.453Z",
    "infected": 4818,
    "state": "72",
    "recovered": 4098,
    "sick": 287,
    "invisible": false
  },
  {
    "id": "0HDQbiHe462xMCUV5HiI",
    "country": "CL",
    "latitude": -20.2167,
    "pop": 383870,
    "longitude": -70.14222,
    "infected": 7557,
    "dead": 140,
    "recovered": 0,
    "name": "Tarapacá",
    "lastUpdated": "2020-07-19T08:20:10.305Z",
    "sick": 7417,
    "invisible": false
  },
  {
    "infected": 17437,
    "country": "IN",
    "latitude": 20.9517,
    "lastUpdated": "2020-07-19T08:11:01.514Z",
    "recovered": 11937,
    "dead": 119,
    "pop": 45990000,
    "longitude": 85.0985,
    "name": "Odisha",
    "id": "0VG7S6aaK4eSo59fL9JO",
    "sick": 5381,
    "invisible": false
  },
  {
    "dead": 841,
    "pop": 2990300,
    "name": "Hidalgo",
    "lastUpdated": "2020-07-19T08:02:02.096Z",
    "recovered": 0,
    "longitude": -98.8582,
    "id": "0XmCRqiK2ZaehoEJvfer",
    "infected": 5343,
    "country": "MX",
    "latitude": 20.4737,
    "sick": 4502,
    "invisible": false
  },
  {
    "recovered": 145,
    "name": "Andaman and Nicobar Islands",
    "dead": 0,
    "infected": 198,
    "latitude": 11.7401,
    "longitude": 92.6586,
    "id": "0jStOpTUNRaQYJqgmRoK",
    "lastUpdated": "2020-07-19T08:11:01.516Z",
    "pop": 427246,
    "country": "IN",
    "sick": 53,
    "invisible": false
  },
  {
    "latitude": 25.315058,
    "lastUpdated": "2020-07-19T08:16:03.564Z",
    "longitude": 51.145517,
    "pop": 2639000,
    "id": "0m4aECS0Z2DGFEr8ldgI",
    "recovered": 103023,
    "infected": 106308,
    "country": "QA",
    "dead": 154,
    "name": "Qatar",
    "sick": 3131,
    "invisible": false
  },
  {
    "latitude": 22.9868,
    "id": "0n54EMSDJcRoT1QEvw80",
    "name": "West Bengal",
    "infected": 40209,
    "longitude": 87.855,
    "dead": 1076,
    "country": "IN",
    "lastUpdated": "2020-07-19T08:11:01.513Z",
    "recovered": 23539,
    "pop": 90320000,
    "sick": 15594,
    "invisible": false
  },
  {
    "recovered": 14864,
    "longitude": 78.6569,
    "pop": 73340000,
    "country": "IN",
    "lastUpdated": "2020-07-19T08:11:01.513Z",
    "latitude": 22.9734,
    "infected": 21763,
    "name": "Madhya Pradesh",
    "id": "0s18o5DrDAHjbu5MFcrj",
    "dead": 706,
    "sick": 6193,
    "invisible": false
  },
  {
    "longitude": -95.7129,
    "dead": 0,
    "id": "0tFoopNTs6e4tOoaltu2",
    "name": "Unknown US state",
    "infected": 0,
    "recovered": 1775271,
    "latitude": 37.0902,
    "country": "US",
    "lastUpdated": "2020-07-19T08:16:03.562Z",
    "invisible": true,
    "sick": 0
  },
  {
    "recovered": 315,
    "infected": 322,
    "id": "0x2HLhr5z5xAtEdO4iZm",
    "latitude": 35.64249,
    "pop": 37330000,
    "longitude": 108.472214,
    "country": "CN",
    "dead": 3,
    "lastUpdated": "2020-07-19T08:08:04.258Z",
    "name": "Shaanxi",
    "sick": 4,
    "invisible": false
  },
  {
    "name": "North Macedonia",
    "id": "19MvIhipqTyYv1H37Upw",
    "lastUpdated": "2020-07-19T08:16:03.571Z",
    "latitude": 41.643351,
    "infected": 9026,
    "longitude": 21.668393,
    "country": "MK",
    "dead": 414,
    "recovered": 4727,
    "pop": 2077000,
    "sick": 3885,
    "invisible": false
  },
  {
    "state": "NL",
    "country": "CA",
    "dead": 3,
    "name": "Newfoundland and Labrador",
    "lastUpdated": "2020-07-19T08:07:09.866Z",
    "pop": 521542,
    "id": "1DOMOmCWDtva46OVSZLv",
    "recovered": 259,
    "infected": 262,
    "longitude": -57.6604,
    "latitude": 53.1355,
    "sick": 0,
    "invisible": false
  },
  {
    "lastUpdated": "2020-07-19T08:08:04.259Z",
    "dead": 0,
    "id": "1Fap7rZu9SIRqf5TG9Dg",
    "latitude": 35.801933,
    "recovered": 18,
    "country": "CN",
    "longitude": 96.779286,
    "name": "Qinghai",
    "pop": 5627000,
    "infected": 18,
    "sick": 0,
    "invisible": false
  },
  {
    "pop": 126200000,
    "infected": 0,
    "id": "1YXQMlVL3fUeDZmcVfJw",
    "name": "Unknown Mexico state",
    "latitude": 23.6345,
    "lastUpdated": "2020-07-19T08:16:03.563Z",
    "recovered": 213006,
    "dead": 0,
    "country": "MX",
    "invisible": true,
    "longitude": -102.5528,
    "sick": 0
  },
  {
    "name": "Omsk Oblast",
    "latitude": 55.0555,
    "recovered": 3141,
    "pop": 1960000,
    "longitude": 73.3167,
    "lastUpdated": "2020-07-19T08:00:09.524Z",
    "infected": 5395,
    "dead": 50,
    "id": "1at5nIap9H51v32otlQl",
    "country": "RU",
    "sick": 2204,
    "invisible": false
  },
  {
    "recovered": 26567,
    "dead": 4119,
    "pop": 4376000,
    "id": "1eTSQyfp8RoDPeFrIwun",
    "country": "IT",
    "name": "Piemonte",
    "state": "21",
    "longitude": 8.206944,
    "latitude": 44.9,
    "lastUpdated": "2020-07-19T08:01:02.455Z",
    "infected": 31533,
    "sick": 847,
    "invisible": false
  },
  {
    "latitude": 51.993,
    "id": "1j1OurxLTpZYuWIWwQ9F",
    "recovered": 0,
    "dead": 1,
    "lastUpdated": "2020-07-19T08:03:01.479Z",
    "name": "Lubuskie",
    "infected": 284,
    "pop": 1003000,
    "longitude": 15.461,
    "country": "PL",
    "sick": 283,
    "invisible": false
  },
  {
    "id": "1qTPB8X3tyLyIdsb5TN3",
    "lastUpdated": "2020-07-19T08:16:03.570Z",
    "pop": 3550000,
    "name": "Moldova",
    "infected": 20794,
    "country": "MD",
    "longitude": 28.3699,
    "latitude": 47.4116,
    "dead": 680,
    "recovered": 14183,
    "sick": 5931,
    "invisible": false
  },
  {
    "dead": 98,
    "longitude": -95.7129,
    "country": "US",
    "latitude": 37.0902,
    "invisible": true,
    "id": "22PJOAThcDFKgSbyQIkD",
    "recovered": 0,
    "infected": 10258,
    "name": "Federal Bureau of Prisons",
    "lastUpdated": "2020-07-19T08:17:06.795Z",
    "sick": 10160
  },
  {
    "name": "Tibet",
    "recovered": 1,
    "lastUpdated": "2020-07-19T08:08:04.259Z",
    "longitude": 88.787865,
    "dead": 0,
    "pop": 3180000,
    "latitude": 30.15336,
    "country": "CN",
    "infected": 1,
    "id": "25qIBtsW2nfQj3pwBKg9",
    "sick": 0,
    "invisible": false
  },
  {
    "infected": 84882,
    "name": "Indonesia",
    "country": "ID",
    "latitude": -1.572184,
    "dead": 4016,
    "pop": 264000000,
    "lastUpdated": "2020-07-19T08:16:03.564Z",
    "id": "2KHYUb5t3lwzVVmDjwNX",
    "recovered": 43268,
    "longitude": 115.66779,
    "sick": 37598,
    "invisible": false
  },
  {
    "dead": 257,
    "pop": 4191000,
    "country": "US",
    "state": "OR",
    "recovered": 0,
    "name": "Oregon",
    "lastUpdated": "2020-07-19T08:17:06.792Z",
    "longitude": -120.585594,
    "id": "2OrsssmGUs4XCzaZzvTv",
    "latitude": 43.807191,
    "infected": 14149,
    "sick": 13892,
    "invisible": false
  },
  {
    "longitude": -70.400002,
    "id": "2c5HBZ1ffkCVXnMYUWnY",
    "pop": 425000,
    "latitude": -23.65,
    "name": "Antofagasta",
    "lastUpdated": "2020-07-19T08:20:10.306Z",
    "country": "CL",
    "recovered": 0,
    "infected": 12907,
    "dead": 279,
    "sick": 12628,
    "invisible": false
  },
  {
    "longitude": -51.070534,
    "pop": 9029000,
    "state": "AP",
    "name": "Amapá",
    "country": "BR",
    "infected": 33585,
    "latitude": 0.035574,
    "recovered": 0,
    "dead": 505,
    "id": "2dzhyWsBSPpENWlNew0b",
    "lastUpdated": "2020-07-19T07:57:01.959Z",
    "sick": 33080,
    "invisible": false
  },
  {
    "name": "Jilin",
    "lastUpdated": "2020-07-19T08:08:04.259Z",
    "country": "CN",
    "pop": 27460000,
    "longitude": 126.548103,
    "dead": 2,
    "id": "2jxHvSsxdnom0nPNvOT8",
    "recovered": 153,
    "infected": 155,
    "latitude": 43.851921,
    "sick": 0,
    "invisible": false
  },
  {
    "recovered": 180,
    "dead": 0,
    "name": "Gibraltar",
    "lastUpdated": "2020-07-19T08:16:03.579Z",
    "pop": 34571,
    "id": "2p11BjSAs3wVyymgqBOe",
    "infected": 180,
    "latitude": 36.1408,
    "longitude": -5.3536,
    "country": "GI",
    "sick": 0,
    "invisible": false
  },
  {
    "id": "2sLNkkHpyaHx7dD3aMDO",
    "country": "FR",
    "recovered": 2054,
    "infected": 4622,
    "latitude": 47.7516,
    "dead": 555,
    "longitude": 1.6751,
    "pop": 2567000,
    "name": "Centre-Val de Loire",
    "lastUpdated": "2020-07-19T00:13:43.610Z",
    "sick": 2013,
    "invisible": false
  },
  {
    "lastUpdated": "2020-07-19T08:01:02.456Z",
    "infected": 1456,
    "longitude": 12.643751,
    "recovered": 1362,
    "state": "55",
    "pop": 884640,
    "dead": 80,
    "country": "IT",
    "latitude": 42.565044,
    "name": "Umbria",
    "id": "319tiZOMczx1y0DfvOib",
    "sick": 14,
    "invisible": false
  },
  {
    "recovered": 319,
    "longitude": -76.6131592,
    "country": "CO",
    "latitude": 2.43823,
    "infected": 1055,
    "dead": 34,
    "pop": 1355000,
    "id": "38T96Q3XNjt5FSJygPed",
    "lastUpdated": "2020-07-19T07:15:07.869Z",
    "name": "Cauca",
    "sick": 702,
    "invisible": false
  },
  {
    "id": "3IlPjAbP5qVMn1nlgLTJ",
    "dead": 120,
    "infected": 2980,
    "recovered": 1462,
    "name": "Zambia",
    "lastUpdated": "2020-07-19T08:16:03.573Z",
    "latitude": -13.133896,
    "country": "ZM",
    "longitude": 27.849332,
    "pop": 17090000,
    "sick": 1398,
    "invisible": false
  },
  {
    "latitude": 42.7044,
    "longitude": 19.3958,
    "lastUpdated": "2020-07-19T08:16:03.574Z",
    "dead": 30,
    "infected": 2072,
    "id": "3LstMSN5XMYBkxbe5HN7",
    "country": "ME",
    "pop": 631219,
    "name": "Montenegro",
    "recovered": 378,
    "sick": 1664,
    "invisible": false
  },
  {
    "longitude": 149.0124,
    "pop": 418440,
    "state": "ACT",
    "lastUpdated": "2020-07-19T08:13:29.932Z",
    "country": "AU",
    "infected": 113,
    "recovered": 105,
    "name": "Australian Capital Territory",
    "dead": 3,
    "id": "3OZoQsKrzxZ18EKyfGE6",
    "latitude": -35.4735,
    "sick": 5,
    "invisible": false
  },
  {
    "name": "Yaroslavl Oblast",
    "infected": 5560,
    "country": "RU",
    "latitude": 57.8992,
    "longitude": 38.8389,
    "lastUpdated": "2020-07-19T08:00:09.523Z",
    "recovered": 4819,
    "id": "3PfzjWjvOkfgxc672BHQ",
    "dead": 22,
    "pop": 608000,
    "sick": 719,
    "invisible": false
  },
  {
    "id": "3PpqgIUJAtzxo1j7z56i",
    "infected": 5692,
    "pop": 321000,
    "recovered": 2840,
    "longitude": 95.626,
    "lastUpdated": "2020-07-19T08:00:09.523Z",
    "latitude": 51.8873,
    "dead": 45,
    "name": "Tuva",
    "country": "RU",
    "sick": 2807,
    "invisible": false
  },
  {
    "name": "Assam",
    "dead": 58,
    "pop": 30940000,
    "country": "IN",
    "longitude": 92.9376,
    "id": "3cCbnJCsK7mKlTO08K1o",
    "lastUpdated": "2020-07-19T08:11:01.514Z",
    "recovered": 15166,
    "infected": 22982,
    "latitude": 26.2006,
    "sick": 7758,
    "invisible": false
  },
  {
    "lastUpdated": "2020-07-19T08:17:06.790Z",
    "longitude": -82.9071,
    "name": "Ohio",
    "latitude": 40.4173,
    "id": "3fC3bAyIRUquOQOEnQNe",
    "infected": 73859,
    "dead": 3138,
    "country": "US",
    "pop": 11690000,
    "state": "OH",
    "recovered": 0,
    "sick": 70721,
    "invisible": false
  },
  {
    "longitude": -107.5,
    "id": "3kFCzJguabtBvXaHxgiu",
    "dead": 1821,
    "latitude": 25,
    "recovered": 0,
    "lastUpdated": "2020-07-19T08:02:02.093Z",
    "pop": 3066400,
    "infected": 11354,
    "name": "Sinaloa",
    "country": "MX",
    "sick": 9533,
    "invisible": false
  },
  {
    "infected": 15395,
    "country": "CO",
    "name": "Valle del Cauca",
    "pop": 4708300,
    "id": "3mC2LveOpXV8P1PmQGUj",
    "longitude": -76.522224,
    "dead": 535,
    "latitude": 3.420556,
    "recovered": 7267,
    "lastUpdated": "2020-07-19T07:15:07.866Z",
    "sick": 7593,
    "invisible": false
  },
  {
    "infected": 5813,
    "pop": 4420000,
    "recovered": 3279,
    "country": "MR",
    "lastUpdated": "2020-07-19T08:16:03.572Z",
    "latitude": 21.0079,
    "dead": 153,
    "id": "4NnFMekRK2m14IlnZZoj",
    "longitude": -10.9408,
    "name": "Mauritania",
    "sick": 2381,
    "invisible": false
  },
  {
    "name": "British Columbia",
    "latitude": 53.7267,
    "recovered": 2802,
    "lastUpdated": "2020-07-19T08:07:09.864Z",
    "state": "BC",
    "id": "4hfZRUoUgI4a3vrG0GBk",
    "pop": 5071000,
    "country": "CA",
    "dead": 189,
    "longitude": -127.6476,
    "infected": 3198,
    "sick": 207,
    "invisible": false
  },
  {
    "pop": 17159960,
    "id": "4kq0z3kh5zt3YAUWxvtE",
    "name": "Rio de Janeiro",
    "country": "BR",
    "longitude": -43.196388,
    "dead": 11919,
    "infected": 135230,
    "state": "RJ",
    "recovered": 0,
    "latitude": -22.908333,
    "lastUpdated": "2020-07-19T07:57:01.956Z",
    "sick": 123311,
    "invisible": false
  },
  {
    "name": "Bahia",
    "recovered": 0,
    "state": "BA",
    "latitude": -11.409874,
    "longitude": -41.280857,
    "dead": 2793,
    "infected": 120238,
    "id": "4yDbkEyqsNzZJjfrciYV",
    "lastUpdated": "2020-07-19T07:57:01.956Z",
    "pop": 14812617,
    "country": "BR",
    "sick": 117445,
    "invisible": false
  },
  {
    "name": "Azerbaijan",
    "country": "AZ",
    "infected": 27133,
    "pop": 9898000,
    "lastUpdated": "2020-07-19T08:16:03.570Z",
    "dead": 349,
    "id": "4zqzRm2xHn0CDVOUQJ8p",
    "latitude": 40.3426,
    "longitude": 47.93802,
    "recovered": 18450,
    "sick": 8334,
    "invisible": false
  },
  {
    "country": "MX",
    "longitude": -97.861099,
    "latitude": 22.233105,
    "dead": 767,
    "recovered": 0,
    "id": "54cfsdsRF76XVHWtZs19",
    "name": "Tamaulipas",
    "lastUpdated": "2020-07-19T08:02:02.095Z",
    "infected": 11834,
    "pop": 3672300,
    "sick": 11067,
    "invisible": false
  },
  {
    "lastUpdated": "2020-07-19T08:07:06.678Z",
    "dead": 4911,
    "country": "BE",
    "latitude": 51.0109,
    "longitude": 3.7265,
    "name": "Flanders",
    "state": "VLG",
    "id": "57ydD48mLRD2YoyteJZj",
    "infected": 35886,
    "pop": 6596000,
    "recovered": 9502,
    "sick": 21473,
    "invisible": false
  },
  {
    "longitude": -78.035889,
    "pop": 395361,
    "country": "BS",
    "dead": 11,
    "recovered": 91,
    "infected": 138,
    "id": "5MHegCUO9L3LiAU7DDey",
    "name": "Bahamas",
    "lastUpdated": "2020-07-19T08:16:03.579Z",
    "latitude": 25.025885,
    "sick": 36,
    "invisible": false
  },
  {
    "latitude": -31.253218,
    "lastUpdated": "2020-07-19T08:13:29.937Z",
    "id": "5N16a2OXXRpsEFanw0TC",
    "pop": 7544000,
    "dead": 49,
    "infected": 3550,
    "country": "AU",
    "longitude": 146.921097,
    "recovered": 2988,
    "state": "NSW",
    "name": "New South Wales",
    "sick": 513,
    "invisible": false
  },
  {
    "latitude": 6.8769908,
    "name": "South Sudan",
    "recovered": 1175,
    "lastUpdated": "2020-07-19T08:16:03.574Z",
    "country": "SS",
    "infected": 2191,
    "pop": 12580000,
    "longitude": 31.3069782,
    "id": "5N4PRxsCDzzwk7R200V1",
    "dead": 43,
    "sick": 973,
    "invisible": false
  },
  {
    "longitude": -0.7533,
    "latitude": 39.484,
    "dead": 1432,
    "pop": 4975000,
    "state": "VC",
    "id": "5Va9A7CXR8AXdUz4HTJj",
    "recovered": 9970,
    "lastUpdated": "2020-07-19T00:10:50.732Z",
    "name": "C. Valenciana",
    "country": "ES",
    "infected": 15743,
    "sick": 4341,
    "invisible": false
  },
  {
    "id": "5fg04eyDwFw3kEXnrxez",
    "recovered": 21,
    "longitude": 165.618042,
    "infected": 22,
    "pop": 280460,
    "country": "NC",
    "name": "New Caledonia",
    "lastUpdated": "2020-07-19T08:16:03.581Z",
    "latitude": -20.9043045,
    "dead": 0,
    "sick": 1,
    "invisible": false
  },
  {
    "recovered": 11637,
    "country": "NP",
    "pop": 29300000,
    "dead": 40,
    "lastUpdated": "2020-07-19T08:16:03.570Z",
    "id": "5gXZIjRgAvd6xWN1LOv8",
    "longitude": 84.124008,
    "name": "Nepal",
    "latitude": 28.394857,
    "infected": 17502,
    "sick": 5825,
    "invisible": false
  },
  {
    "infected": 67456,
    "latitude": 12.879721,
    "dead": 1831,
    "country": "PH",
    "lastUpdated": "2020-07-19T08:16:03.565Z",
    "recovered": 22465,
    "id": "5pwmh7aSdGRKqRbnuyc0",
    "name": "Philippines",
    "longitude": 121.774017,
    "pop": 104900000,
    "sick": 43160,
    "invisible": false
  },
  {
    "recovered": 439,
    "latitude": -17.824858,
    "infected": 1478,
    "id": "5qtR9nx4BLwu1ODTniaY",
    "country": "ZW",
    "name": "Zimbabwe",
    "lastUpdated": "2020-07-19T08:16:03.576Z",
    "pop": 14802190,
    "dead": 25,
    "longitude": 31.053028,
    "sick": 1014,
    "invisible": false
  },
  {
    "infected": 8536,
    "lastUpdated": "2020-07-19T08:17:06.795Z",
    "id": "5vkKgxTaKq1IH0Go357L",
    "pop": 356890,
    "state": "NA",
    "recovered": 0,
    "invisible": false,
    "latitude": 36.0672,
    "dead": 412,
    "name": "Navajo Nation",
    "country": "US",
    "longitude": -109.188,
    "sick": 8124
  },
  {
    "recovered": 0,
    "latitude": 19.432241,
    "dead": 8160,
    "country": "MX",
    "infected": 62076,
    "id": "61E7TGjUwAo9xu6Y6gAH",
    "pop": 8781300,
    "name": "Ciudad de México",
    "longitude": -99.177254,
    "lastUpdated": "2020-07-19T08:02:02.093Z",
    "sick": 53916,
    "invisible": false
  },
  {
    "id": "63KYOuWe41mvqWQrJbr2",
    "recovered": 5302,
    "infected": 6889,
    "dead": 54,
    "pop": 1012000,
    "latitude": 54.3873,
    "name": "Kaluga Oblast",
    "lastUpdated": "2020-07-19T08:00:09.521Z",
    "longitude": 35.1889,
    "country": "RU",
    "sick": 1533,
    "invisible": false
  },
  {
    "lastUpdated": "2020-07-19T08:16:03.575Z",
    "pop": 2794000,
    "name": "Lithuania",
    "country": "LT",
    "id": "694ON7d0mRJDeM1gHBTR",
    "latitude": 55.621011,
    "dead": 80,
    "longitude": 23.804991,
    "recovered": 1600,
    "infected": 1915,
    "sick": 235,
    "invisible": false
  },
  {
    "name": "South East",
    "longitude": -0.5596,
    "pop": 9175000,
    "country": "GB",
    "state": "EN",
    "dead": 0,
    "infected": 34585,
    "id": "6IQAsvrmBv0HPdeTnh4x",
    "recovered": 0,
    "lastUpdated": "2020-07-19T08:13:11.951Z",
    "latitude": 51.1781,
    "sick": 34585,
    "invisible": false
  },
  {
    "longitude": 114.109497,
    "pop": 7392000,
    "name": "Hong Kong",
    "latitude": 22.396427,
    "infected": 1778,
    "id": "6IcHIIH0zXpY0POmBZTv",
    "recovered": 1274,
    "lastUpdated": "2020-07-19T08:16:03.575Z",
    "dead": 12,
    "country": "HK",
    "sick": 492,
    "invisible": false
  },
  {
    "pop": 869265,
    "infected": 17202,
    "country": "BR",
    "dead": 457,
    "longitude": -72.4,
    "id": "6LQesrx5bHJsVUi1TXBp",
    "recovered": 0,
    "name": "Acre",
    "state": "AC",
    "lastUpdated": "2020-07-19T07:57:01.960Z",
    "latitude": -8.65,
    "sick": 16745,
    "invisible": false
  },
  {
    "country": "BJ",
    "id": "6SlpghTyB6lpMFvx3g9U",
    "recovered": 782,
    "dead": 31,
    "pop": 11180000,
    "infected": 1602,
    "latitude": 9.3077,
    "longitude": 2.3158,
    "lastUpdated": "2020-07-19T08:16:03.576Z",
    "name": "Benin",
    "sick": 789,
    "invisible": false
  },
  {
    "longitude": 9.5,
    "latitude": 45.6667,
    "infected": 95459,
    "id": "6ZHcvMIzVWIaRnc4R3Qp",
    "lastUpdated": "2020-07-19T08:01:02.454Z",
    "name": "Lombardia",
    "pop": 10040000,
    "recovered": 71416,
    "state": "25",
    "country": "IT",
    "dead": 16788,
    "sick": 7255,
    "invisible": false
  },
  {
    "longitude": 14.5058,
    "id": "6ahNiyKDSDAftCctgLH3",
    "country": "SI",
    "dead": 111,
    "recovered": 1568,
    "lastUpdated": "2020-07-19T08:16:03.575Z",
    "name": "Slovenia",
    "latitude": 46.0569,
    "pop": 2067000,
    "infected": 1940,
    "sick": 261,
    "invisible": false
  },
  {
    "infected": 1817,
    "longitude": -70.331398,
    "recovered": 0,
    "latitude": -27.3667908,
    "pop": 300000,
    "lastUpdated": "2020-07-19T08:20:10.306Z",
    "id": "6nyns7UGGgkU7pxrHf8i",
    "country": "CL",
    "dead": 9,
    "name": "Atacama",
    "sick": 1808,
    "invisible": false
  },
  {
    "lastUpdated": "2020-07-19T08:16:03.572Z",
    "pop": 2025000,
    "country": "GA",
    "name": "Gabon",
    "longitude": 11.6094,
    "recovered": 3865,
    "id": "6pBi38TUgYfFm0bry2uh",
    "infected": 6315,
    "latitude": -0.8037,
    "dead": 46,
    "sick": 2404,
    "invisible": false
  },
  {
    "name": "San Luis Potosí",
    "latitude": 22.1498,
    "pop": 2831900,
    "infected": 5621,
    "country": "MX",
    "id": "6vjIVg1gSANFZghV7xtS",
    "dead": 322,
    "longitude": -100.9792,
    "recovered": 0,
    "lastUpdated": "2020-07-19T08:02:02.095Z",
    "sick": 5299,
    "invisible": false
  },
  {
    "longitude": -62.818544,
    "pop": 9131,
    "alwaysShow": true,
    "country": "FR",
    "latitude": 17.901672,
    "recovered": 6,
    "id": "78Ox26bNHDA2Pk2b3Uwn",
    "infected": 6,
    "name": "Saint-Barthélémy",
    "lastUpdated": "2020-07-19T08:16:03.581Z",
    "dead": 0,
    "sick": 0,
    "invisible": false
  },
  {
    "longitude": 18.633,
    "recovered": 0,
    "latitude": 54.367,
    "id": "7JDx6UJiwGSJyL1fChaJ",
    "country": "PL",
    "dead": 39,
    "pop": 2305000,
    "infected": 741,
    "lastUpdated": "2020-07-19T08:03:01.478Z",
    "name": "Pomorskie",
    "sick": 702,
    "invisible": false
  },
  {
    "country": "ES",
    "infected": 142,
    "latitude": 35.2923,
    "state": "ML",
    "recovered": 125,
    "lastUpdated": "2020-07-19T00:12:01.403Z",
    "longitude": -2.9381,
    "pop": 84690,
    "id": "7UASdZTZ1nPzzBwSTEA9",
    "dead": 2,
    "name": "Melilla",
    "sick": 15,
    "invisible": false
  },
  {
    "name": "Antigua and Barbuda",
    "lastUpdated": "2020-07-19T08:16:03.580Z",
    "pop": 102012,
    "id": "7hVFcEV7nV0MrQr3LHrl",
    "dead": 3,
    "country": "AG",
    "infected": 76,
    "longitude": -61.7964,
    "recovered": 57,
    "latitude": 17.0608,
    "sick": 16,
    "invisible": false
  },
  {
    "longitude": 11.4979,
    "name": "Bayern",
    "recovered": 46173,
    "state": "BY",
    "infected": 50003,
    "lastUpdated": "2020-07-19T08:00:03.131Z",
    "country": "DE",
    "dead": 2658,
    "id": "7kCrrlOBE3jN6FtOVNUB",
    "latitude": 48.7904,
    "pop": 13000000,
    "sick": 1172,
    "invisible": false
  },
  {
    "recovered": 3223,
    "latitude": 47.4979,
    "dead": 596,
    "infected": 4333,
    "id": "7rYC2iFB50c55Ihgbs4Q",
    "longitude": 19.0402,
    "lastUpdated": "2020-07-19T08:16:03.573Z",
    "name": "Hungary",
    "country": "HU",
    "pop": 9773000,
    "sick": 514,
    "invisible": false
  },
  {
    "country": "CO",
    "dead": 1264,
    "name": "Barranquilla D.E.",
    "pop": 1206000,
    "recovered": 12561,
    "latitude": 10.9685,
    "id": "7tqLvLyXcBDK808nJv0m",
    "longitude": -74.7813,
    "lastUpdated": "2020-07-19T07:15:07.869Z",
    "infected": 24703,
    "sick": 10878,
    "invisible": false
  },
  {
    "id": "8C0d7WVCjyUGtnc2gUAR",
    "infected": 16157,
    "name": "Cameroon",
    "recovered": 13728,
    "lastUpdated": "2020-07-19T08:16:03.570Z",
    "country": "CM",
    "latitude": 7.3697,
    "dead": 373,
    "pop": 24050000,
    "longitude": 12.3547,
    "sick": 2056,
    "invisible": false
  },
  {
    "longitude": 4.3517,
    "recovered": 2833,
    "id": "8DOZWbN6bDdgaLXVlUEu",
    "name": "Brussels",
    "lastUpdated": "2020-07-19T08:07:06.679Z",
    "country": "BE",
    "latitude": 50.8503,
    "infected": 6621,
    "state": "BRU",
    "pop": 1209000,
    "dead": 1495,
    "sick": 2293,
    "invisible": false
  },
  {
    "longitude": -63.5887,
    "id": "8RihJrXw4NQXPxaRxr1u",
    "country": "BO",
    "infected": 58138,
    "recovered": 18200,
    "lastUpdated": "2020-07-19T08:16:03.566Z",
    "name": "Bolivia",
    "latitude": -16.2902,
    "dead": 2106,
    "pop": 11050000,
    "sick": 37832,
    "invisible": false
  },
  {
    "latitude": 12.9843,
    "dead": 0,
    "country": "VC",
    "id": "8ZTySQROQejkDAad0qxQ",
    "name": "St. Vincent Grenadines",
    "lastUpdated": "2020-07-19T08:16:03.580Z",
    "pop": 109897,
    "recovered": 29,
    "infected": 38,
    "longitude": -61.2872,
    "sick": 9,
    "invisible": false
  },
  {
    "longitude": 103.819839,
    "id": "8pA3fM4xC2c2wv1b4TnE",
    "lastUpdated": "2020-07-19T08:16:03.568Z",
    "country": "SG",
    "latitude": 1.352083,
    "dead": 27,
    "name": "Singapore",
    "infected": 47912,
    "recovered": 43833,
    "pop": 5621000,
    "sick": 4052,
    "invisible": false
  },
  {
    "pop": 3787000,
    "infected": 4340,
    "country": "FR",
    "dead": 470,
    "longitude": -1.5536,
    "id": "98hwAoohgWEOQVa3NlM5",
    "latitude": 47.2184,
    "name": "Pays de la Loire",
    "recovered": 2135,
    "lastUpdated": "2020-07-19T00:16:30.799Z",
    "sick": 1735,
    "invisible": false
  },
  {
    "longitude": -90.19885,
    "latitude": 19.30754,
    "id": "9DAvxOObTqIvMOU93nlY",
    "infected": 3457,
    "name": "Campeche",
    "dead": 340,
    "country": "MX",
    "lastUpdated": "2020-07-19T08:02:02.095Z",
    "recovered": 0,
    "pop": 952300,
    "sick": 3117,
    "invisible": false
  },
  {
    "lastUpdated": "2020-07-19T08:16:03.571Z",
    "name": "Sudan",
    "country": "SD",
    "dead": 673,
    "infected": 10682,
    "recovered": 5637,
    "latitude": 12.8628,
    "longitude": 30.2176,
    "id": "9DPOkpIqrFy9mR4e9fuv",
    "pop": 40530000,
    "sick": 4372,
    "invisible": false
  },
  {
    "id": "9JFYfvpcejMIgYlHpngA",
    "latitude": 58.5501,
    "recovered": 1322,
    "pop": 643000,
    "infected": 1963,
    "dead": 24,
    "name": "Kostroma Oblast",
    "lastUpdated": "2020-07-19T08:00:09.528Z",
    "country": "RU",
    "longitude": 43.9541,
    "sick": 617,
    "invisible": false
  },
  {
    "longitude": 24.966761,
    "recovered": 22488,
    "name": "Romania",
    "country": "RO",
    "dead": 2009,
    "pop": 19530000,
    "id": "9QcETqEcM2fTv9zRvx5T",
    "lastUpdated": "2020-07-19T08:16:03.569Z",
    "infected": 36691,
    "latitude": 45.943161,
    "sick": 12194,
    "invisible": false
  },
  {
    "infected": 3147,
    "name": "Nicaragua",
    "lastUpdated": "2020-07-19T08:16:03.573Z",
    "longitude": -86.251389,
    "dead": 99,
    "recovered": 2282,
    "id": "9Y5wmCqNCC6ZrenM31uA",
    "country": "NI",
    "latitude": 12.136389,
    "pop": 6218000,
    "sick": 766,
    "invisible": false
  },
  {
    "id": "9dIzxqDSVqPyINkHqwGv",
    "recovered": 1809,
    "lastUpdated": "2020-07-19T08:16:03.574Z",
    "name": "Mali",
    "country": "ML",
    "dead": 121,
    "pop": 18540000,
    "infected": 2472,
    "latitude": 17.5706921,
    "longitude": -3.996166,
    "sick": 542,
    "invisible": false
  },
  {
    "dead": 328,
    "pop": 5513000,
    "recovered": 6880,
    "latitude": 61.92411,
    "name": "Finland",
    "lastUpdated": "2020-07-19T08:16:03.572Z",
    "longitude": 25.748152,
    "infected": 7318,
    "id": "9p6OCdZbUUwBLA60Gk3W",
    "country": "FI",
    "sick": 110,
    "invisible": false
  },
  {
    "longitude": 95.1104,
    "lastUpdated": "2020-07-19T08:00:09.520Z",
    "dead": 260,
    "pop": 2876000,
    "name": "Krasnoyarsk Krai",
    "infected": 11403,
    "id": "A6Us0fpQVCc85SoIqzg3",
    "recovered": 8529,
    "country": "RU",
    "latitude": 64.248,
    "sick": 2614,
    "invisible": false
  },
  {
    "state": "NH",
    "recovered": 0,
    "lastUpdated": "2020-07-19T08:17:06.793Z",
    "pop": 1356000,
    "country": "US",
    "dead": 396,
    "name": "New Hampshire",
    "infected": 6188,
    "longitude": -71.590315,
    "id": "A84CwQ52kA46Hr7pn6Bm",
    "latitude": 43.311643,
    "sick": 5792,
    "invisible": false
  },
  {
    "id": "AEUWUHS65qvjEslew11c",
    "state": "RI",
    "longitude": -71.412257,
    "lastUpdated": "2020-07-19T08:17:06.792Z",
    "infected": 17793,
    "country": "US",
    "recovered": 0,
    "latitude": 41.823261,
    "pop": 1057000,
    "name": "Rhode Island",
    "dead": 990,
    "sick": 16803,
    "invisible": false
  },
  {
    "recovered": 23619,
    "id": "AJ9jQ0iyKsafsmf5yHAR",
    "pop": 4453000,
    "country": "IT",
    "lastUpdated": "2020-07-19T08:01:02.453Z",
    "longitude": 11.327591,
    "dead": 4274,
    "infected": 29127,
    "latitude": 44.498955,
    "name": "Emilia-Romagna",
    "state": "45",
    "sick": 1234,
    "invisible": false
  },
  {
    "recovered": 2628,
    "lastUpdated": "2020-07-19T08:00:03.134Z",
    "pop": 990509,
    "state": "SL",
    "country": "DE",
    "name": "Saarland",
    "dead": 178,
    "infected": 2853,
    "longitude": 7.023,
    "id": "AKjFRQGnzuuZQhv5Qwx7",
    "latitude": 49.3964,
    "sick": 47,
    "invisible": false
  },
  {
    "id": "AOapJ3gElQApd8Gnt8EL",
    "name": "Chelyabinsk Oblast",
    "recovered": 5404,
    "country": "RU",
    "pop": 3493000,
    "latitude": 54.4319,
    "longitude": 60.8789,
    "dead": 88,
    "lastUpdated": "2020-07-19T08:00:09.520Z",
    "infected": 9682,
    "sick": 4190,
    "invisible": false
  },
  {
    "longitude": -71.167,
    "name": "Maule",
    "infected": 7683,
    "dead": 127,
    "latitude": -35.717,
    "id": "APTPgjAsjFi0nsGyJV7M",
    "recovered": 0,
    "country": "CL",
    "pop": 1125002,
    "lastUpdated": "2020-07-19T08:20:10.308Z",
    "sick": 7556,
    "invisible": false
  },
  {
    "pop": 56171,
    "dead": 0,
    "country": "GL",
    "name": "Greenland",
    "id": "APaZzlGCEeuoLBtzTJMe",
    "longitude": -42.6043,
    "recovered": 13,
    "latitude": 71.7069,
    "lastUpdated": "2020-07-19T08:16:03.581Z",
    "infected": 13,
    "sick": 0,
    "invisible": false
  },
  {
    "lastUpdated": "2020-07-19T08:00:09.527Z",
    "infected": 3651,
    "recovered": 2804,
    "id": "ATxF6ZoDJ2ibdE6ZRYIX",
    "name": "Buryatia",
    "country": "RU",
    "latitude": 54.8331,
    "longitude": 112.4061,
    "dead": 32,
    "pop": 984000,
    "sick": 815,
    "invisible": false
  },
  {
    "pop": 971395,
    "id": "AVCpxeh0fuH2WrHWNDYH",
    "longitude": -63.582687,
    "name": "Nova Scotia",
    "dead": 63,
    "state": "NS",
    "country": "CA",
    "infected": 1067,
    "recovered": 1002,
    "latitude": 45.65107,
    "lastUpdated": "2020-07-19T08:07:09.866Z",
    "sick": 2,
    "invisible": false
  },
  {
    "recovered": 0,
    "pop": 1062000,
    "lastUpdated": "2020-07-19T08:17:06.794Z",
    "longitude": -109.128641,
    "state": "MT",
    "dead": 37,
    "name": "Montana",
    "id": "AcULcZBozObOhwuRKMjJ",
    "country": "US",
    "latitude": 47.012918,
    "infected": 2471,
    "sick": 2434,
    "invisible": false
  },
  {
    "pop": 9275000,
    "infected": 6834,
    "name": "Tajikistan",
    "lastUpdated": "2020-07-19T08:16:03.572Z",
    "latitude": 38.861,
    "dead": 57,
    "id": "AiIGs3ybYZZhm1ytVopr",
    "recovered": 5529,
    "country": "TJ",
    "longitude": 71.2761,
    "sick": 1248,
    "invisible": false
  },
  {
    "longitude": 116.01609,
    "name": "Jiangxi",
    "infected": 932,
    "country": "CN",
    "lastUpdated": "2020-07-19T08:08:04.259Z",
    "dead": 1,
    "latitude": 27.285971,
    "id": "AmBYm5J6E9Cuez1FQjiN",
    "recovered": 931,
    "pop": 45200000,
    "sick": 0,
    "invisible": false
  },
  {
    "pop": 3136000,
    "state": "WA",
    "latitude": 52.1307,
    "infected": 16897,
    "recovered": 0,
    "dead": 1546,
    "longitude": -3.7837,
    "lastUpdated": "2020-07-19T08:13:11.950Z",
    "id": "AoLhHdTydeWTfmp9koEX",
    "country": "GB",
    "name": "Wales",
    "sick": 15351,
    "invisible": false
  },
  {
    "name": "Khakassia",
    "pop": 537000,
    "longitude": 90.3982,
    "lastUpdated": "2020-07-19T08:00:09.528Z",
    "recovered": 2043,
    "id": "Avls64fLKoEsBFH0Ol0b",
    "country": "RU",
    "infected": 2595,
    "latitude": 53.0452,
    "dead": 25,
    "sick": 527,
    "invisible": false
  },
  {
    "infected": 22549,
    "longitude": 1.659626,
    "lastUpdated": "2020-07-19T08:16:03.570Z",
    "dead": 1068,
    "latitude": 28.033886,
    "id": "AwN0CScPDApcLFgz6e3z",
    "name": "Algeria",
    "recovered": 15744,
    "country": "DZ",
    "pop": 41320000,
    "sick": 5737,
    "invisible": false
  },
  {
    "country": "HR",
    "lastUpdated": "2020-07-19T08:16:03.573Z",
    "latitude": 45.099998,
    "id": "B82Ef45M8cDu4q7VsSHF",
    "infected": 4253,
    "pop": 4076000,
    "longitude": 15.2,
    "recovered": 2929,
    "dead": 120,
    "name": "Croatia",
    "sick": 1204,
    "invisible": false
  },
  {
    "longitude": 8.081666,
    "latitude": 17.6077881,
    "recovered": 1014,
    "name": "Niger",
    "pop": 23716000,
    "country": "NE",
    "id": "BENubqQInFUJzhpZTsLT",
    "infected": 1104,
    "lastUpdated": "2020-07-19T08:16:03.576Z",
    "dead": 69,
    "sick": 21,
    "invisible": false
  },
  {
    "country": "US",
    "lastUpdated": "2020-07-19T08:17:06.790Z",
    "id": "BF51mWl51fgEcyBpCSzb",
    "state": "MD",
    "name": "Maryland",
    "latitude": 39.509109,
    "pop": 6043000,
    "infected": 77206,
    "dead": 3368,
    "longitude": -76.98432,
    "recovered": 0,
    "sick": 73838,
    "invisible": false
  },
  {
    "country": "BY",
    "longitude": 27.953388,
    "infected": 65953,
    "lastUpdated": "2020-07-19T08:16:03.566Z",
    "name": "Belarus",
    "recovered": 57856,
    "dead": 495,
    "id": "BGg6yVU5VP71B8NXU0oh",
    "latitude": 53.709808,
    "pop": 9508000,
    "sick": 7602,
    "invisible": false
  },
  {
    "name": "Normandie",
    "lastUpdated": "2020-07-19T00:15:32.138Z",
    "pop": 3319000,
    "id": "BGtoyzb7y54LVlJ91rbf",
    "infected": 3716,
    "latitude": 48.8799,
    "longitude": 0.1713,
    "country": "FR",
    "recovered": 1718,
    "dead": 438,
    "sick": 1560,
    "invisible": false
  },
  {
    "infected": 12919,
    "recovered": 0,
    "longitude": -3.9995,
    "dead": 0,
    "country": "GB",
    "lastUpdated": "2020-07-19T08:13:11.951Z",
    "pop": 5616000,
    "name": "South West",
    "state": "EN",
    "id": "BQqMOlPFD36ZEDTGd3WC",
    "latitude": 50.7772,
    "sick": 12919,
    "invisible": false
  },
  {
    "recovered": 0,
    "pop": 7172000,
    "country": "US",
    "latitude": 34.048927,
    "lastUpdated": "2020-07-19T08:17:06.789Z",
    "id": "BTEESCuD2ZbS1afunR2A",
    "infected": 141265,
    "longitude": -111.093735,
    "dead": 2730,
    "state": "AZ",
    "name": "Arizona",
    "sick": 138535,
    "invisible": false
  },
  {
    "infected": 5381,
    "latitude": 54.9883,
    "dead": 87,
    "longitude": 32.6677,
    "id": "BUb7oDHcBM4lQ5cufNoG",
    "name": "Smolensk Oblast",
    "lastUpdated": "2020-07-19T08:00:09.524Z",
    "pop": 949000,
    "country": "RU",
    "recovered": 3323,
    "sick": 1971,
    "invisible": false
  },
  {
    "country": "RU",
    "pop": 1283000,
    "dead": 52,
    "id": "BWojXmuKU3szKlS7CE4k",
    "name": "Kirov Oblast",
    "lastUpdated": "2020-07-19T08:00:09.527Z",
    "infected": 4142,
    "longitude": 50.2097,
    "recovered": 3845,
    "latitude": 58.4199,
    "sick": 245,
    "invisible": false
  },
  {
    "recovered": 0,
    "pop": 1676000,
    "latitude": 53.428543,
    "lastUpdated": "2020-07-19T08:03:01.478Z",
    "id": "BZwZOAlDJ8AIiaRVLyC9",
    "name": "Zachodniopomorskie",
    "country": "PL",
    "dead": 23,
    "longitude": 14.552812,
    "infected": 653,
    "sick": 630,
    "invisible": false
  },
  {
    "recovered": 299449,
    "longitude": -70.6693,
    "dead": 0,
    "id": "BbiuZcm8oURX7cZwaa5U",
    "invisible": true,
    "country": "CL",
    "latitude": -33.4489,
    "lastUpdated": "2020-07-19T08:16:03.563Z",
    "infected": 0,
    "name": "Unknown Chile region",
    "sick": 0
  },
  {
    "recovered": 1111,
    "country": "MW",
    "id": "BfT8o5DaEixC6JIZ28kY",
    "infected": 2810,
    "latitude": -13.2543,
    "name": "Malawi",
    "lastUpdated": "2020-07-19T08:16:03.573Z",
    "pop": 18620000,
    "dead": 55,
    "longitude": 34.3015,
    "sick": 1644,
    "invisible": false
  },
  {
    "pop": 10860000,
    "longitude": 29.9188862,
    "dead": 1,
    "latitude": -3.3730559,
    "id": "BnpMamidC5yYzeK8tPUL",
    "infected": 310,
    "country": "BI",
    "name": "Burundi",
    "recovered": 207,
    "lastUpdated": "2020-07-19T08:16:03.579Z",
    "sick": 102,
    "invisible": false
  },
  {
    "country": "PL",
    "latitude": 52.257,
    "lastUpdated": "2020-07-19T08:03:01.476Z",
    "name": "Mazowieckie",
    "id": "BrToMzyq8y2xdwXn75kM",
    "recovered": 0,
    "dead": 363,
    "pop": 5385000,
    "longitude": 21.002,
    "infected": 5603,
    "sick": 5240,
    "invisible": false
  },
  {
    "longitude": -71.347573,
    "lastUpdated": "2020-07-19T07:15:07.870Z",
    "pop": 74751,
    "recovered": 2265,
    "country": "CO",
    "dead": 101,
    "name": "Amazonas (Colombia)",
    "infected": 2454,
    "latitude": -1.333845,
    "id": "C25xSDm4iYibX5RYML14",
    "sick": 88,
    "invisible": false
  },
  {
    "name": "New York",
    "recovered": 0,
    "lastUpdated": "2020-07-19T08:17:06.788Z",
    "id": "C3BCUzV80z9GfiuByIcr",
    "state": "NY",
    "latitude": 40.719042,
    "infected": 433314,
    "country": "US",
    "dead": 32552,
    "pop": 19540000,
    "longitude": -73.982597,
    "sick": 400762,
    "invisible": false
  },
  {
    "country": "CO",
    "longitude": -67.92389,
    "pop": 42800,
    "dead": 1,
    "recovered": 13,
    "infected": 14,
    "id": "C5YXFiytAc1w9swtVGLz",
    "latitude": 3.86528,
    "lastUpdated": "2020-07-19T07:15:07.871Z",
    "name": "Guainía",
    "sick": 0,
    "invisible": false
  },
  {
    "infected": 13855,
    "id": "C6S76AggdWVU8G22jFHQ",
    "dead": 358,
    "latitude": 49.731626,
    "lastUpdated": "2020-07-19T08:16:03.570Z",
    "name": "Czechia",
    "pop": 10650000,
    "recovered": 8733,
    "longitude": 15.359413,
    "country": "CZ",
    "sick": 4764,
    "invisible": false
  },
  {
    "name": "Bahrain",
    "infected": 36004,
    "id": "C7cj4nwRITs13KnaJrQ2",
    "recovered": 31765,
    "dead": 124,
    "lastUpdated": "2020-07-19T08:16:03.569Z",
    "longitude": 50.557701,
    "country": "BH",
    "latitude": 26.0667,
    "pop": 1493000,
    "sick": 4115,
    "invisible": false
  },
  {
    "longitude": -74.4057,
    "lastUpdated": "2020-07-19T07:15:07.870Z",
    "latitude": 10.4113,
    "recovered": 680,
    "name": "Magdalena",
    "id": "CA9LaAl3bNaeAqBuozn4",
    "infected": 1481,
    "country": "CO",
    "pop": 1285400,
    "dead": 150,
    "sick": 651,
    "invisible": false
  },
  {
    "dead": 451,
    "pop": 3073500,
    "infected": 8831,
    "id": "CCUFp4urvgXPo5unfMGy",
    "recovered": 0,
    "latitude": 26.909979,
    "lastUpdated": "2020-07-19T08:02:02.094Z",
    "name": "Coahuila",
    "longitude": -101.430756,
    "country": "MX",
    "sick": 8380,
    "invisible": false
  },
  {
    "name": "Rajasthan",
    "infected": 28693,
    "latitude": 27.0238,
    "dead": 556,
    "longitude": 74.2179,
    "lastUpdated": "2020-07-19T08:11:01.513Z",
    "recovered": 21266,
    "id": "CKZCZTPlrcq5fbfUPA9k",
    "pop": 68890000,
    "country": "IN",
    "sick": 6871,
    "invisible": false
  },
  {
    "id": "CX8z9U1iABNBhc1VK2Dy",
    "country": "RU",
    "dead": 1,
    "longitude": 86.2199,
    "name": "Altai",
    "recovered": 764,
    "latitude": 50.6182,
    "infected": 1239,
    "pop": 218000,
    "lastUpdated": "2020-07-19T08:00:09.529Z",
    "sick": 474,
    "invisible": false
  },
  {
    "infected": 11508,
    "lastUpdated": "2020-07-19T08:16:03.571Z",
    "recovered": 6632,
    "id": "Cgvmtle61ehMvCzRzYx7",
    "longitude": -88.9053,
    "dead": 324,
    "name": "El Salvador",
    "latitude": 13.803,
    "pop": 6378000,
    "country": "SV",
    "sick": 4552,
    "invisible": false
  },
  {
    "recovered": 742,
    "dead": 6,
    "pop": 144000,
    "lastUpdated": "2020-07-19T08:00:09.529Z",
    "id": "D4WkbqyUXY1pazbOxfKx",
    "latitude": 62.6643,
    "infected": 1144,
    "name": "Magadan Oblast",
    "country": "RU",
    "longitude": 153.915,
    "sick": 396,
    "invisible": false
  },
  {
    "lastUpdated": "2020-07-19T08:00:09.527Z",
    "latitude": 58.897,
    "longitude": 82.6765,
    "id": "DAp3PFow4BuCMYWWTo3i",
    "country": "RU",
    "infected": 3435,
    "name": "Tomsk Oblast",
    "pop": 1078000,
    "dead": 26,
    "recovered": 1925,
    "sick": 1484,
    "invisible": false
  },
  {
    "country": "AM",
    "id": "DCJCtZoBTWQ4mzdDNljD",
    "name": "Armenia",
    "infected": 34877,
    "dead": 641,
    "lastUpdated": "2020-07-19T08:16:03.569Z",
    "latitude": 40.259003,
    "pop": 2973000,
    "longitude": 44.818474,
    "recovered": 23294,
    "sick": 10942,
    "invisible": false
  },
  {
    "name": "Boyacá",
    "id": "DJJraANgQbEqz1wBBtZz",
    "country": "CO",
    "recovered": 317,
    "pop": 1278000,
    "latitude": 5.535,
    "lastUpdated": "2020-07-19T07:15:07.870Z",
    "longitude": -73.368,
    "infected": 624,
    "dead": 20,
    "sick": 287,
    "invisible": false
  },
  {
    "longitude": 44.0684,
    "country": "RU",
    "dead": 32,
    "recovered": 2973,
    "pop": 834000,
    "lastUpdated": "2020-07-19T08:00:09.527Z",
    "id": "DKwy7USk22oXUQGEvO42",
    "name": "Mordovia",
    "infected": 4086,
    "latitude": 54.2369,
    "sick": 1081,
    "invisible": false
  },
  {
    "state": "EN",
    "name": "North West",
    "recovered": 0,
    "lastUpdated": "2020-07-19T08:13:11.951Z",
    "infected": 44074,
    "pop": 7300000,
    "country": "GB",
    "dead": 0,
    "latitude": 53.6221,
    "longitude": -2.5945,
    "id": "DPwBt2aJuwF0O71vwfM9",
    "sick": 44074,
    "invisible": false
  },
  {
    "infected": 153,
    "id": "DZyTD0Mu5WIcK6yTcJ91",
    "lastUpdated": "2020-07-19T08:16:03.579Z",
    "name": "Bermuda",
    "pop": 65440,
    "dead": 9,
    "recovered": 137,
    "longitude": -64.75737,
    "country": "BM",
    "latitude": 32.3213844,
    "sick": 7,
    "invisible": false
  },
  {
    "longitude": -71.7979,
    "dead": 2,
    "name": "Turks and Caicos",
    "id": "DaMrRSIGJXIG36nW0Pnc",
    "country": "TC",
    "recovered": 22,
    "latitude": 21.694,
    "lastUpdated": "2020-07-19T08:16:03.580Z",
    "pop": 35446,
    "infected": 75,
    "sick": 51,
    "invisible": false
  },
  {
    "name": "Castilla La Mancha",
    "recovered": 6392,
    "country": "ES",
    "state": "CM",
    "latitude": 39.2796,
    "dead": 3034,
    "lastUpdated": "2020-07-19T00:11:07.638Z",
    "longitude": -3.0977,
    "infected": 27065,
    "id": "Dbng0NBTH41EEwBxhMzE",
    "pop": 2035000,
    "sick": 17639,
    "invisible": false
  },
  {
    "country": "PL",
    "id": "DcQ3D0WkacXEbv6iznRB",
    "pop": 3361000,
    "longitude": 20.006,
    "recovered": 0,
    "latitude": 50.023,
    "name": "Malopolskie",
    "lastUpdated": "2020-07-19T08:03:01.478Z",
    "infected": 2379,
    "dead": 47,
    "sick": 2332,
    "invisible": false
  },
  {
    "country": "MO",
    "id": "DdBt8qsG6A3g92oOR3ow",
    "recovered": 46,
    "latitude": 22.192039,
    "infected": 46,
    "dead": 0,
    "lastUpdated": "2020-07-19T08:16:03.580Z",
    "longitude": 113.551262,
    "pop": 622567,
    "name": "Macao",
    "sick": 0,
    "invisible": false
  },
  {
    "pop": 2651000,
    "lastUpdated": "2020-07-19T08:11:01.516Z",
    "infected": 418,
    "name": "Meghalaya",
    "dead": 2,
    "longitude": 91.3662,
    "recovered": 49,
    "country": "IN",
    "id": "Dh0O1vmhrVfmsCsfZCUg",
    "latitude": 25.467,
    "sick": 367,
    "invisible": false
  },
  {
    "id": "DqzAhNFTJFQVm88ma21P",
    "name": "Rostov Oblast",
    "pop": 4220000,
    "longitude": 41.8259,
    "infected": 11419,
    "dead": 183,
    "country": "RU",
    "recovered": 8909,
    "latitude": 47.6853,
    "lastUpdated": "2020-07-19T08:00:09.520Z",
    "sick": 2327,
    "invisible": false
  },
  {
    "lastUpdated": "2020-07-19T08:17:06.794Z",
    "country": "US",
    "id": "DrGzziUglmBognCGY7R2",
    "pop": 577737,
    "longitude": -107.534868,
    "latitude": 42.962334,
    "name": "Wyoming",
    "dead": 24,
    "recovered": 0,
    "infected": 2108,
    "state": "WY",
    "sick": 2084,
    "invisible": false
  },
  {
    "country": "GR",
    "lastUpdated": "2020-07-19T08:16:03.573Z",
    "name": "Greece",
    "latitude": 37.9838,
    "id": "Dtr1lap1RpJpXJdXGJiW",
    "recovered": 1374,
    "longitude": 23.7275,
    "dead": 194,
    "infected": 3983,
    "pop": 10740000,
    "sick": 2415,
    "invisible": false
  },
  {
    "dead": 107,
    "latitude": 58.8232,
    "infected": 4982,
    "longitude": 56.5872,
    "id": "E8vIyXLVNtcY9dxLHICp",
    "lastUpdated": "2020-07-19T08:00:09.525Z",
    "recovered": 3935,
    "country": "RU",
    "pop": 2623000,
    "name": "Perm Krai",
    "sick": 940,
    "invisible": false
  },
  {
    "id": "EHKZ6ivhrJUs3XqNDBOw",
    "recovered": 3023,
    "country": "RU",
    "pop": 3692000,
    "name": "Tyumen Oblast",
    "latitude": 56.9634,
    "lastUpdated": "2020-07-19T08:00:09.526Z",
    "infected": 4667,
    "longitude": 66.9483,
    "dead": 22,
    "sick": 1622,
    "invisible": false
  },
  {
    "lastUpdated": "2020-07-19T08:16:03.578Z",
    "longitude": 121.563698,
    "country": "TW",
    "latitude": 25.03841,
    "dead": 7,
    "name": "Taiwan",
    "recovered": 440,
    "pop": 23780000,
    "id": "EKTfs8e7M6DXzI1HqyyX",
    "infected": 455,
    "sick": 8,
    "invisible": false
  },
  {
    "latitude": 10.327273,
    "pop": 4906000,
    "longitude": -84.387618,
    "lastUpdated": "2020-07-19T08:16:03.571Z",
    "infected": 10551,
    "recovered": 2902,
    "id": "EQzJvzVHKjs8kLmK7BMu",
    "country": "CR",
    "dead": 54,
    "name": "Costa Rica",
    "sick": 7595,
    "invisible": false
  },
  {
    "id": "ERwk9R9en4m9WbdoMbIg",
    "recovered": 34005,
    "lastUpdated": "2020-07-19T08:11:01.512Z",
    "dead": 2126,
    "pop": 62700000,
    "infected": 47476,
    "country": "IN",
    "latitude": 22.2587,
    "longitude": 71.1924,
    "name": "Gujarat",
    "sick": 11345,
    "invisible": false
  },
  {
    "dead": 129,
    "pop": 1155000,
    "longitude": 42.5884,
    "infected": 7819,
    "name": "Arkhangelsk Oblast",
    "country": "RU",
    "latitude": 63.2853,
    "id": "EVMBsgCJedjHy91mDYEC",
    "recovered": 5492,
    "lastUpdated": "2020-07-19T08:00:09.521Z",
    "sick": 2198,
    "invisible": false
  },
  {
    "id": "Esl5UlCVB9s8pmGB5Ofr",
    "recovered": 485,
    "dead": 12,
    "latitude": 30.7333,
    "name": "Chandigarh",
    "lastUpdated": "2020-07-19T08:11:01.515Z",
    "infected": 691,
    "country": "IN",
    "longitude": 76.7794,
    "pop": 1055000,
    "sick": 194,
    "invisible": false
  },
  {
    "pop": 2148000,
    "latitude": 51.24,
    "lastUpdated": "2020-07-19T08:03:01.478Z",
    "name": "Lubelskie",
    "id": "Esy1La2CxwH5uB8bGVWZ",
    "dead": 20,
    "longitude": 22.653,
    "recovered": 0,
    "infected": 875,
    "country": "PL",
    "sick": 855,
    "invisible": false
  },
  {
    "id": "F4rPrEVGAIMM5rfPEMv4",
    "latitude": 18.200178,
    "state": "PR",
    "lastUpdated": "2020-07-19T08:17:06.795Z",
    "pop": 3195000,
    "country": "US",
    "recovered": 0,
    "name": "Puerto Rico",
    "dead": 178,
    "longitude": -66.664513,
    "infected": 11453,
    "alwaysShow": true,
    "sick": 11275,
    "invisible": false
  },
  {
    "longitude": -74.058655,
    "country": "CO",
    "id": "F7MED5VwEhi3JvJu6KjB",
    "latitude": 4.862437,
    "pop": 2919000,
    "recovered": 2495,
    "name": "Cundinamarca",
    "lastUpdated": "2020-07-19T07:15:07.868Z",
    "dead": 121,
    "infected": 5649,
    "sick": 3033,
    "invisible": false
  },
  {
    "id": "F8LnLqvuWoWh8awBqiw1",
    "infected": 328,
    "latitude": -11.6455,
    "dead": 7,
    "recovered": 311,
    "lastUpdated": "2020-07-19T08:16:03.579Z",
    "country": "KM",
    "longitude": 43.3333,
    "name": "Comoros",
    "pop": 832322,
    "sick": 10,
    "invisible": false
  },
  {
    "name": "Afghanistan",
    "pop": 35530000,
    "longitude": 67.709953,
    "id": "FCDmlmnIIswd8bQiUjfN",
    "latitude": 33.93911,
    "lastUpdated": "2020-07-19T08:16:03.569Z",
    "infected": 35301,
    "dead": 1164,
    "recovered": 23273,
    "country": "AF",
    "sick": 10864,
    "invisible": false
  },
  {
    "id": "FErOU1m4Tj7jIkRam3vF",
    "longitude": 106.912254,
    "name": "Chongqing",
    "recovered": 576,
    "dead": 6,
    "infected": 583,
    "lastUpdated": "2020-07-19T08:08:04.258Z",
    "country": "CN",
    "latitude": 29.431585,
    "pop": 30480000,
    "sick": 1,
    "invisible": false
  },
  {
    "recovered": 49020,
    "infected": 58904,
    "longitude": 47.481766,
    "id": "FZsUkhxBEgqsPb4eO0PN",
    "pop": 4137000,
    "name": "Kuwait",
    "country": "KW",
    "latitude": 29.311661,
    "lastUpdated": "2020-07-19T08:16:03.566Z",
    "dead": 407,
    "sick": 9477,
    "invisible": false
  },
  {
    "state": "SE",
    "pop": 2278308,
    "id": "FboWeolpM62SZCLwdilT",
    "infected": 43072,
    "name": "Sergipe",
    "recovered": 0,
    "lastUpdated": "2020-07-19T07:57:01.958Z",
    "dead": 1111,
    "longitude": -37.0717,
    "country": "BR",
    "latitude": -10.9111,
    "sick": 41961,
    "invisible": false
  },
  {
    "name": "Tamil Nadu",
    "lastUpdated": "2020-07-19T08:11:01.512Z",
    "id": "FeS45oMNC27pI17F0xEV",
    "recovered": 113856,
    "infected": 165714,
    "latitude": 11.1271,
    "dead": 2403,
    "country": "IN",
    "pop": 67860000,
    "longitude": 78.6569,
    "sick": 49455,
    "invisible": false
  },
  {
    "longitude": -70.430399,
    "recovered": 24607,
    "id": "FuiVEJvWb0QMCpxJ3563",
    "country": "DO",
    "name": "Dominican Republic",
    "infected": 51519,
    "latitude": 18.947829,
    "pop": 10770000,
    "lastUpdated": "2020-07-19T08:16:03.568Z",
    "dead": 971,
    "sick": 25941,
    "invisible": false
  },
  {
    "pop": 35190000,
    "id": "FyC551oNwmENxbr9Yght",
    "recovered": 30607,
    "lastUpdated": "2020-07-19T08:11:01.513Z",
    "latitude": 18.1124,
    "infected": 43780,
    "longitude": 79.0193,
    "country": "IN",
    "dead": 409,
    "name": "Telengana",
    "sick": 12764,
    "invisible": false
  },
  {
    "infected": 1979,
    "latitude": 48.669,
    "recovered": 1530,
    "pop": 5450000,
    "name": "Slovakia",
    "dead": 28,
    "country": "SK",
    "longitude": 19.699,
    "lastUpdated": "2020-07-19T08:16:03.574Z",
    "id": "FzIDXoqWnTI3nUfhPyT2",
    "sick": 421,
    "invisible": false
  },
  {
    "pop": 197000000,
    "lastUpdated": "2020-07-19T08:16:03.563Z",
    "longitude": 69.345116,
    "name": "Pakistan",
    "infected": 263496,
    "dead": 5568,
    "country": "PK",
    "latitude": 30.37532,
    "id": "GAp7Wb6IMhdgbvEtMza9",
    "recovered": 204276,
    "sick": 53652,
    "invisible": false
  },
  {
    "latitude": 31.1471,
    "longitude": 75.3412,
    "dead": 246,
    "pop": 27980000,
    "name": "Punjab",
    "lastUpdated": "2020-07-19T08:11:01.514Z",
    "recovered": 6454,
    "infected": 9792,
    "id": "GGru8cG08mANO8XDDUtZ",
    "country": "IN",
    "sick": 3092,
    "invisible": false
  },
  {
    "lastUpdated": "2020-07-19T08:16:03.566Z",
    "infected": 56711,
    "country": "AE",
    "longitude": 53.847816,
    "latitude": 23.424076,
    "dead": 338,
    "name": "United Arab Emirates",
    "id": "GHzBIsHy2GiBc5JV2HMs",
    "recovered": 48917,
    "pop": 9400000,
    "sick": 7456,
    "invisible": false
  },
  {
    "name": "Grand Princess",
    "infected": 103,
    "id": "GLViSIjDjwvptOphedAu",
    "longitude": -95.7129,
    "latitude": 37.0902,
    "dead": 3,
    "invisible": true,
    "recovered": 0,
    "lastUpdated": "2020-07-19T08:17:06.795Z",
    "country": "US",
    "sick": 100
  },
  {
    "name": "London",
    "state": "EN",
    "country": "GB",
    "dead": 0,
    "recovered": 0,
    "pop": 10100000,
    "longitude": -0.1278,
    "lastUpdated": "2020-07-19T08:13:11.950Z",
    "infected": 34506,
    "latitude": 51.5074,
    "id": "GPtoS0Yy2EnNafpmmTqY",
    "sick": 34506,
    "invisible": false
  },
  {
    "country": "US",
    "state": "CA",
    "recovered": 0,
    "latitude": 36.621981,
    "longitude": -119.339046,
    "name": "California",
    "infected": 382968,
    "id": "Gh46r6vuaY7fbGt3IboN",
    "dead": 7702,
    "lastUpdated": "2020-07-19T08:17:06.789Z",
    "pop": 39560000,
    "sick": 375266,
    "invisible": false
  },
  {
    "country": "IN",
    "latitude": 20.4283,
    "pop": 343709,
    "id": "GljWeVnun6o9DeW6rlEm",
    "lastUpdated": "2020-07-19T08:11:01.516Z",
    "dead": 2,
    "longitude": 72.8397,
    "name": "Dadra and Nagar Haveli",
    "infected": 653,
    "recovered": 436,
    "sick": 215,
    "invisible": false
  },
  {
    "country": "US",
    "dead": 451,
    "state": "OK",
    "infected": 25056,
    "recovered": 0,
    "name": "Oklahoma",
    "lastUpdated": "2020-07-19T08:17:06.792Z",
    "pop": 3943000,
    "longitude": -97.145514,
    "latitude": 35.87189,
    "id": "GpF8ULuKOQiFDCUHN44h",
    "sick": 24605,
    "invisible": false
  },
  {
    "pop": 256627,
    "recovered": 81,
    "lastUpdated": "2020-07-19T07:15:07.871Z",
    "country": "CO",
    "name": "Arauca",
    "latitude": 6.492,
    "infected": 161,
    "longitude": -71.557,
    "dead": 0,
    "id": "Gr09a1wn3BnMqjQbgEun",
    "sick": 80,
    "invisible": false
  },
  {
    "name": "Ivanovo Oblast",
    "lastUpdated": "2020-07-19T08:00:09.522Z",
    "recovered": 4241,
    "longitude": 41.483,
    "country": "RU",
    "latitude": 57.1057,
    "pop": 1014000,
    "id": "GsecjBfopdgTOnyRgtCA",
    "infected": 5938,
    "dead": 64,
    "sick": 1633,
    "invisible": false
  },
  {
    "longitude": 11.35,
    "country": "IT",
    "pop": 520891,
    "name": "P.A. Bolzano",
    "lastUpdated": "2020-07-19T08:01:02.455Z",
    "id": "Gzx6GX1qhBm714BkEC6l",
    "state": "BA",
    "recovered": 2290,
    "latitude": 46.5,
    "infected": 2683,
    "dead": 292,
    "sick": 101,
    "invisible": false
  },
  {
    "latitude": 42.83263,
    "recovered": 237,
    "name": "Inner Mongolia",
    "lastUpdated": "2020-07-19T08:08:04.258Z",
    "infected": 249,
    "country": "CN",
    "pop": 24710000,
    "longitude": 113.750972,
    "id": "H3JeVigVbo5CSYfZG4WI",
    "dead": 1,
    "sick": 11,
    "invisible": false
  },
  {
    "id": "H3bDg4eV30up4WWrIDAS",
    "country": "US",
    "infected": 34477,
    "pop": 3034000,
    "recovered": 0,
    "dead": 646,
    "name": "Nevada",
    "lastUpdated": "2020-07-19T08:17:06.791Z",
    "state": "NV",
    "longitude": -116.724977,
    "latitude": 39.74536,
    "sick": 33831,
    "invisible": false
  },
  {
    "infected": 146544,
    "state": "CE",
    "pop": 9075649,
    "name": "Ceará",
    "recovered": 0,
    "lastUpdated": "2020-07-19T07:57:01.955Z",
    "id": "HEMWNnFxeFEoeOCBOLJD",
    "latitude": -3.731862,
    "longitude": -38.526669,
    "country": "BR",
    "dead": 7173,
    "sick": 139371,
    "invisible": false
  },
  {
    "name": "Karnataka",
    "country": "IN",
    "dead": 1245,
    "latitude": 15.3173,
    "id": "HN5mGmxlqlSeFSNeu1K5",
    "lastUpdated": "2020-07-19T08:11:01.513Z",
    "infected": 59652,
    "longitude": 75.7139,
    "recovered": 21776,
    "pop": 64060000,
    "sick": 36631,
    "invisible": false
  },
  {
    "country": "BT",
    "dead": 0,
    "name": "Bhutan",
    "id": "HRDpwyxpqW9RN0xLFyNu",
    "lastUpdated": "2020-07-19T08:16:03.580Z",
    "recovered": 80,
    "infected": 87,
    "pop": 807610,
    "longitude": 90.4336,
    "latitude": 27.5142,
    "sick": 7,
    "invisible": false
  },
  {
    "latitude": 41.3775,
    "pop": 32390000,
    "lastUpdated": "2020-07-19T08:16:03.570Z",
    "id": "HRTA10dtrruDEwjJEGMp",
    "country": "UZ",
    "infected": 16429,
    "longitude": 64.5853,
    "dead": 83,
    "name": "Uzbekistan",
    "recovered": 9127,
    "sick": 7219,
    "invisible": false
  },
  {
    "id": "HSSFomRju0doHhWgW8On",
    "latitude": 34.138916,
    "recovered": 0,
    "infected": 16736,
    "name": "New Mexico",
    "lastUpdated": "2020-07-19T08:17:06.792Z",
    "country": "US",
    "longitude": -105.576255,
    "state": "NM",
    "pop": 2095000,
    "dead": 569,
    "sick": 16167,
    "invisible": false
  },
  {
    "latitude": -40.231,
    "longitude": -72.3311,
    "name": "Los Ríos",
    "pop": 412812,
    "country": "CL",
    "recovered": 0,
    "lastUpdated": "2020-07-19T08:20:10.308Z",
    "infected": 825,
    "id": "HZkACHjW7NlYjg8vEMj2",
    "dead": 13,
    "sick": 812,
    "invisible": false
  },
  {
    "longitude": 12.4296,
    "infected": 811,
    "dead": 21,
    "state": "MV",
    "latitude": 53.6127,
    "lastUpdated": "2020-07-19T08:00:03.133Z",
    "pop": 1635000,
    "id": "He1gSS1v50t06i3YrqvB",
    "name": "Mecklenburg-Vorpommern",
    "country": "DE",
    "recovered": 784,
    "sick": 6,
    "invisible": false
  },
  {
    "country": "IT",
    "lastUpdated": "2020-07-19T08:01:02.453Z",
    "latitude": 42.25,
    "name": "Abruzzo",
    "infected": 3335,
    "recovered": 2750,
    "dead": 468,
    "state": "65",
    "longitude": 13.75,
    "id": "I9EqrZfbPnkioNU4wZGz",
    "pop": 1315000,
    "sick": 117,
    "invisible": false
  },
  {
    "pop": 113460000,
    "recovered": 1636,
    "country": "CN",
    "infected": 1659,
    "name": "Guangdong",
    "longitude": 113.373448,
    "lastUpdated": "2020-07-19T08:08:04.258Z",
    "latitude": 23.363855,
    "id": "IAX0OQLVnUwU7FX0ENF1",
    "dead": 8,
    "sick": 15,
    "invisible": false
  },
  {
    "longitude": 113.484016,
    "id": "IFuMrMvSjoiX5agYvllh",
    "infected": 1276,
    "pop": 94000000,
    "name": "Henan",
    "dead": 22,
    "recovered": 1254,
    "latitude": 33.875408,
    "lastUpdated": "2020-07-19T08:08:04.259Z",
    "country": "CN",
    "sick": 0,
    "invisible": false
  },
  {
    "name": "Algarve",
    "infected": 780,
    "latitude": 37.2,
    "longitude": -8.16667,
    "id": "IHqRHC8K3OZPN8gniM7V",
    "dead": 15,
    "pop": 451000,
    "recovered": 0,
    "lastUpdated": "2020-07-19T08:23:01.666Z",
    "country": "PT",
    "sick": 765,
    "invisible": false
  },
  {
    "lastUpdated": "2020-07-19T07:15:07.870Z",
    "infected": 1841,
    "name": "Buenaventura D.E.",
    "country": "CO",
    "latitude": 3.883,
    "pop": 333194,
    "longitude": -77.0197,
    "id": "IKWjRUo0SYgHQKdWjTvq",
    "dead": 123,
    "recovered": 1239,
    "sick": 479,
    "invisible": false
  },
  {
    "id": "INyu1R48Ppv8cfW4Nuz4",
    "dead": 0,
    "lastUpdated": "2020-07-19T08:13:11.950Z",
    "state": "EN",
    "recovered": 0,
    "infected": 22464,
    "name": "East Midlands",
    "country": "GB",
    "latitude": 52.87,
    "longitude": -0.995,
    "pop": 4811000,
    "sick": 22464,
    "invisible": false
  },
  {
    "lastUpdated": "2020-07-19T08:02:02.096Z",
    "latitude": 22.017,
    "country": "MX",
    "longitude": -102.317,
    "id": "ISRKMzEDojyrZ9iyWwex",
    "infected": 4136,
    "dead": 224,
    "recovered": 0,
    "pop": 1342600,
    "name": "Aguascalientes",
    "sick": 3912,
    "invisible": false
  },
  {
    "id": "IdKbgzgKLpjBFh4UPOwu",
    "pop": 5321300,
    "dead": 753,
    "recovered": 0,
    "infected": 23193,
    "name": "Nuevo León",
    "latitude": 25.686613,
    "lastUpdated": "2020-07-19T08:02:02.096Z",
    "longitude": -100.316116,
    "country": "MX",
    "sick": 22440,
    "invisible": false
  },
  {
    "infected": 6386,
    "longitude": -106.069099,
    "pop": 3826900,
    "dead": 803,
    "id": "IhhiYI6T0TX4CYVPcnmH",
    "name": "Chihuahua",
    "lastUpdated": "2020-07-19T08:02:02.093Z",
    "country": "MX",
    "recovered": 0,
    "latitude": 28.632996,
    "sick": 5583,
    "invisible": false
  },
  {
    "latitude": -36.7,
    "name": "Ñuble",
    "pop": 480600,
    "recovered": 0,
    "infected": 3193,
    "id": "ImnOiVx9Cb8Nw7cbRcQ7",
    "longitude": -72.57,
    "lastUpdated": "2020-07-19T08:20:10.308Z",
    "dead": 53,
    "country": "CL",
    "sick": 3140,
    "invisible": false
  },
  {
    "name": "Haiti",
    "infected": 7053,
    "dead": 146,
    "pop": 10980000,
    "longitude": -73.0513,
    "lastUpdated": "2020-07-19T08:16:03.572Z",
    "country": "HT",
    "latitude": 19.0558,
    "recovered": 3877,
    "id": "InZ38sIqyK7FN7XAOZoX",
    "sick": 3030,
    "invisible": false
  },
  {
    "latitude": 32.528564,
    "name": "Georgia (US)",
    "dead": 3168,
    "id": "IvQkDJkTAsoIqPRAU25n",
    "country": "US",
    "longitude": -83.280125,
    "pop": 10520000,
    "lastUpdated": "2020-07-19T08:17:06.789Z",
    "infected": 139872,
    "state": "GA",
    "recovered": 0,
    "sick": 136704,
    "invisible": false
  },
  {
    "recovered": 1506,
    "infected": 1553,
    "latitude": -42.8285,
    "id": "IvVhpOoGpH6JVkGyUhXN",
    "pop": 4794000,
    "name": "New Zealand",
    "lastUpdated": "2020-07-19T08:16:03.576Z",
    "longitude": 172.488081,
    "country": "NZ",
    "dead": 22,
    "sick": 25,
    "invisible": false
  },
  {
    "latitude": 28.218,
    "id": "IwYKiIVY18NGwdGQFGWW",
    "recovered": 274,
    "lastUpdated": "2020-07-19T08:11:01.516Z",
    "country": "IN",
    "longitude": 94.7278,
    "dead": 3,
    "pop": 1255000,
    "infected": 650,
    "name": "Arunachal Pradesh",
    "sick": 373,
    "invisible": false
  },
  {
    "id": "J3mZXlfEnnJx4CDZLvRG",
    "recovered": 3972,
    "latitude": 6.4238,
    "longitude": -66.5897,
    "lastUpdated": "2020-07-19T08:16:03.571Z",
    "dead": 110,
    "pop": 28870000,
    "country": "VE",
    "name": "Venezuela",
    "infected": 11483,
    "sick": 7401,
    "invisible": false
  },
  {
    "pop": 107932,
    "id": "JEMCwkwXK39jd1lZ7VgJ",
    "latitude": 2.567,
    "recovered": 37,
    "country": "CO",
    "name": "Guaviare",
    "infected": 48,
    "dead": 0,
    "lastUpdated": "2020-07-19T07:15:07.871Z",
    "longitude": -72.633,
    "sick": 11,
    "invisible": false
  },
  {
    "name": "Adygea",
    "country": "RU",
    "lastUpdated": "2020-07-19T08:00:09.528Z",
    "longitude": 40.1754,
    "dead": 16,
    "id": "JOJVBvOnsLDJPVeYJaI2",
    "pop": 453000,
    "latitude": 44.8229,
    "infected": 2364,
    "recovered": 1901,
    "sick": 447,
    "invisible": false
  },
  {
    "id": "JQByE4l2OA6sGOqIcWrM",
    "lastUpdated": "2020-07-19T08:16:03.577Z",
    "dead": 19,
    "longitude": 33.4299,
    "recovered": 845,
    "infected": 1037,
    "name": "Cyprus",
    "pop": 1170000,
    "latitude": 35.1264,
    "country": "CY",
    "sick": 173,
    "invisible": false
  },
  {
    "dead": 177,
    "country": "IN",
    "id": "JR7hOGked7CZtIs2nCV5",
    "recovered": 15771,
    "pop": 99020000,
    "longitude": 85.3131,
    "lastUpdated": "2020-07-19T08:11:01.513Z",
    "infected": 24967,
    "latitude": 25.0961,
    "name": "Bihar",
    "sick": 9019,
    "invisible": false
  },
  {
    "country": "GT",
    "latitude": 14.628434,
    "recovered": 4989,
    "id": "JUWE6bG3b5oL7fKQMSvv",
    "name": "Guatemala",
    "longitude": -90.522713,
    "pop": 17250000,
    "infected": 33809,
    "dead": 1449,
    "lastUpdated": "2020-07-19T06:58:02.535Z",
    "sick": 27371,
    "invisible": false
  },
  {
    "country": "LU",
    "longitude": 6.1296,
    "infected": 5483,
    "latitude": 49.8153,
    "dead": 111,
    "recovered": 4333,
    "pop": 602005,
    "name": "Luxembourg",
    "id": "JcFsHSn2WvZ5LJW42ovG",
    "lastUpdated": "2020-07-19T08:16:03.572Z",
    "sick": 1039,
    "invisible": false
  },
  {
    "latitude": 8.8,
    "id": "JmOyaFe25yZCIV64JbZj",
    "lastUpdated": "2020-07-19T07:15:07.870Z",
    "country": "CO",
    "pop": 2049000,
    "recovered": 829,
    "name": "Bolívar",
    "infected": 1698,
    "dead": 82,
    "longitude": -74.167,
    "sick": 787,
    "invisible": false
  },
  {
    "longitude": -115.783,
    "infected": 11835,
    "latitude": 31.4,
    "pop": 3648100,
    "recovered": 0,
    "lastUpdated": "2020-07-19T08:02:02.092Z",
    "name": "Baja California",
    "id": "Jp9ePErcc8i1aOozEAMf",
    "dead": 2370,
    "country": "MX",
    "sick": 9465,
    "invisible": false
  },
  {
    "latitude": 8.7479801,
    "longitude": -75.8814316,
    "lastUpdated": "2020-07-19T07:15:07.870Z",
    "dead": 286,
    "country": "CO",
    "recovered": 573,
    "infected": 2584,
    "pop": 1786500,
    "id": "Jr8syCB0lydmPDXw8Q6N",
    "name": "Córdoba",
    "sick": 1725,
    "invisible": false
  },
  {
    "lastUpdated": "2020-07-19T08:16:03.577Z",
    "name": "Togo",
    "country": "TG",
    "longitude": 0.8248,
    "latitude": 8.6195,
    "id": "JrBbirlBKGdWSdcDt7PF",
    "infected": 774,
    "recovered": 548,
    "pop": 7798000,
    "dead": 15,
    "sick": 211,
    "invisible": false
  },
  {
    "infected": 8638,
    "dead": 299,
    "latitude": 42.7339,
    "pop": 7050000,
    "country": "BG",
    "name": "Bulgaria",
    "lastUpdated": "2020-07-19T08:16:03.571Z",
    "id": "JzZ8sbqzjutThVjkPKPL",
    "recovered": 4081,
    "longitude": 25.4858,
    "sick": 4258,
    "invisible": false
  },
  {
    "recovered": 0,
    "country": "PL",
    "dead": 45,
    "id": "KGrK7gafkeWjmU6sHQd2",
    "pop": 1263000,
    "longitude": 20.709,
    "lastUpdated": "2020-07-19T08:03:01.478Z",
    "latitude": 50.823,
    "infected": 879,
    "name": "Świętokrzyskie",
    "sick": 834,
    "invisible": false
  },
  {
    "recovered": 11786,
    "lastUpdated": "2020-07-19T08:00:09.519Z",
    "pop": 4325000,
    "dead": 193,
    "id": "KLBR5QHW6DePaGcFxlqH",
    "infected": 17789,
    "latitude": 59.0077,
    "longitude": 61.9316,
    "name": "Sverdlovsk Oblast",
    "country": "RU",
    "sick": 5810,
    "invisible": false
  },
  {
    "name": "Liguria",
    "pop": 1557000,
    "recovered": 8305,
    "infected": 10070,
    "lastUpdated": "2020-07-19T08:01:02.454Z",
    "state": "42",
    "id": "KLXicxFogWnu0dLp4bNK",
    "country": "IT",
    "latitude": 44.5,
    "longitude": 8.833,
    "dead": 1565,
    "sick": 200,
    "invisible": false
  },
  {
    "longitude": 47.9608,
    "lastUpdated": "2020-07-19T08:00:09.527Z",
    "name": "Mari El Republic",
    "latitude": 56.4385,
    "dead": 31,
    "recovered": 2948,
    "infected": 3493,
    "pop": 682000,
    "id": "KUnAVGJH6fLwFetE8A2x",
    "country": "RU",
    "sick": 514,
    "invisible": false
  },
  {
    "recovered": 1054,
    "id": "KpOz3WmiZkrXUMlUJNlV",
    "country": "CO",
    "longitude": -73.2532,
    "latitude": 10.4631,
    "infected": 1893,
    "name": "Cesar",
    "lastUpdated": "2020-07-19T07:15:07.869Z",
    "pop": 1201000,
    "dead": 38,
    "sick": 801,
    "invisible": false
  },
  {
    "id": "KrLrJbpDqqiXgUPGCCW9",
    "pop": 3737000,
    "recovered": 8915,
    "longitude": 11,
    "state": "52",
    "infected": 10358,
    "name": "Toscana",
    "country": "IT",
    "latitude": 43.4167,
    "dead": 1129,
    "lastUpdated": "2020-07-19T08:01:02.456Z",
    "sick": 314,
    "invisible": false
  },
  {
    "longitude": 80.771797,
    "country": "LK",
    "pop": 21440000,
    "lastUpdated": "2020-07-19T08:16:03.574Z",
    "id": "KsWzJO06cf0d6LJ4ZNh9",
    "name": "Sri Lanka",
    "latitude": 7.873054,
    "dead": 11,
    "infected": 2704,
    "recovered": 2023,
    "sick": 670,
    "invisible": false
  },
  {
    "dead": 586,
    "name": "Andhra Pradesh",
    "lastUpdated": "2020-07-19T08:11:01.513Z",
    "country": "IN",
    "latitude": 15.9129,
    "id": "KtQIo2DoqjELtPAlyDVO",
    "infected": 44609,
    "pop": 49670000,
    "longitude": 79.74,
    "recovered": 21763,
    "sick": 22260,
    "invisible": false
  },
  {
    "dead": 3,
    "name": "Saint-Martin",
    "infected": 46,
    "country": "FR",
    "id": "LBUtrLDKJiupXjlUNTUe",
    "longitude": -63.0501,
    "alwaysShow": true,
    "latitude": 18.0708,
    "recovered": 39,
    "lastUpdated": "2020-07-19T08:16:03.580Z",
    "pop": 32125,
    "sick": 4,
    "invisible": false
  },
  {
    "dead": 77,
    "pop": 747000,
    "country": "RU",
    "latitude": 52.7856,
    "longitude": 36.9242,
    "infected": 5318,
    "recovered": 3870,
    "name": "Oryol Oblast",
    "id": "LD8TNScpLrLRvgpQAn9T",
    "lastUpdated": "2020-07-19T08:00:09.524Z",
    "sick": 1371,
    "invisible": false
  },
  {
    "country": "LI",
    "infected": 86,
    "longitude": 9.5554,
    "recovered": 81,
    "id": "LTGEU2E9MFkrCcFhZYVk",
    "latitude": 47.166,
    "name": "Liechtenstein",
    "lastUpdated": "2020-07-19T08:16:03.580Z",
    "dead": 1,
    "pop": 38557,
    "sick": 4,
    "invisible": false
  },
  {
    "latitude": 9.9456,
    "pop": 12720000,
    "id": "LU2QWt5ao8IJa8evNYVV",
    "longitude": -9.6966,
    "country": "GN",
    "recovered": 5257,
    "infected": 6491,
    "dead": 39,
    "name": "Guinea",
    "lastUpdated": "2020-07-19T08:16:03.572Z",
    "sick": 1195,
    "invisible": false
  },
  {
    "lastUpdated": "2020-07-19T08:02:02.093Z",
    "pop": 3062000,
    "longitude": -110.5,
    "name": "Sonora",
    "latitude": 29.6667,
    "id": "LYCBHrA9ms6GcxpLGPCT",
    "dead": 1406,
    "country": "MX",
    "recovered": 0,
    "infected": 14387,
    "sick": 12981,
    "invisible": false
  },
  {
    "name": "Suriname",
    "latitude": 3.9193051,
    "country": "SR",
    "id": "LglKINHyQpYpFxjckbQ6",
    "dead": 20,
    "longitude": -56.0277824,
    "pop": 563402,
    "infected": 1001,
    "recovered": 610,
    "lastUpdated": "2020-07-19T08:16:03.577Z",
    "sick": 371,
    "invisible": false
  },
  {
    "longitude": -106.4509,
    "infected": 941,
    "lastUpdated": "2020-07-19T08:07:09.865Z",
    "id": "LkIDKY0CMAqzbwBHyYCP",
    "name": "Saskatchewan",
    "dead": 15,
    "country": "CA",
    "recovered": 798,
    "pop": 1174000,
    "latitude": 52.9399,
    "state": "SK",
    "sick": 128,
    "invisible": false
  },
  {
    "country": "EH",
    "longitude": -12.8858,
    "infected": 10,
    "recovered": 8,
    "lastUpdated": "2020-07-19T08:16:03.581Z",
    "id": "LooNn6RuMiDhQnwa9svw",
    "pop": 636442,
    "dead": 1,
    "latitude": 24.2155,
    "name": "Western Sahara",
    "sick": 1,
    "invisible": false
  },
  {
    "recovered": 1063,
    "lastUpdated": "2020-07-19T00:12:11.029Z",
    "dead": 334,
    "id": "Lsga7AvYNnY0qQ5gEfV8",
    "state": "AS",
    "infected": 3427,
    "longitude": -5.951843,
    "name": "Principado de Asturias",
    "latitude": 43.363129,
    "pop": 1022000,
    "country": "ES",
    "sick": 2030,
    "invisible": false
  },
  {
    "dead": 519,
    "state": "EX",
    "name": "Extremadura",
    "infected": 4244,
    "pop": 1065000,
    "id": "LuEErlF7dVKI0eJsRjFm",
    "recovered": 2652,
    "country": "ES",
    "longitude": -6.0679,
    "lastUpdated": "2020-07-19T00:11:38.258Z",
    "latitude": 39.4937,
    "sick": 1073,
    "invisible": false
  },
  {
    "id": "M3wdiueFtwrUHiQ2rOXA",
    "longitude": -101.2591,
    "country": "MX",
    "dead": 938,
    "latitude": 21.0186,
    "infected": 15788,
    "recovered": 0,
    "name": "Guanajuato",
    "lastUpdated": "2020-07-19T08:02:02.094Z",
    "pop": 5965000,
    "sick": 14850,
    "invisible": false
  },
  {
    "recovered": 0,
    "lastUpdated": "2020-07-19T08:17:06.792Z",
    "longitude": -84.27,
    "country": "US",
    "infected": 22184,
    "id": "MC8MXFw9iXYybnF8v7e6",
    "state": "KY",
    "name": "Kentucky",
    "dead": 667,
    "latitude": 37.8393,
    "pop": 4468000,
    "sick": 21517,
    "invisible": false
  },
  {
    "country": "GB",
    "invisible": true,
    "dead": 40680,
    "id": "MEjlm8VYdGA28TTTnQmf",
    "longitude": -3.436,
    "recovered": 0,
    "lastUpdated": "2020-07-19T08:13:11.951Z",
    "latitude": 55.3781,
    "name": "Unknown UK region or state",
    "infected": 8347,
    "sick": 0
  },
  {
    "country": "PT",
    "pop": 3689000,
    "id": "MG4e9tulLJ010SZJvbYN",
    "latitude": 41.3006,
    "recovered": 0,
    "lastUpdated": "2020-07-19T08:23:01.665Z",
    "name": "Norte",
    "dead": 827,
    "longitude": -7.7441,
    "infected": 18328,
    "sick": 17501,
    "invisible": false
  },
  {
    "name": "Scotland",
    "latitude": 56.4907,
    "lastUpdated": "2020-07-19T08:13:11.950Z",
    "state": "SC",
    "dead": 2491,
    "country": "GB",
    "longitude": -4.2026,
    "id": "MObRYyIriHG337L8FyFC",
    "pop": 5450000,
    "infected": 18422,
    "recovered": 0,
    "sick": 15931,
    "invisible": false
  },
  {
    "dead": 2820,
    "id": "MOxDkmQ4wBi1CuAdVxDE",
    "recovered": 0,
    "state": "IN",
    "infected": 55654,
    "longitude": -86.1349,
    "latitude": 40.2672,
    "pop": 6692000,
    "country": "US",
    "name": "Indiana",
    "lastUpdated": "2020-07-19T08:17:06.791Z",
    "sick": 52834,
    "invisible": false
  },
  {
    "recovered": 8000,
    "lastUpdated": "2020-07-19T08:16:03.570Z",
    "dead": 91,
    "country": "CI",
    "latitude": 7.54,
    "longitude": -5.5471,
    "id": "MdQOfc1gNh2DOqwSP6UV",
    "infected": 13912,
    "name": "Ivory Coast",
    "pop": 24290000,
    "sick": 5821,
    "invisible": false
  },
  {
    "lastUpdated": "2020-07-19T08:00:03.133Z",
    "dead": 1726,
    "longitude": 7.6616,
    "id": "MjpYq3zQyAvSQlVVYjD2",
    "name": "Nordrhein-Westfalen",
    "country": "DE",
    "latitude": 51.4332,
    "pop": 17910000,
    "infected": 46005,
    "state": "NW",
    "recovered": 42282,
    "sick": 1997,
    "invisible": false
  },
  {
    "recovered": 75,
    "latitude": 37.330509,
    "infected": 75,
    "name": "Ningxia",
    "pop": 6301000,
    "dead": 0,
    "longitude": 105.977203,
    "id": "MntmjjuHljarCdt6aIeE",
    "lastUpdated": "2020-07-19T08:08:04.259Z",
    "country": "CN",
    "sick": 0,
    "invisible": false
  },
  {
    "lastUpdated": "2020-07-19T07:57:01.956Z",
    "infected": 136947,
    "name": "Pará",
    "dead": 5478,
    "longitude": -52.203499186,
    "id": "MuEB2UgkId5crsxi9zQT",
    "latitude": -3.20166586,
    "country": "BR",
    "state": "PA",
    "recovered": 0,
    "pop": 8513497,
    "sick": 131469,
    "invisible": false
  },
  {
    "latitude": 52.5265,
    "dead": 20,
    "recovered": 3364,
    "infected": 4395,
    "country": "RU",
    "pop": 1150000,
    "id": "N0KGfqgROVOjAxWcd8wi",
    "lastUpdated": "2020-07-19T08:00:09.526Z",
    "longitude": 39.2032,
    "name": "Lipetsk Oblast",
    "sick": 1011,
    "invisible": false
  },
  {
    "latitude": 48.6616,
    "dead": 1895,
    "infected": 36733,
    "lastUpdated": "2020-07-19T08:00:03.130Z",
    "id": "N3XsRBwJSsNclkEf7Zz5",
    "pop": 11020000,
    "state": "BW",
    "recovered": 33926,
    "country": "DE",
    "longitude": 9.3501,
    "name": "Baden-Württemberg",
    "sick": 912,
    "invisible": false
  },
  {
    "dead": 246,
    "infected": 8161,
    "pop": 3507000,
    "longitude": 17.824332,
    "name": "Bosnia and Herzegovina",
    "lastUpdated": "2020-07-19T08:16:03.572Z",
    "recovered": 3648,
    "country": "BA",
    "latitude": 44.696652,
    "id": "N7c13sCQF0G789XAVazJ",
    "sick": 4267,
    "invisible": false
  },
  {
    "recovered": 200,
    "longitude": 111.856857,
    "latitude": 37.242565,
    "id": "NBRIGIRrJB1Ry8prDNAC",
    "infected": 201,
    "dead": 0,
    "name": "Shanxi",
    "country": "CN",
    "lastUpdated": "2020-07-19T08:08:04.259Z",
    "pop": 36500000,
    "sick": 1,
    "invisible": false
  },
  {
    "id": "NC64Qp5kTqAfiTuR27k8",
    "infected": 97958,
    "pop": 10380000,
    "longitude": -79.0193,
    "country": "US",
    "lastUpdated": "2020-07-19T08:17:06.790Z",
    "name": "North Carolina",
    "recovered": 0,
    "latitude": 35.7596,
    "dead": 1651,
    "state": "NC",
    "sick": 96307,
    "invisible": false
  },
  {
    "latitude": 52.4125,
    "name": "Brandenburg",
    "recovered": 3268,
    "id": "NJjo2gfBvnbK4xatrsUz",
    "state": "BB",
    "infected": 3540,
    "pop": 2504000,
    "lastUpdated": "2020-07-19T08:00:03.132Z",
    "country": "DE",
    "dead": 177,
    "longitude": 12.5316,
    "sick": 95,
    "invisible": false
  },
  {
    "lastUpdated": "2020-07-19T08:17:06.795Z",
    "dead": 2,
    "recovered": 0,
    "name": "Northern Mariana Islands",
    "infected": 37,
    "latitude": 15.0979,
    "alwaysShow": true,
    "longitude": 145.6739,
    "pop": 55144,
    "country": "US",
    "id": "NLLL6pJhJSw0lrDMD4uP",
    "state": "MP",
    "sick": 35,
    "invisible": false
  },
  {
    "name": "Uttarakhand",
    "latitude": 30.0668,
    "infected": 4276,
    "longitude": 79.0193,
    "pop": 10080000,
    "lastUpdated": "2020-07-19T08:11:01.514Z",
    "dead": 52,
    "id": "NMeZEcGToxXfpi16PfFV",
    "recovered": 3081,
    "country": "IN",
    "sick": 1143,
    "invisible": false
  },
  {
    "id": "Nk5vPgUIXsWVfbWZf15O",
    "recovered": 10472,
    "pop": 6243000,
    "country": "DE",
    "longitude": 9.1624,
    "infected": 11415,
    "lastUpdated": "2020-07-19T08:00:03.133Z",
    "state": "HE",
    "name": "Hessen",
    "dead": 521,
    "latitude": 50.6521,
    "sick": 422,
    "invisible": false
  },
  {
    "id": "NmmMKy0YqA8StHdGzB5N",
    "pop": 1920000,
    "dead": 31,
    "infected": 1192,
    "latitude": 56.96776,
    "longitude": 25.837107,
    "recovered": 1022,
    "name": "Latvia",
    "lastUpdated": "2020-07-19T08:16:03.576Z",
    "country": "LV",
    "sick": 139,
    "invisible": false
  },
  {
    "dead": 5928,
    "longitude": -37.946777,
    "infected": 78509,
    "state": "PE",
    "id": "NyGlFL1gATK1Omv9qtcC",
    "recovered": 0,
    "lastUpdated": "2020-07-19T07:57:01.957Z",
    "country": "BR",
    "latitude": -8.472372,
    "pop": 9496294,
    "name": "Pernambuco",
    "sick": 72581,
    "invisible": false
  },
  {
    "id": "O4g88K49HKEZLFXm5gxb",
    "lastUpdated": "2020-07-19T08:16:03.576Z",
    "recovered": 519,
    "pop": 4732000,
    "longitude": -9.4295,
    "infected": 1088,
    "latitude": 6.4281,
    "country": "LR",
    "dead": 70,
    "name": "Liberia",
    "sick": 499,
    "invisible": false
  },
  {
    "infected": 7382,
    "id": "O5fNOGWKosps6JTrzkpn",
    "recovered": 4712,
    "country": "RU",
    "dead": 56,
    "name": "Altai Krai",
    "lastUpdated": "2020-07-19T08:00:09.521Z",
    "longitude": 82.6759,
    "latitude": 51.7936,
    "pop": 2350000,
    "sick": 2614,
    "invisible": false
  },
  {
    "dead": 47,
    "longitude": 116.9677,
    "lastUpdated": "2020-07-19T08:00:09.527Z",
    "pop": 1072000,
    "name": "Zabaykalsky Krai",
    "recovered": 3137,
    "country": "RU",
    "id": "O6PDzAxKENYbLsLjPx2K",
    "infected": 3897,
    "latitude": 53.0929,
    "sick": 713,
    "invisible": false
  },
  {
    "recovered": 0,
    "latitude": 34.003307,
    "name": "South Carolina",
    "dead": 1135,
    "state": "SC",
    "country": "US",
    "infected": 67612,
    "lastUpdated": "2020-07-19T08:17:06.790Z",
    "longitude": -80.525613,
    "pop": 5084000,
    "id": "ONU4CK8QjViFHKg2w5if",
    "sick": 66477,
    "invisible": false
  },
  {
    "id": "OYa0jFzdbAgo8zUsRv6q",
    "latitude": 33.51822,
    "lastUpdated": "2020-07-19T08:17:06.791Z",
    "name": "Mississippi",
    "longitude": -89.582775,
    "pop": 2987000,
    "state": "MS",
    "infected": 41846,
    "recovered": 0,
    "country": "US",
    "dead": 1346,
    "sick": 40500,
    "invisible": false
  },
  {
    "infected": 3646,
    "pop": 1338000,
    "country": "US",
    "longitude": -69.4455,
    "latitude": 45.2538,
    "dead": 117,
    "state": "ME",
    "id": "OcXNp9kNVSwrRlG3bNVN",
    "recovered": 0,
    "lastUpdated": "2020-07-19T08:17:06.794Z",
    "name": "Maine",
    "sick": 3529,
    "invisible": false
  },
  {
    "pop": 488000,
    "recovered": 2538,
    "dead": 71,
    "longitude": 44.8203,
    "id": "OlKS5SPydHY2TedStFuf",
    "name": "Ingushetia",
    "infected": 3438,
    "country": "RU",
    "lastUpdated": "2020-07-19T08:00:09.527Z",
    "latitude": 43.4052,
    "sick": 829,
    "invisible": false
  },
  {
    "infected": 228,
    "state": "TAS",
    "longitude": 146.725256,
    "lastUpdated": "2020-07-19T08:13:29.939Z",
    "latitude": -41.915264,
    "dead": 13,
    "pop": 515000,
    "recovered": 215,
    "country": "AU",
    "id": "OnOseaqWdnuP18oruABW",
    "name": "Tasmania",
    "sick": 0,
    "invisible": false
  },
  {
    "country": "BR",
    "infected": 32707,
    "id": "P0GHFGUt1pkKTk5PM8uz",
    "state": "MT",
    "name": "Mato Grosso",
    "latitude": -16.35,
    "longitude": -56.666668,
    "dead": 1305,
    "lastUpdated": "2020-07-19T07:57:01.959Z",
    "recovered": 0,
    "pop": 3441998,
    "sick": 31402,
    "invisible": false
  },
  {
    "lastUpdated": "2020-07-19T08:00:09.525Z",
    "latitude": 56.1553,
    "dead": 108,
    "id": "P2I90oqdFSoVk03AaGo4",
    "name": "Vladimir Oblast",
    "recovered": 4540,
    "pop": 1378000,
    "longitude": 40.5927,
    "infected": 5218,
    "country": "RU",
    "sick": 570,
    "invisible": false
  },
  {
    "name": "Cayman Islands",
    "pop": 61559,
    "id": "P4mwRFLbrvT0t75uD8Wo",
    "infected": 203,
    "lastUpdated": "2020-07-19T08:16:03.579Z",
    "country": "KY",
    "dead": 1,
    "longitude": -81.2546,
    "latitude": 19.3133,
    "recovered": 200,
    "sick": 2,
    "invisible": false
  },
  {
    "lastUpdated": "2020-07-19T08:16:03.581Z",
    "longitude": -62.1873665,
    "id": "PEDkeFMTOZpvHiSVxBk7",
    "name": "Montserrat",
    "latitude": 16.7424984,
    "dead": 1,
    "recovered": 10,
    "pop": 5900,
    "infected": 12,
    "country": "MS",
    "sick": 1,
    "invisible": false
  },
  {
    "dead": 5,
    "longitude": 29.8739,
    "lastUpdated": "2020-07-19T08:16:03.576Z",
    "country": "RW",
    "latitude": -1.9403,
    "pop": 12210000,
    "name": "Rwanda",
    "recovered": 819,
    "id": "PEcgZGEkyhABztt1Ufgc",
    "infected": 1539,
    "sick": 715,
    "invisible": false
  },
  {
    "dead": 20,
    "infected": 6307,
    "id": "PHlHdeqYd6KgxsJGfEz0",
    "country": "RU",
    "latitude": 54.2312,
    "recovered": 4630,
    "pop": 4063000,
    "longitude": 56.1645,
    "name": "Bashkortostan",
    "lastUpdated": "2020-07-19T08:00:09.521Z",
    "sick": 1657,
    "invisible": false
  },
  {
    "recovered": 0,
    "state": "MN",
    "name": "Minnesota",
    "country": "US",
    "pop": 5611000,
    "latitude": 46.7296,
    "dead": 1578,
    "id": "PJvVYosLIhbcRZYnKX1R",
    "lastUpdated": "2020-07-19T08:17:06.791Z",
    "infected": 45470,
    "longitude": -94.6859,
    "sick": 43892,
    "invisible": false
  },
  {
    "name": "Illinois",
    "dead": 7483,
    "latitude": 40.6331,
    "longitude": -89.3985,
    "state": "IL",
    "pop": 12740000,
    "recovered": 0,
    "lastUpdated": "2020-07-19T08:17:06.789Z",
    "country": "US",
    "infected": 161785,
    "id": "PTwQr9ijo0TBBsPH2sdJ",
    "sick": 154302,
    "invisible": false
  },
  {
    "country": "LC",
    "recovered": 19,
    "longitude": -60.978893,
    "latitude": 13.909444,
    "id": "PjLqCeFdyzdZNcZxMkK1",
    "infected": 23,
    "lastUpdated": "2020-07-19T08:16:03.581Z",
    "dead": 0,
    "name": "Saint Lucia",
    "pop": 178844,
    "sick": 4,
    "invisible": false
  },
  {
    "country": "ES",
    "pop": 649900,
    "name": "Comunidad Foral de Navarra",
    "state": "NC",
    "lastUpdated": "2020-07-19T00:11:27.705Z",
    "recovered": 3905,
    "infected": 8865,
    "longitude": -1.6761,
    "id": "PmUlsNx2uFLU797wwU39",
    "dead": 529,
    "latitude": 42.6954,
    "sick": 4431,
    "invisible": false
  },
  {
    "infected": 1348,
    "longitude": 9.460554,
    "recovered": 1095,
    "latitude": 34.201507,
    "pop": 11530000,
    "lastUpdated": "2020-07-19T08:16:03.576Z",
    "country": "TN",
    "dead": 50,
    "id": "Pr76V4raf108uSRoEXac",
    "name": "Tunisia",
    "sick": 203,
    "invisible": false
  },
  {
    "longitude": 31.4659,
    "id": "PuQgOd9KWiMzGZXm11sR",
    "dead": 21,
    "pop": 1367000,
    "infected": 1729,
    "name": "Eswatini",
    "country": "SZ",
    "latitude": -26.5225,
    "lastUpdated": "2020-07-19T08:16:03.575Z",
    "recovered": 788,
    "sick": 920,
    "invisible": false
  },
  {
    "name": "Victoria",
    "pop": 6359000,
    "dead": 34,
    "latitude": -37.009609,
    "recovered": 2819,
    "country": "AU",
    "id": "Q18mrGvFWTLX2BU9SqhQ",
    "lastUpdated": "2020-07-19T08:13:29.939Z",
    "infected": 5353,
    "state": "VIC",
    "longitude": 143.94853,
    "sick": 2500,
    "invisible": false
  },
  {
    "pop": 2890000,
    "recovered": 3045,
    "country": "DE",
    "latitude": 54.2194,
    "name": "Schleswig-Holstein",
    "state": "SH",
    "id": "Q39XkabIYxt15mHINzTa",
    "infected": 3257,
    "dead": 159,
    "lastUpdated": "2020-07-19T08:00:03.135Z",
    "longitude": 9.6961,
    "sick": 53,
    "invisible": false
  },
  {
    "recovered": 0,
    "country": "BR",
    "infected": 46847,
    "dead": 1229,
    "pop": 11329605,
    "lastUpdated": "2020-07-19T07:57:01.958Z",
    "name": "Rio Grande do Sul",
    "latitude": -27.953491,
    "longitude": -52.031696,
    "state": "RS",
    "id": "QGpQNhuoVTUPHXvS7qcu",
    "sick": 45618,
    "invisible": false
  },
  {
    "country": "RU",
    "pop": 1231000,
    "recovered": 3364,
    "dead": 49,
    "id": "QGyuno7Bc4kwuvGFgMiO",
    "lastUpdated": "2020-07-19T08:00:09.522Z",
    "infected": 6216,
    "name": "Chuvashia",
    "latitude": 55.5596,
    "longitude": 46.9284,
    "sick": 2803,
    "invisible": false
  },
  {
    "pop": 1328000,
    "recovered": 1912,
    "infected": 2021,
    "longitude": 25.013607,
    "id": "QR9go2hQKXjty7JHUYe4",
    "name": "Estonia",
    "country": "EE",
    "lastUpdated": "2020-07-19T08:16:03.574Z",
    "dead": 69,
    "latitude": 58.595272,
    "sick": 40,
    "invisible": false
  },
  {
    "name": "Komi Republic",
    "latitude": 63.8631,
    "id": "QTafh5fpbS8abcuyEjaL",
    "longitude": 54.8313,
    "pop": 840000,
    "country": "RU",
    "infected": 4680,
    "dead": 40,
    "recovered": 2759,
    "lastUpdated": "2020-07-19T08:00:09.526Z",
    "sick": 1881,
    "invisible": false
  },
  {
    "longitude": -40.336,
    "dead": 2202,
    "country": "BR",
    "infected": 70131,
    "id": "QaWDLKH8SuwD0Qxq6c38",
    "recovered": 0,
    "lastUpdated": "2020-07-19T07:57:01.957Z",
    "state": "ES",
    "name": "Espírito Santo",
    "latitude": -20.318,
    "pop": 3972388,
    "sick": 67929,
    "invisible": false
  },
  {
    "longitude": 35.0884,
    "latitude": 67.8443,
    "infected": 8272,
    "country": "RU",
    "pop": 795000,
    "name": "Murmansk Oblast",
    "lastUpdated": "2020-07-19T08:00:09.520Z",
    "id": "Qh73PKA4KWeuPoqZfWXz",
    "recovered": 4387,
    "dead": 49,
    "sick": 3836,
    "invisible": false
  },
  {
    "id": "Qkho455pBwx88Gohs3hL",
    "infected": 22031,
    "name": "Jalisco",
    "country": "MX",
    "lastUpdated": "2020-07-19T08:02:02.096Z",
    "latitude": 20.3333,
    "longitude": -103.6667,
    "recovered": 0,
    "pop": 8222700,
    "dead": 1216,
    "sick": 20815,
    "invisible": false
  },
  {
    "country": "PG",
    "dead": 0,
    "infected": 16,
    "pop": 8251000,
    "id": "QlZrE4nosm5WfdA2aCDg",
    "recovered": 8,
    "name": "Papua New Guinea",
    "latitude": -6.315,
    "longitude": 143.9555,
    "lastUpdated": "2020-07-19T08:16:03.581Z",
    "sick": 8,
    "invisible": false
  },
  {
    "id": "QqhD3YDMKXojvQY3Yu41",
    "state": "VI",
    "lastUpdated": "2020-07-19T08:17:06.795Z",
    "dead": 6,
    "infected": 283,
    "longitude": -64.8963,
    "country": "US",
    "pop": 107268,
    "recovered": 0,
    "alwaysShow": true,
    "name": "U.S. Virgin Islands",
    "latitude": 18.3358,
    "sick": 277,
    "invisible": false
  },
  {
    "pop": 71937,
    "lastUpdated": "2020-07-19T08:16:03.581Z",
    "latitude": 15.414999,
    "longitude": -61.3709755,
    "name": "Dominica",
    "infected": 18,
    "dead": 0,
    "recovered": 18,
    "id": "Qy2qW2ep5wltnYjPJBxh",
    "country": "DM",
    "sick": 0,
    "invisible": false
  },
  {
    "latitude": 5.167,
    "dead": 1,
    "name": "Casanare",
    "country": "CO",
    "infected": 148,
    "longitude": -72.167,
    "recovered": 69,
    "lastUpdated": "2020-07-19T07:15:07.869Z",
    "pop": 344027,
    "id": "R3IHMWqIUhOJJTlrmbUZ",
    "sick": 78,
    "invisible": false
  },
  {
    "name": "Panama",
    "pop": 4099000,
    "country": "PA",
    "infected": 52261,
    "lastUpdated": "2020-07-19T08:16:03.567Z",
    "longitude": -80.7821,
    "recovered": 27494,
    "latitude": 8.538,
    "id": "R8YCgephnxTufvcPWMgx",
    "dead": 1071,
    "sick": 23696,
    "invisible": false
  },
  {
    "name": "Honduras",
    "pop": 9265000,
    "infected": 32793,
    "recovered": 3661,
    "lastUpdated": "2020-07-19T08:16:03.569Z",
    "latitude": 15.2,
    "id": "RA2SE0p2bVhqo0P2hzGY",
    "longitude": -86.2419,
    "dead": 891,
    "country": "HN",
    "sick": 28241,
    "invisible": false
  },
  {
    "lastUpdated": "2020-07-19T08:20:10.300Z",
    "longitude": -70.2979202,
    "country": "CL",
    "latitude": -18.4745998,
    "pop": 224500,
    "recovered": 0,
    "id": "RBt9RiwP7WUbMnJfD0lo",
    "infected": 3012,
    "dead": 35,
    "name": "Arica y Parinacota",
    "sick": 2977,
    "invisible": false
  },
  {
    "country": "IT",
    "pop": 1216000,
    "latitude": 45.633331,
    "state": "36",
    "recovered": 2906,
    "dead": 345,
    "lastUpdated": "2020-07-19T08:01:02.453Z",
    "longitude": 13.8,
    "infected": 3350,
    "id": "RCrDBCdBNYzgLNr0aB2H",
    "name": "Friuli Venezia Giulia",
    "sick": 99,
    "invisible": false
  },
  {
    "state": "IA",
    "longitude": -93.0977,
    "recovered": 0,
    "name": "Iowa",
    "country": "US",
    "infected": 38367,
    "dead": 790,
    "lastUpdated": "2020-07-19T08:17:06.791Z",
    "pop": 3156000,
    "id": "RX0KDu1AFrlCsrRso0nb",
    "latitude": 41.878,
    "sick": 37577,
    "invisible": false
  },
  {
    "id": "RZ6PCe5TZsO15JjDObwO",
    "infected": 60394,
    "dead": 1486,
    "recovered": 23318,
    "name": "Bogotá D.C.",
    "longitude": -74.063644,
    "lastUpdated": "2020-07-19T07:15:07.864Z",
    "pop": 7413000,
    "country": "CO",
    "latitude": 4.624335,
    "sick": 35590,
    "invisible": false
  },
  {
    "id": "RaJxbzlnRFTuj4B8IbpC",
    "dead": 48,
    "longitude": 17.2283306,
    "name": "Libya",
    "pop": 6846000,
    "country": "LY",
    "infected": 1791,
    "latitude": 26.3351002,
    "recovered": 385,
    "lastUpdated": "2020-07-19T08:16:03.575Z",
    "sick": 1358,
    "invisible": false
  },
  {
    "name": "Kansas",
    "country": "US",
    "infected": 22223,
    "latitude": 39.0119,
    "lastUpdated": "2020-07-19T08:17:06.792Z",
    "longitude": -98.4842,
    "state": "KS",
    "dead": 306,
    "id": "Rf4uvBfP3GRDSHdZElRd",
    "pop": 2912000,
    "recovered": 0,
    "sick": 21917,
    "invisible": false
  },
  {
    "longitude": 6.1878,
    "latitude": 48.6998,
    "pop": 5518000,
    "infected": 26788,
    "id": "RmEgf1xeclWt7XCF9oiR",
    "lastUpdated": "2020-07-19T00:14:23.588Z",
    "name": "Grand Est",
    "dead": 3599,
    "country": "FR",
    "recovered": 12473,
    "sick": 10716,
    "invisible": false
  },
  {
    "latitude": 50.4176,
    "dead": 3394,
    "infected": 19729,
    "recovered": 4954,
    "name": "Wallonia",
    "longitude": 4.451,
    "lastUpdated": "2020-07-19T08:07:06.679Z",
    "pop": 3644000,
    "state": "WAL",
    "id": "RryHraSohKQLAsdr1dHO",
    "country": "BE",
    "sick": 11381,
    "invisible": false
  },
  {
    "name": "Ontario",
    "country": "CA",
    "latitude": 51.2538,
    "pop": 14570000,
    "id": "Rx4TuyMpfGb3S8wYJX0x",
    "recovered": 33294,
    "longitude": -85.3232,
    "infected": 37440,
    "state": "ON",
    "dead": 2748,
    "lastUpdated": "2020-07-19T08:07:09.856Z",
    "sick": 1398,
    "invisible": false
  },
  {
    "latitude": 41.652779,
    "lastUpdated": "2020-07-19T00:11:12.857Z",
    "longitude": -4.723611,
    "id": "S8ewN4zaYp8mjtuqqOTw",
    "infected": 26161,
    "dead": 2793,
    "country": "ES",
    "pop": 2408000,
    "state": "CL",
    "name": "Castilla y León",
    "recovered": 8716,
    "sick": 14652,
    "invisible": false
  },
  {
    "latitude": 14.652027,
    "alwaysShow": true,
    "pop": 376480,
    "infected": 262,
    "recovered": 98,
    "longitude": -61.011715,
    "id": "SDdefnq1bc3ZNr7SpEsW",
    "lastUpdated": "2020-07-19T08:16:03.579Z",
    "name": "Martinique",
    "dead": 15,
    "country": "FR",
    "sick": 149,
    "invisible": false
  },
  {
    "lastUpdated": "2020-07-19T08:16:03.570Z",
    "name": "Ghana",
    "infected": 27060,
    "recovered": 23044,
    "pop": 28830000,
    "id": "SG9VWLOV3x2JsTkXmVSz",
    "country": "GH",
    "dead": 145,
    "latitude": 7.9465,
    "longitude": -1.0232,
    "sick": 3871,
    "invisible": false
  },
  {
    "recovered": 29900,
    "country": "CH",
    "latitude": 46.818188,
    "pop": 8570000,
    "id": "SGe9sCPayMqh6RsGFaBA",
    "name": "Switzerland",
    "dead": 1969,
    "longitude": 8.227512,
    "lastUpdated": "2020-07-19T08:16:03.569Z",
    "infected": 33492,
    "sick": 1623,
    "invisible": false
  },
  {
    "longitude": 124.1238,
    "pop": 964000,
    "lastUpdated": "2020-07-19T08:00:09.525Z",
    "country": "RU",
    "latitude": 66.7613,
    "dead": 40,
    "name": "Yakutia",
    "recovered": 4735,
    "infected": 5193,
    "id": "SGhKBmmh5hss7hrNR8hK",
    "sick": 418,
    "invisible": false
  },
  {
    "longitude": -71.208,
    "name": "Quebec",
    "recovered": 50027,
    "lastUpdated": "2020-07-19T08:07:09.865Z",
    "country": "CA",
    "pop": 8485000,
    "id": "SHoOE3NiJgWAlDVBzwYH",
    "dead": 5654,
    "state": "QC",
    "latitude": 46.8139,
    "infected": 57300,
    "sick": 1619,
    "invisible": false
  },
  {
    "name": "Kosovo",
    "lastUpdated": "2020-07-19T07:40:08.962Z",
    "dead": 130,
    "latitude": 42.6026,
    "id": "SMWvuMMuKp2QK7O2tNia",
    "pop": 1831000,
    "infected": 5617,
    "longitude": 20.903,
    "country": "XK",
    "recovered": 2811,
    "sick": 2676,
    "invisible": false
  },
  {
    "name": "Primorsky Krai",
    "latitude": 45.0526,
    "recovered": 4158,
    "infected": 5548,
    "dead": 63,
    "longitude": 135,
    "id": "SNWCQwRwqYfxX8HZndTA",
    "lastUpdated": "2020-07-19T08:00:09.523Z",
    "pop": 1913000,
    "country": "RU",
    "sick": 1327,
    "invisible": false
  },
  {
    "pop": 1817000,
    "latitude": 15.2993,
    "country": "IN",
    "infected": 3484,
    "dead": 21,
    "recovered": 2038,
    "longitude": 74.124,
    "name": "Goa",
    "id": "SPcujsH2YlUaoAr8AiWF",
    "lastUpdated": "2020-07-19T08:11:01.514Z",
    "sick": 1425,
    "invisible": false
  },
  {
    "name": "Goiás",
    "country": "BR",
    "pop": 6921161,
    "state": "GO",
    "longitude": -48.953403,
    "lastUpdated": "2020-07-19T07:57:01.959Z",
    "dead": 1079,
    "id": "SV5AMF59J61Vt4cXWLgy",
    "infected": 40795,
    "latitude": -16.328547,
    "recovered": 0,
    "sick": 39716,
    "invisible": false
  },
  {
    "id": "SYFarIS62W0EW9bOaJmN",
    "infected": 2,
    "longitude": -68.436,
    "country": "CO",
    "lastUpdated": "2020-07-19T07:15:07.871Z",
    "latitude": 6.181,
    "recovered": 1,
    "dead": 0,
    "name": "Vichada",
    "pop": 75500,
    "sick": 1,
    "invisible": false
  },
  {
    "state": "78",
    "longitude": 16.5,
    "dead": 97,
    "country": "IT",
    "pop": 1957000,
    "lastUpdated": "2020-07-19T08:01:02.453Z",
    "infected": 1238,
    "name": "Calabria",
    "id": "SZdF624x0v1LlyzZjKFu",
    "recovered": 1066,
    "latitude": 39,
    "sick": 75,
    "invisible": false
  },
  {
    "name": "Nebraska",
    "lastUpdated": "2020-07-19T08:17:06.792Z",
    "infected": 22481,
    "pop": 1929000,
    "state": "NE",
    "recovered": 0,
    "longitude": -99.9018,
    "id": "SakhKQzKu1LRI8laqdQq",
    "latitude": 41.4925,
    "dead": 301,
    "country": "US",
    "sick": 22180,
    "invisible": false
  },
  {
    "alwaysShow": true,
    "id": "SgHzWAAYK1j2sipovxM6",
    "infected": 624,
    "dead": 3,
    "pop": 859959,
    "recovered": 472,
    "latitude": -21.1151,
    "longitude": 55.5364,
    "lastUpdated": "2020-07-19T08:16:03.578Z",
    "name": "La Réunion",
    "country": "FR",
    "sick": 149,
    "invisible": false
  },
  {
    "dead": 0,
    "pop": 16010000,
    "country": "KH",
    "id": "SioMALgUbo7peXmbco2f",
    "lastUpdated": "2020-07-19T08:16:03.579Z",
    "infected": 171,
    "name": "Cambodia",
    "longitude": 104.990967,
    "latitude": 12.565679,
    "recovered": 136,
    "sick": 35,
    "invisible": false
  },
  {
    "recovered": 0,
    "latitude": 13.4443,
    "alwaysShow": true,
    "id": "SsWhuEElU7dCTTuH5fdQ",
    "lastUpdated": "2020-07-19T08:17:06.795Z",
    "longitude": 144.7937,
    "dead": 5,
    "infected": 314,
    "pop": 164229,
    "country": "US",
    "state": "GU",
    "name": "Guam",
    "sick": 309,
    "invisible": false
  },
  {
    "lastUpdated": "2020-07-19T08:16:03.569Z",
    "dead": 0,
    "recovered": 29924,
    "longitude": 19.1344,
    "id": "SuCr5emUaJ9RHTll1P1p",
    "country": "PL",
    "latitude": 51.9189,
    "name": "Unknown Poland region",
    "infected": 0,
    "invisible": true,
    "sick": 0
  },
  {
    "longitude": 53.0278,
    "lastUpdated": "2020-07-19T08:00:09.528Z",
    "infected": 2044,
    "dead": 19,
    "id": "Sx03z01BJCAbrYkWhEaD",
    "recovered": 1456,
    "latitude": 57.067,
    "name": "Udmurtia",
    "country": "RU",
    "pop": 1513000,
    "sick": 569,
    "invisible": false
  },
  {
    "id": "T3iRf8mTUTAzbKrORTap",
    "lastUpdated": "2020-07-19T08:16:03.571Z",
    "latitude": -4.0383,
    "recovered": 4313,
    "country": "CD",
    "infected": 8324,
    "dead": 193,
    "longitude": 21.7587,
    "name": "DR Congo",
    "pop": 84070000,
    "sick": 3818,
    "invisible": false
  },
  {
    "lastUpdated": "2020-07-19T08:16:03.563Z",
    "country": "SA",
    "longitude": 44.344334,
    "id": "T7NffoeCgTUpAbOHvYwP",
    "name": "Saudi Arabia",
    "infected": 248416,
    "recovered": 194218,
    "latitude": 23.635796,
    "pop": 32940000,
    "dead": 2447,
    "sick": 51751,
    "invisible": false
  },
  {
    "id": "TNDTapyb0k3l7Mds9q9R",
    "longitude": -2.5396,
    "state": "RI",
    "lastUpdated": "2020-07-19T00:11:56.501Z",
    "country": "ES",
    "name": "La Rioja",
    "dead": 366,
    "latitude": 42.2871,
    "infected": 5506,
    "pop": 315700,
    "recovered": 3107,
    "sick": 2033,
    "invisible": false
  },
  {
    "name": "Yucatán",
    "recovered": 0,
    "lastUpdated": "2020-07-19T08:02:02.094Z",
    "infected": 7165,
    "id": "TQCWbhIpJQBQxBjhCGVJ",
    "longitude": -89.134857,
    "country": "MX",
    "dead": 797,
    "latitude": 20.400417,
    "pop": 2207200,
    "sick": 6368,
    "invisible": false
  },
  {
    "infected": 141,
    "name": "Brunei",
    "latitude": 4.506106,
    "country": "BN",
    "pop": 428697,
    "longitude": 114.650692,
    "dead": 3,
    "id": "TQZmzsLhJqjtCSExAkCP",
    "recovered": 138,
    "lastUpdated": "2020-07-19T08:16:03.579Z",
    "sick": 0,
    "invisible": false
  },
  {
    "longitude": 4.3853,
    "country": "FR",
    "dead": 1749,
    "state": "",
    "lastUpdated": "2020-07-19T00:12:36.544Z",
    "latitude": 45.4471,
    "id": "TT0MKODSjrxHvG19xZCa",
    "recovered": 7856,
    "name": "Auvergne-Rhône-Alpes",
    "infected": 15886,
    "pop": 8027000,
    "sick": 6281,
    "invisible": false
  },