[
  {
    "latitude": 20.9517,
    "pop": 45990000,
    "longitude": 85.0985,
    "name": "Odisha",
    "country": "IN",
    "lastUpdated": "2020-03-24T12:41:02.382Z",
    "dead": 0,
    "id": "0VG7S6aaK4eSo59fL9JO",
    "infected": 2,
    "recovered": 0,
    "sick": 2
  },
  {
    "recovered": 37,
    "latitude": 25.315058,
    "pop": 2639000,
    "longitude": 51.145517,
    "name": "Qatar",
    "country": "QA",
    "lastUpdated": "2020-03-24T12:43:02.895Z",
    "dead": 0,
    "id": "0m4aECS0Z2DGFEr8ldgI",
    "infected": 501,
    "sick": 464
  },
  {
    "longitude": 87.855,
    "name": "West Bengal",
    "country": "IN",
    "lastUpdated": "2020-03-24T12:41:02.287Z",
    "dead": 1,
    "id": "0n54EMSDJcRoT1QEvw80",
    "infected": 9,
    "recovered": 0,
    "latitude": 22.9868,
    "pop": 90320000,
    "sick": 8
  },
  {
    "longitude": 78.6569,
    "name": "Madhya Pradesh",
    "country": "IN",
    "lastUpdated": "2020-03-24T12:41:02.343Z",
    "dead": 0,
    "id": "0s18o5DrDAHjbu5MFcrj",
    "infected": 7,
    "recovered": 0,
    "latitude": 22.9734,
    "pop": 73340000,
    "sick": 7
  },
  {
    "latitude": 37.0902,
    "longitude": -95.7129,
    "name": "Unknown US state",
    "country": "US",
    "dead": 0,
    "lastUpdated": "2020-03-24T12:43:02.750Z",
    "id": "0tFoopNTs6e4tOoaltu2",
    "infected": 0,
    "recovered": 295,
    "sick": 0
  },
  {
    "id": "0x2HLhr5z5xAtEdO4iZm",
    "infected": 249,
    "recovered": 240,
    "latitude": 35.64249,
    "pop": 37330000,
    "longitude": 108.472214,
    "name": "Shaanxi",
    "country": "CN",
    "lastUpdated": "2020-03-24T07:34:14.321Z",
    "dead": 3,
    "sick": 6
  },
  {
    "lastUpdated": "2020-03-24T12:43:02.822Z",
    "dead": 2,
    "id": "19MvIhipqTyYv1H37Upw",
    "infected": 148,
    "recovered": 1,
    "latitude": 41.643351,
    "pop": 2077000,
    "longitude": 21.668393,
    "name": "North Macedonia",
    "country": "MK",
    "sick": 145
  },
  {
    "latitude": 53.1355,
    "pop": 521542,
    "longitude": -57.6604,
    "name": "Newfoundland and Labrador",
    "country": "CA",
    "lastUpdated": "2020-03-24T12:39:01.603Z",
    "dead": 0,
    "id": "1DOMOmCWDtva46OVSZLv",
    "infected": 24,
    "recovered": 0,
    "sick": 24
  },
  {
    "id": "1Fap7rZu9SIRqf5TG9Dg",
    "infected": 18,
    "recovered": 18,
    "latitude": 35.801933,
    "pop": 5627000,
    "longitude": 96.779286,
    "name": "Qinghai",
    "country": "CN",
    "lastUpdated": "2020-03-24T07:33:54.105Z",
    "dead": 0,
    "sick": 0
  },
  {
    "infected": 1960,
    "recovered": 2,
    "latitude": -14.235004,
    "pop": 209300000,
    "longitude": -51.925282,
    "name": "Brazil",
    "country": "BR",
    "lastUpdated": "2020-03-24T12:43:02.910Z",
    "dead": 34,
    "id": "1f0YoV0vAcexEhpESyZc",
    "sick": 1924
  },
  {
    "lastUpdated": "2020-03-24T12:43:02.805Z",
    "dead": 1,
    "id": "1qTPB8X3tyLyIdsb5TN3",
    "infected": 109,
    "recovered": 2,
    "latitude": 47.4116,
    "pop": 3550000,
    "longitude": 28.3699,
    "name": "Moldova",
    "country": "MD",
    "sick": 106
  },
  {
    "id": "25qIBtsW2nfQj3pwBKg9",
    "infected": 1,
    "recovered": 1,
    "latitude": 30.15336,
    "pop": 3180000,
    "longitude": 88.787865,
    "name": "Tibet",
    "country": "CN",
    "lastUpdated": "2020-03-24T07:34:49.281Z",
    "dead": 0,
    "sick": 0
  },
  {
    "recovered": 30,
    "latitude": -1.572184,
    "pop": 264000000,
    "longitude": 115.66779,
    "name": "Indonesia",
    "country": "ID",
    "lastUpdated": "2020-03-24T12:43:02.824Z",
    "dead": 55,
    "id": "2KHYUb5t3lwzVVmDjwNX",
    "infected": 686,
    "sick": 601
  },
  {
    "latitude": 43.807191,
    "pop": 4191000,
    "longitude": -120.585594,
    "name": "Oregon",
    "country": "US",
    "lastUpdated": "2020-03-24T12:39:01.624Z",
    "dead": 5,
    "id": "2OrsssmGUs4XCzaZzvTv",
    "infected": 191,
    "recovered": 0,
    "sick": 186
  },
  {
    "latitude": 43.851921,
    "pop": 27460000,
    "longitude": 126.548103,
    "name": "Jilin",
    "country": "CN",
    "lastUpdated": "2020-03-24T07:33:47.634Z",
    "dead": 1,
    "id": "2jxHvSsxdnom0nPNvOT8",
    "infected": 93,
    "recovered": 92,
    "sick": 0
  },
  {
    "id": "2p11BjSAs3wVyymgqBOe",
    "infected": 15,
    "recovered": 5,
    "latitude": 36.1408,
    "pop": 34571,
    "longitude": -5.3536,
    "name": "Gibraltar",
    "country": "GI",
    "lastUpdated": "2020-03-24T12:43:03.176Z",
    "dead": 0,
    "sick": 10
  },
  {
    "infected": 361,
    "recovered": 0,
    "latitude": 47.7516,
    "pop": 2567000,
    "longitude": 1.6751,
    "name": "Centre-Val de Loire",
    "country": "FR",
    "lastUpdated": "2020-03-24T12:34:14.672Z",
    "dead": 0,
    "id": "2sLNkkHpyaHx7dD3aMDO",
    "sick": 361
  },
  {
    "id": "3IlPjAbP5qVMn1nlgLTJ",
    "infected": 3,
    "recovered": 0,
    "latitude": -13.133896,
    "pop": 17090000,
    "longitude": 27.849332,
    "name": "Zambia",
    "country": "ZM",
    "lastUpdated": "2020-03-24T12:43:03.048Z",
    "dead": 0,
    "sick": 3
  },
  {
    "lastUpdated": "2020-03-24T12:43:03.144Z",
    "dead": 1,
    "id": "3LstMSN5XMYBkxbe5HN7",
    "infected": 29,
    "recovered": 0,
    "latitude": 42.7044,
    "pop": 631219,
    "longitude": 19.3958,
    "name": "Montenegro",
    "country": "ME",
    "sick": 28
  },
  {
    "id": "3OZoQsKrzxZ18EKyfGE6",
    "infected": 39,
    "recovered": 0,
    "latitude": -35.4735,
    "pop": 418440,
    "longitude": 149.0124,
    "name": "Australian Capital Territory",
    "country": "AU",
    "lastUpdated": "2020-03-24T12:40:03.754Z",
    "dead": 0,
    "sick": 39
  },
  {
    "infected": 443,
    "recovered": 0,
    "latitude": 40.4173,
    "pop": 11690000,
    "longitude": -82.9071,
    "name": "Ohio",
    "country": "US",
    "lastUpdated": "2020-03-24T12:39:01.439Z",
    "dead": 6,
    "id": "3fC3bAyIRUquOQOEnQNe",
    "sick": 437
  },
  {
    "latitude": 21.0079,
    "pop": 4420000,
    "longitude": -10.9408,
    "name": "Mauritania",
    "country": "MR",
    "lastUpdated": "2020-03-24T12:43:03.138Z",
    "dead": 0,
    "id": "4NnFMekRK2m14IlnZZoj",
    "infected": 2,
    "recovered": 0,
    "sick": 2
  },
  {
    "lastUpdated": "2020-03-24T12:39:01.561Z",
    "dead": 13,
    "id": "4hfZRUoUgI4a3vrG0GBk",
    "infected": 472,
    "recovered": 0,
    "latitude": 53.7267,
    "pop": 5071000,
    "longitude": -127.6476,
    "name": "British Columbia",
    "country": "CA",
    "sick": 459
  },
  {
    "latitude": 41.065877,
    "pop": 10290000,
    "longitude": -7.920053,
    "name": "Portugal",
    "country": "PT",
    "lastUpdated": "2020-03-24T12:43:02.908Z",
    "dead": 23,
    "id": "4rQLxUCMmQLpbi6E9tbH",
    "infected": 2060,
    "recovered": 14,
    "sick": 2023
  },
  {
    "latitude": 40.3426,
    "pop": 9898000,
    "longitude": 47.93802,
    "name": "Azerbaijan",
    "country": "AZ",
    "lastUpdated": "2020-03-24T12:43:02.835Z",
    "dead": 1,
    "id": "4zqzRm2xHn0CDVOUQJ8p",
    "infected": 72,
    "recovered": 10,
    "sick": 61
  },
  {
    "recovered": 0,
    "latitude": 25.025885,
    "pop": 395361,
    "longitude": -78.035889,
    "name": "Bahamas",
    "country": "BS",
    "lastUpdated": "2020-03-24T12:43:03.088Z",
    "dead": 0,
    "id": "5MHegCUO9L3LiAU7DDey",
    "infected": 4,
    "sick": 4
  },
  {
    "id": "5N16a2OXXRpsEFanw0TC",
    "infected": 913,
    "recovered": 4,
    "latitude": -31.253218,
    "pop": 7544000,
    "longitude": 146.921097,
    "name": "New South Wales",
    "country": "AU",
    "lastUpdated": "2020-03-24T12:40:03.642Z",
    "dead": 6,
    "sick": 903
  },
  {
    "longitude": 165.618042,
    "name": "New Caledonia",
    "country": "NC",
    "lastUpdated": "2020-03-24T12:43:03.111Z",
    "dead": 0,
    "id": "5fg04eyDwFw3kEXnrxez",
    "infected": 10,
    "recovered": 0,
    "latitude": -20.9043045,
    "pop": 280460,
    "sick": 10
  },
  {
    "id": "5gXZIjRgAvd6xWN1LOv8",
    "infected": 2,
    "recovered": 1,
    "latitude": 28.394857,
    "pop": 29300000,
    "longitude": 84.124008,
    "name": "Nepal",
    "country": "NP",
    "lastUpdated": "2020-03-24T12:43:03.117Z",
    "dead": 0,
    "sick": 1
  },
  {
    "id": "5pwmh7aSdGRKqRbnuyc0",
    "infected": 552,
    "recovered": 20,
    "latitude": 12.879721,
    "pop": 104900000,
    "longitude": 121.774017,
    "name": "Philippines",
    "country": "PH",
    "lastUpdated": "2020-03-24T12:43:02.902Z",
    "dead": 35,
    "sick": 497
  },
  {
    "lastUpdated": "2020-03-24T12:43:03.091Z",
    "dead": 1,
    "id": "5qtR9nx4BLwu1ODTniaY",
    "infected": 3,
    "recovered": 0,
    "latitude": -17.824858,
    "pop": 14802190,
    "longitude": 31.053028,
    "name": "Zimbabwe",
    "country": "ZW",
    "sick": 2
  },
  {
    "infected": 187,
    "recovered": 1,
    "latitude": 55.621011,
    "pop": 2794000,
    "longitude": 23.804991,
    "name": "Lithuania",
    "country": "LT",
    "lastUpdated": "2020-03-24T12:43:02.791Z",
    "dead": 1,
    "id": "694ON7d0mRJDeM1gHBTR",
    "sick": 185
  },
  {
    "lastUpdated": "2020-03-24T12:43:02.840Z",
    "dead": 4,
    "id": "6IcHIIH0zXpY0POmBZTv",
    "infected": 386,
    "recovered": 102,
    "latitude": 22.396427,
    "pop": 7392000,
    "longitude": 114.109497,
    "name": "Hong Kong",
    "country": "HK",
    "sick": 280
  },
  {
    "longitude": 2.3158,
    "name": "Benin",
    "country": "BJ",
    "lastUpdated": "2020-03-24T12:43:03.107Z",
    "dead": 0,
    "id": "6SlpghTyB6lpMFvx3g9U",
    "infected": 6,
    "recovered": 0,
    "latitude": 9.3077,
    "pop": 11180000,
    "sick": 6
  },
  {
    "lastUpdated": "2020-03-24T12:43:02.814Z",
    "dead": 4,
    "id": "6ahNiyKDSDAftCctgLH3",
    "infected": 442,
    "recovered": 0,
    "latitude": 46.0569,
    "pop": 2067000,
    "longitude": 14.5058,
    "name": "Slovenia",
    "country": "SI",
    "sick": 438
  },
  {
    "recovered": 0,
    "latitude": -0.8037,
    "pop": 2025000,
    "longitude": 11.6094,
    "name": "Gabon",
    "country": "GA",
    "lastUpdated": "2020-03-24T12:43:03.156Z",
    "dead": 1,
    "id": "6pBi38TUgYfFm0bry2uh",
    "infected": 6,
    "sick": 5
  },
  {
    "infected": 3,
    "recovered": 0,
    "latitude": 17.901672,
    "pop": 9131,
    "longitude": -62.818544,
    "name": "Saint-Barthélemy",
    "country": "FR",
    "lastUpdated": "2020-03-24T07:30:18.210Z",
    "dead": 0,
    "id": "78Ox26bNHDA2Pk2b3Uwn",
    "sick": 3
  },
  {
    "latitude": 17.0608,
    "pop": 102012,
    "longitude": -61.7964,
    "name": "Antigua and Barbuda",
    "country": "AG",
    "lastUpdated": "2020-03-24T12:43:03.151Z",
    "dead": 0,
    "id": "7hVFcEV7nV0MrQr3LHrl",
    "infected": 3,
    "recovered": 0,
    "sick": 3
  },
  {
    "recovered": 21,
    "latitude": 48.7904,
    "pop": 13000000,
    "longitude": 11.4979,
    "name": "Bayern",
    "country": "DE",
    "lastUpdated": "2020-03-24T12:42:02.688Z",
    "dead": 30,
    "id": "7kCrrlOBE3jN6FtOVNUB",
    "infected": 5754,
    "sick": 5703
  },
  {
    "id": "7rYC2iFB50c55Ihgbs4Q",
    "infected": 187,
    "recovered": 21,
    "latitude": 47.4979,
    "pop": 9773000,
    "longitude": 19.0402,
    "name": "Hungary",
    "country": "HU",
    "lastUpdated": "2020-03-24T12:43:02.819Z",
    "dead": 9,
    "sick": 157
  },
  {
    "infected": 66,
    "recovered": 2,
    "latitude": 7.3697,
    "pop": 24050000,
    "longitude": 12.3547,
    "name": "Cameroon",
    "country": "CM",
    "lastUpdated": "2020-03-24T12:43:02.907Z",
    "dead": 0,
    "id": "8C0d7WVCjyUGtnc2gUAR",
    "sick": 64
  },
  {
    "infected": 28,
    "recovered": 0,
    "latitude": -16.2902,
    "pop": 11050000,
    "longitude": -63.5887,
    "name": "Bolivia",
    "country": "BO",
    "lastUpdated": "2020-03-24T12:43:03.118Z",
    "dead": 0,
    "id": "8RihJrXw4NQXPxaRxr1u",
    "sick": 28
  },
  {
    "infected": 1,
    "recovered": 0,
    "latitude": 12.9843,
    "pop": 109897,
    "longitude": -61.2872,
    "name": "St. Vincent Grenadines",
    "country": "VC",
    "lastUpdated": "2020-03-24T12:43:03.093Z",
    "dead": 0,
    "id": "8ZTySQROQejkDAad0qxQ",
    "sick": 1
  },
  {
    "lastUpdated": "2020-03-24T12:43:02.804Z",
    "dead": 2,
    "id": "8pA3fM4xC2c2wv1b4TnE",
    "infected": 558,
    "recovered": 156,
    "latitude": 1.352083,
    "pop": 5621000,
    "longitude": 103.819839,
    "name": "Singapore",
    "country": "SG",
    "sick": 400
  },
  {
    "lastUpdated": "2020-03-24T12:34:14.675Z",
    "dead": 1,
    "id": "98hwAoohgWEOQVa3NlM5",
    "infected": 293,
    "recovered": 0,
    "latitude": 47.2184,
    "pop": 3787000,
    "longitude": -1.5536,
    "name": "Pays de la Loire",
    "country": "FR",
    "sick": 292
  },
  {
    "recovered": 0,
    "latitude": 12.8628,
    "pop": 40530000,
    "longitude": 30.2176,
    "name": "Sudan",
    "country": "SD",
    "lastUpdated": "2020-03-24T12:43:03.110Z",
    "dead": 1,
    "id": "9DPOkpIqrFy9mR4e9fuv",
    "infected": 3,
    "sick": 2
  },
  {
    "id": "9QcETqEcM2fTv9zRvx5T",
    "infected": 762,
    "recovered": 79,
    "latitude": 45.943161,
    "pop": 19530000,
    "longitude": 24.966761,
    "name": "Romania",
    "country": "RO",
    "lastUpdated": "2020-03-24T12:43:02.881Z",
    "dead": 8,
    "sick": 675
  },
  {
    "id": "9Y5wmCqNCC6ZrenM31uA",
    "infected": 2,
    "recovered": 0,
    "latitude": 12.136389,
    "pop": 6218000,
    "longitude": -86.251389,
    "name": "Nicaragua",
    "country": "NI",
    "lastUpdated": "2020-03-24T12:43:03.123Z",
    "dead": 0,
    "sick": 2
  },
  {
    "longitude": 25.748152,
    "name": "Finland",
    "country": "FI",
    "lastUpdated": "2020-03-24T12:43:02.829Z",
    "dead": 1,
    "id": "9p6OCdZbUUwBLA60Gk3W",
    "infected": 792,
    "recovered": 10,
    "latitude": 61.92411,
    "pop": 5513000,
    "sick": 781
  },
  {
    "id": "A84CwQ52kA46Hr7pn6Bm",
    "infected": 101,
    "recovered": 0,
    "latitude": 43.311643,
    "pop": 1356000,
    "longitude": -71.590315,
    "name": "New Hampshire",
    "country": "US",
    "lastUpdated": "2020-03-24T12:39:01.529Z",
    "dead": 1,
    "sick": 100
  },
  {
    "recovered": 0,
    "latitude": 41.823261,
    "pop": 1057000,
    "longitude": -71.412257,
    "name": "Rhode Island",
    "country": "US",
    "lastUpdated": "2020-03-24T12:39:01.571Z",
    "dead": 0,
    "id": "AEUWUHS65qvjEslew11c",
    "infected": 106,
    "sick": 106
  },
  {
    "longitude": 7.023,
    "name": "Saarland",
    "country": "DE",
    "lastUpdated": "2020-03-24T12:42:02.893Z",
    "dead": 1,
    "id": "AKjFRQGnzuuZQhv5Qwx7",
    "infected": 383,
    "recovered": 2,
    "latitude": 49.3964,
    "pop": 990509,
    "sick": 380
  },
  {
    "infected": 4,
    "recovered": 0,
    "latitude": 71.7069,
    "pop": 56171,
    "longitude": -42.6043,
    "name": "Greenland",
    "country": "GL",
    "lastUpdated": "2020-03-24T12:43:03.178Z",
    "dead": 0,
    "id": "APaZzlGCEeuoLBtzTJMe",
    "sick": 4
  },
  {
    "lastUpdated": "2020-03-24T12:39:01.510Z",
    "dead": 0,
    "id": "AVCpxeh0fuH2WrHWNDYH",
    "infected": 41,
    "recovered": 0,
    "latitude": 45.65107,
    "pop": 971395,
    "longitude": -63.582687,
    "name": "Nova Scotia",
    "country": "CA",
    "sick": 41
  },
  {
    "recovered": 0,
    "latitude": 47.012918,
    "pop": 1062000,
    "longitude": -109.128641,
    "name": "Montana",
    "country": "US",
    "lastUpdated": "2020-03-24T12:39:01.594Z",
    "dead": 0,
    "id": "AcULcZBozObOhwuRKMjJ",
    "infected": 46,
    "sick": 46
  },
  {
    "id": "AmBYm5J6E9Cuez1FQjiN",
    "infected": 936,
    "recovered": 934,
    "latitude": 27.285971,
    "pop": 45200000,
    "longitude": 116.01609,
    "name": "Jiangxi",
    "country": "CN",
    "lastUpdated": "2020-03-24T07:31:42.265Z",
    "dead": 1,
    "sick": 1
  },
  {
    "id": "AwN0CScPDApcLFgz6e3z",
    "infected": 230,
    "recovered": 65,
    "latitude": 28.033886,
    "pop": 41320000,
    "longitude": 1.659626,
    "name": "Algeria",
    "country": "DZ",
    "lastUpdated": "2020-03-24T12:43:02.793Z",
    "dead": 17,
    "sick": 148
  },
  {
    "longitude": 15.2,
    "name": "Croatia",
    "country": "HR",
    "lastUpdated": "2020-03-24T12:43:02.830Z",
    "dead": 1,
    "id": "B82Ef45M8cDu4q7VsSHF",
    "infected": 361,
    "recovered": 5,
    "latitude": 45.099998,
    "pop": 4076000,
    "sick": 355
  },
  {
    "lastUpdated": "2020-03-24T12:39:01.678Z",
    "dead": 3,
    "id": "BF51mWl51fgEcyBpCSzb",
    "infected": 290,
    "recovered": 0,
    "latitude": 39.509109,
    "pop": 6043000,
    "longitude": -76.98432,
    "name": "Maryland",
    "country": "US",
    "sick": 287
  },
  {
    "infected": 81,
    "recovered": 22,
    "latitude": 53.709808,
    "pop": 9508000,
    "longitude": 27.953388,
    "name": "Belarus",
    "country": "BY",
    "lastUpdated": "2020-03-24T12:43:02.799Z",
    "dead": 0,
    "id": "BGg6yVU5VP71B8NXU0oh",
    "sick": 59
  },
  {
    "infected": 511,
    "recovered": 0,
    "latitude": 48.8799,
    "pop": 3319000,
    "longitude": 0.1713,
    "name": "Normandie",
    "country": "FR",
    "lastUpdated": "2020-03-24T12:34:14.728Z",
    "dead": 9,
    "id": "BGtoyzb7y54LVlJ91rbf",
    "sick": 502
  },
  {
    "lastUpdated": "2020-03-24T12:39:01.520Z",
    "dead": 3,
    "id": "BTEESCuD2ZbS1afunR2A",
    "infected": 235,
    "recovered": 0,
    "latitude": 34.048927,
    "pop": 7172000,
    "longitude": -111.093735,
    "name": "Arizona",
    "country": "US",
    "sick": 232
  },
  {
    "infected": 23230,
    "recovered": 0,
    "latitude": 40.719042,
    "pop": 19540000,
    "longitude": -73.982597,
    "name": "New York",
    "country": "US",
    "lastUpdated": "2020-03-24T12:39:01.518Z",
    "dead": 188,
    "id": "C3BCUzV80z9GfiuByIcr",
    "sick": 23042
  },
  {
    "id": "C6S76AggdWVU8G22jFHQ",
    "infected": 1289,
    "recovered": 7,
    "latitude": 49.731626,
    "pop": 10650000,
    "longitude": 15.359413,
    "name": "Czechia",
    "country": "CZ",
    "lastUpdated": "2020-03-24T12:43:02.890Z",
    "dead": 2,
    "sick": 1280
  },
  {
    "infected": 390,
    "recovered": 164,
    "latitude": 26.0667,
    "pop": 1493000,
    "longitude": 50.557701,
    "name": "Bahrain",
    "country": "BH",
    "lastUpdated": "2020-03-24T12:43:02.903Z",
    "dead": 3,
    "id": "C7cj4nwRITs13KnaJrQ2",
    "sick": 223
  },
  {
    "latitude": 27.0238,
    "pop": 68890000,
    "longitude": 74.2179,
    "name": "Rajasthan",
    "country": "IN",
    "lastUpdated": "2020-03-24T12:11:02.855Z",
    "dead": 0,
    "id": "CKZCZTPlrcq5fbfUPA9k",
    "infected": 33,
    "recovered": 3,
    "sick": 30
  },
  {
    "latitude": 13.803,
    "pop": 6378000,
    "longitude": -88.9053,
    "name": "El Salvador",
    "country": "SV",
    "lastUpdated": "2020-03-24T12:43:03.167Z",
    "dead": 0,
    "id": "Cgvmtle61ehMvCzRzYx7",
    "infected": 5,
    "recovered": 0,
    "sick": 5
  },
  {
    "id": "CrXu6i5Sqx11iwdfHfBs",
    "infected": 6650,
    "recovered": 135,
    "latitude": 52.355518,
    "pop": 66440000,
    "longitude": -1.17432,
    "name": "United Kingdom",
    "country": "GB",
    "lastUpdated": "2020-03-24T12:43:02.855Z",
    "dead": 335,
    "sick": 6180
  },
  {
    "longitude": 44.818474,
    "name": "Armenia",
    "country": "AM",
    "lastUpdated": "2020-03-24T12:43:02.820Z",
    "dead": 0,
    "id": "DCJCtZoBTWQ4mzdDNljD",
    "infected": 235,
    "recovered": 2,
    "latitude": 40.259003,
    "pop": 2973000,
    "sick": 233
  },
  {
    "longitude": 113.551262,
    "name": "Macao",
    "country": "MO",
    "lastUpdated": "2020-03-24T12:43:03.101Z",
    "dead": 0,
    "id": "DdBt8qsG6A3g92oOR3ow",
    "infected": 25,
    "recovered": 10,
    "latitude": 22.192039,
    "pop": 622567,
    "sick": 15
  },
  {
    "latitude": 42.962334,
    "pop": 577737,
    "longitude": -107.534868,
    "name": "Wyoming",
    "country": "US",
    "lastUpdated": "2020-03-24T12:39:01.668Z",
    "dead": 0,
    "id": "DrGzziUglmBognCGY7R2",
    "infected": 28,
    "recovered": 0,
    "sick": 28
  },
  {
    "latitude": 40.6401,
    "pop": 10740000,
    "longitude": 22.9444,
    "name": "Greece",
    "country": "GR",
    "lastUpdated": "2020-03-24T12:43:02.838Z",
    "dead": 17,
    "id": "Dtr1lap1RpJpXJdXGJiW",
    "infected": 695,
    "recovered": 29,
    "sick": 649
  },
  {
    "id": "EKTfs8e7M6DXzI1HqyyX",
    "infected": 216,
    "recovered": 29,
    "latitude": 25.03841,
    "pop": 23780000,
    "longitude": 121.563698,
    "name": "Taiwan",
    "country": "TW",
    "lastUpdated": "2020-03-24T12:43:02.894Z",
    "dead": 2,
    "sick": 185
  },
  {
    "recovered": 2,
    "latitude": 10.327273,
    "pop": 4906000,
    "longitude": -84.387618,
    "name": "Costa Rica",
    "country": "CR",
    "lastUpdated": "2020-03-24T12:43:02.854Z",
    "dead": 2,
    "id": "EQzJvzVHKjs8kLmK7BMu",
    "infected": 158,
    "sick": 154
  },
  {
    "infected": 33,
    "recovered": 0,
    "latitude": 22.2587,
    "pop": 62700000,
    "longitude": 71.1924,
    "name": "Gujarat",
    "country": "IN",
    "lastUpdated": "2020-03-24T12:41:02.242Z",
    "dead": 1,
    "id": "ERwk9R9en4m9WbdoMbIg",
    "sick": 32
  },
  {
    "recovered": 0,
    "latitude": 30.7333,
    "pop": 1055000,
    "longitude": 76.7794,
    "name": "Chandigarh",
    "country": "IN",
    "lastUpdated": "2020-03-24T12:41:02.322Z",
    "dead": 0,
    "id": "Esl5UlCVB9s8pmGB5Ofr",
    "infected": 7,
    "sick": 7
  },
  {
    "id": "F4rPrEVGAIMM5rfPEMv4",
    "infected": 39,
    "recovered": 1,
    "latitude": 18.200178,
    "pop": 3195000,
    "longitude": -66.664513,
    "name": "Puerto Rico",
    "country": "PR",
    "lastUpdated": "2020-03-24T12:43:03.034Z",
    "dead": 2,
    "sick": 36
  },
  {
    "latitude": 33.93911,
    "pop": 35530000,
    "longitude": 67.709953,
    "name": "Afghanistan",
    "country": "AF",
    "lastUpdated": "2020-03-24T12:43:02.945Z",
    "dead": 1,
    "id": "FCDmlmnIIswd8bQiUjfN",
    "infected": 42,
    "recovered": 1,
    "sick": 40
  },
  {
    "id": "FErOU1m4Tj7jIkRam3vF",
    "infected": 578,
    "recovered": 570,
    "latitude": 29.431585,
    "pop": 30480000,
    "longitude": 106.912254,
    "name": "Chongqing",
    "country": "CN",
    "lastUpdated": "2020-03-24T07:30:35.378Z",
    "dead": 6,
    "sick": 2
  },
  {
    "recovered": 39,
    "latitude": 29.311661,
    "pop": 4137000,
    "longitude": 47.481766,
    "name": "Kuwait",
    "country": "KW",
    "lastUpdated": "2020-03-24T12:43:02.859Z",
    "dead": 0,
    "id": "FZsUkhxBEgqsPb4eO0PN",
    "infected": 191,
    "sick": 152
  },
  {
    "longitude": 78.6569,
    "name": "Tamil Nadu",
    "country": "IN",
    "lastUpdated": "2020-03-24T12:41:02.296Z",
    "dead": 0,
    "id": "FeS45oMNC27pI17F0xEV",
    "infected": 15,
    "recovered": 1,
    "latitude": 11.1271,
    "pop": 67860000,
    "sick": 14
  },
  {
    "longitude": -70.430399,
    "name": "Dominican Republic",
    "country": "DO",
    "lastUpdated": "2020-03-24T12:43:02.796Z",
    "dead": 3,
    "id": "FuiVEJvWb0QMCpxJ3563",
    "infected": 245,
    "recovered": 3,
    "latitude": 18.947829,
    "pop": 10770000,
    "sick": 239
  },
  {
    "latitude": 18.1124,
    "pop": 35190000,
    "longitude": 79.0193,
    "name": "Telangana",
    "country": "IN",
    "lastUpdated": "2020-03-24T07:30:09.482Z",
    "dead": 0,
    "id": "FyC551oNwmENxbr9Yght",
    "infected": 32,
    "recovered": 1,
    "sick": 31
  },
  {
    "lastUpdated": "2020-03-24T12:43:02.909Z",
    "dead": 0,
    "id": "FzIDXoqWnTI3nUfhPyT2",
    "infected": 204,
    "recovered": 7,
    "latitude": 48.669,
    "pop": 5450000,
    "longitude": 19.699,
    "name": "Slovakia",
    "country": "SK",
    "sick": 197
  },
  {
    "id": "GAp7Wb6IMhdgbvEtMza9",
    "infected": 916,
    "recovered": 13,
    "latitude": 30.37532,
    "pop": 197000000,
    "longitude": 69.345116,
    "name": "Pakistan",
    "country": "PK",
    "lastUpdated": "2020-03-24T12:43:02.904Z",
    "dead": 7,
    "sick": 896
  },
  {
    "recovered": 0,
    "latitude": 31.1471,
    "pop": 27980000,
    "longitude": 75.3412,
    "name": "Punjab",
    "country": "IN",
    "lastUpdated": "2020-03-24T12:41:02.255Z",
    "dead": 1,
    "id": "GGru8cG08mANO8XDDUtZ",
    "infected": 29,
    "sick": 28
  },
  {
    "infected": 198,
    "recovered": 41,
    "latitude": 23.424076,
    "pop": 9400000,
    "longitude": 53.847816,
    "name": "United Arab Emirates",
    "country": "AE",
    "lastUpdated": "2020-03-24T12:43:02.897Z",
    "dead": 2,
    "id": "GHzBIsHy2GiBc5JV2HMs",
    "sick": 155
  },
  {
    "longitude": -119.339046,
    "name": "California",
    "country": "US",
    "lastUpdated": "2020-03-24T12:39:01.410Z",
    "dead": 43,
    "id": "Gh46r6vuaY7fbGt3IboN",
    "infected": 2220,
    "recovered": 0,
    "latitude": 36.621981,
    "pop": 39560000,
    "sick": 2177
  },
  {
    "latitude": 35.87189,
    "pop": 3943000,
    "longitude": -97.145514,
    "name": "Oklahoma",
    "country": "US",
    "lastUpdated": "2020-03-24T12:39:01.434Z",
    "dead": 2,
    "id": "GpF8ULuKOQiFDCUHN44h",
    "infected": 81,
    "recovered": 0,
    "sick": 79
  },
  {
    "longitude": 113.750972,
    "name": "Inner Mongolia",
    "country": "CN",
    "lastUpdated": "2020-03-24T07:34:26.577Z",
    "dead": 1,
    "id": "H3JeVigVbo5CSYfZG4WI",
    "infected": 75,
    "recovered": 74,
    "latitude": 42.83263,
    "pop": 24710000,
    "sick": 0
  },
  {
    "infected": 263,
    "recovered": 0,
    "latitude": 39.74536,
    "pop": 3034000,
    "longitude": -116.724977,
    "name": "Nevada",
    "country": "US",
    "lastUpdated": "2020-03-24T12:39:01.540Z",
    "dead": 4,
    "id": "H3bDg4eV30up4WWrIDAS",
    "sick": 259
  },
  {
    "recovered": 3,
    "latitude": 15.3173,
    "pop": 64060000,
    "longitude": 75.7139,
    "name": "Karnataka",
    "country": "IN",
    "lastUpdated": "2020-03-24T12:41:02.341Z",
    "dead": 1,
    "id": "HN5mGmxlqlSeFSNeu1K5",
    "infected": 37,
    "sick": 33
  },
  {
    "latitude": 27.5142,
    "pop": 807610,
    "longitude": 90.4336,
    "name": "Bhutan",
    "country": "BT",
    "lastUpdated": "2020-03-24T12:43:03.127Z",
    "dead": 0,
    "id": "HRDpwyxpqW9RN0xLFyNu",
    "infected": 2,
    "recovered": 0,
    "sick": 2
  },
  {
    "lastUpdated": "2020-03-24T12:43:02.950Z",
    "dead": 0,
    "id": "HRTA10dtrruDEwjJEGMp",
    "infected": 50,
    "recovered": 0,
    "latitude": 41.3775,
    "pop": 32390000,
    "longitude": 64.5853,
    "name": "Uzbekistan",
    "country": "UZ",
    "sick": 50
  },
  {
    "latitude": 34.138916,
    "pop": 2095000,
    "longitude": -105.576255,
    "name": "New Mexico",
    "country": "US",
    "lastUpdated": "2020-03-24T12:39:01.676Z",
    "dead": 0,
    "id": "HSSFomRju0doHhWgW8On",
    "infected": 83,
    "recovered": 0,
    "sick": 83
  },
  {
    "id": "He1gSS1v50t06i3YrqvB",
    "infected": 201,
    "recovered": 4,
    "latitude": 53.6127,
    "pop": 1635000,
    "longitude": 12.4296,
    "name": "Mecklenburg-Vorpommern",
    "country": "DE",
    "lastUpdated": "2020-03-24T12:42:02.686Z",
    "dead": 0,
    "sick": 197
  },
  {
    "longitude": -102.552788,
    "name": "Mexico",
    "country": "MX",
    "lastUpdated": "2020-03-24T12:43:02.828Z",
    "dead": 4,
    "id": "I4OJ6z9Vjs1byOcbsJrd",
    "infected": 367,
    "recovered": 4,
    "latitude": 23.634501,
    "pop": 129200000,
    "sick": 359
  },
  {
    "lastUpdated": "2020-03-24T07:31:56.657Z",
    "dead": 8,
    "id": "IAX0OQLVnUwU7FX0ENF1",
    "infected": 1428,
    "recovered": 1333,
    "latitude": 23.363855,
    "pop": 113460000,
    "longitude": 113.373448,
    "name": "Guangdong",
    "country": "CN",
    "sick": 87
  },
  {
    "lastUpdated": "2020-03-24T07:30:44.137Z",
    "dead": 22,
    "id": "IFuMrMvSjoiX5agYvllh",
    "infected": 1274,
    "recovered": 1250,
    "latitude": 33.875408,
    "pop": 94000000,
    "longitude": 113.484016,
    "name": "Henan",
    "country": "CN",
    "sick": 2
  },
  {
    "longitude": -73.0513,
    "name": "Haiti",
    "country": "HT",
    "lastUpdated": "2020-03-24T12:43:03.161Z",
    "dead": 0,
    "id": "InZ38sIqyK7FN7XAOZoX",
    "infected": 6,
    "recovered": 0,
    "latitude": 19.0558,
    "pop": 10980000,
    "sick": 6
  },
  {
    "lastUpdated": "2020-03-24T12:39:01.537Z",
    "dead": 26,
    "id": "IvQkDJkTAsoIqPRAU25n",
    "infected": 803,
    "recovered": 0,
    "latitude": 32.528564,
    "pop": 10520000,
    "longitude": -83.280125,
    "name": "Georgia (US)",
    "country": "US",
    "sick": 777
  },
  {
    "latitude": -42.8285,
    "pop": 4794000,
    "longitude": 172.488081,
    "name": "New Zealand",
    "country": "NZ",
    "lastUpdated": "2020-03-24T12:43:02.847Z",
    "dead": 0,
    "id": "IvVhpOoGpH6JVkGyUhXN",
    "infected": 155,
    "recovered": 12,
    "sick": 143
  },
  {
    "infected": 84,
    "recovered": 15,
    "latitude": 6.4238,
    "pop": 31980000,
    "longitude": -66.5897,
    "name": "Venezuela",
    "country": "VE",
    "lastUpdated": "2020-03-24T12:43:02.832Z",
    "dead": 0,
    "id": "J3mZXlfEnnJx4CDZLvRG",
    "sick": 69
  },
  {
    "infected": 116,
    "recovered": 3,
    "latitude": 35.1264,
    "pop": 1170000,
    "longitude": 33.4299,
    "name": "Cyprus",
    "country": "CY",
    "lastUpdated": "2020-03-24T12:43:02.831Z",
    "dead": 1,
    "id": "JQByE4l2OA6sGOqIcWrM",
    "sick": 112
  },
  {
    "infected": 3,
    "recovered": 0,
    "latitude": 25.0961,
    "pop": 99020000,
    "longitude": 85.3131,
    "name": "Bihar",
    "country": "IN",
    "lastUpdated": "2020-03-24T12:41:02.316Z",
    "dead": 1,
    "id": "JR7hOGked7CZtIs2nCV5",
    "sick": 2
  },
  {
    "latitude": 14.628434,
    "pop": 16910000,
    "longitude": -90.522713,
    "name": "Guatemala",
    "country": "GT",
    "lastUpdated": "2020-03-24T12:43:03.120Z",
    "dead": 1,
    "id": "JUWE6bG3b5oL7fKQMSvv",
    "infected": 20,
    "recovered": 0,
    "sick": 19
  },
  {
    "recovered": 6,
    "latitude": 49.8153,
    "pop": 602005,
    "longitude": 6.1296,
    "name": "Luxembourg",
    "country": "LU",
    "lastUpdated": "2020-03-24T12:43:02.836Z",
    "dead": 8,
    "id": "JcFsHSn2WvZ5LJW42ovG",
    "infected": 875,
    "sick": 861
  },
  {
    "latitude": 8.6195,
    "pop": 7798000,
    "longitude": 0.8248,
    "name": "Togo",
    "country": "TG",
    "lastUpdated": "2020-03-24T12:43:03.184Z",
    "dead": 0,
    "id": "JrBbirlBKGdWSdcDt7PF",
    "infected": 20,
    "recovered": 1,
    "sick": 19
  },
  {
    "infected": 202,
    "recovered": 3,
    "latitude": 42.7339,
    "pop": 7050000,
    "longitude": 25.4858,
    "name": "Bulgaria",
    "country": "BG",
    "lastUpdated": "2020-03-24T12:43:02.803Z",
    "dead": 3,
    "id": "JzZ8sbqzjutThVjkPKPL",
    "sick": 196
  },
  {
    "infected": 101,
    "recovered": 2,
    "latitude": 7.873054,
    "pop": 21440000,
    "longitude": 80.771797,
    "name": "Sri Lanka",
    "country": "LK",
    "lastUpdated": "2020-03-24T12:43:02.900Z",
    "dead": 0,
    "id": "KsWzJO06cf0d6LJ4ZNh9",
    "sick": 99
  },
  {
    "infected": 8,
    "recovered": 0,
    "latitude": 15.9129,
    "pop": 49670000,
    "longitude": 79.74,
    "name": "Andhra Pradesh",
    "country": "IN",
    "lastUpdated": "2020-03-24T12:41:02.348Z",
    "dead": 0,
    "id": "KtQIo2DoqjELtPAlyDVO",
    "sick": 8
  },
  {
    "infected": 495,
    "recovered": 22,
    "latitude": 61.52401,
    "pop": 144500000,
    "longitude": 105.318756,
    "name": "Russia",
    "country": "RU",
    "lastUpdated": "2020-03-24T12:43:02.843Z",
    "dead": 1,
    "id": "KwOuGBKSMRlmwftxAvLX",
    "sick": 472
  },
  {
    "longitude": -63.0501,
    "name": "Saint-Martin",
    "country": "FR",
    "lastUpdated": "2020-03-24T12:34:14.658Z",
    "dead": 0,
    "id": "LBUtrLDKJiupXjlUNTUe",
    "infected": 8,
    "recovered": 0,
    "latitude": 18.0708,
    "pop": 32125,
    "sick": 8
  },
  {
    "latitude": 47.166,
    "pop": 38557,
    "longitude": 9.5554,
    "name": "Liechtenstein",
    "country": "LI",
    "lastUpdated": "2020-03-24T12:43:03.159Z",
    "dead": 0,
    "id": "LTGEU2E9MFkrCcFhZYVk",
    "infected": 51,
    "recovered": 0,
    "sick": 51
  },
  {
    "recovered": 0,
    "latitude": 9.9456,
    "pop": 12720000,
    "longitude": -9.6966,
    "name": "Guinea",
    "country": "GN",
    "lastUpdated": "2020-03-24T12:43:03.135Z",
    "dead": 0,
    "id": "LU2QWt5ao8IJa8evNYVV",
    "infected": 4,
    "sick": 4
  },
  {
    "latitude": 3.9193051,
    "pop": 563402,
    "longitude": -56.0277824,
    "name": "Suriname",
    "country": "SR",
    "lastUpdated": "2020-03-24T12:43:03.062Z",
    "dead": 0,
    "id": "LglKINHyQpYpFxjckbQ6",
    "infected": 6,
    "recovered": 0,
    "sick": 6
  },
  {
    "recovered": 0,
    "latitude": 52.9399,
    "pop": 1174000,
    "longitude": -106.4509,
    "name": "Saskatchewan",
    "country": "CA",
    "lastUpdated": "2020-03-24T12:39:01.589Z",
    "dead": 0,
    "id": "LkIDKY0CMAqzbwBHyYCP",
    "infected": 66,
    "sick": 66
  },
  {
    "longitude": -84.27,
    "name": "Kentucky",
    "country": "US",
    "lastUpdated": "2020-03-24T12:39:01.661Z",
    "dead": 4,
    "id": "MC8MXFw9iXYybnF8v7e6",
    "infected": 123,
    "recovered": 0,
    "latitude": 37.8393,
    "pop": 4468000,
    "sick": 119
  },
  {
    "id": "MOxDkmQ4wBi1CuAdVxDE",
    "infected": 271,
    "recovered": 0,
    "latitude": 40.2672,
    "pop": 6692000,
    "longitude": -86.1349,
    "name": "Indiana",
    "country": "US",
    "lastUpdated": "2020-03-24T12:39:01.530Z",
    "dead": 7,
    "sick": 264
  },
  {
    "longitude": -5.5471,
    "name": "Ivory Coast",
    "country": "CI",
    "lastUpdated": "2020-03-24T12:43:03.169Z",
    "dead": 0,
    "id": "MdQOfc1gNh2DOqwSP6UV",
    "infected": 25,
    "recovered": 2,
    "latitude": 7.54,
    "pop": 24290000,
    "sick": 23
  },
  {
    "latitude": 51.4332,
    "pop": 17910000,
    "longitude": 7.6616,
    "name": "Nordrhein-Westfalen",
    "country": "DE",
    "lastUpdated": "2020-03-24T12:42:02.790Z",
    "dead": 45,
    "id": "MjpYq3zQyAvSQlVVYjD2",
    "infected": 8745,
    "recovered": 187,
    "sick": 8513
  },
  {
    "latitude": 37.330509,
    "pop": 6301000,
    "longitude": 105.977203,
    "name": "Ningxia",
    "country": "CN",
    "lastUpdated": "2020-03-24T07:34:40.113Z",
    "dead": 0,
    "id": "MntmjjuHljarCdt6aIeE",
    "infected": 75,
    "recovered": 75,
    "sick": 0
  },
  {
    "id": "N3XsRBwJSsNclkEf7Zz5",
    "infected": 5348,
    "recovered": 130,
    "latitude": 48.6616,
    "pop": 11020000,
    "longitude": 9.3501,
    "name": "Baden-Württemberg",
    "country": "DE",
    "lastUpdated": "2020-03-24T12:42:02.891Z",
    "dead": 31,
    "sick": 5187
  },
  {
    "lastUpdated": "2020-03-24T12:43:02.834Z",
    "dead": 1,
    "id": "N7c13sCQF0G789XAVazJ",
    "infected": 150,
    "recovered": 2,
    "latitude": 44.696652,
    "pop": 3507000,
    "longitude": 17.824332,
    "name": "Bosnia and Herzegovina",
    "country": "BA",
    "sick": 147
  },
  {
    "latitude": 37.242565,
    "pop": 36500000,
    "longitude": 111.856857,
    "name": "Shanxi",
    "country": "CN",
    "lastUpdated": "2020-03-24T07:34:20.289Z",
    "dead": 0,
    "id": "NBRIGIRrJB1Ry8prDNAC",
    "infected": 134,
    "recovered": 133,
    "sick": 1
  },
  {
    "latitude": 35.7596,
    "pop": 10380000,
    "longitude": -79.0193,
    "name": "North Carolina",
    "country": "US",
    "lastUpdated": "2020-03-24T12:39:01.535Z",
    "dead": 0,
    "id": "NC64Qp5kTqAfiTuR27k8",
    "infected": 420,
    "recovered": 0,
    "sick": 420
  },
  {
    "longitude": 12.5316,
    "name": "Brandenburg",
    "country": "DE",
    "lastUpdated": "2020-03-24T12:42:02.798Z",
    "dead": 1,
    "id": "NJjo2gfBvnbK4xatrsUz",
    "infected": 385,
    "recovered": 1,
    "latitude": 52.4125,
    "pop": 2504000,
    "sick": 383
  },
  {
    "id": "NMeZEcGToxXfpi16PfFV",
    "infected": 4,
    "recovered": 0,
    "latitude": 30.0668,
    "pop": 10080000,
    "longitude": 79.0193,
    "name": "Uttarakhand",
    "country": "IN",
    "lastUpdated": "2020-03-24T12:41:02.387Z",
    "dead": 0,
    "sick": 4
  },
  {
    "lastUpdated": "2020-03-24T12:42:02.697Z",
    "dead": 3,
    "id": "Nk5vPgUIXsWVfbWZf15O",
    "infected": 1620,
    "recovered": 6,
    "latitude": 50.6521,
    "pop": 6243000,
    "longitude": 9.1624,
    "name": "Hessen",
    "country": "DE",
    "sick": 1611
  },
  {
    "latitude": 56.96776,
    "pop": 1920000,
    "longitude": 25.837107,
    "name": "Latvia",
    "country": "LV",
    "lastUpdated": "2020-03-24T12:43:02.845Z",
    "dead": 0,
    "id": "NmmMKy0YqA8StHdGzB5N",
    "infected": 197,
    "recovered": 1,
    "sick": 196
  },
  {
    "latitude": 6.4281,
    "pop": 4732000,
    "longitude": -9.4295,
    "name": "Liberia",
    "country": "LR",
    "lastUpdated": "2020-03-24T12:43:03.163Z",
    "dead": 0,
    "id": "O4g88K49HKEZLFXm5gxb",
    "infected": 3,
    "recovered": 0,
    "sick": 3
  },
  {
    "recovered": 0,
    "latitude": 34.003307,
    "pop": 5084000,
    "longitude": -80.525613,
    "name": "South Carolina",
    "country": "US",
    "lastUpdated": "2020-03-24T12:39:01.460Z",
    "dead": 5,
    "id": "ONU4CK8QjViFHKg2w5if",
    "infected": 298,
    "sick": 293
  },
  {
    "infected": 249,
    "recovered": 0,
    "latitude": 33.51822,
    "pop": 2987000,
    "longitude": -89.582775,
    "name": "Mississippi",
    "country": "US",
    "lastUpdated": "2020-03-24T12:39:01.585Z",
    "dead": 1,
    "id": "OYa0jFzdbAgo8zUsRv6q",
    "sick": 248
  },
  {
    "longitude": -69.4455,
    "name": "Maine",
    "country": "US",
    "lastUpdated": "2020-03-24T12:39:01.448Z",
    "dead": 0,
    "id": "OcXNp9kNVSwrRlG3bNVN",
    "infected": 107,
    "recovered": 0,
    "latitude": 45.2538,
    "pop": 1338000,
    "sick": 107
  },
  {
    "infected": 26,
    "recovered": 3,
    "latitude": -41.915264,
    "pop": 515000,
    "longitude": 146.725256,
    "name": "Tasmania",
    "country": "AU",
    "lastUpdated": "2020-03-24T12:40:03.835Z",
    "dead": 0,
    "id": "OnOseaqWdnuP18oruABW",
    "sick": 23
  },
  {
    "lastUpdated": "2020-03-24T12:43:03.190Z",
    "dead": 1,
    "id": "P4mwRFLbrvT0t75uD8Wo",
    "infected": 5,
    "recovered": 0,
    "latitude": 19.3133,
    "pop": 61559,
    "longitude": -81.2546,
    "name": "Cayman Islands",
    "country": "KY",
    "sick": 4
  },
  {
    "infected": 1,
    "recovered": 0,
    "latitude": 16.7424984,
    "pop": 5900,
    "longitude": -62.1873665,
    "name": "Montserrat",
    "country": "MS",
    "lastUpdated": "2020-03-24T12:43:03.099Z",
    "dead": 0,
    "id": "PEDkeFMTOZpvHiSVxBk7",
    "sick": 1
  },
  {
    "lastUpdated": "2020-03-24T12:43:03.061Z",
    "dead": 0,
    "id": "PEcgZGEkyhABztt1Ufgc",
    "infected": 36,
    "recovered": 0,
    "latitude": -1.9403,
    "pop": 12210000,
    "longitude": 29.8739,
    "name": "Rwanda",
    "country": "RW",
    "sick": 36
  },
  {
    "recovered": 0,
    "latitude": 46.7296,
    "pop": 5611000,
    "longitude": -94.6859,
    "name": "Minnesota",
    "country": "US",
    "lastUpdated": "2020-03-24T12:39:01.468Z",
    "dead": 1,
    "id": "PJvVYosLIhbcRZYnKX1R",
    "infected": 234,
    "sick": 233
  },
  {
    "id": "PTwQr9ijo0TBBsPH2sdJ",
    "infected": 1285,
    "recovered": 0,
    "latitude": 40.6331,
    "pop": 12740000,
    "longitude": -89.3985,
    "name": "Illinois",
    "country": "US",
    "lastUpdated": "2020-03-24T12:39:01.406Z",
    "dead": 12,
    "sick": 1273
  },
  {
    "infected": 3,
    "recovered": 0,
    "latitude": 13.909444,
    "pop": 178844,
    "longitude": -60.978893,
    "name": "Saint Lucia",
    "country": "LC",
    "lastUpdated": "2020-03-24T12:43:03.095Z",
    "dead": 0,
    "id": "PjLqCeFdyzdZNcZxMkK1",
    "sick": 3
  },
  {
    "lastUpdated": "2020-03-24T12:43:02.842Z",
    "dead": 3,
    "id": "Pr76V4raf108uSRoEXac",
    "infected": 114,
    "recovered": 1,
    "latitude": 34.201507,
    "pop": 11530000,
    "longitude": 9.460554,
    "name": "Tunisia",
    "country": "TN",
    "sick": 110
  },
  {
    "recovered": 0,
    "latitude": -26.5225,
    "pop": 1367000,
    "longitude": 31.4659,
    "name": "Eswatini",
    "country": "SZ",
    "lastUpdated": "2020-03-24T12:43:03.186Z",
    "dead": 0,
    "id": "PuQgOd9KWiMzGZXm11sR",
    "infected": 4,
    "sick": 4
  },
  {
    "lastUpdated": "2020-03-24T12:40:03.645Z",
    "dead": 0,
    "id": "Q18mrGvFWTLX2BU9SqhQ",
    "infected": 411,
    "recovered": 97,
    "latitude": -37.009609,
    "pop": 6359000,
    "longitude": 143.94853,
    "name": "Victoria",
    "country": "AU",
    "sick": 314
  },
  {
    "recovered": 1,
    "latitude": 54.2194,
    "pop": 2890000,
    "longitude": 9.6961,
    "name": "Schleswig-Holstein",
    "country": "DE",
    "lastUpdated": "2020-03-24T12:42:02.880Z",
    "dead": 1,
    "id": "Q39XkabIYxt15mHINzTa",
    "infected": 544,
    "sick": 542
  },
  {
    "lastUpdated": "2020-03-24T12:43:02.825Z",
    "dead": 0,
    "id": "QR9go2hQKXjty7JHUYe4",
    "infected": 369,
    "recovered": 7,
    "latitude": 58.595272,
    "pop": 1328000,
    "longitude": 25.013607,
    "name": "Estonia",
    "country": "EE",
    "sick": 362
  },
  {
    "longitude": 143.9555,
    "name": "Papua New Guinea",
    "country": "PG",
    "lastUpdated": "2020-03-24T12:43:03.104Z",
    "dead": 0,
    "id": "QlZrE4nosm5WfdA2aCDg",
    "infected": 1,
    "recovered": 0,
    "latitude": -6.315,
    "pop": 8251000,
    "sick": 1
  },
  {
    "recovered": 0,
    "latitude": 18.3358,
    "pop": 107268,
    "longitude": -64.8963,
    "name": "U.S. Virgin Islands",
    "country": "VI",
    "lastUpdated": "2020-03-24T12:43:03.057Z",
    "dead": 0,
    "id": "QqhD3YDMKXojvQY3Yu41",
    "infected": 17,
    "sick": 17
  },
  {
    "infected": 2,
    "recovered": 0,
    "latitude": 15.414999,
    "pop": 71937,
    "longitude": -61.3709755,
    "name": "Dominica",
    "country": "DM",
    "lastUpdated": "2020-03-24T12:43:03.030Z",
    "dead": 0,
    "id": "Qy2qW2ep5wltnYjPJBxh",
    "sick": 2
  },
  {
    "lastUpdated": "2020-03-24T12:43:02.789Z",
    "dead": 6,
    "id": "R8YCgephnxTufvcPWMgx",
    "infected": 345,
    "recovered": 1,
    "latitude": 8.538,
    "pop": 4099000,
    "longitude": -80.7821,
    "name": "Panama",
    "country": "PA",
    "sick": 338
  },
  {
    "lastUpdated": "2020-03-24T12:43:03.017Z",
    "dead": 0,
    "id": "RA2SE0p2bVhqo0P2hzGY",
    "infected": 30,
    "recovered": 0,
    "latitude": 15.2,
    "pop": 9265000,
    "longitude": -86.2419,
    "name": "Honduras",
    "country": "HN",
    "sick": 30
  },
  {
    "infected": 105,
    "recovered": 0,
    "latitude": 41.878,
    "pop": 3156000,
    "longitude": -93.0977,
    "name": "Iowa",
    "country": "US",
    "lastUpdated": "2020-03-24T12:39:01.532Z",
    "dead": 0,
    "id": "RX0KDu1AFrlCsrRso0nb",
    "sick": 105
  },
  {
    "infected": 85,
    "recovered": 0,
    "latitude": 39.0119,
    "pop": 2912000,
    "longitude": -98.4842,
    "name": "Kansas",
    "country": "US",
    "lastUpdated": "2020-03-24T12:39:01.476Z",
    "dead": 2,
    "id": "Rf4uvBfP3GRDSHdZElRd",
    "sick": 83
  },
  {
    "id": "RmEgf1xeclWt7XCF9oiR",
    "infected": 4256,
    "recovered": 0,
    "latitude": 48.6998,
    "pop": 5518000,
    "longitude": 6.1878,
    "name": "Grand Est",
    "country": "FR",
    "lastUpdated": "2020-03-24T12:34:14.653Z",
    "dead": 61,
    "sick": 4195
  },
  {
    "infected": 503,
    "recovered": 0,
    "latitude": 51.2538,
    "pop": 14570000,
    "longitude": -85.3232,
    "name": "Ontario",
    "country": "CA",
    "lastUpdated": "2020-03-24T12:39:01.610Z",
    "dead": 6,
    "id": "Rx4TuyMpfGb3S8wYJX0x",
    "sick": 497
  },
  {
    "latitude": 14.652027,
    "pop": 376480,
    "longitude": -61.011715,
    "name": "Martinique",
    "country": "FR",
    "lastUpdated": "2020-03-24T12:34:14.669Z",
    "dead": 1,
    "id": "SDdefnq1bc3ZNr7SpEsW",
    "infected": 53,
    "recovered": 0,
    "sick": 52
  },
  {
    "latitude": 7.9465,
    "pop": 28830000,
    "longitude": -1.0232,
    "name": "Ghana",
    "country": "GH",
    "lastUpdated": "2020-03-24T12:43:02.951Z",
    "dead": 2,
    "id": "SG9VWLOV3x2JsTkXmVSz",
    "infected": 52,
    "recovered": 0,
    "sick": 50
  },
  {
    "lastUpdated": "2020-03-24T12:43:02.655Z",
    "dead": 122,
    "id": "SGe9sCPayMqh6RsGFaBA",
    "infected": 9117,
    "recovered": 131,
    "latitude": 46.818188,
    "pop": 8570000,
    "longitude": 8.227512,
    "name": "Switzerland",
    "country": "CH",
    "sick": 8864
  },
  {
    "longitude": -71.208,
    "name": "Quebec",
    "country": "CA",
    "lastUpdated": "2020-03-24T12:39:01.437Z",
    "dead": 4,
    "id": "SHoOE3NiJgWAlDVBzwYH",
    "infected": 628,
    "recovered": 0,
    "latitude": 46.8139,
    "pop": 8485000,
    "sick": 624
  },
  {
    "longitude": 20.903,
    "name": "Kosovo",
    "country": "XK",
    "lastUpdated": "2020-03-24T12:44:02.084Z",
    "dead": 1,
    "id": "SMWvuMMuKp2QK7O2tNia",
    "infected": 61,
    "recovered": 0,
    "latitude": 42.6026,
    "pop": 1831000,
    "sick": 60
  },
  {
    "lastUpdated": "2020-03-24T12:39:01.632Z",
    "dead": 0,
    "id": "SakhKQzKu1LRI8laqdQq",
    "infected": 64,
    "recovered": 0,
    "latitude": 41.4925,
    "pop": 1929000,
    "longitude": -99.9018,
    "name": "Nebraska",
    "country": "US",
    "sick": 64
  },
  {
    "recovered": 0,
    "latitude": -21.1151,
    "pop": 859959,
    "longitude": 55.5364,
    "name": "La Réunion",
    "country": "FR",
    "lastUpdated": "2020-03-24T12:34:14.661Z",
    "dead": 0,
    "id": "SgHzWAAYK1j2sipovxM6",
    "infected": 71,
    "sick": 71
  },
  {
    "latitude": 12.565679,
    "pop": 16010000,
    "longitude": 104.990967,
    "name": "Cambodia",
    "country": "KH",
    "lastUpdated": "2020-03-24T12:43:02.874Z",
    "dead": 0,
    "id": "SioMALgUbo7peXmbco2f",
    "infected": 87,
    "recovered": 2,
    "sick": 85
  },
  {
    "lastUpdated": "2020-03-24T06:58:04.624Z",
    "dead": 1,
    "id": "SsWhuEElU7dCTTuH5fdQ",
    "infected": 33,
    "recovered": 0,
    "latitude": 13.4443,
    "pop": 164229,
    "longitude": 144.7937,
    "name": "Guam",
    "country": "GU",
    "sick": 32
  },
  {
    "infected": 45,
    "recovered": 0,
    "latitude": -4.0383,
    "pop": 81340000,
    "longitude": 21.7587,
    "name": "DR Congo",
    "country": "CD",
    "lastUpdated": "2020-03-24T12:43:03.036Z",
    "dead": 2,
    "id": "T3iRf8mTUTAzbKrORTap",
    "sick": 43
  },
  {
    "recovered": 19,
    "latitude": 23.635796,
    "pop": 32940000,
    "longitude": 44.344334,
    "name": "Saudi Arabia",
    "country": "SA",
    "lastUpdated": "2020-03-24T12:43:02.794Z",
    "dead": 0,
    "id": "T7NffoeCgTUpAbOHvYwP",
    "infected": 562,
    "sick": 543
  },
  {
    "infected": 104,
    "recovered": 2,
    "latitude": 4.506106,
    "pop": 428697,
    "longitude": 114.650692,
    "name": "Brunei",
    "country": "BN",
    "lastUpdated": "2020-03-24T12:43:02.862Z",
    "dead": 0,
    "id": "TQZmzsLhJqjtCSExAkCP",
    "sick": 102
  },
  {
    "latitude": 45.4471,
    "pop": 8027000,
    "longitude": 4.3853,
    "name": "Auvergne-Rhône-Alpes",
    "country": "FR",
    "lastUpdated": "2020-03-24T12:34:14.607Z",
    "dead": 7,
    "id": "TT0MKODSjrxHvG19xZCa",
    "infected": 1730,
    "recovered": 18,
    "sick": 1705
  },
  {
    "longitude": -105.461392,
    "name": "Colorado",
    "country": "US",
    "lastUpdated": "2020-03-24T12:39:01.463Z",
    "dead": 7,
    "id": "Th4dlpXXmSDgi1OHs36P",
    "infected": 723,
    "recovered": 0,
    "latitude": 39.318928,
    "pop": 5696000,
    "sick": 716
  },
  {
    "id": "Tup6oDCHj6DgqZR3nQ3x",
    "infected": 114,
    "recovered": 7,
    "latitude": 12.2383,
    "pop": 19190000,
    "longitude": -1.5616,
    "name": "Burkina Faso",
    "country": "BF",
    "lastUpdated": "2020-03-24T12:43:02.891Z",
    "dead": 4,
    "sick": 103
  },
  {
    "latitude": 12.104818,
    "pop": 112381,
    "longitude": -61.670761,
    "name": "Grenada",
    "country": "GD",
    "lastUpdated": "2020-03-24T12:43:03.054Z",
    "dead": 0,
    "id": "TvqURPN5xzVBXsmGP46N",
    "infected": 1,
    "recovered": 0,
    "sick": 1
  },
  {
    "infected": 1577,
    "recovered": 1,
    "latitude": 55.675758,
    "pop": 5603000,
    "longitude": 12.56902,
    "name": "Denmark",
    "country": "DK",
    "lastUpdated": "2020-03-24T12:43:02.876Z",
    "dead": 32,
    "id": "Ty1AY3VLPJcRZgdBIERx",
    "sick": 1544
  },
  {
    "latitude": 36.395859,
    "pop": 100472400,
    "longitude": 118.769882,
    "name": "Shandong",
    "country": "CN",
    "lastUpdated": "2020-03-24T07:34:00.674Z",
    "dead": 7,
    "id": "U0tkTJ9CGsBuFJ2Gdoum",
    "infected": 768,
    "recovered": 752,
    "sick": 9
  },
  {
    "latitude": 43.94236,
    "pop": 33400,
    "longitude": 12.457777,
    "name": "San Marino",
    "country": "SM",
    "lastUpdated": "2020-03-24T12:43:02.821Z",
    "dead": 20,
    "id": "U12rMD5GDW58Q0lIwrB1",
    "infected": 187,
    "recovered": 4,
    "sick": 163
  },
  {
    "lastUpdated": "2020-03-24T12:43:02.801Z",
    "dead": 42,
    "id": "U13Gy4BpRLAZ95bPmBXd",
    "infected": 1140,
    "recovered": 285,
    "latitude": 36.204823,
    "pop": 126800000,
    "longitude": 138.25293,
    "name": "Japan",
    "country": "JP",
    "sick": 813
  },
  {
    "latitude": 1.3733,
    "pop": 42860000,
    "longitude": 32.2903,
    "name": "Uganda",
    "country": "UG",
    "lastUpdated": "2020-03-24T12:43:03.115Z",
    "dead": 0,
    "id": "UCZXEgnHtxUoChWLR6fQ",
    "infected": 9,
    "recovered": 0,
    "sick": 9
  },
  {
    "lastUpdated": "2020-03-24T12:43:03.124Z",
    "dead": 0,
    "id": "UIbrFy6kiTTF0D37Kqmp",
    "infected": 3,
    "recovered": 0,
    "latitude": -11.2027,
    "pop": 29780000,
    "longitude": 17.8739,
    "name": "Angola",
    "country": "AO",
    "sick": 3
  },
  {
    "lastUpdated": "2020-03-24T12:34:14.647Z",
    "dead": 3,
    "id": "URKMlJ7OTNldjpaxFbjE",
    "infected": 490,
    "recovered": 0,
    "latitude": 48.202,
    "pop": 3329000,
    "longitude": -2.9326,
    "name": "Bretagne",
    "country": "FR",
    "sick": 487
  },
  {
    "recovered": 1,
    "latitude": 53.5511,
    "pop": 1822000,
    "longitude": 9.9937,
    "name": "Hamburg",
    "country": "DE",
    "lastUpdated": "2020-03-24T12:42:02.681Z",
    "dead": 1,
    "id": "UfFaUECHINUutv1M9tzq",
    "infected": 1237,
    "sick": 1235
  },
  {
    "latitude": -19.4914,
    "pop": 211945,
    "longitude": 132.551,
    "name": "Northern Territory",
    "country": "AU",
    "lastUpdated": "2020-03-24T12:40:03.738Z",
    "dead": 0,
    "id": "UrF45V1VqMo6YBib2KlL",
    "infected": 5,
    "recovered": 0,
    "sick": 5
  },
  {
    "latitude": 18.0424805,
    "pop": 41109,
    "longitude": -63.0548286,
    "name": "Sint Maarten",
    "country": "SX",
    "lastUpdated": "2020-03-24T12:43:03.182Z",
    "dead": 0,
    "id": "UsxgpiuFCtlR2CW1UUFm",
    "infected": 2,
    "recovered": 0,
    "sick": 2
  },
  {
    "lastUpdated": "2020-03-24T12:41:02.299Z",
    "dead": 0,
    "id": "V1qE740s3EUGyKGr6SVv",
    "infected": 1,
    "recovered": 0,
    "latitude": 11.943179,
    "pop": 241773,
    "longitude": 79.808206,
    "name": "Puducherry",
    "country": "IN",
    "sick": 1
  },
  {
    "id": "VAAmtxtDuCY0o55zRsOh",
    "infected": 306,
    "recovered": 6,
    "latitude": 3.527606,
    "pop": 49070000,
    "longitude": -72.998674,
    "name": "Colombia",
    "country": "CO",
    "lastUpdated": "2020-03-24T12:43:02.807Z",
    "dead": 3,
    "sick": 297
  },
  {
    "latitude": 21.5218,
    "pop": 11480000,
    "longitude": -77.7812,
    "name": "Cuba",
    "country": "CU",
    "lastUpdated": "2020-03-24T12:43:03.027Z",
    "dead": 1,
    "id": "VAG9AcMABTf8oIAfELPh",
    "infected": 40,
    "recovered": 0,
    "sick": 39
  },
  {
    "id": "VIf8T8PD3ZzlzAm5eBCX",
    "infected": 176,
    "recovered": 172,
    "latitude": 25.181129,
    "pop": 45970000,
    "longitude": 101.864143,
    "name": "Yunnan",
    "country": "CN",
    "lastUpdated": "2020-03-24T07:32:41.025Z",
    "dead": 2,
    "sick": 2
  },
  {
    "latitude": 26.8467,
    "pop": 204200000,
    "longitude": 80.9462,
    "name": "Uttar Pradesh",
    "country": "IN",
    "lastUpdated": "2020-03-24T12:41:02.350Z",
    "dead": 0,
    "id": "VcKcLdCkC6YpPfIDnRVD",
    "infected": 33,
    "recovered": 11,
    "sick": 22
  },
  {
    "infected": 767,
    "recovered": 0,
    "latitude": 43.8927,
    "pop": 5893000,
    "longitude": 3.2828,
    "name": "Occitanie",
    "country": "FR",
    "lastUpdated": "2020-03-24T12:34:14.731Z",
    "dead": 10,
    "id": "WAnbFrEjtZDTCIYBt8rz",
    "sick": 757
  },
  {
    "latitude": -30.5595,
    "pop": 56720000,
    "longitude": 22.9375,
    "name": "South Africa",
    "country": "ZA",
    "lastUpdated": "2020-03-24T12:43:02.797Z",
    "dead": 0,
    "id": "Whrue10NtwIObLvFFyBr",
    "infected": 554,
    "recovered": 4,
    "sick": 550
  },
  {
    "latitude": 13.443182,
    "pop": 2101000,
    "longitude": -15.3101387,
    "name": "Gambia",
    "country": "GM",
    "lastUpdated": "2020-03-24T12:43:03.133Z",
    "dead": 1,
    "id": "Wk811YwpQxsOCfz8As86",
    "infected": 2,
    "recovered": 0,
    "sick": 1
  },
  {
    "latitude": 23.685,
    "pop": 164700000,
    "longitude": 90.3563,
    "name": "Bangladesh",
    "country": "BD",
    "lastUpdated": "2020-03-24T12:43:03.193Z",
    "dead": 4,
    "id": "WpLayPPLIJ7VcHZdQaoM",
    "infected": 39,
    "recovered": 5,
    "sick": 30
  },
  {
    "longitude": 77.577049,
    "name": "Ladakh",
    "country": "IN",
    "lastUpdated": "2020-03-24T12:41:02.319Z",
    "dead": 0,
    "id": "X3PZqaJxtnlxcgP4tzya",
    "infected": 13,
    "recovered": 0,
    "latitude": 34.152588,
    "pop": 274289,
    "sick": 13
  },
  {
    "infected": 318,
    "recovered": 295,
    "latitude": 25.92448,
    "pop": 38560000,
    "longitude": 118.278992,
    "name": "Fujian",
    "country": "CN",
    "lastUpdated": "2020-03-24T07:32:03.241Z",
    "dead": 1,
    "id": "XBBw0iMPrmiEu3qogkbi",
    "sick": 22
  },
  {
    "latitude": 41.871941,
    "pop": 60480000,
    "longitude": 12.56738,
    "name": "Italy",
    "country": "IT",
    "lastUpdated": "2020-03-24T12:43:02.811Z",
    "dead": 6077,
    "id": "XdekMZcw1lJK2MWpBlNK",
    "infected": 63927,
    "recovered": 7432,
    "sick": 50418
  },
  {
    "recovered": 0,
    "latitude": -32.5228,
    "pop": 3457000,
    "longitude": -55.7658,
    "name": "Uruguay",
    "country": "UY",
    "lastUpdated": "2020-03-24T12:43:02.858Z",
    "dead": 0,
    "id": "XrsuLstdybIqIvv0E0aJ",
    "infected": 162,
    "sick": 162
  },
  {
    "latitude": 42.0396,
    "pop": 339178,
    "longitude": 9.0129,
    "name": "Corse",
    "country": "FR",
    "lastUpdated": "2020-03-24T12:34:14.668Z",
    "dead": 7,
    "id": "YGXgIObKVabP2CYEdcb9",
    "infected": 194,
    "recovered": 0,
    "sick": 187
  },
  {
    "infected": 60,
    "recovered": 17,
    "latitude": 31.9522,
    "pop": 5052000,
    "longitude": 35.2332,
    "name": "Palestine",
    "country": "PS",
    "lastUpdated": "2020-03-24T12:13:03.773Z",
    "dead": 0,
    "id": "YMzKw0SnXG71VT7H1jff",
    "sick": 43
  },
  {
    "id": "YaCODTMD1KKRnrAlkg2u",
    "infected": 34,
    "recovered": 0,
    "latitude": 64.2008,
    "pop": 737438,
    "longitude": -149.4937,
    "name": "Alaska",
    "country": "US",
    "lastUpdated": "2020-03-24T12:39:01.546Z",
    "dead": 0,
    "sick": 34
  },
  {
    "lastUpdated": "2020-03-24T12:43:02.818Z",
    "dead": 120,
    "id": "Yw9uBekNlefXBcOCNMfP",
    "infected": 9037,
    "recovered": 3507,
    "latitude": 37.568291,
    "pop": 51470000,
    "longitude": 126.99778,
    "name": "South Korea",
    "country": "KR",
    "sick": 5410
  },
  {
    "infected": 17,
    "recovered": 0,
    "latitude": 13.193887,
    "pop": 285719,
    "longitude": -59.543198,
    "name": "Barbados",
    "country": "BB",
    "lastUpdated": "2020-03-24T12:43:03.188Z",
    "dead": 0,
    "id": "YzZqZMJGvG6joQCdiuXC",
    "sick": 17
  },
  {
    "infected": 774,
    "recovered": 13,
    "latitude": 52.2297,
    "pop": 37980000,
    "longitude": 21.0122,
    "name": "Poland",
    "country": "PL",
    "lastUpdated": "2020-03-24T09:13:04.602Z",
    "dead": 9,
    "id": "ZAZNuCK1VweBaTLCFzCk",
    "sick": 752
  },
  {
    "lastUpdated": "2020-03-24T12:43:03.052Z",
    "dead": 0,
    "id": "ZmzOT0sJgfWXEpRImItC",
    "infected": 4,
    "recovered": 0,
    "latitude": -17.713371,
    "pop": 905502,
    "longitude": 178.065033,
    "name": "Fiji",
    "country": "FJ",
    "sick": 4
  },
  {
    "recovered": 0,
    "latitude": 41.6032,
    "pop": 3573000,
    "longitude": -73.0877,
    "name": "Connecticut",
    "country": "US",
    "lastUpdated": "2020-03-24T12:39:01.607Z",
    "dead": 10,
    "id": "Zqy0gftQzocR49jEJNMl",
    "infected": 415,
    "sick": 405
  },
  {
    "latitude": 51.011,
    "pop": 2137000,
    "longitude": 10.8453,
    "name": "Thüringen",
    "country": "DE",
    "lastUpdated": "2020-03-24T12:42:02.800Z",
    "dead": 1,
    "id": "a9OgUWo6ZSWA3HyF0xnj",
    "infected": 377,
    "recovered": 33,
    "sick": 343
  },
  {
    "infected": 170,
    "recovered": 6,
    "latitude": -30.000233,
    "pop": 1677000,
    "longitude": 136.209152,
    "name": "South Australia",
    "country": "AU",
    "lastUpdated": "2020-03-24T12:40:03.751Z",
    "dead": 0,
    "id": "a9p9pAOsjg1WAjPGc2a6",
    "sick": 164
  },
  {
    "latitude": 37.9643,
    "pop": 6126000,
    "longitude": -91.8318,
    "name": "Missouri",
    "country": "US",
    "lastUpdated": "2020-03-24T12:39:01.666Z",
    "dead": 5,
    "id": "aPubGfQ8ToSEuKJldKRT",
    "infected": 216,
    "recovered": 0,
    "sick": 211
  },
  {
    "infected": 254,
    "recovered": 250,
    "latitude": 23.64407,
    "pop": 48380000,
    "longitude": 108.26651,
    "name": "Guangxi",
    "country": "CN",
    "lastUpdated": "2020-03-24T07:32:12.601Z",
    "dead": 2,
    "id": "aTa8MiBjtH3iY0SRs2HQ",
    "sick": 2
  },
  {
    "latitude": 6.6111,
    "pop": 4659000,
    "longitude": 20.9394,
    "name": "CAR",
    "country": "CF",
    "lastUpdated": "2020-03-24T12:43:03.071Z",
    "dead": 0,
    "id": "adcBUeAYp6ey0ZXCzKNs",
    "infected": 3,
    "recovered": 0,
    "sick": 3
  },
  {
    "lastUpdated": "2020-03-24T12:39:01.652Z",
    "dead": 7,
    "id": "afeZTVC1J1SMMNFxkrcc",
    "infected": 254,
    "recovered": 0,
    "latitude": 37.4316,
    "pop": 8518000,
    "longitude": -78.6569,
    "name": "Virginia",
    "country": "US",
    "sick": 247
  },
  {
    "recovered": 401,
    "latitude": 39.904202,
    "pop": 21540000,
    "longitude": 116.407394,
    "name": "Beijing",
    "country": "CN",
    "lastUpdated": "2020-03-24T07:33:08.241Z",
    "dead": 8,
    "id": "alj4hkxg9cjrTxOzwFKt",
    "infected": 554,
    "sick": 145
  },
  {
    "longitude": 43.679291,
    "name": "Iraq",
    "country": "IQ",
    "lastUpdated": "2020-03-24T12:43:02.901Z",
    "dead": 23,
    "id": "b7TwXX46FA0EmH1CjHET",
    "infected": 266,
    "recovered": 62,
    "latitude": 33.22319,
    "pop": 38270000,
    "sick": 181
  },
  {
    "infected": 86,
    "recovered": 8,
    "latitude": 14.457474,
    "pop": 15850000,
    "longitude": -14.358636,
    "name": "Senegal",
    "country": "SN",
    "lastUpdated": "2020-03-24T12:43:02.827Z",
    "dead": 0,
    "id": "b9p1JhVml3GGC7iiPmKv",
    "sick": 78
  },
  {
    "infected": 16,
    "recovered": 0,
    "latitude": -0.0236,
    "pop": 49700000,
    "longitude": 37.9062,
    "name": "Kenya",
    "country": "KE",
    "lastUpdated": "2020-03-24T12:43:03.106Z",
    "dead": 0,
    "id": "bVHiTolbUJGHIeVht3eG",
    "sick": 16
  },
  {
    "id": "bYp4RRHv19M7lYtSzQeV",
    "infected": 2844,
    "recovered": 0,
    "latitude": 39.561889,
    "pop": 8909000,
    "longitude": -74.672169,
    "name": "New Jersey",
    "country": "US",
    "lastUpdated": "2020-03-24T12:39:01.413Z",
    "dead": 27,
    "sick": 2817
  },
  {
    "id": "bdqD4kpdqGgUaX70Tm2Q",
    "infected": 1624,
    "recovered": 183,
    "latitude": 3.139,
    "pop": 31620000,
    "longitude": 101.6869,
    "name": "Malaysia",
    "country": "MY",
    "lastUpdated": "2020-03-24T12:43:02.849Z",
    "dead": 15,
    "sick": 1426
  },
  {
    "infected": 2059,
    "recovered": 16,
    "latitude": 60.128162,
    "pop": 10120000,
    "longitude": 18.643501,
    "name": "Sweden",
    "country": "SE",
    "lastUpdated": "2020-03-24T12:43:02.833Z",
    "dead": 33,
    "id": "bignnyt2A8BBx8VNo32p",
    "sick": 2010
  },
  {
    "infected": 123,
    "recovered": 10,
    "latitude": 40.973765,
    "pop": 2877000,
    "longitude": 20.010162,
    "name": "Albania",
    "country": "AL",
    "lastUpdated": "2020-03-24T12:43:02.841Z",
    "dead": 5,
    "id": "cCGmFmwHOoBrEpvG3qBP",
    "sick": 108
  },
  {
    "recovered": 0,
    "latitude": 16.871311,
    "pop": 55901000,
    "longitude": 96.199379,
    "name": "Myanmar",
    "country": "MM",
    "lastUpdated": "2020-03-24T12:43:03.038Z",
    "dead": 0,
    "id": "cIbchhSBTuxXmXYgpkdB",
    "infected": 2,
    "sick": 2
  },
  {
    "id": "cO8TChMvQvAtoZMNurTQ",
    "infected": 1,
    "recovered": 0,
    "latitude": -25.953724,
    "pop": 29670000,
    "longitude": 32.588711,
    "name": "Mozambique",
    "country": "MZ",
    "lastUpdated": "2020-03-24T12:43:03.179Z",
    "dead": 0,
    "sick": 1
  },
  {
    "id": "cPxONYsVo6BgvCW9HUeQ",
    "infected": 10,
    "recovered": 0,
    "latitude": 46.8625,
    "pop": 3076000,
    "longitude": 103.8467,
    "name": "Mongolia",
    "country": "MN",
    "lastUpdated": "2020-03-24T12:43:03.083Z",
    "dead": 0,
    "sick": 10
  },
  {
    "latitude": 64.963051,
    "pop": 364260,
    "longitude": -19.020836,
    "name": "Iceland",
    "country": "IS",
    "lastUpdated": "2020-03-24T12:43:02.899Z",
    "dead": 2,
    "id": "cPxe7nsRnOf6aOPqHElJ",
    "infected": 588,
    "recovered": 51,
    "sick": 535
  },
  {
    "lastUpdated": "2020-03-24T12:43:02.879Z",
    "dead": 1,
    "id": "cX891t0ONLNFj0MYq6La",
    "infected": 1656,
    "recovered": 49,
    "latitude": 31.046051,
    "pop": 8712000,
    "longitude": 34.851612,
    "name": "Israel",
    "country": "IL",
    "sick": 1606
  },
  {
    "lastUpdated": "2020-03-24T12:34:14.664Z",
    "dead": 0,
    "id": "cc7s6hYGQ2MovBBBgkKb",
    "infected": 20,
    "recovered": 0,
    "latitude": 4.749531,
    "pop": 290691,
    "longitude": -53.112909,
    "name": "Guyane",
    "country": "FR",
    "sick": 20
  },
  {
    "recovered": 23,
    "latitude": 61.8926,
    "pop": 49290,
    "longitude": -6.9118,
    "name": "Faeroe Islands",
    "country": "FO",
    "lastUpdated": "2020-03-24T12:43:02.816Z",
    "dead": 0,
    "id": "cgzd5EM8PZv5ziJtTz1w",
    "infected": 122,
    "sick": 99
  },
  {
    "longitude": -77.1945,
    "name": "Pennsylvania",
    "country": "US",
    "lastUpdated": "2020-03-24T12:39:01.533Z",
    "dead": 7,
    "id": "chj2FF3zb4Xxcop9RHre",
    "infected": 698,
    "recovered": 0,
    "latitude": 41.2033,
    "pop": 12810000,
    "sick": 691
  },
  {
    "id": "cpf3Y5PQTYywIm3PrpIQ",
    "infected": 676,
    "recovered": 2,
    "latitude": 45.7087,
    "pop": 5987000,
    "longitude": 0.6269,
    "name": "Nouvelle-Aquitaine",
    "country": "FR",
    "lastUpdated": "2020-03-24T12:34:14.645Z",
    "dead": 2,
    "sick": 672
  },
  {
    "id": "d0ExINgPaWUBm3l4ioJL",
    "infected": 39673,
    "recovered": 3794,
    "latitude": 40.463669,
    "pop": 46660000,
    "longitude": -3.74922,
    "name": "Spain",
    "country": "ES",
    "lastUpdated": "2020-03-24T12:43:02.652Z",
    "dead": 2696,
    "sick": 33183
  },
  {
    "latitude": 42.50837,
    "pop": 76965,
    "longitude": 1.517155,
    "name": "Andorra",
    "country": "AD",
    "lastUpdated": "2020-03-24T12:43:02.852Z",
    "dead": 1,
    "id": "dedMXSYR2k92wkSXNZqn",
    "infected": 164,
    "recovered": 1,
    "sick": 162
  },
  {
    "id": "dzCgqYduzyncjNKU9z6G",
    "infected": 87,
    "recovered": 0,
    "latitude": 38.831163,
    "pop": 967171,
    "longitude": -75.375673,
    "name": "Delaware",
    "country": "US",
    "lastUpdated": "2020-03-24T12:39:01.548Z",
    "dead": 0,
    "sick": 87
  },
  {
    "longitude": 35.2433,
    "name": "Turkey",
    "country": "TR",
    "lastUpdated": "2020-03-24T12:43:02.813Z",
    "dead": 37,
    "id": "dzIcCaUZlbIXuRw0SyDE",
    "infected": 1529,
    "recovered": 0,
    "latitude": 38.9637,
    "pop": 80810000,
    "sick": 1492
  },
  {
    "recovered": 9,
    "latitude": 47.516232,
    "pop": 8822000,
    "longitude": 14.550072,
    "name": "Austria",
    "country": "AT",
    "lastUpdated": "2020-03-24T12:43:02.837Z",
    "dead": 25,
    "id": "e3BtI12qbqhE8jypOoZu",
    "infected": 4829,
    "sick": 4795
  },
  {
    "infected": 1779,
    "recovered": 28,
    "latitude": 52.6367,
    "pop": 7963000,
    "longitude": 9.8451,
    "name": "Niedersachsen",
    "country": "DE",
    "lastUpdated": "2020-03-24T12:42:02.889Z",
    "dead": 6,
    "id": "e3CJgTO8wVbBQZaxqNze",
    "sick": 1745
  },
  {
    "recovered": 124,
    "latitude": 41.097481,
    "pop": 43900000,
    "longitude": 122.310669,
    "name": "Liaoning",
    "country": "CN",
    "lastUpdated": "2020-03-24T07:33:15.114Z",
    "dead": 2,
    "id": "e7P83iImanpd9r36oXK3",
    "infected": 127,
    "sick": 1
  },
  {
    "infected": 414,
    "recovered": 329,
    "latitude": 31.230391,
    "pop": 24240000,
    "longitude": 121.473701,
    "name": "Shanghai",
    "country": "CN",
    "lastUpdated": "2020-03-24T07:32:20.849Z",
    "dead": 4,
    "id": "e9pQqQa7CEblCYoDtfKo",
    "sick": 81
  },
  {
    "latitude": 42.407211,
    "pop": 6902000,
    "longitude": -71.382439,
    "name": "Massachusetts",
    "country": "US",
    "lastUpdated": "2020-03-24T12:39:01.648Z",
    "dead": 9,
    "id": "eCKDGssww4pF7NrxOySu",
    "infected": 777,
    "recovered": 0,
    "sick": 768
  },
  {
    "lastUpdated": "2020-03-24T12:43:03.108Z",
    "dead": 0,
    "id": "eLgKPNUwYM5MNDAtF6ql",
    "infected": 23,
    "recovered": 1,
    "latitude": 43.740451,
    "pop": 38695,
    "longitude": 7.432032,
    "name": "Monaco",
    "country": "MC",
    "sick": 22
  },
  {
    "recovered": 8,
    "latitude": 47.2805,
    "pop": 2686000,
    "longitude": 4.9994,
    "name": "Bourgogne-Franche-Comté",
    "country": "FR",
    "lastUpdated": "2020-03-24T12:34:14.673Z",
    "dead": 20,
    "id": "ejrjMKfHexGnK52FS9Aa",
    "infected": 1347,
    "sick": 1319
  },
  {
    "latitude": 48.0196,
    "pop": 18040000,
    "longitude": 66.9237,
    "name": "Kazakhstan",
    "country": "KZ",
    "lastUpdated": "2020-03-24T12:43:02.866Z",
    "dead": 0,
    "id": "etrmrftkQg6Kbd9seAga",
    "infected": 68,
    "recovered": 0,
    "sick": 68
  },
  {
    "infected": 545,
    "recovered": 536,
    "latitude": 30.14208,
    "pop": 81100000,
    "longitude": 102.960701,
    "name": "Sichuan",
    "country": "CN",
    "lastUpdated": "2020-03-24T07:32:27.169Z",
    "dead": 3,
    "id": "eyK5bxFkwdoAouIBvLFM",
    "sick": 6
  },
  {
    "lastUpdated": "2020-03-24T12:43:02.860Z",
    "dead": 0,
    "id": "f9kmlhYtc3WA3kjbWszW",
    "infected": 84,
    "recovered": 17,
    "latitude": 21.473534,
    "pop": 4636000,
    "longitude": 55.975414,
    "name": "Oman",
    "country": "OM",
    "sick": 67
  },
  {
    "longitude": 13.2017,
    "name": "Sachsen",
    "country": "DE",
    "lastUpdated": "2020-03-24T12:42:02.901Z",
    "dead": 3,
    "id": "fGqVm2khm3IBRs709S1f",
    "infected": 865,
    "recovered": 2,
    "latitude": 51.1045,
    "pop": 4081000,
    "sick": 860
  },
  {
    "dead": 674,
    "lastUpdated": "2020-03-24T12:43:02.752Z",
    "id": "fIp76gl05LhZ0aOxUbhz",
    "infected": 0,
    "recovered": 2200,
    "latitude": 47,
    "longitude": 2,
    "name": "Région non communiquée",
    "country": "FR",
    "sick": 0
  },
  {
    "latitude": 15.4542,
    "pop": 14900000,
    "longitude": 18.7322,
    "name": "Chad",
    "country": "TD",
    "lastUpdated": "2020-03-24T12:43:03.174Z",
    "dead": 0,
    "id": "fJc9CaZGR1OCHaW8Tn4V",
    "infected": 3,
    "recovered": 0,
    "sick": 3
  },
  {
    "lastUpdated": "2020-03-24T12:43:02.861Z",
    "dead": 0,
    "id": "fK06AziL8wyrcoz7rsmJ",
    "infected": 127,
    "recovered": 1,
    "latitude": 31.295929,
    "pop": 9702000,
    "longitude": 36.691952,
    "name": "Jordan",
    "country": "JO",
    "sick": 126
  },
  {
    "latitude": 27.716933,
    "pop": 21300000,
    "longitude": -81.555239,
    "name": "Florida",
    "country": "US",
    "lastUpdated": "2020-03-24T12:39:01.452Z",
    "dead": 18,
    "id": "fNganaGVPifA4QahEQPS",
    "infected": 1227,
    "recovered": 0,
    "sick": 1209
  },
  {
    "latitude": 35.452016,
    "longitude": 139.664285,
    "name": "Diamond Princess (Cruise)",
    "country": "ZZ",
    "dead": 8,
    "lastUpdated": "2020-03-24T07:28:17.114Z",
    "id": "fNnE9CD0SttEVrCUo1Ym",
    "infected": 712,
    "recovered": 567,
    "sick": 137
  },
  {
    "id": "ffKhENYKy3bwsyBLiYtE",
    "infected": 1220,
    "recovered": 6,
    "latitude": 52.52,
    "pop": 3748000,
    "longitude": 13.405,
    "name": "Berlin",
    "country": "DE",
    "lastUpdated": "2020-03-24T12:42:02.794Z",
    "dead": 2,
    "sick": 1212
  },
  {
    "infected": 67801,
    "recovered": 60323,
    "latitude": 31.160629,
    "pop": 58500000,
    "longitude": 112.255402,
    "name": "Hubei",
    "country": "CN",
    "lastUpdated": "2020-03-24T07:30:53.777Z",
    "dead": 3160,
    "id": "fiJ14DCxw15e3SMemh8R",
    "sick": 4318
  },
  {
    "id": "flbZ2kaR5kBuV8XZ2Nsu",
    "infected": 97,
    "recovered": 1,
    "latitude": 50.4501,
    "pop": 42220000,
    "longitude": 30.5234,
    "name": "Ukraine",
    "country": "UA",
    "lastUpdated": "2020-03-24T12:43:02.798Z",
    "dead": 3,
    "sick": 93
  },
  {
    "latitude": 41.2044,
    "pop": 6202000,
    "longitude": 74.7661,
    "name": "Kyrgyzstan",
    "country": "KG",
    "lastUpdated": "2020-03-24T12:43:03.113Z",
    "dead": 0,
    "id": "fst48lrFxiMJbQPf4nur",
    "infected": 42,
    "recovered": 0,
    "sick": 42
  },
  {
    "latitude": 52.132633,
    "pop": 17180000,
    "longitude": 5.291266,
    "name": "Netherlands",
    "country": "NL",
    "lastUpdated": "2020-03-24T12:43:02.812Z",
    "dead": 213,
    "id": "g0lRMtEJbucWIGqSPn0I",
    "infected": 4749,
    "recovered": 2,
    "sick": 4534
  },
  {
    "id": "gIdgxJZfTl2QOSYEwMAz",
    "infected": 197,
    "recovered": 0,
    "latitude": 34.69522,
    "pop": 3014000,
    "longitude": -92.288012,
    "name": "Arkansas",
    "country": "US",
    "lastUpdated": "2020-03-24T12:39:01.472Z",
    "dead": 0,
    "sick": 197
  },
  {
    "latitude": 4.8604159,
    "pop": 777859,
    "longitude": -58.9301796,
    "name": "Guyana",
    "country": "GY",
    "lastUpdated": "2020-03-24T12:43:03.154Z",
    "dead": 1,
    "id": "gXd2X2PjmGP0XVwxpWqT",
    "infected": 20,
    "recovered": 0,
    "sick": 19
  },
  {
    "longitude": -99.9018,
    "name": "South Dakota",
    "country": "US",
    "lastUpdated": "2020-03-24T12:39:01.574Z",
    "dead": 1,
    "id": "gYDsNgvuvtbg8t77w6FS",
    "infected": 28,
    "recovered": 0,
    "latitude": 43.9695,
    "pop": 882235,
    "sick": 27
  },
  {
    "infected": 110,
    "recovered": 2,
    "latitude": 35.894231,
    "pop": 493559,
    "longitude": 14.432846,
    "name": "Malta",
    "country": "MT",
    "lastUpdated": "2020-03-24T12:43:02.857Z",
    "dead": 0,
    "id": "h9UqxYZ5xC4JZrmdDz0q",
    "sick": 108
  },
  {
    "lastUpdated": "2020-03-24T12:11:02.835Z",
    "dead": 1,
    "id": "hqwsh1rmvkWI3LFUVuMk",
    "infected": 31,
    "recovered": 6,
    "latitude": 28.7041,
    "pop": 18980000,
    "longitude": 77.1025,
    "name": "Delhi",
    "country": "IN",
    "sick": 24
  },
  {
    "latitude": 35.751835,
    "pop": 25580000,
    "longitude": 104.28611,
    "name": "Gansu",
    "country": "CN",
    "lastUpdated": "2020-03-24T07:32:50.625Z",
    "dead": 2,
    "id": "iGkTscdD0XyHFSP23Qrp",
    "infected": 136,
    "recovered": 118,
    "sick": 16
  },
  {
    "infected": 1,
    "recovered": 0,
    "latitude": 34.8021,
    "pop": 18270000,
    "longitude": 38.9968,
    "name": "Syria",
    "country": "SY",
    "lastUpdated": "2020-03-24T12:43:03.165Z",
    "dead": 0,
    "id": "iHf1IZQP3CA3sT2erzyh",
    "sick": 1
  },
  {
    "infected": 95,
    "recovered": 4,
    "latitude": 10.8505,
    "pop": 34800000,
    "longitude": 76.2711,
    "name": "Kerala",
    "country": "IN",
    "lastUpdated": "2020-03-24T12:41:02.371Z",
    "dead": 0,
    "id": "idymmgoqLHImnBdyC7r7",
    "sick": 91
  },
  {
    "infected": 0,
    "recovered": 118,
    "latitude": -25.2744,
    "longitude": 133.7751,
    "name": "Unknown Australian state",
    "country": "AU",
    "dead": 0,
    "lastUpdated": "2020-03-24T12:43:02.823Z",
    "id": "iwcBlwhnL6MDiXogzf8g",
    "sick": 0
  },
  {
    "latitude": 16.265,
    "pop": 395700,
    "longitude": -61.551,
    "name": "Guadeloupe",
    "country": "FR",
    "lastUpdated": "2020-03-24T12:34:14.656Z",
    "dead": 1,
    "id": "j8eMjjqNAqHAJhAKdBYN",
    "infected": 62,
    "recovered": 0,
    "sick": 61
  },
  {
    "recovered": 5,
    "latitude": 50.1183,
    "pop": 4074000,
    "longitude": 7.309,
    "name": "Rheinland-Pfalz",
    "country": "DE",
    "lastUpdated": "2020-03-24T12:42:02.786Z",
    "dead": 4,
    "id": "jKn2pIFlIBScjb47GjRX",
    "infected": 1370,
    "sick": 1361
  },
  {
    "recovered": 133,
    "latitude": 39.343357,
    "pop": 15000000,
    "longitude": 117.361649,
    "name": "Tianjin",
    "country": "CN",
    "lastUpdated": "2020-03-24T07:33:29.369Z",
    "dead": 3,
    "id": "jMlHjIOb7eMPSxFBrmG1",
    "infected": 141,
    "sick": 5
  },
  {
    "latitude": 44.5588,
    "pop": 629299,
    "longitude": -72.5778,
    "name": "Vermont",
    "country": "US",
    "lastUpdated": "2020-03-24T12:39:01.601Z",
    "dead": 5,
    "id": "jPC0eOG50FWknCDe3K6P",
    "infected": 75,
    "recovered": 0,
    "sick": 70
  },
  {
    "infected": 1125,
    "recovered": 5,
    "latitude": 53.3498,
    "pop": 4830000,
    "longitude": -6.2603,
    "name": "Ireland",
    "country": "IE",
    "lastUpdated": "2020-03-24T12:43:02.802Z",
    "dead": 6,
    "id": "jpVXEDCyfyq26gPoCtHL",
    "sick": 1114
  },
  {
    "infected": 3,
    "recovered": 0,
    "latitude": 11.572076,
    "pop": 956985,
    "longitude": 43.145645,
    "name": "Djibouti",
    "country": "DJ",
    "lastUpdated": "2020-03-24T12:43:03.074Z",
    "dead": 0,
    "id": "l4nYeaqwy2yrEVqnijFj",
    "sick": 3
  },
  {
    "longitude": -114.742,
    "name": "Idaho",
    "country": "US",
    "lastUpdated": "2020-03-24T12:39:01.558Z",
    "dead": 0,
    "id": "l7fHSKOmcaRX3tq9FCT6",
    "infected": 68,
    "recovered": 0,
    "latitude": 44.0682,
    "pop": 1754000,
    "sick": 68
  },
  {
    "recovered": 0,
    "latitude": 10.6918,
    "pop": 1369000,
    "longitude": -61.2225,
    "name": "Trinidad and Tobago",
    "country": "TT",
    "lastUpdated": "2020-03-24T12:43:03.025Z",
    "dead": 0,
    "id": "lfLdfRP7hyiA6MVnQqqn",
    "infected": 52,
    "sick": 52
  },
  {
    "latitude": 16.5388,
    "pop": 546388,
    "longitude": -23.0418,
    "name": "Cape Verde",
    "country": "CV",
    "lastUpdated": "2020-03-24T12:43:03.050Z",
    "dead": 1,
    "id": "lgqPuia1S3ApA5Lsl2la",
    "infected": 3,
    "recovered": 0,
    "sick": 2
  },
  {
    "infected": 76,
    "recovered": 73,
    "latitude": 42.524635,
    "pop": 21810000,
    "longitude": 87.539589,
    "name": "Xinjiang",
    "country": "CN",
    "lastUpdated": "2020-03-24T07:34:44.729Z",
    "dead": 3,
    "id": "lhPjpn6CzqTRDN0RW8uE",
    "sick": 0
  },
  {
    "longitude": 73.2207,
    "name": "Maldives",
    "country": "MV",
    "lastUpdated": "2020-03-24T12:43:03.173Z",
    "dead": 0,
    "id": "m45gI2UbWMuTrOnTtp9k",
    "infected": 13,
    "recovered": 5,
    "latitude": 3.2028,
    "pop": 436330,
    "sick": 8
  },
  {
    "id": "mF7rVMdVnazAuw8G22xs",
    "infected": 1,
    "recovered": 0,
    "latitude": 41.9029,
    "pop": 1000,
    "longitude": 12.4534,
    "name": "Vatican City",
    "country": "VA",
    "lastUpdated": "2020-03-24T12:43:03.098Z",
    "dead": 0,
    "sick": 1
  },
  {
    "latitude": 19.7515,
    "pop": 114200000,
    "longitude": 75.7139,
    "name": "Maharashtra",
    "country": "IN",
    "lastUpdated": "2020-03-24T12:41:02.332Z",
    "dead": 2,
    "id": "mJtdLs4ub6CkcAOeMWUm",
    "infected": 89,
    "recovered": 0,
    "sick": 87
  },
  {
    "lastUpdated": "2020-03-24T12:43:02.806Z",
    "dead": 2,
    "id": "mSACWVbCy5QE7ciLA93J",
    "infected": 746,
    "recovered": 11,
    "latitude": -33.4489,
    "pop": 18050000,
    "longitude": -70.6693,
    "name": "Chile",
    "country": "CL",
    "sick": 733
  },
  {
    "infected": 12,
    "recovered": 0,
    "latitude": -6.369,
    "pop": 57310000,
    "longitude": 34.8888,
    "name": "Tanzania",
    "country": "TZ",
    "lastUpdated": "2020-03-24T12:43:03.077Z",
    "dead": 0,
    "id": "mnew3ojzmWV0dWSPfCQ9",
    "sick": 12
  },
  {
    "recovered": 0,
    "latitude": 15.1794,
    "pop": 4475000,
    "longitude": 39.7823,
    "name": "Eritrea",
    "country": "ER",
    "lastUpdated": "2020-03-24T12:43:03.075Z",
    "dead": 0,
    "id": "n6OSwOVBdUie3xeZJmOf",
    "infected": 1,
    "sick": 1
  },
  {
    "lastUpdated": "2020-03-24T12:39:01.618Z",
    "dead": 2,
    "id": "nLhJXE2apq8yNNj363ai",
    "infected": 614,
    "recovered": 0,
    "latitude": 35.693323,
    "pop": 6770000,
    "longitude": -86.605748,
    "name": "Tennessee",
    "country": "US",
    "sick": 612
  },
  {
    "lastUpdated": "2020-03-24T12:43:03.146Z",
    "dead": 0,
    "id": "oB5fSyjWJ0FbNAkssuci",
    "infected": 7,
    "recovered": 0,
    "latitude": -4.6796,
    "pop": 95843,
    "longitude": 55.492,
    "name": "Seychelles",
    "country": "SC",
    "sick": 7
  },
  {
    "latitude": 31.893778,
    "pop": 35740000,
    "longitude": -6.196132,
    "name": "Morocco",
    "country": "MA",
    "lastUpdated": "2020-03-24T12:43:02.905Z",
    "dead": 4,
    "id": "oJ5vSDE9vgXC2PG8LElp",
    "infected": 143,
    "recovered": 5,
    "sick": 134
  },
  {
    "infected": 1269,
    "recovered": 0,
    "latitude": 50.4801,
    "pop": 5978000,
    "longitude": 2.7937,
    "name": "Hauts-de-France",
    "country": "FR",
    "lastUpdated": "2020-03-24T12:34:14.636Z",
    "dead": 46,
    "id": "ofWLu9EuQoK2nHjwU1mA",
    "sick": 1223
  },
  {
    "recovered": 0,
    "latitude": 31.1048,
    "pop": 6856000,
    "longitude": 77.1734,
    "name": "Himachal Pradesh",
    "country": "IN",
    "lastUpdated": "2020-03-24T12:41:02.227Z",
    "dead": 1,
    "id": "oqLEd2Z9P3FJeQsfIk8e",
    "infected": 3,
    "sick": 2
  },
  {
    "infected": 397,
    "recovered": 8,
    "latitude": -20.917574,
    "pop": 5071000,
    "longitude": 142.702789,
    "name": "Queensland",
    "country": "AU",
    "lastUpdated": "2020-03-24T12:40:03.639Z",
    "dead": 0,
    "id": "oxz2l1rJipCsfMfy8Mmk",
    "sick": 389
  },
  {
    "longitude": 128.738235,
    "name": "Heilongjiang",
    "country": "CN",
    "lastUpdated": "2020-03-24T07:33:23.145Z",
    "dead": 13,
    "id": "p1aZboN4BtRJe7hPl8cw",
    "infected": 484,
    "recovered": 468,
    "latitude": 47.121647,
    "pop": 38310000,
    "sick": 3
  },
  {
    "infected": 990,
    "recovered": 984,
    "latitude": 32.026379,
    "pop": 62000000,
    "longitude": 117.252747,
    "name": "Anhui",
    "country": "CN",
    "lastUpdated": "2020-03-24T07:31:03.386Z",
    "dead": 6,
    "id": "pFhBwPnGGpQ6DLppJ6YS",
    "sick": 0
  },
  {
    "latitude": 2.046934,
    "pop": 14740000,
    "longitude": 45.318161,
    "name": "Somalia",
    "country": "SO",
    "lastUpdated": "2020-03-24T12:43:03.094Z",
    "dead": 0,
    "id": "pHrUAOBW5WDdMsVWpEEi",
    "infected": 1,
    "recovered": 0,
    "sick": 1
  },
  {
    "latitude": 21.2787,
    "pop": 25550000,
    "longitude": 81.8661,
    "name": "Chhattisgarh",
    "country": "IN",
    "lastUpdated": "2020-03-24T12:41:02.336Z",
    "dead": 0,
    "id": "pu6AXEsDnpmmqnhajobN",
    "infected": 1,
    "recovered": 0,
    "sick": 1
  },
  {
    "infected": 141,
    "recovered": 0,
    "latitude": 38.9072,
    "pop": 633427,
    "longitude": -77.0369,
    "name": "Washington, D.C.",
    "country": "US",
    "lastUpdated": "2020-03-24T12:39:01.501Z",
    "dead": 2,
    "id": "q5cfvHprVTraL1yXnhDx",
    "sick": 139
  },
  {
    "longitude": 123.325947,
    "name": "Western Australia",
    "country": "AU",
    "lastUpdated": "2020-03-24T12:40:03.845Z",
    "dead": 1,
    "id": "qnQ0dkxAxnDP01YpdZgk",
    "infected": 175,
    "recovered": 1,
    "latitude": -26.190439,
    "pop": 2589000,
    "sick": 173
  },
  {
    "latitude": 50.503887,
    "pop": 11400000,
    "longitude": 4.469936,
    "name": "Belgium",
    "country": "BE",
    "lastUpdated": "2020-03-24T12:43:02.867Z",
    "dead": 122,
    "id": "qpAxVz0garcS0gNZxtOw",
    "infected": 4269,
    "recovered": 461,
    "sick": 3686
  },
  {
    "recovered": 0,
    "latitude": 39,
    "pop": 1806000,
    "longitude": -80.5,
    "name": "West Virginia",
    "country": "US",
    "lastUpdated": "2020-03-24T12:39:01.473Z",
    "dead": 0,
    "id": "qrYN2o4c4gAK3ffF5JIw",
    "infected": 20,
    "sick": 20
  },
  {
    "lastUpdated": "2020-03-24T12:39:01.480Z",
    "dead": 9,
    "id": "qsrWiq0qCmIG66hpWojP",
    "infected": 803,
    "recovered": 0,
    "latitude": 31,
    "pop": 28700000,
    "longitude": -100,
    "name": "Texas",
    "country": "US",
    "sick": 794
  },
  {
    "infected": 1510,
    "recovered": 1,
    "latitude": 43.9352,
    "pop": 5059000,
    "longitude": 6.0679,
    "name": "Provence-Alpes-Côte d’Azur",
    "country": "FR",
    "lastUpdated": "2020-03-24T12:34:14.666Z",
    "dead": 7,
    "id": "qyX9xXEuKg3co8yKe3Fl",
    "sick": 1502
  },
  {
    "longitude": -91.9623,
    "name": "Louisiana",
    "country": "US",
    "lastUpdated": "2020-03-24T12:39:01.526Z",
    "dead": 35,
    "id": "qzuktS0qQVU4PEookjss",
    "infected": 1172,
    "recovered": 0,
    "latitude": 30.9843,
    "pop": 4660000,
    "sick": 1137
  },
  {
    "longitude": -69.9683,
    "name": "Aruba",
    "country": "AW",
    "lastUpdated": "2020-03-24T12:43:03.121Z",
    "dead": 0,
    "id": "rKbrli0DkAmp1UpbrqHQ",
    "infected": 12,
    "recovered": 1,
    "latitude": 12.5211,
    "pop": 105264,
    "sick": 11
  },
  {
    "longitude": 108.277199,
    "name": "Vietnam",
    "country": "VN",
    "lastUpdated": "2020-03-24T12:43:02.871Z",
    "dead": 0,
    "id": "rKnSEyG03ak4YmGzonlg",
    "infected": 123,
    "recovered": 17,
    "latitude": 14.058324,
    "pop": 95540000,
    "sick": 106
  },
  {
    "latitude": 1.6508009,
    "pop": 1268000,
    "longitude": 10.2678947,
    "name": "Equatorial Guinea",
    "country": "GQ",
    "lastUpdated": "2020-03-24T12:43:03.085Z",
    "dead": 0,
    "id": "rS04qvFoAknfeZsL2w5f",
    "infected": 9,
    "recovered": 0,
    "sick": 9
  },
  {
    "longitude": 45.1662,
    "name": "Mayotte",
    "country": "FR",
    "lastUpdated": "2020-03-24T12:34:14.650Z",
    "dead": 0,
    "id": "rUQ6Z3pmWTPVlqEUSmN7",
    "infected": 24,
    "recovered": 0,
    "latitude": -12.8275,
    "pop": 270372,
    "sick": 24
  },
  {
    "infected": 1249,
    "recovered": 1221,
    "latitude": 29.159849,
    "pop": 57370000,
    "longitude": 120.326447,
    "name": "Zhejiang",
    "country": "CN",
    "lastUpdated": "2020-03-24T07:32:35.257Z",
    "dead": 1,
    "id": "rgBVJ4hPofqjjchnroiY",
    "sick": 27
  },
  {
    "recovered": 6,
    "latitude": 60.472023,
    "pop": 5368000,
    "longitude": 8.468946,
    "name": "Norway",
    "country": "NO",
    "lastUpdated": "2020-03-24T12:43:02.817Z",
    "dead": 12,
    "id": "rxSafpWsyKhfkV0HTtb4",
    "infected": 2715,
    "sick": 2697
  },
  {
    "recovered": 0,
    "latitude": 53.9333,
    "pop": 4371000,
    "longitude": -116.5765,
    "name": "Alberta",
    "country": "CA",
    "lastUpdated": "2020-03-24T12:39:01.483Z",
    "dead": 1,
    "id": "sBFMOzZJdrdXdyLZpweO",
    "infected": 301,
    "sick": 300
  },
  {
    "latitude": 19.566395,
    "pop": 9258000,
    "longitude": 109.949684,
    "name": "Hainan",
    "country": "CN",
    "lastUpdated": "2020-03-24T07:32:59.817Z",
    "dead": 6,
    "id": "sKNhMvgXeyivpNFg02RA",
    "infected": 168,
    "recovered": 161,
    "sick": 1
  },
  {
    "longitude": -75.630295,
    "name": "Peru",
    "country": "PE",
    "lastUpdated": "2020-03-24T12:43:02.810Z",
    "dead": 5,
    "id": "sLL1jETcJYjT6g5bfcEG",
    "infected": 395,
    "recovered": 1,
    "latitude": -10.33755,
    "pop": 32170000,
    "sick": 389
  },
  {
    "infected": 319,
    "recovered": 310,
    "latitude": 37.89566,
    "pop": 74700000,
    "longitude": 114.904221,
    "name": "Hebei",
    "country": "CN",
    "lastUpdated": "2020-03-24T07:33:42.185Z",
    "dead": 6,
    "id": "sgsBhTwHxF1VVnqXbXXp",
    "sick": 3
  },
  {
    "infected": 67,
    "recovered": 9,
    "latitude": 42.3154,
    "pop": 3717000,
    "longitude": 43.3569,
    "name": "Georgia",
    "country": "GE",
    "lastUpdated": "2020-03-24T12:43:02.863Z",
    "dead": 0,
    "id": "sjW9OwjFqrOvjVHRXWoR",
    "sick": 58
  },
  {
    "longitude": -58.4438,
    "name": "Paraguay",
    "country": "PY",
    "lastUpdated": "2020-03-24T12:43:03.153Z",
    "dead": 2,
    "id": "t2fq7L9UcXfhuXfQNVRj",
    "infected": 27,
    "recovered": 0,
    "latitude": -23.4425,
    "pop": 6811000,
    "sick": 25
  },
  {
    "lastUpdated": "2020-03-24T12:39:01.493Z",
    "dead": 1,
    "id": "tSmr8vNsiDhhpXMSBsms",
    "infected": 257,
    "recovered": 0,
    "latitude": 39.147061,
    "pop": 3161000,
    "longitude": -111.596466,
    "name": "Utah",
    "country": "US",
    "sick": 256
  },
  {
    "infected": 1018,
    "recovered": 1014,
    "latitude": 27.3818,
    "pop": 67370000,
    "longitude": 111.510681,
    "name": "Hunan",
    "country": "CN",
    "lastUpdated": "2020-03-24T07:31:36.378Z",
    "dead": 4,
    "id": "tdNRDDrgvBQqqwzdFGh4",
    "sick": 0
  },
  {
    "recovered": 144,
    "latitude": 26.842964,
    "pop": 34750000,
    "longitude": 107.290283,
    "name": "Guizhou",
    "country": "CN",
    "lastUpdated": "2020-03-24T07:34:34.929Z",
    "dead": 2,
    "id": "tyY4QSHWG9sXqSO9jm0Y",
    "infected": 146,
    "sick": 0
  },
  {
    "id": "uZg9Xtu4zR5tp12TMpOQ",
    "infected": 36,
    "recovered": 0,
    "latitude": -20.2067,
    "pop": 1265000,
    "longitude": 57.6755,
    "name": "Mauritius",
    "country": "MU",
    "lastUpdated": "2020-03-24T12:43:03.045Z",
    "dead": 2,
    "sick": 34
  },
  {
    "latitude": 29.0588,
    "pop": 25350000,
    "longitude": 76.0856,
    "name": "Haryana",
    "country": "IN",
    "lastUpdated": "2020-03-24T12:41:02.261Z",
    "dead": 0,
    "id": "ubUuY89n0cXVgahI4Ytp",
    "infected": 28,
    "recovered": 11,
    "sick": 17
  },
  {
    "longitude": 119.151932,
    "name": "Jiangsu",
    "country": "CN",
    "lastUpdated": "2020-03-24T07:34:06.914Z",
    "dead": 0,
    "id": "uvxN28EpGmRq3K9REtBP",
    "infected": 636,
    "recovered": 631,
    "latitude": 32.93708,
    "pop": 80400000,
    "sick": 5
  },
  {
    "infected": 333,
    "recovered": 0,
    "latitude": 51.9503,
    "pop": 2277000,
    "longitude": 11.6923,
    "name": "Sachsen-Anhalt",
    "country": "DE",
    "lastUpdated": "2020-03-24T12:42:02.692Z",
    "dead": 1,
    "id": "uxAceZxiizwmo60pyyGn",
    "sick": 332
  },
  {
    "latitude": 33.7782,
    "pop": 12550000,
    "longitude": 76.5762,
    "name": "Jammu and Kashmir",
    "country": "IN",
    "lastUpdated": "2020-03-24T12:41:02.277Z",
    "dead": 0,
    "id": "v5wfBhxjYTpTMaKko6AW",
    "infected": 4,
    "recovered": 0,
    "sick": 4
  },
  {
    "longitude": 30.802498,
    "name": "Egypt",
    "country": "EG",
    "lastUpdated": "2020-03-24T12:43:02.893Z",
    "dead": 19,
    "id": "v8JcH4FHH7BDpJlNNHjv",
    "infected": 366,
    "recovered": 68,
    "latitude": 26.820553,
    "pop": 97550000,
    "sick": 279
  },
  {
    "infected": 2221,
    "recovered": 0,
    "latitude": 47.288374,
    "pop": 7536000,
    "longitude": -119.928431,
    "name": "Washington",
    "country": "US",
    "lastUpdated": "2020-03-24T12:39:01.412Z",
    "dead": 111,
    "id": "vCUVQn7RK8pkw5y2rvYN",
    "sick": 2110
  },
  {
    "id": "vMGALmMJbagxGIbLyFfS",
    "infected": 21,
    "recovered": 2,
    "latitude": 18.1096,
    "pop": 2890000,
    "longitude": -77.2975,
    "name": "Jamaica",
    "country": "JM",
    "lastUpdated": "2020-03-24T12:43:03.171Z",
    "dead": 1,
    "sick": 18
  },
  {
    "infected": 196,
    "recovered": 0,
    "latitude": 32.3182,
    "pop": 4888000,
    "longitude": -86.9023,
    "name": "Alabama",
    "country": "US",
    "lastUpdated": "2020-03-24T12:39:01.565Z",
    "dead": 0,
    "id": "vSMJR4m49MZM15umlC9B",
    "sick": 196
  },
  {
    "infected": 6211,
    "recovered": 5,
    "latitude": 48.8499,
    "pop": 12210000,
    "longitude": 2.637,
    "name": "Ile-de-France",
    "country": "FR",
    "lastUpdated": "2020-03-24T12:34:14.640Z",
    "dead": 11,
    "id": "vSwFXxTSLgzsG25zOJUy",
    "sick": 6195
  },
  {
    "latitude": 46.5107,
    "pop": 156947,
    "longitude": -63.4168,
    "name": "Prince Edward Island",
    "country": "CA",
    "lastUpdated": "2020-03-24T12:39:01.635Z",
    "dead": 0,
    "id": "vjK6292ALJl5wq8XHw3P",
    "infected": 3,
    "recovered": 0,
    "sick": 3
  },
  {
    "id": "vkkXVaqUswO5JsMZx0mX",
    "infected": 24811,
    "recovered": 8913,
    "latitude": 32.42791,
    "pop": 81160000,
    "longitude": 53.688046,
    "name": "Iran",
    "country": "IR",
    "lastUpdated": "2020-03-24T12:43:02.896Z",
    "dead": 1934,
    "sick": 13964
  },
  {
    "recovered": 0,
    "latitude": 53.7609,
    "pop": 1369000,
    "longitude": -98.8139,
    "name": "Manitoba",
    "country": "CA",
    "lastUpdated": "2020-03-24T12:39:01.592Z",
    "dead": 0,
    "id": "wCnlOr8oX3DlF0otQrFc",
    "infected": 20,
    "sick": 20
  },
  {
    "infected": 301,
    "recovered": 51,
    "latitude": -34.6037,
    "pop": 44270000,
    "longitude": -58.3816,
    "name": "Argentina",
    "country": "AR",
    "lastUpdated": "2020-03-24T12:43:02.815Z",
    "dead": 4,
    "id": "wEl0cjiA6OcZiI9kaSsF",
    "sick": 246
  },
  {
    "lastUpdated": "2020-03-24T12:39:01.506Z",
    "dead": 15,
    "id": "wgRwpPMGBaKLAl1xo1C7",
    "infected": 1329,
    "recovered": 0,
    "latitude": 44.3148,
    "pop": 9996000,
    "longitude": -85.6024,
    "name": "Michigan",
    "country": "US",
    "sick": 1314
  },
  {
    "lastUpdated": "2020-03-24T12:39:01.489Z",
    "dead": 0,
    "id": "wi47s9vKxiMqxfgurj3B",
    "infected": 77,
    "recovered": 0,
    "latitude": 21.287261,
    "pop": 1420000,
    "longitude": -157.838954,
    "name": "Hawaii",
    "country": "US",
    "sick": 77
  },
  {
    "longitude": 35.918113,
    "name": "Lebanon",
    "country": "LB",
    "lastUpdated": "2020-03-24T12:43:02.864Z",
    "dead": 4,
    "id": "xFgM48q8JxVPfvQLQDNb",
    "infected": 304,
    "recovered": 8,
    "latitude": 34.08267,
    "pop": 6082000,
    "sick": 292
  },
  {
    "infected": 42,
    "recovered": 2,
    "latitude": 9.081999,
    "pop": 190900000,
    "longitude": 8.675277,
    "name": "Nigeria",
    "country": "NG",
    "lastUpdated": "2020-03-24T12:43:02.953Z",
    "dead": 1,
    "id": "xHWPTTpNHEwWv6MqfxP5",
    "sick": 39
  },
  {
    "lastUpdated": "2020-03-24T12:39:01.655Z",
    "dead": 0,
    "id": "xQpNodSQfHNHAtG9Onnj",
    "infected": 33,
    "recovered": 0,
    "latitude": 47.5515,
    "pop": 760077,
    "longitude": -101.002,
    "name": "North Dakota",
    "country": "US",
    "sick": 33
  },
  {
    "infected": 425,
    "recovered": 0,
    "latitude": 44.5,
    "pop": 5814000,
    "longitude": -89.5,
    "name": "Wisconsin",
    "country": "US",
    "lastUpdated": "2020-03-24T12:39:01.432Z",
    "dead": 5,
    "id": "xSHgaJlyPxHFWB6hhyng",
    "sick": 420
  },
  {
    "latitude": 9.145,
    "pop": 105000000,
    "longitude": 40.4897,
    "name": "Ethiopia",
    "country": "ET",
    "lastUpdated": "2020-03-24T12:43:03.103Z",
    "dead": 0,
    "id": "xY69Nr3VSiZCwD2Qp0SD",
    "infected": 12,
    "recovered": 0,
    "sick": 12
  },
  {
    "latitude": -18.7669468,
    "pop": 25570000,
    "longitude": 46.8691063,
    "name": "Madagascar",
    "country": "MG",
    "lastUpdated": "2020-03-24T12:43:03.187Z",
    "dead": 0,
    "id": "xsmRrvV8VRC9SyYWK6ig",
    "infected": 17,
    "recovered": 0,
    "sick": 17
  },
  {
    "id": "xtX46kxBlEapOMdD1Emh",
    "infected": 4,
    "recovered": 0,
    "latitude": -22.95763,
    "pop": 2534000,
    "longitude": 18.4904,
    "name": "Namibia",
    "country": "NA",
    "lastUpdated": "2020-03-24T12:43:03.130Z",
    "dead": 0,
    "sick": 4
  },
  {
    "recovered": 26,
    "latitude": 53.0793,
    "pop": 547976,
    "longitude": 8.8017,
    "name": "Bremen",
    "country": "DE",
    "lastUpdated": "2020-03-24T12:42:02.788Z",
    "dead": 0,
    "id": "y0d3PQgXJXdKsxweTIWv",
    "infected": 183,
    "sick": 157
  },
  {
    "latitude": -17.6797,
    "pop": 283007,
    "longitude": -149.4068,
    "name": "Polynésie française",
    "country": "PF",
    "lastUpdated": "2020-03-24T12:43:03.192Z",
    "dead": 0,
    "id": "yOfFKDRrscqcZ85WMRqF",
    "infected": 23,
    "recovered": 0,
    "sick": 23
  },
  {
    "latitude": 12.1696,
    "pop": 161014,
    "longitude": -68.99,
    "name": "Curaçao",
    "country": "CW",
    "lastUpdated": "2020-03-24T12:43:03.181Z",
    "dead": 1,
    "id": "z0KDu61I2qPILneW2Lih",
    "infected": 4,
    "recovered": 0,
    "sick": 3
  },
  {
    "recovered": 0,
    "latitude": 46.5653,
    "pop": 37590000,
    "longitude": -66.4619,
    "name": "New Brunswick",
    "country": "CA",
    "lastUpdated": "2020-03-24T12:39:01.657Z",
    "dead": 0,
    "id": "z1Vx0y33oMGoeJSuS8Ui",
    "infected": 17,
    "sick": 17
  },
  {
    "lastUpdated": "2020-03-24T12:43:02.877Z",
    "dead": 18,
    "id": "zC03Urt1iJJb2Tf6p0jd",
    "infected": 981,
    "recovered": 3,
    "latitude": -1.831239,
    "pop": 16620000,
    "longitude": -78.183403,
    "name": "Ecuador",
    "country": "EC",
    "sick": 960
  },
  {
    "infected": 827,
    "recovered": 52,
    "latitude": 15.870032,
    "pop": 69040000,
    "longitude": 100.992538,
    "name": "Thailand",
    "country": "TH",
    "lastUpdated": "2020-03-24T12:43:02.745Z",
    "dead": 4,
    "id": "zvdC0u72Bk5YKNaazZFZ",
    "sick": 771
  },
  {
    "lastUpdated": "2020-03-24T12:43:02.844Z",
    "dead": 3,
    "id": "zyxFwuiyCJHhRyNEg60C",
    "infected": 249,
    "recovered": 3,
    "latitude": 44.0165,
    "pop": 7022000,
    "longitude": 21.0059,
    "name": "Serbia",
    "country": "RS",
    "sick": 243
  }
]