[
  {
    "id": "01b09TY4vmuZwzVuiRFK",
    "infected": 5,
    "recovered": 1,
    "latitude": 12.5847,
    "pop": 72600,
    "longitude": -81.7006,
    "name": "San Andrés",
    "country": "CO",
    "lastUpdated": "2020-04-13T11:26:09.134Z",
    "dead": 0,
    "sick": 4,
    "invisible": false
  },
  {
    "latitude": 49.4482,
    "pop": 67052,
    "longitude": -2.5895,
    "name": "Guernsey",
    "country": "GG",
    "lastUpdated": "2020-04-13T11:58:09.996Z",
    "dead": 6,
    "id": "0FOJefeLxQYXQ1CnJm9o",
    "infected": 218,
    "recovered": 48,
    "sick": 164,
    "invisible": false
  },
  {
    "latitude": 41.066666,
    "pop": 5827000,
    "longitude": 14.333333,
    "name": "Campania",
    "country": "IT",
    "lastUpdated": "2020-04-13T11:39:01.852Z",
    "dead": 242,
    "id": "0GJcws44NSPsDHAuxJhW",
    "infected": 3604,
    "recovered": 305,
    "sick": 3057,
    "invisible": false
  },
  {
    "lastUpdated": "2020-04-13T11:37:13.736Z",
    "dead": 0,
    "id": "0HDQbiHe462xMCUV5HiI",
    "infected": 46,
    "recovered": 0,
    "latitude": -20.2167,
    "pop": 383870,
    "longitude": -70.14222,
    "name": "Tarapacá",
    "country": "CL",
    "sick": 46,
    "invisible": false
  },
  {
    "recovered": 13,
    "latitude": 20.9517,
    "pop": 45990000,
    "longitude": 85.0985,
    "name": "Odisha",
    "country": "IN",
    "lastUpdated": "2020-04-13T11:41:01.879Z",
    "dead": 1,
    "id": "0VG7S6aaK4eSo59fL9JO",
    "infected": 54,
    "sick": 40,
    "invisible": false
  },
  {
    "longitude": -98.8582,
    "name": "Hidalgo",
    "country": "MX",
    "lastUpdated": "2020-04-13T11:40:06.954Z",
    "dead": 9,
    "id": "0XmCRqiK2ZaehoEJvfer",
    "infected": 58,
    "recovered": 0,
    "latitude": 20.4737,
    "pop": 2990300,
    "sick": 49,
    "invisible": false
  },
  {
    "infected": 11,
    "recovered": 10,
    "latitude": 11.7401,
    "pop": 427246,
    "longitude": 92.6586,
    "name": "Andaman and Nicobar Islands",
    "country": "IN",
    "lastUpdated": "2020-04-13T11:41:01.880Z",
    "dead": 0,
    "id": "0jStOpTUNRaQYJqgmRoK",
    "sick": 1,
    "invisible": false
  },
  {
    "recovered": 334,
    "latitude": 25.315058,
    "pop": 2639000,
    "longitude": 51.145517,
    "name": "Qatar",
    "country": "QA",
    "lastUpdated": "2020-04-13T11:51:02.487Z",
    "dead": 7,
    "id": "0m4aECS0Z2DGFEr8ldgI",
    "infected": 3231,
    "sick": 2890,
    "invisible": false
  },
  {
    "infected": 152,
    "recovered": 29,
    "latitude": 22.9868,
    "pop": 90320000,
    "longitude": 87.855,
    "name": "West Bengal",
    "country": "IN",
    "lastUpdated": "2020-04-13T11:41:01.878Z",
    "dead": 7,
    "id": "0n54EMSDJcRoT1QEvw80",
    "sick": 116,
    "invisible": false
  },
  {
    "longitude": 78.6569,
    "name": "Madhya Pradesh",
    "country": "IN",
    "lastUpdated": "2020-04-13T11:41:01.876Z",
    "dead": 44,
    "id": "0s18o5DrDAHjbu5MFcrj",
    "infected": 562,
    "recovered": 41,
    "latitude": 22.9734,
    "pop": 73340000,
    "sick": 477,
    "invisible": false
  },
  {
    "longitude": -95.7129,
    "name": "Unknown US state",
    "country": "US",
    "lastUpdated": "2020-04-13T11:51:02.483Z",
    "dead": 0,
    "id": "0tFoopNTs6e4tOoaltu2",
    "invisible": true,
    "infected": 0,
    "recovered": 32634,
    "latitude": 37.0902,
    "sick": 0
  },
  {
    "latitude": 35.64249,
    "pop": 37330000,
    "longitude": 108.472214,
    "name": "Shaanxi",
    "country": "CN",
    "lastUpdated": "2020-04-13T11:23:10.058Z",
    "dead": 3,
    "id": "0x2HLhr5z5xAtEdO4iZm",
    "infected": 256,
    "recovered": 248,
    "sick": 5,
    "invisible": false
  },
  {
    "infected": 854,
    "recovered": 44,
    "latitude": 41.643351,
    "pop": 2077000,
    "longitude": 21.668393,
    "name": "North Macedonia",
    "country": "MK",
    "lastUpdated": "2020-04-13T11:51:02.492Z",
    "dead": 38,
    "id": "19MvIhipqTyYv1H37Upw",
    "sick": 772,
    "invisible": false
  },
  {
    "infected": 242,
    "recovered": 0,
    "latitude": 53.1355,
    "pop": 521542,
    "longitude": -57.6604,
    "name": "Newfoundland and Labrador",
    "country": "CA",
    "lastUpdated": "2020-04-13T11:36:01.512Z",
    "dead": 3,
    "id": "1DOMOmCWDtva46OVSZLv",
    "sick": 239,
    "invisible": false
  },
  {
    "lastUpdated": "2020-04-13T11:23:10.060Z",
    "dead": 0,
    "id": "1Fap7rZu9SIRqf5TG9Dg",
    "infected": 18,
    "recovered": 18,
    "latitude": 35.801933,
    "pop": 5627000,
    "longitude": 96.779286,
    "name": "Qinghai",
    "country": "CN",
    "sick": 0,
    "invisible": false
  },
  {
    "latitude": 23.6345,
    "pop": 126200000,
    "longitude": -102.5528,
    "name": "Unknown Mexico state",
    "country": "MX",
    "lastUpdated": "2020-04-13T11:51:02.487Z",
    "dead": 0,
    "id": "1YXQMlVL3fUeDZmcVfJw",
    "invisible": true,
    "infected": 0,
    "recovered": 1843,
    "sick": 0
  },
  {
    "lastUpdated": "2020-04-13T11:39:01.853Z",
    "dead": 1729,
    "id": "1eTSQyfp8RoDPeFrIwun",
    "infected": 16660,
    "recovered": 2426,
    "latitude": 44.9,
    "pop": 4376000,
    "longitude": 8.206944,
    "name": "Piemonte",
    "country": "IT",
    "sick": 12505,
    "invisible": false
  },
  {
    "latitude": -14.235004,
    "pop": 209300000,
    "longitude": -51.925282,
    "name": "Brazil",
    "country": "BR",
    "lastUpdated": "2020-04-13T11:51:02.484Z",
    "dead": 1230,
    "id": "1f0YoV0vAcexEhpESyZc",
    "infected": 22318,
    "recovered": 173,
    "sick": 20915,
    "invisible": false
  },
  {
    "longitude": 28.3699,
    "name": "Moldova",
    "country": "MD",
    "lastUpdated": "2020-04-13T11:51:02.490Z",
    "dead": 35,
    "id": "1qTPB8X3tyLyIdsb5TN3",
    "infected": 1662,
    "recovered": 107,
    "latitude": 47.4116,
    "pop": 3550000,
    "sick": 1520,
    "invisible": false
  },
  {
    "latitude": 30.15336,
    "pop": 3180000,
    "longitude": 88.787865,
    "name": "Tibet",
    "country": "CN",
    "lastUpdated": "2020-04-13T11:23:10.060Z",
    "dead": 0,
    "id": "25qIBtsW2nfQj3pwBKg9",
    "infected": 1,
    "recovered": 1,
    "sick": 0,
    "invisible": false
  },
  {
    "recovered": 380,
    "latitude": -1.572184,
    "pop": 264000000,
    "longitude": 115.66779,
    "name": "Indonesia",
    "country": "ID",
    "lastUpdated": "2020-04-13T11:51:02.487Z",
    "dead": 399,
    "id": "2KHYUb5t3lwzVVmDjwNX",
    "infected": 4557,
    "sick": 3778,
    "invisible": false
  },
  {
    "infected": 1527,
    "recovered": 0,
    "latitude": 43.807191,
    "pop": 4191000,
    "longitude": -120.585594,
    "name": "Oregon",
    "country": "US",
    "lastUpdated": "2020-04-13T11:57:16.523Z",
    "dead": 52,
    "id": "2OrsssmGUs4XCzaZzvTv",
    "sick": 1475,
    "invisible": false
  },
  {
    "longitude": -70.400002,
    "name": "Antofagasta",
    "country": "CL",
    "lastUpdated": "2020-04-13T11:37:13.737Z",
    "dead": 1,
    "id": "2c5HBZ1ffkCVXnMYUWnY",
    "infected": 138,
    "recovered": 0,
    "latitude": -23.65,
    "pop": 425000,
    "sick": 137,
    "invisible": false
  },
  {
    "lastUpdated": "2020-04-13T11:23:10.058Z",
    "dead": 1,
    "id": "2jxHvSsxdnom0nPNvOT8",
    "infected": 100,
    "recovered": 96,
    "latitude": 43.851921,
    "pop": 27460000,
    "longitude": 126.548103,
    "name": "Jilin",
    "country": "CN",
    "sick": 3,
    "invisible": false
  },
  {
    "latitude": 36.1408,
    "pop": 34571,
    "longitude": -5.3536,
    "name": "Gibraltar",
    "country": "GI",
    "lastUpdated": "2020-04-13T11:51:02.498Z",
    "dead": 0,
    "id": "2p11BjSAs3wVyymgqBOe",
    "infected": 129,
    "recovered": 84,
    "sick": 45,
    "invisible": false
  },
  {
    "recovered": 581,
    "latitude": 47.7516,
    "pop": 2567000,
    "longitude": 1.6751,
    "name": "Centre-Val de Loire",
    "country": "FR",
    "lastUpdated": "2020-04-13T10:28:13.428Z",
    "dead": 201,
    "id": "2sLNkkHpyaHx7dD3aMDO",
    "infected": 2403,
    "sick": 1621,
    "invisible": false
  },
  {
    "id": "319tiZOMczx1y0DfvOib",
    "infected": 1319,
    "recovered": 580,
    "latitude": 42.565044,
    "pop": 884640,
    "longitude": 12.643751,
    "name": "Umbria",
    "country": "IT",
    "lastUpdated": "2020-04-13T11:39:01.854Z",
    "dead": 52,
    "sick": 687,
    "invisible": false
  },
  {
    "id": "38T96Q3XNjt5FSJygPed",
    "infected": 19,
    "recovered": 4,
    "latitude": 2.43823,
    "pop": 1355000,
    "longitude": -76.6131592,
    "name": "Cauca",
    "country": "CO",
    "lastUpdated": "2020-04-13T11:26:09.134Z",
    "dead": 2,
    "sick": 13,
    "invisible": false
  },
  {
    "longitude": 27.849332,
    "name": "Zambia",
    "country": "ZM",
    "lastUpdated": "2020-04-13T11:51:02.501Z",
    "dead": 2,
    "id": "3IlPjAbP5qVMn1nlgLTJ",
    "infected": 43,
    "recovered": 30,
    "latitude": -13.133896,
    "pop": 17090000,
    "sick": 11,
    "invisible": false
  },
  {
    "recovered": 5,
    "latitude": 42.7044,
    "pop": 631219,
    "longitude": 19.3958,
    "name": "Montenegro",
    "country": "ME",
    "lastUpdated": "2020-04-13T11:51:02.496Z",
    "dead": 3,
    "id": "3LstMSN5XMYBkxbe5HN7",
    "infected": 273,
    "sick": 265,
    "invisible": false
  },
  {
    "latitude": -35.4735,
    "pop": 418440,
    "longitude": 149.0124,
    "name": "Australian Capital Territory",
    "country": "AU",
    "lastUpdated": "2020-04-13T11:36:01.512Z",
    "dead": 2,
    "id": "3OZoQsKrzxZ18EKyfGE6",
    "infected": 103,
    "recovered": 59,
    "sick": 42,
    "invisible": false
  },
  {
    "recovered": 0,
    "latitude": 26.2006,
    "pop": 30940000,
    "longitude": 92.9376,
    "name": "Assam",
    "country": "IN",
    "lastUpdated": "2020-04-13T11:41:01.879Z",
    "dead": 1,
    "id": "3cCbnJCsK7mKlTO08K1o",
    "infected": 30,
    "sick": 29,
    "invisible": false
  },
  {
    "longitude": -82.9071,
    "name": "Ohio",
    "country": "US",
    "lastUpdated": "2020-04-13T11:57:16.520Z",
    "dead": 253,
    "id": "3fC3bAyIRUquOQOEnQNe",
    "infected": 6604,
    "recovered": 0,
    "latitude": 40.4173,
    "pop": 11690000,
    "sick": 6351,
    "invisible": false
  },
  {
    "longitude": -107.5,
    "name": "Sinaloa",
    "country": "MX",
    "lastUpdated": "2020-04-13T11:40:06.952Z",
    "dead": 26,
    "id": "3kFCzJguabtBvXaHxgiu",
    "infected": 236,
    "recovered": 0,
    "latitude": 25,
    "pop": 3066400,
    "sick": 210,
    "invisible": false
  },
  {
    "id": "3mC2LveOpXV8P1PmQGUj",
    "infected": 482,
    "recovered": 29,
    "latitude": 3.420556,
    "pop": 4708300,
    "longitude": -76.522224,
    "name": "Valle del Cauca",
    "country": "CO",
    "lastUpdated": "2020-04-13T11:26:09.132Z",
    "dead": 13,
    "sick": 440,
    "invisible": false
  },
  {
    "latitude": 21.0079,
    "pop": 4420000,
    "longitude": -10.9408,
    "name": "Mauritania",
    "country": "MR",
    "lastUpdated": "2020-04-13T11:51:02.505Z",
    "dead": 1,
    "id": "4NnFMekRK2m14IlnZZoj",
    "infected": 7,
    "recovered": 2,
    "sick": 4,
    "invisible": false
  },
  {
    "infected": 1445,
    "recovered": 0,
    "latitude": 53.7267,
    "pop": 5071000,
    "longitude": -127.6476,
    "name": "British Columbia",
    "country": "CA",
    "lastUpdated": "2020-04-13T11:36:01.505Z",
    "dead": 58,
    "id": "4hfZRUoUgI4a3vrG0GBk",
    "sick": 1387,
    "invisible": false
  },
  {
    "infected": 16934,
    "recovered": 277,
    "latitude": 41.065877,
    "pop": 10290000,
    "longitude": -7.920053,
    "name": "Portugal",
    "country": "PT",
    "lastUpdated": "2020-04-13T11:51:02.484Z",
    "dead": 535,
    "id": "4rQLxUCMmQLpbi6E9tbH",
    "sick": 16122,
    "invisible": false
  },
  {
    "id": "4zqzRm2xHn0CDVOUQJ8p",
    "infected": 1098,
    "recovered": 250,
    "latitude": 40.3426,
    "pop": 9898000,
    "longitude": 47.93802,
    "name": "Azerbaijan",
    "country": "AZ",
    "lastUpdated": "2020-04-13T11:51:02.491Z",
    "dead": 11,
    "sick": 837,
    "invisible": false
  },
  {
    "recovered": 0,
    "latitude": 22.233105,
    "pop": 3672300,
    "longitude": -97.861099,
    "name": "Tamaulipas",
    "country": "MX",
    "lastUpdated": "2020-04-13T11:40:06.954Z",
    "dead": 3,
    "id": "54cfsdsRF76XVHWtZs19",
    "infected": 74,
    "sick": 71,
    "invisible": false
  },
  {
    "id": "57ydD48mLRD2YoyteJZj",
    "infected": 17734,
    "recovered": 3838,
    "latitude": 51.0109,
    "pop": 6596000,
    "longitude": 3.7265,
    "name": "Flanders",
    "country": "BE",
    "lastUpdated": "2020-04-13T11:36:10.287Z",
    "dead": 1904,
    "sick": 11992,
    "invisible": false
  },
  {
    "latitude": 25.025885,
    "pop": 395361,
    "longitude": -78.035889,
    "name": "Bahamas",
    "country": "BS",
    "lastUpdated": "2020-04-13T11:51:02.500Z",
    "dead": 8,
    "id": "5MHegCUO9L3LiAU7DDey",
    "infected": 47,
    "recovered": 6,
    "sick": 33,
    "invisible": false
  },
  {
    "longitude": 146.921097,
    "name": "New South Wales",
    "country": "AU",
    "lastUpdated": "2020-04-13T11:36:01.505Z",
    "dead": 25,
    "id": "5N16a2OXXRpsEFanw0TC",
    "infected": 2863,
    "recovered": 4,
    "latitude": -31.253218,
    "pop": 7544000,
    "sick": 2834,
    "invisible": false
  },
  {
    "infected": 4,
    "recovered": 0,
    "latitude": 6.8769908,
    "pop": 12580000,
    "longitude": 31.3069782,
    "name": "South Sudan",
    "country": "SS",
    "lastUpdated": "2020-04-13T11:51:02.506Z",
    "dead": 0,
    "id": "5N4PRxsCDzzwk7R200V1",
    "sick": 4,
    "invisible": false
  },
  {
    "lastUpdated": "2020-04-13T11:41:04.412Z",
    "dead": 876,
    "id": "5Va9A7CXR8AXdUz4HTJj",
    "infected": 9060,
    "recovered": 2803,
    "latitude": 39.484,
    "pop": 4975000,
    "longitude": -0.7533,
    "name": "C. Valenciana",
    "country": "ES",
    "sick": 5381,
    "invisible": false
  },
  {
    "id": "5fg04eyDwFw3kEXnrxez",
    "infected": 18,
    "recovered": 1,
    "latitude": -20.9043045,
    "pop": 280460,
    "longitude": 165.618042,
    "name": "New Caledonia",
    "country": "NC",
    "lastUpdated": "2020-04-13T11:51:02.503Z",
    "dead": 0,
    "sick": 17,
    "invisible": false
  },
  {
    "id": "5gXZIjRgAvd6xWN1LOv8",
    "infected": 14,
    "recovered": 1,
    "latitude": 28.394857,
    "pop": 29300000,
    "longitude": 84.124008,
    "name": "Nepal",
    "country": "NP",
    "lastUpdated": "2020-04-13T11:51:02.504Z",
    "dead": 0,
    "sick": 13,
    "invisible": false
  },
  {
    "infected": 4932,
    "recovered": 242,
    "latitude": 12.879721,
    "pop": 104900000,
    "longitude": 121.774017,
    "name": "Philippines",
    "country": "PH",
    "lastUpdated": "2020-04-13T11:51:02.486Z",
    "dead": 315,
    "id": "5pwmh7aSdGRKqRbnuyc0",
    "sick": 4375,
    "invisible": false
  },
  {
    "latitude": -17.824858,
    "pop": 14802190,
    "longitude": 31.053028,
    "name": "Zimbabwe",
    "country": "ZW",
    "lastUpdated": "2020-04-13T11:51:02.504Z",
    "dead": 3,
    "id": "5qtR9nx4BLwu1ODTniaY",
    "infected": 14,
    "recovered": 0,
    "sick": 11,
    "invisible": false
  },
  {
    "infected": 1328,
    "recovered": 0,
    "latitude": 19.432241,
    "pop": 8781300,
    "longitude": -99.177254,
    "name": "Ciudad de México",
    "country": "MX",
    "lastUpdated": "2020-04-13T11:40:06.953Z",
    "dead": 56,
    "id": "61E7TGjUwAo9xu6Y6gAH",
    "sick": 1272,
    "invisible": false
  },
  {
    "latitude": 55.621011,
    "pop": 2794000,
    "longitude": 23.804991,
    "name": "Lithuania",
    "country": "LT",
    "lastUpdated": "2020-04-13T11:51:02.491Z",
    "dead": 24,
    "id": "694ON7d0mRJDeM1gHBTR",
    "infected": 1062,
    "recovered": 101,
    "sick": 937,
    "invisible": false
  },
  {
    "latitude": 51.1781,
    "pop": 9175000,
    "longitude": -0.5596,
    "name": "South East",
    "country": "GB",
    "lastUpdated": "2020-04-13T11:30:01.662Z",
    "dead": 0,
    "id": "6IQAsvrmBv0HPdeTnh4x",
    "infected": 8244,
    "recovered": 0,
    "sick": 8244,
    "invisible": false
  },
  {
    "id": "6IcHIIH0zXpY0POmBZTv",
    "infected": 1010,
    "recovered": 397,
    "latitude": 22.396427,
    "pop": 7392000,
    "longitude": 114.109497,
    "name": "Hong Kong",
    "country": "HK",
    "lastUpdated": "2020-04-13T11:51:02.491Z",
    "dead": 4,
    "sick": 609,
    "invisible": false
  },
  {
    "infected": 35,
    "recovered": 5,
    "latitude": 9.3077,
    "pop": 11180000,
    "longitude": 2.3158,
    "name": "Benin",
    "country": "BJ",
    "lastUpdated": "2020-04-13T11:51:02.501Z",
    "dead": 1,
    "id": "6SlpghTyB6lpMFvx3g9U",
    "sick": 29,
    "invisible": false
  },
  {
    "id": "6ZHcvMIzVWIaRnc4R3Qp",
    "infected": 59052,
    "recovered": 17166,
    "latitude": 45.6667,
    "pop": 10040000,
    "longitude": 9.5,
    "name": "Lombardia",
    "country": "IT",
    "lastUpdated": "2020-04-13T11:39:01.853Z",
    "dead": 10621,
    "sick": 31265,
    "invisible": false
  },
  {
    "latitude": 46.0569,
    "pop": 2067000,
    "longitude": 14.5058,
    "name": "Slovenia",
    "country": "SI",
    "lastUpdated": "2020-04-13T11:51:02.490Z",
    "dead": 55,
    "id": "6ahNiyKDSDAftCctgLH3",
    "infected": 1212,
    "recovered": 152,
    "sick": 1005,
    "invisible": false
  },
  {
    "infected": 13,
    "recovered": 0,
    "latitude": -23.369543,
    "pop": 300000,
    "longitude": -69.859741,
    "name": "Atacama",
    "country": "CL",
    "lastUpdated": "2020-04-13T11:37:13.737Z",
    "dead": 0,
    "id": "6nyns7UGGgkU7pxrHf8i",
    "sick": 13,
    "invisible": false
  },
  {
    "id": "6pBi38TUgYfFm0bry2uh",
    "infected": 57,
    "recovered": 1,
    "latitude": -0.8037,
    "pop": 2025000,
    "longitude": 11.6094,
    "name": "Gabon",
    "country": "GA",
    "lastUpdated": "2020-04-13T11:51:02.500Z",
    "dead": 1,
    "sick": 55,
    "invisible": false
  },
  {
    "infected": 53,
    "recovered": 0,
    "latitude": 22.1498,
    "pop": 2831900,
    "longitude": -100.9792,
    "name": "San Luis Potosí",
    "country": "MX",
    "lastUpdated": "2020-04-13T11:40:06.954Z",
    "dead": 4,
    "id": "6vjIVg1gSANFZghV7xtS",
    "sick": 49,
    "invisible": false
  },
  {
    "latitude": 17.901672,
    "pop": 9131,
    "longitude": -62.818544,
    "name": "Saint-Barthélémy",
    "country": "FR",
    "lastUpdated": "2020-04-13T11:51:02.505Z",
    "dead": 0,
    "id": "78Ox26bNHDA2Pk2b3Uwn",
    "infected": 6,
    "recovered": 4,
    "sick": 2,
    "invisible": false
  },
  {
    "infected": 101,
    "recovered": 18,
    "latitude": 35.2923,
    "pop": 84690,
    "longitude": -2.9381,
    "name": "Melilla",
    "country": "ES",
    "lastUpdated": "2020-04-13T11:41:04.414Z",
    "dead": 2,
    "id": "7UASdZTZ1nPzzBwSTEA9",
    "sick": 81,
    "invisible": false
  },
  {
    "latitude": 17.0608,
    "pop": 102012,
    "longitude": -61.7964,
    "name": "Antigua and Barbuda",
    "country": "AG",
    "lastUpdated": "2020-04-13T11:51:02.503Z",
    "dead": 2,
    "id": "7hVFcEV7nV0MrQr3LHrl",
    "infected": 23,
    "recovered": 0,
    "sick": 21,
    "invisible": false
  },
  {
    "latitude": 48.7904,
    "pop": 13000000,
    "longitude": 11.4979,
    "name": "Bayern",
    "country": "DE",
    "lastUpdated": "2020-04-13T11:30:06.309Z",
    "dead": 867,
    "id": "7kCrrlOBE3jN6FtOVNUB",
    "infected": 33653,
    "recovered": 11970,
    "sick": 20816,
    "invisible": false
  },
  {
    "infected": 1458,
    "recovered": 120,
    "latitude": 47.4979,
    "pop": 9773000,
    "longitude": 19.0402,
    "name": "Hungary",
    "country": "HU",
    "lastUpdated": "2020-04-13T11:51:02.490Z",
    "dead": 109,
    "id": "7rYC2iFB50c55Ihgbs4Q",
    "sick": 1229,
    "invisible": false
  },
  {
    "recovered": 12,
    "latitude": 10.9685,
    "pop": 2400000,
    "longitude": -74.7813,
    "name": "Barranquilla D.E.",
    "country": "CO",
    "lastUpdated": "2020-04-13T11:26:09.133Z",
    "dead": 2,
    "id": "7tqLvLyXcBDK808nJv0m",
    "infected": 66,
    "sick": 52,
    "invisible": false
  },
  {
    "id": "8C0d7WVCjyUGtnc2gUAR",
    "infected": 820,
    "recovered": 98,
    "latitude": 7.3697,
    "pop": 24050000,
    "longitude": 12.3547,
    "name": "Cameroon",
    "country": "CM",
    "lastUpdated": "2020-04-13T11:51:02.492Z",
    "dead": 12,
    "sick": 710,
    "invisible": false
  },
  {
    "recovered": 1102,
    "latitude": 50.8503,
    "pop": 1209000,
    "longitude": 4.3517,
    "name": "Brussels",
    "country": "BE",
    "lastUpdated": "2020-04-13T11:36:10.282Z",
    "dead": 608,
    "id": "8DOZWbN6bDdgaLXVlUEu",
    "infected": 3247,
    "sick": 1537,
    "invisible": false
  },
  {
    "infected": 330,
    "recovered": 2,
    "latitude": -16.2902,
    "pop": 11050000,
    "longitude": -63.5887,
    "name": "Bolivia",
    "country": "BO",
    "lastUpdated": "2020-04-13T11:51:02.496Z",
    "dead": 27,
    "id": "8RihJrXw4NQXPxaRxr1u",
    "sick": 301,
    "invisible": false
  },
  {
    "latitude": 12.9843,
    "pop": 109897,
    "longitude": -61.2872,
    "name": "St. Vincent Grenadines",
    "country": "VC",
    "lastUpdated": "2020-04-13T11:51:02.504Z",
    "dead": 0,
    "id": "8ZTySQROQejkDAad0qxQ",
    "infected": 12,
    "recovered": 1,
    "sick": 11,
    "invisible": false
  },
  {
    "infected": 2532,
    "recovered": 560,
    "latitude": 1.352083,
    "pop": 5621000,
    "longitude": 103.819839,
    "name": "Singapore",
    "country": "SG",
    "lastUpdated": "2020-04-13T11:51:02.488Z",
    "dead": 8,
    "id": "8pA3fM4xC2c2wv1b4TnE",
    "sick": 1964,
    "invisible": false
  },
  {
    "id": "98hwAoohgWEOQVa3NlM5",
    "infected": 2361,
    "recovered": 703,
    "latitude": 47.2184,
    "pop": 3787000,
    "longitude": -1.5536,
    "name": "Pays de la Loire",
    "country": "FR",
    "lastUpdated": "2020-04-13T10:29:14.501Z",
    "dead": 182,
    "sick": 1476,
    "invisible": false
  },
  {
    "id": "9DAvxOObTqIvMOU93nlY",
    "infected": 29,
    "recovered": 0,
    "latitude": 19.30754,
    "pop": 952300,
    "longitude": -90.19885,
    "name": "Campeche",
    "country": "MX",
    "lastUpdated": "2020-04-13T11:40:06.953Z",
    "dead": 2,
    "sick": 27,
    "invisible": false
  },
  {
    "longitude": 30.2176,
    "name": "Sudan",
    "country": "SD",
    "lastUpdated": "2020-04-13T11:51:02.503Z",
    "dead": 2,
    "id": "9DPOkpIqrFy9mR4e9fuv",
    "infected": 19,
    "recovered": 4,
    "latitude": 12.8628,
    "pop": 40530000,
    "sick": 13,
    "invisible": false
  },
  {
    "id": "9QcETqEcM2fTv9zRvx5T",
    "infected": 6633,
    "recovered": 914,
    "latitude": 45.943161,
    "pop": 19530000,
    "longitude": 24.966761,
    "name": "Romania",
    "country": "RO",
    "lastUpdated": "2020-04-13T11:51:02.485Z",
    "dead": 318,
    "sick": 5401,
    "invisible": false
  },
  {
    "infected": 9,
    "recovered": 4,
    "latitude": 12.136389,
    "pop": 6218000,
    "longitude": -86.251389,
    "name": "Nicaragua",
    "country": "NI",
    "lastUpdated": "2020-04-13T11:51:02.505Z",
    "dead": 1,
    "id": "9Y5wmCqNCC6ZrenM31uA",
    "sick": 4,
    "invisible": false
  },
  {
    "id": "9dIzxqDSVqPyINkHqwGv",
    "infected": 105,
    "recovered": 22,
    "latitude": 17.5706921,
    "pop": 18540000,
    "longitude": -3.996166,
    "name": "Mali",
    "country": "ML",
    "lastUpdated": "2020-04-13T11:51:02.498Z",
    "dead": 9,
    "sick": 74,
    "invisible": false
  },
  {
    "recovered": 300,
    "latitude": 61.92411,
    "pop": 5513000,
    "longitude": 25.748152,
    "name": "Finland",
    "country": "FI",
    "lastUpdated": "2020-04-13T11:51:02.488Z",
    "dead": 59,
    "id": "9p6OCdZbUUwBLA60Gk3W",
    "infected": 3064,
    "sick": 2705,
    "invisible": false
  },
  {
    "longitude": -71.590315,
    "name": "New Hampshire",
    "country": "US",
    "lastUpdated": "2020-04-13T11:57:16.524Z",
    "dead": 23,
    "id": "A84CwQ52kA46Hr7pn6Bm",
    "infected": 985,
    "recovered": 0,
    "latitude": 43.311643,
    "pop": 1356000,
    "sick": 962,
    "invisible": false
  },
  {
    "longitude": -71.412257,
    "name": "Rhode Island",
    "country": "US",
    "lastUpdated": "2020-04-13T11:57:16.522Z",
    "dead": 63,
    "id": "AEUWUHS65qvjEslew11c",
    "infected": 2665,
    "recovered": 0,
    "latitude": 41.823261,
    "pop": 1057000,
    "sick": 2602,
    "invisible": false
  },
  {
    "latitude": 44.498955,
    "pop": 4453000,
    "longitude": 11.327591,
    "name": "Emilia-Romagna",
    "country": "IT",
    "lastUpdated": "2020-04-13T11:39:01.852Z",
    "dead": 2564,
    "id": "AJ9jQ0iyKsafsmf5yHAR",
    "infected": 20098,
    "recovered": 3862,
    "sick": 13672,
    "invisible": false
  },
  {
    "lastUpdated": "2020-04-13T11:30:06.311Z",
    "dead": 48,
    "id": "AKjFRQGnzuuZQhv5Qwx7",
    "infected": 2121,
    "recovered": 632,
    "latitude": 49.3964,
    "pop": 990509,
    "longitude": 7.023,
    "name": "Saarland",
    "country": "DE",
    "sick": 1441,
    "invisible": false
  },
  {
    "infected": 138,
    "recovered": 0,
    "latitude": -35.717,
    "pop": 1125002,
    "longitude": -71.167,
    "name": "Maule",
    "country": "CL",
    "lastUpdated": "2020-04-13T11:37:13.738Z",
    "dead": 3,
    "id": "APTPgjAsjFi0nsGyJV7M",
    "sick": 135,
    "invisible": false
  },
  {
    "infected": 11,
    "recovered": 11,
    "latitude": 71.7069,
    "pop": 56171,
    "longitude": -42.6043,
    "name": "Greenland",
    "country": "GL",
    "lastUpdated": "2020-04-13T11:51:02.505Z",
    "dead": 0,
    "id": "APaZzlGCEeuoLBtzTJMe",
    "sick": 0,
    "invisible": false
  },
  {
    "latitude": 45.65107,
    "pop": 971395,
    "longitude": -63.582687,
    "name": "Nova Scotia",
    "country": "CA",
    "lastUpdated": "2020-04-13T11:36:01.507Z",
    "dead": 2,
    "id": "AVCpxeh0fuH2WrHWNDYH",
    "infected": 445,
    "recovered": 0,
    "sick": 443,
    "invisible": false
  },
  {
    "lastUpdated": "2020-04-13T11:57:16.525Z",
    "dead": 6,
    "id": "AcULcZBozObOhwuRKMjJ",
    "infected": 387,
    "recovered": 0,
    "latitude": 47.012918,
    "pop": 1062000,
    "longitude": -109.128641,
    "name": "Montana",
    "country": "US",
    "sick": 381,
    "invisible": false
  },
  {
    "recovered": 936,
    "latitude": 27.285971,
    "pop": 45200000,
    "longitude": 116.01609,
    "name": "Jiangxi",
    "country": "CN",
    "lastUpdated": "2020-04-13T11:23:10.059Z",
    "dead": 1,
    "id": "AmBYm5J6E9Cuez1FQjiN",
    "infected": 937,
    "sick": 0,
    "invisible": false
  },
  {
    "infected": 5297,
    "recovered": 0,
    "latitude": 52.1307,
    "pop": 3136000,
    "longitude": -3.7837,
    "name": "Wales",
    "country": "GB",
    "lastUpdated": "2020-04-13T11:30:01.661Z",
    "dead": 369,
    "id": "AoLhHdTydeWTfmp9koEX",
    "sick": 4928,
    "invisible": false
  },
  {
    "longitude": 1.659626,
    "name": "Algeria",
    "country": "DZ",
    "lastUpdated": "2020-04-13T11:51:02.489Z",
    "dead": 293,
    "id": "AwN0CScPDApcLFgz6e3z",
    "infected": 1914,
    "recovered": 591,
    "latitude": 28.033886,
    "pop": 41320000,
    "sick": 1030,
    "invisible": false
  },
  {
    "infected": 1600,
    "recovered": 373,
    "latitude": 45.099998,
    "pop": 4076000,
    "longitude": 15.2,
    "name": "Croatia",
    "country": "HR",
    "lastUpdated": "2020-04-13T11:51:02.490Z",
    "dead": 23,
    "id": "B82Ef45M8cDu4q7VsSHF",
    "sick": 1204,
    "invisible": false
  },
  {
    "infected": 529,
    "recovered": 75,
    "latitude": 17.6077881,
    "pop": 23716000,
    "longitude": 8.081666,
    "name": "Niger",
    "country": "NE",
    "lastUpdated": "2020-04-13T11:51:02.494Z",
    "dead": 12,
    "id": "BENubqQInFUJzhpZTsLT",
    "sick": 442,
    "invisible": false
  },
  {
    "id": "BF51mWl51fgEcyBpCSzb",
    "infected": 8225,
    "recovered": 0,
    "latitude": 39.509109,
    "pop": 6043000,
    "longitude": -76.98432,
    "name": "Maryland",
    "country": "US",
    "lastUpdated": "2020-04-13T11:57:16.519Z",
    "dead": 235,
    "sick": 7990,
    "invisible": false
  },
  {
    "recovered": 203,
    "latitude": 53.709808,
    "pop": 9508000,
    "longitude": 27.953388,
    "name": "Belarus",
    "country": "BY",
    "lastUpdated": "2020-04-13T11:51:02.488Z",
    "dead": 29,
    "id": "BGg6yVU5VP71B8NXU0oh",
    "infected": 2919,
    "sick": 2687,
    "invisible": false
  },
  {
    "lastUpdated": "2020-04-13T10:29:02.885Z",
    "dead": 201,
    "id": "BGtoyzb7y54LVlJ91rbf",
    "infected": 2094,
    "recovered": 586,
    "latitude": 48.8799,
    "pop": 3319000,
    "longitude": 0.1713,
    "name": "Normandie",
    "country": "FR",
    "sick": 1307,
    "invisible": false
  },
  {
    "latitude": 50.7772,
    "pop": 5616000,
    "longitude": -3.9995,
    "name": "South West",
    "country": "GB",
    "lastUpdated": "2020-04-13T11:30:01.662Z",
    "dead": 0,
    "id": "BQqMOlPFD36ZEDTGd3WC",
    "infected": 3193,
    "recovered": 0,
    "sick": 3193,
    "invisible": false
  },
  {
    "lastUpdated": "2020-04-13T11:57:16.521Z",
    "dead": 115,
    "id": "BTEESCuD2ZbS1afunR2A",
    "infected": 3542,
    "recovered": 0,
    "latitude": 34.048927,
    "pop": 7172000,
    "longitude": -111.093735,
    "name": "Arizona",
    "country": "US",
    "sick": 3427,
    "invisible": false
  },
  {
    "dead": 0,
    "lastUpdated": "2020-04-13T11:37:13.739Z",
    "id": "BbiuZcm8oURX7cZwaa5U",
    "infected": 0,
    "recovered": 2059,
    "latitude": 1,
    "longitude": 1,
    "name": "Chile Casos recuperados",
    "country": "CL",
    "sick": 0,
    "invisible": false
  },
  {
    "infected": 13,
    "recovered": 0,
    "latitude": -13.2543,
    "pop": 18620000,
    "longitude": 34.3015,
    "name": "Malawi",
    "country": "MW",
    "lastUpdated": "2020-04-13T11:51:02.504Z",
    "dead": 2,
    "id": "BfT8o5DaEixC6JIZ28kY",
    "sick": 11,
    "invisible": false
  },
  {
    "infected": 5,
    "recovered": 0,
    "latitude": -3.3730559,
    "pop": 10860000,
    "longitude": 29.9188862,
    "name": "Burundi",
    "country": "BI",
    "lastUpdated": "2020-04-13T11:51:02.506Z",
    "dead": 0,
    "id": "BnpMamidC5yYzeK8tPUL",
    "sick": 5,
    "invisible": false
  },
  {
    "latitude": 40.719042,
    "pop": 19540000,
    "longitude": -73.982597,
    "name": "New York",
    "country": "US",
    "lastUpdated": "2020-04-13T11:57:16.515Z",
    "dead": 9385,
    "id": "C3BCUzV80z9GfiuByIcr",
    "infected": 190288,
    "recovered": 0,
    "sick": 180903,
    "invisible": false
  },
  {
    "longitude": 15.359413,
    "name": "Czechia",
    "country": "CZ",
    "lastUpdated": "2020-04-13T11:51:02.486Z",
    "dead": 139,
    "id": "C6S76AggdWVU8G22jFHQ",
    "infected": 5991,
    "recovered": 467,
    "latitude": 49.731626,
    "pop": 10650000,
    "sick": 5385,
    "invisible": false
  },
  {
    "latitude": 26.0667,
    "pop": 1493000,
    "longitude": 50.557701,
    "name": "Bahrain",
    "country": "BH",
    "lastUpdated": "2020-04-13T11:51:02.490Z",
    "dead": 6,
    "id": "C7cj4nwRITs13KnaJrQ2",
    "infected": 1348,
    "recovered": 591,
    "sick": 751,
    "invisible": false
  },
  {
    "latitude": 10.4113,
    "pop": 1285400,
    "longitude": -74.4057,
    "name": "Magdalena",
    "country": "CO",
    "lastUpdated": "2020-04-13T11:26:09.135Z",
    "dead": 0,
    "id": "CA9LaAl3bNaeAqBuozn4",
    "infected": 4,
    "recovered": 0,
    "sick": 4,
    "invisible": false
  },
  {
    "longitude": -101.430756,
    "name": "Coahuila",
    "country": "MX",
    "lastUpdated": "2020-04-13T11:40:06.953Z",
    "dead": 14,
    "id": "CCUFp4urvgXPo5unfMGy",
    "infected": 189,
    "recovered": 0,
    "latitude": 26.909979,
    "pop": 3073500,
    "sick": 175,
    "invisible": false
  },
  {
    "longitude": 74.2179,
    "name": "Rajasthan",
    "country": "IN",
    "lastUpdated": "2020-04-13T11:41:01.876Z",
    "dead": 11,
    "id": "CKZCZTPlrcq5fbfUPA9k",
    "infected": 847,
    "recovered": 121,
    "latitude": 27.0238,
    "pop": 68890000,
    "sick": 715,
    "invisible": false
  },
  {
    "latitude": 13.803,
    "pop": 6378000,
    "longitude": -88.9053,
    "name": "El Salvador",
    "country": "SV",
    "lastUpdated": "2020-04-13T11:51:02.497Z",
    "dead": 6,
    "id": "Cgvmtle61ehMvCzRzYx7",
    "infected": 137,
    "recovered": 22,
    "sick": 109,
    "invisible": false
  },
  {
    "infected": 1039,
    "recovered": 211,
    "latitude": 40.259003,
    "pop": 2973000,
    "longitude": 44.818474,
    "name": "Armenia",
    "country": "AM",
    "lastUpdated": "2020-04-13T11:51:02.491Z",
    "dead": 14,
    "id": "DCJCtZoBTWQ4mzdDNljD",
    "sick": 814,
    "invisible": false
  },
  {
    "recovered": 2,
    "latitude": 5.535,
    "pop": 1278000,
    "longitude": -73.368,
    "name": "Boyacá",
    "country": "CO",
    "lastUpdated": "2020-04-13T11:26:09.135Z",
    "dead": 1,
    "id": "DJJraANgQbEqz1wBBtZz",
    "infected": 31,
    "sick": 28,
    "invisible": false
  },
  {
    "latitude": 53.6221,
    "pop": 7300000,
    "longitude": -2.5945,
    "name": "North West",
    "country": "GB",
    "lastUpdated": "2020-04-13T11:30:01.662Z",
    "dead": 0,
    "id": "DPwBt2aJuwF0O71vwfM9",
    "infected": 9452,
    "recovered": 0,
    "sick": 9452,
    "invisible": false
  },
  {
    "infected": 57,
    "recovered": 29,
    "latitude": 32.3213844,
    "pop": 65440,
    "longitude": -64.75737,
    "name": "Bermuda",
    "country": "BM",
    "lastUpdated": "2020-04-13T11:51:02.500Z",
    "dead": 4,
    "id": "DZyTD0Mu5WIcK6yTcJ91",
    "sick": 24,
    "invisible": false
  },
  {
    "recovered": 0,
    "latitude": 21.694,
    "pop": 35446,
    "longitude": -71.7979,
    "name": "Turks and Caicos",
    "country": "TC",
    "lastUpdated": "2020-04-13T11:51:02.505Z",
    "dead": 1,
    "id": "DaMrRSIGJXIG36nW0Pnc",
    "infected": 9,
    "sick": 8,
    "invisible": false
  },
  {
    "id": "Dbng0NBTH41EEwBxhMzE",
    "infected": 14054,
    "recovered": 2532,
    "latitude": 39.2796,
    "pop": 2035000,
    "longitude": -3.0977,
    "name": "Castilla La Mancha",
    "country": "ES",
    "lastUpdated": "2020-04-13T11:41:04.329Z",
    "dead": 1626,
    "sick": 9896,
    "invisible": false
  },
  {
    "latitude": 22.192039,
    "pop": 622567,
    "longitude": 113.551262,
    "name": "Macao",
    "country": "MO",
    "lastUpdated": "2020-04-13T11:51:02.501Z",
    "dead": 0,
    "id": "DdBt8qsG6A3g92oOR3ow",
    "infected": 45,
    "recovered": 10,
    "sick": 35,
    "invisible": false
  },
  {
    "lastUpdated": "2020-04-13T11:57:16.526Z",
    "dead": 0,
    "id": "DrGzziUglmBognCGY7R2",
    "infected": 270,
    "recovered": 0,
    "latitude": 42.962334,
    "pop": 577737,
    "longitude": -107.534868,
    "name": "Wyoming",
    "country": "US",
    "sick": 270,
    "invisible": false
  },
  {
    "id": "Dtr1lap1RpJpXJdXGJiW",
    "infected": 2114,
    "recovered": 269,
    "latitude": 37.9838,
    "pop": 10740000,
    "longitude": 23.7275,
    "name": "Greece",
    "country": "GR",
    "lastUpdated": "2020-04-13T11:51:02.488Z",
    "dead": 98,
    "sick": 1747,
    "invisible": false
  },
  {
    "latitude": 25.03841,
    "pop": 23780000,
    "longitude": 121.563698,
    "name": "Taiwan",
    "country": "TW",
    "lastUpdated": "2020-04-13T11:51:02.495Z",
    "dead": 6,
    "id": "EKTfs8e7M6DXzI1HqyyX",
    "infected": 393,
    "recovered": 114,
    "sick": 273,
    "invisible": false
  },
  {
    "recovered": 56,
    "latitude": 10.327273,
    "pop": 4906000,
    "longitude": -84.387618,
    "name": "Costa Rica",
    "country": "CR",
    "lastUpdated": "2020-04-13T11:51:02.494Z",
    "dead": 3,
    "id": "EQzJvzVHKjs8kLmK7BMu",
    "infected": 595,
    "sick": 536,
    "invisible": false
  },
  {
    "longitude": 71.1924,
    "name": "Gujarat",
    "country": "IN",
    "lastUpdated": "2020-04-13T11:41:01.877Z",
    "dead": 26,
    "id": "ERwk9R9en4m9WbdoMbIg",
    "infected": 538,
    "recovered": 47,
    "latitude": 22.2587,
    "pop": 62700000,
    "sick": 465,
    "invisible": false
  },
  {
    "infected": 21,
    "recovered": 7,
    "latitude": 30.7333,
    "pop": 1055000,
    "longitude": 76.7794,
    "name": "Chandigarh",
    "country": "IN",
    "lastUpdated": "2020-04-13T11:41:01.879Z",
    "dead": 0,
    "id": "Esl5UlCVB9s8pmGB5Ofr",
    "sick": 14,
    "invisible": false
  },
  {
    "latitude": 18.200178,
    "pop": 3195000,
    "longitude": -66.664513,
    "name": "Puerto Rico",
    "country": "PR",
    "lastUpdated": "2020-04-13T11:57:16.524Z",
    "dead": 44,
    "id": "F4rPrEVGAIMM5rfPEMv4",
    "infected": 897,
    "recovered": 0,
    "sick": 853,
    "invisible": false
  },
  {
    "latitude": 4.862437,
    "pop": 2919000,
    "longitude": -74.058655,
    "name": "Cundinamarca",
    "country": "CO",
    "lastUpdated": "2020-04-13T11:26:09.133Z",
    "dead": 5,
    "id": "F7MED5VwEhi3JvJu6KjB",
    "infected": 112,
    "recovered": 15,
    "sick": 92,
    "invisible": false
  },
  {
    "latitude": 33.93911,
    "pop": 35530000,
    "longitude": 67.709953,
    "name": "Afghanistan",
    "country": "AF",
    "lastUpdated": "2020-04-13T11:51:02.493Z",
    "dead": 21,
    "id": "FCDmlmnIIswd8bQiUjfN",
    "infected": 665,
    "recovered": 32,
    "sick": 612,
    "invisible": false
  },
  {
    "infected": 579,
    "recovered": 570,
    "latitude": 29.431585,
    "pop": 30480000,
    "longitude": 106.912254,
    "name": "Chongqing",
    "country": "CN",
    "lastUpdated": "2020-04-13T11:23:10.058Z",
    "dead": 6,
    "id": "FErOU1m4Tj7jIkRam3vF",
    "sick": 3,
    "invisible": false
  },
  {
    "infected": 1300,
    "recovered": 150,
    "latitude": 29.311661,
    "pop": 4137000,
    "longitude": 47.481766,
    "name": "Kuwait",
    "country": "KW",
    "lastUpdated": "2020-04-13T11:51:02.490Z",
    "dead": 2,
    "id": "FZsUkhxBEgqsPb4eO0PN",
    "sick": 1148,
    "invisible": false
  },
  {
    "infected": 1075,
    "recovered": 50,
    "latitude": 11.1271,
    "pop": 67860000,
    "longitude": 78.6569,
    "name": "Tamil Nadu",
    "country": "IN",
    "lastUpdated": "2020-04-13T11:41:01.876Z",
    "dead": 11,
    "id": "FeS45oMNC27pI17F0xEV",
    "sick": 1014,
    "invisible": false
  },
  {
    "id": "FuiVEJvWb0QMCpxJ3563",
    "infected": 2967,
    "recovered": 131,
    "latitude": 18.947829,
    "pop": 10770000,
    "longitude": -70.430399,
    "name": "Dominican Republic",
    "country": "DO",
    "lastUpdated": "2020-04-13T11:51:02.488Z",
    "dead": 173,
    "sick": 2663,
    "invisible": false
  },
  {
    "recovered": 103,
    "latitude": 18.1124,
    "pop": 35190000,
    "longitude": 79.0193,
    "name": "Telengana",
    "country": "IN",
    "lastUpdated": "2020-04-13T11:41:01.877Z",
    "dead": 16,
    "id": "FyC551oNwmENxbr9Yght",
    "infected": 531,
    "sick": 412,
    "invisible": false
  },
  {
    "id": "FzIDXoqWnTI3nUfhPyT2",
    "infected": 742,
    "recovered": 23,
    "latitude": 48.669,
    "pop": 5450000,
    "longitude": 19.699,
    "name": "Slovakia",
    "country": "SK",
    "lastUpdated": "2020-04-13T11:21:03.063Z",
    "dead": 2,
    "sick": 717,
    "invisible": false
  },
  {
    "latitude": 30.37532,
    "pop": 197000000,
    "longitude": 69.345116,
    "name": "Pakistan",
    "country": "PK",
    "lastUpdated": "2020-04-13T11:51:02.486Z",
    "dead": 93,
    "id": "GAp7Wb6IMhdgbvEtMza9",
    "infected": 5374,
    "recovered": 1095,
    "sick": 4186,
    "invisible": false
  },
  {
    "infected": 170,
    "recovered": 23,
    "latitude": 31.1471,
    "pop": 27980000,
    "longitude": 75.3412,
    "name": "Punjab",
    "country": "IN",
    "lastUpdated": "2020-04-13T11:41:01.878Z",
    "dead": 12,
    "id": "GGru8cG08mANO8XDDUtZ",
    "sick": 135,
    "invisible": false
  },
  {
    "longitude": 53.847816,
    "name": "United Arab Emirates",
    "country": "AE",
    "lastUpdated": "2020-04-13T11:51:02.487Z",
    "dead": 22,
    "id": "GHzBIsHy2GiBc5JV2HMs",
    "infected": 4123,
    "recovered": 680,
    "latitude": 23.424076,
    "pop": 9400000,
    "sick": 3421,
    "invisible": false
  },
  {
    "id": "GPtoS0Yy2EnNafpmmTqY",
    "infected": 17479,
    "recovered": 0,
    "latitude": 51.5074,
    "pop": 10100000,
    "longitude": -0.1278,
    "name": "London",
    "country": "GB",
    "lastUpdated": "2020-04-13T11:30:01.661Z",
    "dead": 0,
    "sick": 17479,
    "invisible": false
  },
  {
    "latitude": 36.621981,
    "pop": 39560000,
    "longitude": -119.339046,
    "name": "California",
    "country": "US",
    "lastUpdated": "2020-04-13T11:57:16.517Z",
    "dead": 682,
    "id": "Gh46r6vuaY7fbGt3IboN",
    "infected": 23311,
    "recovered": 0,
    "sick": 22629,
    "invisible": false
  },
  {
    "id": "GljWeVnun6o9DeW6rlEm",
    "infected": 1,
    "recovered": 0,
    "latitude": 20.4283,
    "pop": 343709,
    "longitude": 72.8397,
    "name": "Dadra and Nagar Haveli",
    "country": "IN",
    "lastUpdated": "2020-04-13T11:41:01.882Z",
    "dead": 0,
    "sick": 1,
    "invisible": false
  },
  {
    "longitude": -97.145514,
    "name": "Oklahoma",
    "country": "US",
    "lastUpdated": "2020-04-13T11:57:16.522Z",
    "dead": 96,
    "id": "GpF8ULuKOQiFDCUHN44h",
    "infected": 1970,
    "recovered": 0,
    "latitude": 35.87189,
    "pop": 3943000,
    "sick": 1874,
    "invisible": false
  },
  {
    "id": "Gzx6GX1qhBm714BkEC6l",
    "infected": 2098,
    "recovered": 378,
    "latitude": 46.5,
    "pop": 520891,
    "longitude": 11.35,
    "name": "P.A. Bolzano",
    "country": "IT",
    "lastUpdated": "2020-04-13T11:39:01.852Z",
    "dead": 205,
    "sick": 1515,
    "invisible": false
  },
  {
    "id": "H3JeVigVbo5CSYfZG4WI",
    "infected": 190,
    "recovered": 83,
    "latitude": 42.83263,
    "pop": 24710000,
    "longitude": 113.750972,
    "name": "Inner Mongolia",
    "country": "CN",
    "lastUpdated": "2020-04-13T11:23:10.056Z",
    "dead": 1,
    "sick": 106,
    "invisible": false
  },
  {
    "longitude": -116.724977,
    "name": "Nevada",
    "country": "US",
    "lastUpdated": "2020-04-13T11:57:16.522Z",
    "dead": 114,
    "id": "H3bDg4eV30up4WWrIDAS",
    "infected": 2836,
    "recovered": 0,
    "latitude": 39.74536,
    "pop": 3034000,
    "sick": 2722,
    "invisible": false
  },
  {
    "longitude": 75.7139,
    "name": "Karnataka",
    "country": "IN",
    "lastUpdated": "2020-04-13T11:41:01.878Z",
    "dead": 6,
    "id": "HN5mGmxlqlSeFSNeu1K5",
    "infected": 247,
    "recovered": 59,
    "latitude": 15.3173,
    "pop": 64060000,
    "sick": 182,
    "invisible": false
  },
  {
    "latitude": 27.5142,
    "pop": 807610,
    "longitude": 90.4336,
    "name": "Bhutan",
    "country": "BT",
    "lastUpdated": "2020-04-13T11:51:02.505Z",
    "dead": 0,
    "id": "HRDpwyxpqW9RN0xLFyNu",
    "infected": 5,
    "recovered": 2,
    "sick": 3,
    "invisible": false
  },
  {
    "id": "HRTA10dtrruDEwjJEGMp",
    "infected": 896,
    "recovered": 70,
    "latitude": 41.3775,
    "pop": 32390000,
    "longitude": 64.5853,
    "name": "Uzbekistan",
    "country": "UZ",
    "lastUpdated": "2020-04-13T11:51:02.492Z",
    "dead": 4,
    "sick": 822,
    "invisible": false
  },
  {
    "longitude": -105.576255,
    "name": "New Mexico",
    "country": "US",
    "lastUpdated": "2020-04-13T11:57:16.524Z",
    "dead": 26,
    "id": "HSSFomRju0doHhWgW8On",
    "infected": 1245,
    "recovered": 0,
    "latitude": 34.138916,
    "pop": 2095000,
    "sick": 1219,
    "invisible": false
  },
  {
    "longitude": -72.3311,
    "name": "Los Ríos",
    "country": "CL",
    "lastUpdated": "2020-04-13T11:37:13.738Z",
    "dead": 3,
    "id": "HZkACHjW7NlYjg8vEMj2",
    "infected": 135,
    "recovered": 0,
    "latitude": -40.231,
    "pop": 412812,
    "sick": 132,
    "invisible": false
  },
  {
    "recovered": 315,
    "latitude": 53.6127,
    "pop": 1635000,
    "longitude": 12.4296,
    "name": "Mecklenburg-Vorpommern",
    "country": "DE",
    "lastUpdated": "2020-04-13T11:30:06.310Z",
    "dead": 12,
    "id": "He1gSS1v50t06i3YrqvB",
    "infected": 610,
    "sick": 283,
    "invisible": false
  },
  {
    "id": "I9EqrZfbPnkioNU4wZGz",
    "infected": 2160,
    "recovered": 206,
    "latitude": 42.25,
    "pop": 1315000,
    "longitude": 13.75,
    "name": "Abruzzo",
    "country": "IT",
    "lastUpdated": "2020-04-13T11:39:01.851Z",
    "dead": 212,
    "sick": 1742,
    "invisible": false
  },
  {
    "infected": 1555,
    "recovered": 1454,
    "latitude": 23.363855,
    "pop": 113460000,
    "longitude": 113.373448,
    "name": "Guangdong",
    "country": "CN",
    "lastUpdated": "2020-04-13T11:23:10.056Z",
    "dead": 8,
    "id": "IAX0OQLVnUwU7FX0ENF1",
    "sick": 93,
    "invisible": false
  },
  {
    "latitude": 33.875408,
    "pop": 94000000,
    "longitude": 113.484016,
    "name": "Henan",
    "country": "CN",
    "lastUpdated": "2020-04-13T11:23:10.059Z",
    "dead": 22,
    "id": "IFuMrMvSjoiX5agYvllh",
    "infected": 1276,
    "recovered": 1253,
    "sick": 1,
    "invisible": false
  },
  {
    "infected": 64,
    "recovered": 0,
    "latitude": 22.017,
    "pop": 1342600,
    "longitude": -102.317,
    "name": "Aguascalientes",
    "country": "MX",
    "lastUpdated": "2020-04-13T11:40:06.954Z",
    "dead": 1,
    "id": "ISRKMzEDojyrZ9iyWwex",
    "sick": 63,
    "invisible": false
  },
  {
    "longitude": -100.316116,
    "name": "Nuevo León",
    "country": "MX",
    "lastUpdated": "2020-04-13T11:40:06.954Z",
    "dead": 6,
    "id": "IdKbgzgKLpjBFh4UPOwu",
    "infected": 202,
    "recovered": 0,
    "latitude": 25.686613,
    "pop": 5321300,
    "sick": 196,
    "invisible": false
  },
  {
    "latitude": 28.632996,
    "pop": 3826900,
    "longitude": -106.069099,
    "name": "Chihuahua",
    "country": "MX",
    "lastUpdated": "2020-04-13T11:40:06.953Z",
    "dead": 16,
    "id": "IhhiYI6T0TX4CYVPcnmH",
    "infected": 70,
    "recovered": 0,
    "sick": 54,
    "invisible": false
  },
  {
    "infected": 613,
    "recovered": 0,
    "latitude": -36.61667,
    "pop": 480600,
    "longitude": -71.95,
    "name": "Ñuble",
    "country": "CL",
    "lastUpdated": "2020-04-13T11:37:13.738Z",
    "dead": 7,
    "id": "ImnOiVx9Cb8Nw7cbRcQ7",
    "sick": 606,
    "invisible": false
  },
  {
    "latitude": 19.0558,
    "pop": 10980000,
    "longitude": -73.0513,
    "name": "Haiti",
    "country": "HT",
    "lastUpdated": "2020-04-13T11:51:02.501Z",
    "dead": 3,
    "id": "InZ38sIqyK7FN7XAOZoX",
    "infected": 33,
    "recovered": 0,
    "sick": 30,
    "invisible": false
  },
  {
    "latitude": 32.528564,
    "pop": 10520000,
    "longitude": -83.280125,
    "name": "Georgia (US)",
    "country": "US",
    "lastUpdated": "2020-04-13T11:57:16.518Z",
    "dead": 442,
    "id": "IvQkDJkTAsoIqPRAU25n",
    "infected": 12550,
    "recovered": 0,
    "sick": 12108,
    "invisible": false
  },
  {
    "lastUpdated": "2020-04-13T11:51:02.490Z",
    "dead": 5,
    "id": "IvVhpOoGpH6JVkGyUhXN",
    "infected": 1349,
    "recovered": 546,
    "latitude": -42.8285,
    "pop": 4794000,
    "longitude": 172.488081,
    "name": "New Zealand",
    "country": "NZ",
    "sick": 798,
    "invisible": false
  },
  {
    "lastUpdated": "2020-04-13T11:41:01.882Z",
    "dead": 0,
    "id": "IwYKiIVY18NGwdGQFGWW",
    "infected": 1,
    "recovered": 0,
    "latitude": 28.218,
    "pop": 1255000,
    "longitude": 94.7278,
    "name": "Arunachal Pradesh",
    "country": "IN",
    "sick": 1,
    "invisible": false
  },
  {
    "latitude": 6.4238,
    "pop": 31980000,
    "longitude": -66.5897,
    "name": "Venezuela",
    "country": "VE",
    "lastUpdated": "2020-04-13T11:51:02.497Z",
    "dead": 9,
    "id": "J3mZXlfEnnJx4CDZLvRG",
    "infected": 181,
    "recovered": 93,
    "sick": 79,
    "invisible": false
  },
  {
    "id": "JQByE4l2OA6sGOqIcWrM",
    "infected": 633,
    "recovered": 65,
    "latitude": 35.1264,
    "pop": 1170000,
    "longitude": 33.4299,
    "name": "Cyprus",
    "country": "CY",
    "lastUpdated": "2020-04-13T11:51:02.494Z",
    "dead": 11,
    "sick": 557,
    "invisible": false
  },
  {
    "lastUpdated": "2020-04-13T11:41:01.878Z",
    "dead": 1,
    "id": "JR7hOGked7CZtIs2nCV5",
    "infected": 65,
    "recovered": 26,
    "latitude": 25.0961,
    "pop": 99020000,
    "longitude": 85.3131,
    "name": "Bihar",
    "country": "IN",
    "sick": 38,
    "invisible": false
  },
  {
    "latitude": 14.628434,
    "pop": 17250000,
    "longitude": -90.522713,
    "name": "Guatemala",
    "country": "GT",
    "lastUpdated": "2020-04-13T11:51:02.497Z",
    "dead": 5,
    "id": "JUWE6bG3b5oL7fKQMSvv",
    "infected": 155,
    "recovered": 19,
    "sick": 131,
    "invisible": false
  },
  {
    "lastUpdated": "2020-04-13T11:51:02.487Z",
    "dead": 66,
    "id": "JcFsHSn2WvZ5LJW42ovG",
    "infected": 3281,
    "recovered": 500,
    "latitude": 49.8153,
    "pop": 602005,
    "longitude": 6.1296,
    "name": "Luxembourg",
    "country": "LU",
    "sick": 2715,
    "invisible": false
  },
  {
    "id": "JmOyaFe25yZCIV64JbZj",
    "infected": 9,
    "recovered": 0,
    "latitude": 8.8,
    "pop": 2049000,
    "longitude": -74.167,
    "name": "Bolívar",
    "country": "CO",
    "lastUpdated": "2020-04-13T11:26:09.135Z",
    "dead": 1,
    "sick": 8,
    "invisible": false
  },
  {
    "infected": 370,
    "recovered": 0,
    "latitude": 31.4,
    "pop": 3648100,
    "longitude": -115.783,
    "name": "Baja California",
    "country": "MX",
    "lastUpdated": "2020-04-13T11:40:06.952Z",
    "dead": 30,
    "id": "Jp9ePErcc8i1aOozEAMf",
    "sick": 340,
    "invisible": false
  },
  {
    "id": "Jr8syCB0lydmPDXw8Q6N",
    "infected": 13,
    "recovered": 1,
    "latitude": 8.7479801,
    "pop": 1786500,
    "longitude": -75.8814316,
    "name": "Córdoba",
    "country": "CO",
    "lastUpdated": "2020-04-13T11:26:09.135Z",
    "dead": 2,
    "sick": 10,
    "invisible": false
  },
  {
    "latitude": 8.6195,
    "pop": 7798000,
    "longitude": 0.8248,
    "name": "Togo",
    "country": "TG",
    "lastUpdated": "2020-04-13T11:51:02.499Z",
    "dead": 3,
    "id": "JrBbirlBKGdWSdcDt7PF",
    "infected": 76,
    "recovered": 29,
    "sick": 44,
    "invisible": false
  },
  {
    "latitude": 42.7339,
    "pop": 7050000,
    "longitude": 25.4858,
    "name": "Bulgaria",
    "country": "BG",
    "lastUpdated": "2020-04-13T11:51:02.493Z",
    "dead": 31,
    "id": "JzZ8sbqzjutThVjkPKPL",
    "infected": 676,
    "recovered": 71,
    "sick": 574,
    "invisible": false
  },
  {
    "recovered": 1412,
    "latitude": 44.5,
    "pop": 1557000,
    "longitude": 8.833,
    "name": "Liguria",
    "country": "IT",
    "lastUpdated": "2020-04-13T11:39:01.853Z",
    "dead": 749,
    "id": "KLXicxFogWnu0dLp4bNK",
    "infected": 5494,
    "sick": 3333,
    "invisible": false
  },
  {
    "id": "KpOz3WmiZkrXUMlUJNlV",
    "infected": 32,
    "recovered": 10,
    "latitude": 10.4631,
    "pop": 1201000,
    "longitude": -73.2532,
    "name": "Cesar",
    "country": "CO",
    "lastUpdated": "2020-04-13T11:26:09.134Z",
    "dead": 0,
    "sick": 22,
    "invisible": false
  },
  {
    "recovered": 578,
    "latitude": 43.4167,
    "pop": 3737000,
    "longitude": 11,
    "name": "Toscana",
    "country": "IT",
    "lastUpdated": "2020-04-13T11:39:01.854Z",
    "dead": 495,
    "id": "KrLrJbpDqqiXgUPGCCW9",
    "infected": 7235,
    "sick": 6162,
    "invisible": false
  },
  {
    "latitude": 7.873054,
    "pop": 21440000,
    "longitude": 80.771797,
    "name": "Sri Lanka",
    "country": "LK",
    "lastUpdated": "2020-04-13T11:51:02.497Z",
    "dead": 7,
    "id": "KsWzJO06cf0d6LJ4ZNh9",
    "infected": 214,
    "recovered": 56,
    "sick": 151,
    "invisible": false
  },
  {
    "id": "KtQIo2DoqjELtPAlyDVO",
    "infected": 432,
    "recovered": 12,
    "latitude": 15.9129,
    "pop": 49670000,
    "longitude": 79.74,
    "name": "Andhra Pradesh",
    "country": "IN",
    "lastUpdated": "2020-04-13T11:41:01.877Z",
    "dead": 7,
    "sick": 413,
    "invisible": false
  },
  {
    "id": "KwOuGBKSMRlmwftxAvLX",
    "infected": 18328,
    "recovered": 1470,
    "latitude": 61.52401,
    "pop": 144500000,
    "longitude": 105.318756,
    "name": "Russia",
    "country": "RU",
    "lastUpdated": "2020-04-13T11:51:02.484Z",
    "dead": 148,
    "sick": 16710,
    "invisible": false
  },
  {
    "latitude": 18.0708,
    "pop": 32125,
    "longitude": -63.0501,
    "name": "Saint-Martin",
    "country": "FR",
    "lastUpdated": "2020-04-13T11:51:02.501Z",
    "dead": 2,
    "id": "LBUtrLDKJiupXjlUNTUe",
    "infected": 32,
    "recovered": 11,
    "sick": 19,
    "invisible": false
  },
  {
    "latitude": 47.166,
    "pop": 38557,
    "longitude": 9.5554,
    "name": "Liechtenstein",
    "country": "LI",
    "lastUpdated": "2020-04-13T11:51:02.498Z",
    "dead": 1,
    "id": "LTGEU2E9MFkrCcFhZYVk",
    "infected": 79,
    "recovered": 55,
    "sick": 23,
    "invisible": false
  },
  {
    "latitude": 9.9456,
    "pop": 12720000,
    "longitude": -9.6966,
    "name": "Guinea",
    "country": "GN",
    "lastUpdated": "2020-04-13T11:51:02.496Z",
    "dead": 0,
    "id": "LU2QWt5ao8IJa8evNYVV",
    "infected": 250,
    "recovered": 17,
    "sick": 233,
    "invisible": false
  },
  {
    "latitude": 29.6667,
    "pop": 3062000,
    "longitude": -110.5,
    "name": "Sonora",
    "country": "MX",
    "lastUpdated": "2020-04-13T11:40:06.953Z",
    "dead": 12,
    "id": "LYCBHrA9ms6GcxpLGPCT",
    "infected": 86,
    "recovered": 0,
    "sick": 74,
    "invisible": false
  },
  {
    "infected": 10,
    "recovered": 4,
    "latitude": 3.9193051,
    "pop": 563402,
    "longitude": -56.0277824,
    "name": "Suriname",
    "country": "SR",
    "lastUpdated": "2020-04-13T11:51:02.505Z",
    "dead": 1,
    "id": "LglKINHyQpYpFxjckbQ6",
    "sick": 5,
    "invisible": false
  },
  {
    "id": "LkIDKY0CMAqzbwBHyYCP",
    "infected": 298,
    "recovered": 0,
    "latitude": 52.9399,
    "pop": 1174000,
    "longitude": -106.4509,
    "name": "Saskatchewan",
    "country": "CA",
    "lastUpdated": "2020-04-13T11:36:01.512Z",
    "dead": 4,
    "sick": 294,
    "invisible": false
  },
  {
    "infected": 6,
    "recovered": 0,
    "latitude": 24.2155,
    "pop": 636442,
    "longitude": -12.8858,
    "name": "Western Sahara",
    "country": "EH",
    "lastUpdated": "2020-04-13T11:51:02.505Z",
    "dead": 0,
    "id": "LooNn6RuMiDhQnwa9svw",
    "sick": 6,
    "invisible": false
  },
  {
    "infected": 1958,
    "recovered": 434,
    "latitude": 43.363129,
    "pop": 1022000,
    "longitude": -5.951843,
    "name": "Principado de Asturias",
    "country": "ES",
    "lastUpdated": "2020-04-13T11:41:04.328Z",
    "dead": 149,
    "id": "Lsga7AvYNnY0qQ5gEfV8",
    "sick": 1375,
    "invisible": false
  },
  {
    "infected": 2658,
    "recovered": 511,
    "latitude": 39.4937,
    "pop": 1065000,
    "longitude": -6.0679,
    "name": "Extremadura",
    "country": "ES",
    "lastUpdated": "2020-04-13T11:41:04.412Z",
    "dead": 321,
    "id": "LuEErlF7dVKI0eJsRjFm",
    "sick": 1826,
    "invisible": false
  },
  {
    "id": "M3wdiueFtwrUHiQ2rOXA",
    "infected": 93,
    "recovered": 0,
    "latitude": 21.0186,
    "pop": 5965000,
    "longitude": -101.2591,
    "name": "Guanajuato",
    "country": "MX",
    "lastUpdated": "2020-04-13T11:40:06.953Z",
    "dead": 5,
    "sick": 88,
    "invisible": false
  },
  {
    "lastUpdated": "2020-04-13T11:57:16.522Z",
    "dead": 113,
    "id": "MC8MXFw9iXYybnF8v7e6",
    "infected": 2018,
    "recovered": 0,
    "latitude": 37.8393,
    "pop": 4468000,
    "longitude": -84.27,
    "name": "Kentucky",
    "country": "US",
    "sick": 1905,
    "invisible": false
  },
  {
    "latitude": 56.4907,
    "pop": 5450000,
    "longitude": -4.2026,
    "name": "Scotland",
    "country": "GB",
    "lastUpdated": "2020-04-13T11:30:01.661Z",
    "dead": 542,
    "id": "MObRYyIriHG337L8FyFC",
    "infected": 5912,
    "recovered": 0,
    "sick": 5370,
    "invisible": false
  },
  {
    "longitude": -86.1349,
    "name": "Indiana",
    "country": "US",
    "lastUpdated": "2020-04-13T11:57:16.519Z",
    "dead": 343,
    "id": "MOxDkmQ4wBi1CuAdVxDE",
    "infected": 7928,
    "recovered": 0,
    "latitude": 40.2672,
    "pop": 6692000,
    "sick": 7585,
    "invisible": false
  },
  {
    "latitude": 7.54,
    "pop": 24290000,
    "longitude": -5.5471,
    "name": "Ivory Coast",
    "country": "CI",
    "lastUpdated": "2020-04-13T11:51:02.494Z",
    "dead": 5,
    "id": "MdQOfc1gNh2DOqwSP6UV",
    "infected": 574,
    "recovered": 85,
    "sick": 484,
    "invisible": false
  },
  {
    "latitude": 51.4332,
    "pop": 17910000,
    "longitude": 7.6616,
    "name": "Nordrhein-Westfalen",
    "country": "DE",
    "lastUpdated": "2020-04-13T11:30:06.311Z",
    "dead": 612,
    "id": "MjpYq3zQyAvSQlVVYjD2",
    "infected": 26609,
    "recovered": 13038,
    "sick": 12959,
    "invisible": false
  },
  {
    "longitude": 105.977203,
    "name": "Ningxia",
    "country": "CN",
    "lastUpdated": "2020-04-13T11:23:10.059Z",
    "dead": 0,
    "id": "MntmjjuHljarCdt6aIeE",
    "infected": 75,
    "recovered": 75,
    "latitude": 37.330509,
    "pop": 6301000,
    "sick": 0,
    "invisible": false
  },
  {
    "recovered": 9856,
    "latitude": 48.6616,
    "pop": 11020000,
    "longitude": 9.3501,
    "name": "Baden-Württemberg",
    "country": "DE",
    "lastUpdated": "2020-04-13T11:30:06.304Z",
    "dead": 719,
    "id": "N3XsRBwJSsNclkEf7Zz5",
    "infected": 26057,
    "sick": 15482,
    "invisible": false
  },
  {
    "id": "N7c13sCQF0G789XAVazJ",
    "infected": 1030,
    "recovered": 206,
    "latitude": 44.696652,
    "pop": 3507000,
    "longitude": 17.824332,
    "name": "Bosnia and Herzegovina",
    "country": "BA",
    "lastUpdated": "2020-04-13T11:51:02.491Z",
    "dead": 39,
    "sick": 785,
    "invisible": false
  },
  {
    "id": "NBRIGIRrJB1Ry8prDNAC",
    "infected": 173,
    "recovered": 135,
    "latitude": 37.242565,
    "pop": 36500000,
    "longitude": 111.856857,
    "name": "Shanxi",
    "country": "CN",
    "lastUpdated": "2020-04-13T11:23:10.056Z",
    "dead": 0,
    "sick": 38,
    "invisible": false
  },
  {
    "id": "NC64Qp5kTqAfiTuR27k8",
    "infected": 4602,
    "recovered": 0,
    "latitude": 35.7596,
    "pop": 10380000,
    "longitude": -79.0193,
    "name": "North Carolina",
    "country": "US",
    "lastUpdated": "2020-04-13T11:57:16.521Z",
    "dead": 91,
    "sick": 4511,
    "invisible": false
  },
  {
    "id": "NJjo2gfBvnbK4xatrsUz",
    "infected": 2055,
    "recovered": 505,
    "latitude": 52.4125,
    "pop": 2504000,
    "longitude": 12.5316,
    "name": "Brandenburg",
    "country": "DE",
    "lastUpdated": "2020-04-13T11:30:06.310Z",
    "dead": 59,
    "sick": 1491,
    "invisible": false
  },
  {
    "longitude": -145.6739,
    "name": "Northern Mariana Islands",
    "country": "MP",
    "lastUpdated": "2020-04-13T11:57:16.527Z",
    "dead": 2,
    "id": "NLLL6pJhJSw0lrDMD4uP",
    "infected": 11,
    "recovered": 0,
    "latitude": 15.0979,
    "pop": 55144,
    "sick": 9,
    "invisible": false
  },
  {
    "latitude": 30.0668,
    "pop": 10080000,
    "longitude": 79.0193,
    "name": "Uttarakhand",
    "country": "IN",
    "lastUpdated": "2020-04-13T11:41:01.879Z",
    "dead": 0,
    "id": "NMeZEcGToxXfpi16PfFV",
    "infected": 35,
    "recovered": 5,
    "sick": 30,
    "invisible": false
  },
  {
    "latitude": 50.6521,
    "pop": 6243000,
    "longitude": 9.1624,
    "name": "Hessen",
    "country": "DE",
    "lastUpdated": "2020-04-13T11:30:06.310Z",
    "dead": 147,
    "id": "Nk5vPgUIXsWVfbWZf15O",
    "infected": 6099,
    "recovered": 2046,
    "sick": 3906,
    "invisible": false
  },
  {
    "recovered": 16,
    "latitude": 56.96776,
    "pop": 1920000,
    "longitude": 25.837107,
    "name": "Latvia",
    "country": "LV",
    "lastUpdated": "2020-04-13T11:51:02.494Z",
    "dead": 5,
    "id": "NmmMKy0YqA8StHdGzB5N",
    "infected": 653,
    "sick": 632,
    "invisible": false
  },
  {
    "latitude": 6.4281,
    "pop": 4732000,
    "longitude": -9.4295,
    "name": "Liberia",
    "country": "LR",
    "lastUpdated": "2020-04-13T11:51:02.500Z",
    "dead": 5,
    "id": "O4g88K49HKEZLFXm5gxb",
    "infected": 50,
    "recovered": 4,
    "sick": 41,
    "invisible": false
  },
  {
    "infected": 3320,
    "recovered": 0,
    "latitude": 34.003307,
    "pop": 5084000,
    "longitude": -80.525613,
    "name": "South Carolina",
    "country": "US",
    "lastUpdated": "2020-04-13T11:57:16.521Z",
    "dead": 82,
    "id": "ONU4CK8QjViFHKg2w5if",
    "sick": 3238,
    "invisible": false
  },
  {
    "id": "OYa0jFzdbAgo8zUsRv6q",
    "infected": 2781,
    "recovered": 0,
    "latitude": 33.51822,
    "pop": 2987000,
    "longitude": -89.582775,
    "name": "Mississippi",
    "country": "US",
    "lastUpdated": "2020-04-13T11:57:16.522Z",
    "dead": 96,
    "sick": 2685,
    "invisible": false
  },
  {
    "latitude": 45.2538,
    "pop": 1338000,
    "longitude": -69.4455,
    "name": "Maine",
    "country": "US",
    "lastUpdated": "2020-04-13T11:57:16.525Z",
    "dead": 19,
    "id": "OcXNp9kNVSwrRlG3bNVN",
    "infected": 633,
    "recovered": 0,
    "sick": 614,
    "invisible": false
  },
  {
    "infected": 144,
    "recovered": 48,
    "latitude": -41.915264,
    "pop": 515000,
    "longitude": 146.725256,
    "name": "Tasmania",
    "country": "AU",
    "lastUpdated": "2020-04-13T11:36:01.512Z",
    "dead": 5,
    "id": "OnOseaqWdnuP18oruABW",
    "sick": 91,
    "invisible": false
  },
  {
    "latitude": 19.3133,
    "pop": 61559,
    "longitude": -81.2546,
    "name": "Cayman Islands",
    "country": "KY",
    "lastUpdated": "2020-04-13T11:51:02.500Z",
    "dead": 1,
    "id": "P4mwRFLbrvT0t75uD8Wo",
    "infected": 53,
    "recovered": 6,
    "sick": 46,
    "invisible": false
  },
  {
    "lastUpdated": "2020-04-13T11:51:02.505Z",
    "dead": 0,
    "id": "PEDkeFMTOZpvHiSVxBk7",
    "infected": 11,
    "recovered": 1,
    "latitude": 16.7424984,
    "pop": 5900,
    "longitude": -62.1873665,
    "name": "Montserrat",
    "country": "MS",
    "sick": 10,
    "invisible": false
  },
  {
    "latitude": -1.9403,
    "pop": 12210000,
    "longitude": 29.8739,
    "name": "Rwanda",
    "country": "RW",
    "lastUpdated": "2020-04-13T11:51:02.498Z",
    "dead": 0,
    "id": "PEcgZGEkyhABztt1Ufgc",
    "infected": 126,
    "recovered": 25,
    "sick": 101,
    "invisible": false
  },
  {
    "lastUpdated": "2020-04-13T11:57:16.523Z",
    "dead": 70,
    "id": "PJvVYosLIhbcRZYnKX1R",
    "infected": 1621,
    "recovered": 0,
    "latitude": 46.7296,
    "pop": 5611000,
    "longitude": -94.6859,
    "name": "Minnesota",
    "country": "US",
    "sick": 1551,
    "invisible": false
  },
  {
    "longitude": -89.3985,
    "name": "Illinois",
    "country": "US",
    "lastUpdated": "2020-04-13T11:57:16.518Z",
    "dead": 720,
    "id": "PTwQr9ijo0TBBsPH2sdJ",
    "infected": 20852,
    "recovered": 0,
    "latitude": 40.6331,
    "pop": 12740000,
    "sick": 20132,
    "invisible": false
  },
  {
    "longitude": -60.978893,
    "name": "Saint Lucia",
    "country": "LC",
    "lastUpdated": "2020-04-13T11:51:02.504Z",
    "dead": 0,
    "id": "PjLqCeFdyzdZNcZxMkK1",
    "infected": 15,
    "recovered": 4,
    "latitude": 13.909444,
    "pop": 178844,
    "sick": 11,
    "invisible": false
  },
  {
    "id": "PmUlsNx2uFLU797wwU39",
    "infected": 4092,
    "recovered": 695,
    "latitude": 42.6954,
    "pop": 649900,
    "longitude": -1.6761,
    "name": "Comunidad Foral de Navarra",
    "country": "ES",
    "lastUpdated": "2020-04-13T11:41:04.414Z",
    "dead": 239,
    "sick": 3158,
    "invisible": false
  },
  {
    "longitude": 9.460554,
    "name": "Tunisia",
    "country": "TN",
    "lastUpdated": "2020-04-13T11:51:02.493Z",
    "dead": 31,
    "id": "Pr76V4raf108uSRoEXac",
    "infected": 707,
    "recovered": 43,
    "latitude": 34.201507,
    "pop": 11530000,
    "sick": 633,
    "invisible": false
  },
  {
    "infected": 14,
    "recovered": 7,
    "latitude": -26.5225,
    "pop": 1367000,
    "longitude": 31.4659,
    "name": "Eswatini",
    "country": "SZ",
    "lastUpdated": "2020-04-13T11:51:02.504Z",
    "dead": 0,
    "id": "PuQgOd9KWiMzGZXm11sR",
    "sick": 7,
    "invisible": false
  },
  {
    "infected": 1281,
    "recovered": 926,
    "latitude": -37.009609,
    "pop": 6359000,
    "longitude": 143.94853,
    "name": "Victoria",
    "country": "AU",
    "lastUpdated": "2020-04-13T11:36:01.505Z",
    "dead": 14,
    "id": "Q18mrGvFWTLX2BU9SqhQ",
    "sick": 341,
    "invisible": false
  },
  {
    "latitude": 54.2194,
    "pop": 2890000,
    "longitude": 9.6961,
    "name": "Schleswig-Holstein",
    "country": "DE",
    "lastUpdated": "2020-04-13T11:30:06.311Z",
    "dead": 46,
    "id": "Q39XkabIYxt15mHINzTa",
    "infected": 2138,
    "recovered": 1200,
    "sick": 892,
    "invisible": false
  },
  {
    "latitude": 58.595272,
    "pop": 1328000,
    "longitude": 25.013607,
    "name": "Estonia",
    "country": "EE",
    "lastUpdated": "2020-04-13T11:51:02.490Z",
    "dead": 27,
    "id": "QR9go2hQKXjty7JHUYe4",
    "infected": 1332,
    "recovered": 102,
    "sick": 1203,
    "invisible": false
  },
  {
    "infected": 156,
    "recovered": 0,
    "latitude": 20.3333,
    "pop": 8222700,
    "longitude": -103.6667,
    "name": "Jalisco",
    "country": "MX",
    "lastUpdated": "2020-04-13T11:40:06.954Z",
    "dead": 11,
    "id": "Qkho455pBwx88Gohs3hL",
    "sick": 145,
    "invisible": false
  },
  {
    "longitude": 143.9555,
    "name": "Papua New Guinea",
    "country": "PG",
    "lastUpdated": "2020-04-13T11:51:02.506Z",
    "dead": 0,
    "id": "QlZrE4nosm5WfdA2aCDg",
    "infected": 2,
    "recovered": 0,
    "latitude": -6.315,
    "pop": 8251000,
    "sick": 2,
    "invisible": false
  },
  {
    "id": "QqhD3YDMKXojvQY3Yu41",
    "infected": 51,
    "recovered": 0,
    "latitude": 18.3358,
    "pop": 107268,
    "longitude": -64.8963,
    "name": "U.S. Virgin Islands",
    "country": "US",
    "lastUpdated": "2020-04-13T11:57:16.526Z",
    "dead": 1,
    "sick": 50,
    "invisible": false
  },
  {
    "infected": 16,
    "recovered": 8,
    "latitude": 15.414999,
    "pop": 71937,
    "longitude": -61.3709755,
    "name": "Dominica",
    "country": "DM",
    "lastUpdated": "2020-04-13T11:51:02.504Z",
    "dead": 0,
    "id": "Qy2qW2ep5wltnYjPJBxh",
    "sick": 8,
    "invisible": false
  },
  {
    "latitude": 5.167,
    "pop": 344027,
    "longitude": -72.167,
    "name": "Casanare",
    "country": "CO",
    "lastUpdated": "2020-04-13T11:26:09.134Z",
    "dead": 0,
    "id": "R3IHMWqIUhOJJTlrmbUZ",
    "infected": 7,
    "recovered": 1,
    "sick": 6,
    "invisible": false
  },
  {
    "id": "R8YCgephnxTufvcPWMgx",
    "infected": 3400,
    "recovered": 29,
    "latitude": 8.538,
    "pop": 4099000,
    "longitude": -80.7821,
    "name": "Panama",
    "country": "PA",
    "lastUpdated": "2020-04-13T11:51:02.487Z",
    "dead": 87,
    "sick": 3284,
    "invisible": false
  },
  {
    "latitude": 15.2,
    "pop": 9265000,
    "longitude": -86.2419,
    "name": "Honduras",
    "country": "HN",
    "lastUpdated": "2020-04-13T11:51:02.495Z",
    "dead": 25,
    "id": "RA2SE0p2bVhqo0P2hzGY",
    "infected": 397,
    "recovered": 7,
    "sick": 365,
    "invisible": false
  },
  {
    "latitude": -18.4745998,
    "pop": 224500,
    "longitude": -70.2979202,
    "name": "Arica y Parinacota",
    "country": "CL",
    "lastUpdated": "2020-04-13T11:37:13.731Z",
    "dead": 1,
    "id": "RBt9RiwP7WUbMnJfD0lo",
    "infected": 115,
    "recovered": 0,
    "sick": 114,
    "invisible": false
  },
  {
    "longitude": 13.8,
    "name": "Friuli Venezia Giulia",
    "country": "IT",
    "lastUpdated": "2020-04-13T11:39:01.853Z",
    "dead": 195,
    "id": "RCrDBCdBNYzgLNr0aB2H",
    "infected": 2431,
    "recovered": 910,
    "latitude": 45.633331,
    "pop": 1216000,
    "sick": 1326,
    "invisible": false
  },
  {
    "longitude": -93.0977,
    "name": "Iowa",
    "country": "US",
    "lastUpdated": "2020-04-13T11:57:16.523Z",
    "dead": 41,
    "id": "RX0KDu1AFrlCsrRso0nb",
    "infected": 1587,
    "recovered": 0,
    "latitude": 41.878,
    "pop": 3156000,
    "sick": 1546,
    "invisible": false
  },
  {
    "lastUpdated": "2020-04-13T11:26:09.125Z",
    "dead": 47,
    "id": "RZ6PCe5TZsO15JjDObwO",
    "infected": 1186,
    "recovered": 84,
    "latitude": 4.624335,
    "pop": 7413000,
    "longitude": -74.063644,
    "name": "Bogotá D.C.",
    "country": "CO",
    "sick": 1055,
    "invisible": false
  },
  {
    "lastUpdated": "2020-04-13T11:51:02.503Z",
    "dead": 1,
    "id": "RaJxbzlnRFTuj4B8IbpC",
    "infected": 25,
    "recovered": 9,
    "latitude": 26.3351002,
    "pop": 6846000,
    "longitude": 17.2283306,
    "name": "Libya",
    "country": "LY",
    "sick": 15,
    "invisible": false
  },
  {
    "latitude": 39.0119,
    "pop": 2912000,
    "longitude": -98.4842,
    "name": "Kansas",
    "country": "US",
    "lastUpdated": "2020-04-13T11:57:16.523Z",
    "dead": 56,
    "id": "Rf4uvBfP3GRDSHdZElRd",
    "infected": 1337,
    "recovered": 0,
    "sick": 1281,
    "invisible": false
  },
  {
    "id": "RmEgf1xeclWt7XCF9oiR",
    "infected": 16266,
    "recovered": 4725,
    "latitude": 48.6998,
    "pop": 5518000,
    "longitude": 6.1878,
    "name": "Grand Est",
    "country": "FR",
    "lastUpdated": "2020-04-13T10:28:24.948Z",
    "dead": 2064,
    "sick": 9477,
    "invisible": false
  },
  {
    "latitude": 50.4176,
    "pop": 3644000,
    "longitude": 4.451,
    "name": "Wallonia",
    "country": "BE",
    "lastUpdated": "2020-04-13T11:36:10.287Z",
    "dead": 1391,
    "id": "RryHraSohKQLAsdr1dHO",
    "infected": 9164,
    "recovered": 1767,
    "sick": 6006,
    "invisible": false
  },
  {
    "latitude": 51.2538,
    "pop": 14570000,
    "longitude": -85.3232,
    "name": "Ontario",
    "country": "CA",
    "lastUpdated": "2020-04-13T11:36:01.504Z",
    "dead": 274,
    "id": "Rx4TuyMpfGb3S8wYJX0x",
    "infected": 7049,
    "recovered": 0,
    "sick": 6775,
    "invisible": false
  },
  {
    "latitude": 41.652779,
    "pop": 2408000,
    "longitude": -4.723611,
    "name": "Castilla y León",
    "country": "ES",
    "lastUpdated": "2020-04-13T11:41:04.329Z",
    "dead": 1263,
    "id": "S8ewN4zaYp8mjtuqqOTw",
    "infected": 12628,
    "recovered": 4154,
    "sick": 7211,
    "invisible": false
  },
  {
    "infected": 157,
    "recovered": 50,
    "latitude": 14.652027,
    "pop": 376480,
    "longitude": -61.011715,
    "name": "Martinique",
    "country": "FR",
    "lastUpdated": "2020-04-13T11:51:02.497Z",
    "dead": 6,
    "id": "SDdefnq1bc3ZNr7SpEsW",
    "sick": 101,
    "invisible": false
  },
  {
    "longitude": -1.0232,
    "name": "Ghana",
    "country": "GH",
    "lastUpdated": "2020-04-13T11:51:02.494Z",
    "dead": 8,
    "id": "SG9VWLOV3x2JsTkXmVSz",
    "infected": 566,
    "recovered": 4,
    "latitude": 7.9465,
    "pop": 28830000,
    "sick": 554,
    "invisible": false
  },
  {
    "longitude": 8.227512,
    "name": "Switzerland",
    "country": "CH",
    "lastUpdated": "2020-04-13T11:51:02.484Z",
    "dead": 1117,
    "id": "SGe9sCPayMqh6RsGFaBA",
    "infected": 25503,
    "recovered": 12700,
    "latitude": 46.818188,
    "pop": 8570000,
    "sick": 11686,
    "invisible": false
  },
  {
    "infected": 12846,
    "recovered": 0,
    "latitude": 46.8139,
    "pop": 8485000,
    "longitude": -71.208,
    "name": "Quebec",
    "country": "CA",
    "lastUpdated": "2020-04-13T11:36:01.503Z",
    "dead": 328,
    "id": "SHoOE3NiJgWAlDVBzwYH",
    "sick": 12518,
    "invisible": false
  },
  {
    "infected": 362,
    "recovered": 59,
    "latitude": 42.6026,
    "pop": 1831000,
    "longitude": 20.903,
    "name": "Kosovo",
    "country": "XK",
    "lastUpdated": "2020-04-13T11:25:08.539Z",
    "dead": 7,
    "id": "SMWvuMMuKp2QK7O2tNia",
    "sick": 296,
    "invisible": false
  },
  {
    "lastUpdated": "2020-04-13T11:41:01.880Z",
    "dead": 0,
    "id": "SPcujsH2YlUaoAr8AiWF",
    "infected": 7,
    "recovered": 5,
    "latitude": 15.2993,
    "pop": 1817000,
    "longitude": 74.124,
    "name": "Goa",
    "country": "IN",
    "sick": 2,
    "invisible": false
  },
  {
    "lastUpdated": "2020-04-13T11:39:01.852Z",
    "dead": 66,
    "id": "SZdF624x0v1LlyzZjKFu",
    "infected": 923,
    "recovered": 62,
    "latitude": 39,
    "pop": 1957000,
    "longitude": 16.5,
    "name": "Calabria",
    "country": "IT",
    "sick": 795,
    "invisible": false
  },
  {
    "lastUpdated": "2020-04-13T11:57:16.524Z",
    "dead": 17,
    "id": "SakhKQzKu1LRI8laqdQq",
    "infected": 814,
    "recovered": 0,
    "latitude": 41.4925,
    "pop": 1929000,
    "longitude": -99.9018,
    "name": "Nebraska",
    "country": "US",
    "sick": 797,
    "invisible": false
  },
  {
    "id": "SgHzWAAYK1j2sipovxM6",
    "infected": 389,
    "recovered": 40,
    "latitude": -21.1151,
    "pop": 859959,
    "longitude": 55.5364,
    "name": "La Réunion",
    "country": "FR",
    "lastUpdated": "2020-04-13T11:51:02.495Z",
    "dead": 0,
    "sick": 349,
    "invisible": false
  },
  {
    "longitude": 104.990967,
    "name": "Cambodia",
    "country": "KH",
    "lastUpdated": "2020-04-13T11:51:02.498Z",
    "dead": 0,
    "id": "SioMALgUbo7peXmbco2f",
    "infected": 122,
    "recovered": 77,
    "latitude": 12.565679,
    "pop": 16010000,
    "sick": 45,
    "invisible": false
  },
  {
    "latitude": 13.4443,
    "pop": 164229,
    "longitude": 144.7937,
    "name": "Guam",
    "country": "GU",
    "lastUpdated": "2020-04-13T11:57:16.526Z",
    "dead": 5,
    "id": "SsWhuEElU7dCTTuH5fdQ",
    "infected": 133,
    "recovered": 0,
    "sick": 128,
    "invisible": false
  },
  {
    "infected": 235,
    "recovered": 17,
    "latitude": -4.0383,
    "pop": 81340000,
    "longitude": 21.7587,
    "name": "DR Congo",
    "country": "CD",
    "lastUpdated": "2020-04-13T11:51:02.497Z",
    "dead": 20,
    "id": "T3iRf8mTUTAzbKrORTap",
    "sick": 198,
    "invisible": false
  },
  {
    "recovered": 761,
    "latitude": 23.635796,
    "pop": 32940000,
    "longitude": 44.344334,
    "name": "Saudi Arabia",
    "country": "SA",
    "lastUpdated": "2020-04-13T11:51:02.487Z",
    "dead": 59,
    "id": "T7NffoeCgTUpAbOHvYwP",
    "infected": 4462,
    "sick": 3642,
    "invisible": false
  },
  {
    "latitude": 42.2871,
    "pop": 315700,
    "longitude": -2.5396,
    "name": "La Rioja",
    "country": "ES",
    "lastUpdated": "2020-04-13T11:41:04.414Z",
    "dead": 223,
    "id": "TNDTapyb0k3l7Mds9q9R",
    "infected": 3358,
    "recovered": 1458,
    "sick": 1677,
    "invisible": false
  },
  {
    "id": "TQCWbhIpJQBQxBjhCGVJ",
    "infected": 115,
    "recovered": 0,
    "latitude": 20.400417,
    "pop": 2207200,
    "longitude": -89.134857,
    "name": "Yucatán",
    "country": "MX",
    "lastUpdated": "2020-04-13T11:40:06.953Z",
    "dead": 8,
    "sick": 107,
    "invisible": false
  },
  {
    "latitude": 4.506106,
    "pop": 428697,
    "longitude": 114.650692,
    "name": "Brunei",
    "country": "BN",
    "lastUpdated": "2020-04-13T11:51:02.497Z",
    "dead": 1,
    "id": "TQZmzsLhJqjtCSExAkCP",
    "infected": 136,
    "recovered": 107,
    "sick": 28,
    "invisible": false
  },
  {
    "recovered": 2936,
    "latitude": 45.4471,
    "pop": 8027000,
    "longitude": 4.3853,
    "name": "Auvergne-Rhône-Alpes",
    "country": "FR",
    "lastUpdated": "2020-04-13T10:27:57.735Z",
    "dead": 773,
    "id": "TT0MKODSjrxHvG19xZCa",
    "infected": 9382,
    "sick": 5673,
    "invisible": false
  },
  {
    "lastUpdated": "2020-04-13T11:57:16.519Z",
    "dead": 290,
    "id": "Th4dlpXXmSDgi1OHs36P",
    "infected": 7307,
    "recovered": 0,
    "latitude": 39.318928,
    "pop": 5696000,
    "longitude": -105.461392,
    "name": "Colorado",
    "country": "US",
    "sick": 7017,
    "invisible": false
  },
  {
    "infected": 497,
    "recovered": 161,
    "latitude": 12.2383,
    "pop": 19190000,
    "longitude": -1.5616,
    "name": "Burkina Faso",
    "country": "BF",
    "lastUpdated": "2020-04-13T11:51:02.494Z",
    "dead": 27,
    "id": "Tup6oDCHj6DgqZR3nQ3x",
    "sick": 309,
    "invisible": false
  },
  {
    "id": "TvqURPN5xzVBXsmGP46N",
    "infected": 14,
    "recovered": 0,
    "latitude": 12.104818,
    "pop": 112381,
    "longitude": -61.670761,
    "name": "Grenada",
    "country": "GD",
    "lastUpdated": "2020-04-13T11:51:02.504Z",
    "dead": 0,
    "sick": 14,
    "invisible": false
  },
  {
    "latitude": 55.675758,
    "pop": 5603000,
    "longitude": 12.56902,
    "name": "Denmark",
    "country": "DK",
    "lastUpdated": "2020-04-13T11:51:02.486Z",
    "dead": 273,
    "id": "Ty1AY3VLPJcRZgdBIERx",
    "infected": 6174,
    "recovered": 2123,
    "sick": 3778,
    "invisible": false
  },
  {
    "recovered": 758,
    "latitude": 36.395859,
    "pop": 100472400,
    "longitude": 118.769882,
    "name": "Shandong",
    "country": "CN",
    "lastUpdated": "2020-04-13T11:23:10.058Z",
    "dead": 7,
    "id": "U0tkTJ9CGsBuFJ2Gdoum",
    "infected": 784,
    "sick": 19,
    "invisible": false
  },
  {
    "lastUpdated": "2020-04-13T11:51:02.495Z",
    "dead": 35,
    "id": "U12rMD5GDW58Q0lIwrB1",
    "infected": 356,
    "recovered": 53,
    "latitude": 43.94236,
    "pop": 33400,
    "longitude": 12.457777,
    "name": "San Marino",
    "country": "SM",
    "sick": 268,
    "invisible": false
  },
  {
    "longitude": 138.25293,
    "name": "Japan",
    "country": "JP",
    "lastUpdated": "2020-04-13T11:51:02.485Z",
    "dead": 123,
    "id": "U13Gy4BpRLAZ95bPmBXd",
    "infected": 7370,
    "recovered": 784,
    "latitude": 36.204823,
    "pop": 126800000,
    "sick": 6463,
    "invisible": false
  },
  {
    "infected": 54,
    "recovered": 4,
    "latitude": 1.3733,
    "pop": 42860000,
    "longitude": 32.2903,
    "name": "Uganda",
    "country": "UG",
    "lastUpdated": "2020-04-13T11:51:02.500Z",
    "dead": 0,
    "id": "UCZXEgnHtxUoChWLR6fQ",
    "sick": 50,
    "invisible": false
  },
  {
    "recovered": 4,
    "latitude": -11.2027,
    "pop": 29780000,
    "longitude": 17.8739,
    "name": "Angola",
    "country": "AO",
    "lastUpdated": "2020-04-13T11:51:02.503Z",
    "dead": 2,
    "id": "UIbrFy6kiTTF0D37Kqmp",
    "infected": 19,
    "sick": 13,
    "invisible": false
  },
  {
    "longitude": -2.9326,
    "name": "Bretagne",
    "country": "FR",
    "lastUpdated": "2020-04-13T10:28:07.356Z",
    "dead": 132,
    "id": "URKMlJ7OTNldjpaxFbjE",
    "infected": 1565,
    "recovered": 481,
    "latitude": 48.202,
    "pop": 3329000,
    "sick": 952,
    "invisible": false
  },
  {
    "recovered": 2000,
    "latitude": 53.5511,
    "pop": 1822000,
    "longitude": 9.9937,
    "name": "Hamburg",
    "country": "DE",
    "lastUpdated": "2020-04-13T11:30:06.310Z",
    "dead": 56,
    "id": "UfFaUECHINUutv1M9tzq",
    "infected": 3817,
    "sick": 1761,
    "invisible": false
  },
  {
    "id": "UflxTAb4FnAwve7c5MbY",
    "infected": 18,
    "recovered": 0,
    "latitude": 22.774916,
    "pop": 1615000,
    "longitude": -102.586899,
    "name": "Zacatecas",
    "country": "MX",
    "lastUpdated": "2020-04-13T11:40:06.953Z",
    "dead": 2,
    "sick": 16,
    "invisible": false
  },
  {
    "recovered": 2,
    "latitude": -19.4914,
    "pop": 211945,
    "longitude": 132.551,
    "name": "Northern Territory",
    "country": "AU",
    "lastUpdated": "2020-04-13T11:36:01.513Z",
    "dead": 0,
    "id": "UrF45V1VqMo6YBib2KlL",
    "infected": 27,
    "sick": 25,
    "invisible": false
  },
  {
    "infected": 50,
    "recovered": 5,
    "latitude": 18.0424805,
    "pop": 41109,
    "longitude": -63.0548286,
    "name": "Sint Maarten",
    "country": "SX",
    "lastUpdated": "2020-04-13T11:51:02.500Z",
    "dead": 9,
    "id": "UsxgpiuFCtlR2CW1UUFm",
    "sick": 36,
    "invisible": false
  },
  {
    "lastUpdated": "2020-04-13T11:30:01.661Z",
    "dead": 0,
    "id": "UzOGOMitJmaFTdh2FbvI",
    "infected": 10819,
    "recovered": 0,
    "latitude": 52.3449,
    "pop": 10135000,
    "longitude": -1.9718,
    "name": "Midlands",
    "country": "GB",
    "sick": 10819,
    "invisible": false
  },
  {
    "infected": 7,
    "recovered": 1,
    "latitude": 11.943179,
    "pop": 241773,
    "longitude": 79.808206,
    "name": "Puducherry",
    "country": "IN",
    "lastUpdated": "2020-04-13T11:41:01.880Z",
    "dead": 0,
    "id": "V1qE740s3EUGyKGr6SVv",
    "sick": 6,
    "invisible": false
  },
  {
    "infected": 7,
    "recovered": 0,
    "latitude": -45.5687,
    "pop": 25569,
    "longitude": -72.0597,
    "name": "Aysén",
    "country": "CL",
    "lastUpdated": "2020-04-13T11:37:13.738Z",
    "dead": 0,
    "id": "V9QxUhV4DyYK7iElEhXV",
    "sick": 7,
    "invisible": false
  },
  {
    "lastUpdated": "2020-04-13T11:51:02.493Z",
    "dead": 18,
    "id": "VAG9AcMABTf8oIAfELPh",
    "infected": 669,
    "recovered": 92,
    "latitude": 21.5218,
    "pop": 11480000,
    "longitude": -77.7812,
    "name": "Cuba",
    "country": "CU",
    "sick": 559,
    "invisible": false
  },
  {
    "lastUpdated": "2020-04-13T11:23:10.058Z",
    "dead": 2,
    "id": "VIf8T8PD3ZzlzAm5eBCX",
    "infected": 184,
    "recovered": 174,
    "latitude": 25.181129,
    "pop": 45970000,
    "longitude": 101.864143,
    "name": "Yunnan",
    "country": "CN",
    "sick": 8,
    "invisible": false
  },
  {
    "latitude": 26.8467,
    "pop": 204200000,
    "longitude": 80.9462,
    "name": "Uttar Pradesh",
    "country": "IN",
    "lastUpdated": "2020-04-13T11:41:01.877Z",
    "dead": 5,
    "id": "VcKcLdCkC6YpPfIDnRVD",
    "infected": 483,
    "recovered": 45,
    "sick": 433,
    "invisible": false
  },
  {
    "infected": 5,
    "recovered": 0,
    "latitude": 64.8255,
    "pop": 44826,
    "longitude": -124.8457,
    "name": "Northwest Territories",
    "country": "CA",
    "lastUpdated": "2020-04-13T11:36:01.513Z",
    "dead": 0,
    "id": "Vd3lLgrNsr81plzTgZkz",
    "sick": 5,
    "invisible": false
  },
  {
    "latitude": 39.999079,
    "pop": 1188000,
    "longitude": 3.838942,
    "name": "Islas Baleares",
    "country": "ES",
    "lastUpdated": "2020-04-13T11:41:04.328Z",
    "dead": 117,
    "id": "VyW0IR9vLMdgnKz1cC7j",
    "infected": 1550,
    "recovered": 862,
    "sick": 571,
    "invisible": false
  },
  {
    "infected": 3455,
    "recovered": 1287,
    "latitude": 43.8927,
    "pop": 5893000,
    "longitude": 3.2828,
    "name": "Occitanie",
    "country": "FR",
    "lastUpdated": "2020-04-13T10:29:10.797Z",
    "dead": 239,
    "id": "WAnbFrEjtZDTCIYBt8rz",
    "sick": 1929,
    "invisible": false
  },
  {
    "infected": 315,
    "recovered": 20,
    "latitude": 40.5,
    "pop": 567118,
    "longitude": 16.5,
    "name": "Basilicata",
    "country": "IT",
    "lastUpdated": "2020-04-13T11:39:01.852Z",
    "dead": 18,
    "id": "WD502XimGXnWzqYg7zxL",
    "sick": 277,
    "invisible": false
  },
  {
    "recovered": 1,
    "latitude": 24.6637,
    "pop": 2722000,
    "longitude": 93.9063,
    "name": "Manipur",
    "country": "IN",
    "lastUpdated": "2020-04-13T11:41:01.880Z",
    "dead": 0,
    "id": "WKsJQmcpWKxnp0nCwN77",
    "infected": 2,
    "sick": 1,
    "invisible": false
  },
  {
    "latitude": -30.5595,
    "pop": 56720000,
    "longitude": 22.9375,
    "name": "South Africa",
    "country": "ZA",
    "lastUpdated": "2020-04-13T11:51:02.488Z",
    "dead": 25,
    "id": "Whrue10NtwIObLvFFyBr",
    "infected": 2173,
    "recovered": 410,
    "sick": 1738,
    "invisible": false
  },
  {
    "id": "Wk811YwpQxsOCfz8As86",
    "infected": 9,
    "recovered": 2,
    "latitude": 13.443182,
    "pop": 2101000,
    "longitude": -15.3101387,
    "name": "Gambia",
    "country": "GM",
    "lastUpdated": "2020-04-13T11:51:02.505Z",
    "dead": 1,
    "sick": 6,
    "invisible": false
  },
  {
    "latitude": 19.352498,
    "pop": 17666800,
    "longitude": -99.625164,
    "name": "Estado de México",
    "country": "MX",
    "lastUpdated": "2020-04-13T11:40:06.954Z",
    "dead": 22,
    "id": "WpCXuQjYFLbozSpEhbrZ",
    "infected": 523,
    "recovered": 0,
    "sick": 501,
    "invisible": false
  },
  {
    "lastUpdated": "2020-04-13T11:51:02.492Z",
    "dead": 39,
    "id": "WpLayPPLIJ7VcHZdQaoM",
    "infected": 803,
    "recovered": 42,
    "latitude": 23.685,
    "pop": 164700000,
    "longitude": 90.3563,
    "name": "Bangladesh",
    "country": "BD",
    "sick": 722,
    "invisible": false
  },
  {
    "id": "Wt97UDm6jfYef6WBrS2w",
    "infected": 61,
    "recovered": 0,
    "latitude": 20.836,
    "pop": 2100000,
    "longitude": -99.8508,
    "name": "Querétaro",
    "country": "MX",
    "lastUpdated": "2020-04-13T11:40:06.952Z",
    "dead": 3,
    "sick": 58,
    "invisible": false
  },
  {
    "infected": 14077,
    "recovered": 2492,
    "latitude": 45.5,
    "pop": 4905000,
    "longitude": 11.75,
    "name": "Veneto",
    "country": "IT",
    "lastUpdated": "2020-04-13T11:39:01.854Z",
    "dead": 856,
    "id": "X2iRhHF6f9pUnJcxPc3J",
    "sick": 10729,
    "invisible": false
  },
  {
    "latitude": -8.556856,
    "pop": 1311000,
    "longitude": 125.56031,
    "name": "Timor-Leste",
    "country": "TL",
    "lastUpdated": "2020-04-13T11:51:02.506Z",
    "dead": 0,
    "id": "X3GMAVINj2GDzIRVfo7n",
    "infected": 4,
    "recovered": 1,
    "sick": 3,
    "invisible": false
  },
  {
    "lastUpdated": "2020-04-13T11:41:01.880Z",
    "dead": 0,
    "id": "X3PZqaJxtnlxcgP4tzya",
    "infected": 15,
    "recovered": 11,
    "latitude": 34.152588,
    "pop": 274289,
    "longitude": 77.577049,
    "name": "Ladakh",
    "country": "IN",
    "sick": 4,
    "invisible": false
  },
  {
    "latitude": 25.92448,
    "pop": 38560000,
    "longitude": 118.278992,
    "name": "Fujian",
    "country": "CN",
    "lastUpdated": "2020-04-13T11:23:10.057Z",
    "dead": 1,
    "id": "XBBw0iMPrmiEu3qogkbi",
    "infected": 352,
    "recovered": 325,
    "sick": 26,
    "invisible": false
  },
  {
    "lastUpdated": "2020-04-13T11:37:13.738Z",
    "dead": 4,
    "id": "XIYUg6ShQvWyEAJfyJzC",
    "infected": 396,
    "recovered": 0,
    "latitude": -52.368,
    "pop": 166533,
    "longitude": -70.9863,
    "name": "Magallanes",
    "country": "CL",
    "sick": 392,
    "invisible": false
  },
  {
    "longitude": -55.7658,
    "name": "Uruguay",
    "country": "UY",
    "lastUpdated": "2020-04-13T11:51:02.494Z",
    "dead": 8,
    "id": "XrsuLstdybIqIvv0E0aJ",
    "infected": 480,
    "recovered": 231,
    "latitude": -32.5228,
    "pop": 3457000,
    "sick": 241,
    "invisible": false
  },
  {
    "longitude": 9.0129,
    "name": "Corse",
    "country": "FR",
    "lastUpdated": "2020-04-13T10:28:17.501Z",
    "dead": 36,
    "id": "YGXgIObKVabP2CYEdcb9",
    "infected": 357,
    "recovered": 126,
    "latitude": 42.0396,
    "pop": 339178,
    "sick": 195,
    "invisible": false
  },
  {
    "latitude": 2.916112,
    "pop": 1126000,
    "longitude": -75.28344,
    "name": "Huila",
    "country": "CO",
    "lastUpdated": "2020-04-13T11:26:09.133Z",
    "dead": 3,
    "id": "YI9zIOUXJqAcgc0T80yb",
    "infected": 52,
    "recovered": 10,
    "sick": 39,
    "invisible": false
  },
  {
    "id": "YMzKw0SnXG71VT7H1jff",
    "infected": 290,
    "recovered": 58,
    "latitude": 31.9522,
    "pop": 5052000,
    "longitude": 35.2332,
    "name": "Palestine",
    "country": "PS",
    "lastUpdated": "2020-04-13T11:51:02.496Z",
    "dead": 2,
    "sick": 230,
    "invisible": false
  },
  {
    "infected": 153,
    "recovered": 0,
    "latitude": 17.97,
    "pop": 2460900,
    "longitude": -92.5867,
    "name": "Tabasco",
    "country": "MX",
    "lastUpdated": "2020-04-13T11:40:06.951Z",
    "dead": 12,
    "id": "YP3nlz6AKyrnCWYb5mHA",
    "sick": 141,
    "invisible": false
  },
  {
    "recovered": 0,
    "latitude": 11.8037491,
    "pop": 1955000,
    "longitude": -15.1804132,
    "name": "Guinea-Bissau",
    "country": "GW",
    "lastUpdated": "2020-04-13T11:51:02.501Z",
    "dead": 0,
    "id": "YZoy8ReFucvC3IFnWZHn",
    "infected": 38,
    "sick": 38,
    "invisible": false
  },
  {
    "latitude": 64.2008,
    "pop": 737438,
    "longitude": -149.4937,
    "name": "Alaska",
    "country": "US",
    "lastUpdated": "2020-04-13T11:57:16.526Z",
    "dead": 8,
    "id": "YaCODTMD1KKRnrAlkg2u",
    "infected": 272,
    "recovered": 0,
    "sick": 264,
    "invisible": false
  },
  {
    "infected": 11018,
    "recovered": 5026,
    "latitude": 42.9896,
    "pop": 2178000,
    "longitude": -2.6189,
    "name": "País Vasco",
    "country": "ES",
    "lastUpdated": "2020-04-13T11:41:04.414Z",
    "dead": 831,
    "id": "YfA7o2lZP1DhV4JB6Umh",
    "sick": 5161,
    "invisible": false
  },
  {
    "lastUpdated": "2020-04-13T11:40:06.946Z",
    "dead": 3,
    "id": "YidRsOGDERjtbaIBGCdu",
    "infected": 43,
    "recovered": 0,
    "latitude": 16.8922,
    "pop": 4091400,
    "longitude": -96.4085,
    "name": "Oaxaca",
    "country": "MX",
    "sick": 40,
    "invisible": false
  },
  {
    "longitude": 126.99778,
    "name": "South Korea",
    "country": "KR",
    "lastUpdated": "2020-04-13T11:51:02.484Z",
    "dead": 217,
    "id": "Yw9uBekNlefXBcOCNMfP",
    "infected": 10537,
    "recovered": 7447,
    "latitude": 37.568291,
    "pop": 51470000,
    "sick": 2873,
    "invisible": false
  },
  {
    "id": "YzZqZMJGvG6joQCdiuXC",
    "infected": 71,
    "recovered": 11,
    "latitude": 13.193887,
    "pop": 285719,
    "longitude": -59.543198,
    "name": "Barbados",
    "country": "BB",
    "lastUpdated": "2020-04-13T11:51:02.499Z",
    "dead": 4,
    "sick": 56,
    "invisible": false
  },
  {
    "latitude": 52.2297,
    "pop": 37980000,
    "longitude": 21.0122,
    "name": "Poland",
    "country": "PL",
    "lastUpdated": "2020-04-13T11:51:02.485Z",
    "dead": 232,
    "id": "ZAZNuCK1VweBaTLCFzCk",
    "infected": 6674,
    "recovered": 439,
    "sick": 6003,
    "invisible": false
  },
  {
    "lastUpdated": "2020-04-13T11:40:06.953Z",
    "dead": 9,
    "id": "ZQSkzcEvJtBLgGbrf9gH",
    "infected": 63,
    "recovered": 0,
    "latitude": 19.167832,
    "pop": 4695300,
    "longitude": -101.893163,
    "name": "Michoacán",
    "country": "MX",
    "sick": 54,
    "invisible": false
  },
  {
    "lastUpdated": "2020-04-13T11:51:02.504Z",
    "dead": 0,
    "id": "ZmzOT0sJgfWXEpRImItC",
    "infected": 16,
    "recovered": 0,
    "latitude": -17.713371,
    "pop": 905502,
    "longitude": 178.065033,
    "name": "Fiji",
    "country": "FJ",
    "sick": 16,
    "invisible": false
  },
  {
    "lastUpdated": "2020-04-13T11:57:16.519Z",
    "dead": 554,
    "id": "Zqy0gftQzocR49jEJNMl",
    "infected": 12035,
    "recovered": 0,
    "latitude": 41.6032,
    "pop": 3573000,
    "longitude": -73.0877,
    "name": "Connecticut",
    "country": "US",
    "sick": 11481,
    "invisible": false
  },
  {
    "id": "Zwbjs4XN7P9s849Q3zFj",
    "infected": 5303,
    "recovered": 1489,
    "latitude": 43.616943,
    "pop": 1532000,
    "longitude": 13.516667,
    "name": "Marche",
    "country": "IT",
    "lastUpdated": "2020-04-13T11:39:01.853Z",
    "dead": 700,
    "sick": 3114,
    "invisible": false
  },
  {
    "latitude": 51.011,
    "pop": 2137000,
    "longitude": 10.8453,
    "name": "Thüringen",
    "country": "DE",
    "lastUpdated": "2020-04-13T11:30:06.311Z",
    "dead": 27,
    "id": "a9OgUWo6ZSWA3HyF0xnj",
    "infected": 1486,
    "recovered": 820,
    "sick": 639,
    "invisible": false
  },
  {
    "latitude": -30.000233,
    "pop": 1677000,
    "longitude": 136.209152,
    "name": "South Australia",
    "country": "AU",
    "lastUpdated": "2020-04-13T11:36:01.512Z",
    "dead": 4,
    "id": "a9p9pAOsjg1WAjPGc2a6",
    "infected": 431,
    "recovered": 179,
    "sick": 248,
    "invisible": false
  },
  {
    "recovered": 0,
    "latitude": -33.047237,
    "pop": 1790219,
    "longitude": -71.612686,
    "name": "Valparaíso",
    "country": "CL",
    "lastUpdated": "2020-04-13T11:37:13.737Z",
    "dead": 2,
    "id": "aNN8fCwDCMMdlpMC2Fml",
    "infected": 254,
    "sick": 252,
    "invisible": false
  },
  {
    "latitude": 37.9643,
    "pop": 6126000,
    "longitude": -91.8318,
    "name": "Missouri",
    "country": "US",
    "lastUpdated": "2020-04-13T11:57:16.521Z",
    "dead": 118,
    "id": "aPubGfQ8ToSEuKJldKRT",
    "infected": 4272,
    "recovered": 0,
    "sick": 4154,
    "invisible": false
  },
  {
    "longitude": 108.26651,
    "name": "Guangxi",
    "country": "CN",
    "lastUpdated": "2020-04-13T11:23:10.059Z",
    "dead": 2,
    "id": "aTa8MiBjtH3iY0SRs2HQ",
    "infected": 254,
    "recovered": 252,
    "latitude": 23.64407,
    "pop": 48380000,
    "sick": 0,
    "invisible": false
  },
  {
    "latitude": 6.6111,
    "pop": 4659000,
    "longitude": 20.9394,
    "name": "CAR",
    "country": "CF",
    "lastUpdated": "2020-04-13T11:51:02.504Z",
    "dead": 0,
    "id": "adcBUeAYp6ey0ZXCzKNs",
    "infected": 11,
    "recovered": 3,
    "sick": 8,
    "invisible": false
  },
  {
    "latitude": 37.4316,
    "pop": 8518000,
    "longitude": -78.6569,
    "name": "Virginia",
    "country": "US",
    "lastUpdated": "2020-04-13T11:57:16.521Z",
    "dead": 141,
    "id": "afeZTVC1J1SMMNFxkrcc",
    "infected": 5274,
    "recovered": 0,
    "sick": 5133,
    "invisible": false
  },
  {
    "infected": 589,
    "recovered": 484,
    "latitude": 39.904202,
    "pop": 21540000,
    "longitude": 116.407394,
    "name": "Beijing",
    "country": "CN",
    "lastUpdated": "2020-04-13T11:23:10.056Z",
    "dead": 8,
    "id": "alj4hkxg9cjrTxOzwFKt",
    "sick": 97,
    "invisible": false
  },
  {
    "recovered": 0,
    "latitude": 46.9419365,
    "pop": 5800,
    "longitude": -56.2711105,
    "name": "Saint Pierre Miquelon",
    "country": "PM",
    "lastUpdated": "2020-04-13T11:51:02.506Z",
    "dead": 0,
    "id": "axK1QECL0ba4j2KePcaH",
    "infected": 1,
    "sick": 1,
    "invisible": false
  },
  {
    "infected": 1352,
    "recovered": 640,
    "latitude": 33.22319,
    "pop": 38270000,
    "longitude": 43.679291,
    "name": "Iraq",
    "country": "IQ",
    "lastUpdated": "2020-04-13T11:51:02.490Z",
    "dead": 76,
    "id": "b7TwXX46FA0EmH1CjHET",
    "sick": 636,
    "invisible": false
  },
  {
    "longitude": -3.7038,
    "name": "Comunidad de Madrid",
    "country": "ES",
    "lastUpdated": "2020-04-13T11:41:04.413Z",
    "dead": 6423,
    "id": "b8xaIMD5TMoenwfrtaYa",
    "infected": 47146,
    "recovered": 25385,
    "latitude": 40.4168,
    "pop": 6662000,
    "sick": 15338,
    "invisible": false
  },
  {
    "lastUpdated": "2020-04-13T11:51:02.496Z",
    "dead": 2,
    "id": "b9p1JhVml3GGC7iiPmKv",
    "infected": 291,
    "recovered": 178,
    "latitude": 14.457474,
    "pop": 15850000,
    "longitude": -14.358636,
    "name": "Senegal",
    "country": "SN",
    "sick": 111,
    "invisible": false
  },
  {
    "id": "bVHiTolbUJGHIeVht3eG",
    "infected": 197,
    "recovered": 25,
    "latitude": -0.0236,
    "pop": 49700000,
    "longitude": 37.9062,
    "name": "Kenya",
    "country": "KE",
    "lastUpdated": "2020-04-13T11:51:02.497Z",
    "dead": 8,
    "sick": 164,
    "invisible": false
  },
  {
    "id": "bYp4RRHv19M7lYtSzQeV",
    "infected": 61850,
    "recovered": 0,
    "latitude": 39.561889,
    "pop": 8909000,
    "longitude": -74.672169,
    "name": "New Jersey",
    "country": "US",
    "lastUpdated": "2020-04-13T11:57:16.516Z",
    "dead": 2350,
    "sick": 59500,
    "invisible": false
  },
  {
    "recovered": 2276,
    "latitude": 3.139,
    "pop": 31620000,
    "longitude": 101.6869,
    "name": "Malaysia",
    "country": "MY",
    "lastUpdated": "2020-04-13T11:51:02.486Z",
    "dead": 77,
    "id": "bdqD4kpdqGgUaX70Tm2Q",
    "infected": 4817,
    "sick": 2464,
    "invisible": false
  },
  {
    "infected": 3,
    "recovered": 0,
    "latitude": 12.20189,
    "pop": 25160,
    "longitude": -68.262383,
    "name": "Caribbean Netherlands",
    "country": "BQ",
    "lastUpdated": "2020-04-13T11:51:02.506Z",
    "dead": 0,
    "id": "be9TyF8p1bLoSF6l32se",
    "sick": 3,
    "invisible": false
  },
  {
    "infected": 10483,
    "recovered": 381,
    "latitude": 60.128162,
    "pop": 10120000,
    "longitude": 18.643501,
    "name": "Sweden",
    "country": "SE",
    "lastUpdated": "2020-04-13T11:51:02.484Z",
    "dead": 899,
    "id": "bignnyt2A8BBx8VNo32p",
    "sick": 9203,
    "invisible": false
  },
  {
    "infected": 19,
    "recovered": 0,
    "latitude": 23.6102,
    "pop": 31900000,
    "longitude": 85.2799,
    "name": "Jharkhand",
    "country": "IN",
    "lastUpdated": "2020-04-13T11:41:01.879Z",
    "dead": 2,
    "id": "bo2XnTYrVRoaktD5uF93",
    "sick": 17,
    "invisible": false
  },
  {
    "latitude": 17.363747,
    "pop": 53100,
    "longitude": -62.754593,
    "name": "Saint Kitts and Nevis",
    "country": "KN",
    "lastUpdated": "2020-04-13T11:51:02.504Z",
    "dead": 0,
    "id": "bor36ktvkrB3iSxlsegc",
    "infected": 12,
    "recovered": 0,
    "sick": 12,
    "invisible": false
  },
  {
    "latitude": 40.973765,
    "pop": 2877000,
    "longitude": 20.010162,
    "name": "Albania",
    "country": "AL",
    "lastUpdated": "2020-04-13T11:51:02.494Z",
    "dead": 23,
    "id": "cCGmFmwHOoBrEpvG3qBP",
    "infected": 467,
    "recovered": 232,
    "sick": 212,
    "invisible": false
  },
  {
    "infected": 41,
    "recovered": 2,
    "latitude": 16.871311,
    "pop": 55901000,
    "longitude": 96.199379,
    "name": "Myanmar",
    "country": "MM",
    "lastUpdated": "2020-04-13T11:51:02.501Z",
    "dead": 4,
    "id": "cIbchhSBTuxXmXYgpkdB",
    "sick": 35,
    "invisible": false
  },
  {
    "infected": 21,
    "recovered": 2,
    "latitude": -25.953724,
    "pop": 29670000,
    "longitude": 32.588711,
    "name": "Mozambique",
    "country": "MZ",
    "lastUpdated": "2020-04-13T11:51:02.503Z",
    "dead": 0,
    "id": "cO8TChMvQvAtoZMNurTQ",
    "sick": 19,
    "invisible": false
  },
  {
    "infected": 17,
    "recovered": 4,
    "latitude": 46.8625,
    "pop": 3076000,
    "longitude": 103.8467,
    "name": "Mongolia",
    "country": "MN",
    "lastUpdated": "2020-04-13T11:51:02.504Z",
    "dead": 0,
    "id": "cPxONYsVo6BgvCW9HUeQ",
    "sick": 13,
    "invisible": false
  },
  {
    "latitude": 64.963051,
    "pop": 364260,
    "longitude": -19.020836,
    "name": "Iceland",
    "country": "IS",
    "lastUpdated": "2020-04-13T11:51:02.490Z",
    "dead": 8,
    "id": "cPxe7nsRnOf6aOPqHElJ",
    "infected": 1701,
    "recovered": 889,
    "sick": 804,
    "invisible": false
  },
  {
    "lastUpdated": "2020-04-13T11:51:02.484Z",
    "dead": 110,
    "id": "cX891t0ONLNFj0MYq6La",
    "infected": 11235,
    "recovered": 1689,
    "latitude": 31.046051,
    "pop": 8712000,
    "longitude": 34.851612,
    "name": "Israel",
    "country": "IL",
    "sick": 9436,
    "invisible": false
  },
  {
    "latitude": 4.749531,
    "pop": 290691,
    "longitude": -53.112909,
    "name": "Guyane",
    "country": "FR",
    "lastUpdated": "2020-04-13T11:51:02.498Z",
    "dead": 0,
    "id": "cc7s6hYGQ2MovBBBgkKb",
    "infected": 86,
    "recovered": 51,
    "sick": 35,
    "invisible": false
  },
  {
    "infected": 184,
    "recovered": 157,
    "latitude": 61.8926,
    "pop": 49290,
    "longitude": -6.9118,
    "name": "Faeroe Islands",
    "country": "FO",
    "lastUpdated": "2020-04-13T11:51:02.497Z",
    "dead": 0,
    "id": "cgzd5EM8PZv5ziJtTz1w",
    "sick": 27,
    "invisible": false
  },
  {
    "lastUpdated": "2020-04-13T11:57:16.517Z",
    "dead": 557,
    "id": "chj2FF3zb4Xxcop9RHre",
    "infected": 22997,
    "recovered": 0,
    "latitude": 41.2033,
    "pop": 12810000,
    "longitude": -77.1945,
    "name": "Pennsylvania",
    "country": "US",
    "sick": 22440,
    "invisible": false
  },