[
  {
    "longitude": 14.333333,
    "name": "Campania",
    "country": "IT",
    "lastUpdated": "2020-03-28T16:46:09.326Z",
    "dead": 98,
    "id": "0GJcws44NSPsDHAuxJhW",
    "infected": 1454,
    "recovered": 64,
    "latitude": 41.066666,
    "pop": 5827000,
    "sick": 1292
  },
  {
    "longitude": 85.0985,
    "name": "Odisha",
    "country": "IN",
    "lastUpdated": "2020-03-28T16:41:03.235Z",
    "dead": 0,
    "id": "0VG7S6aaK4eSo59fL9JO",
    "infected": 3,
    "recovered": 0,
    "latitude": 20.9517,
    "pop": 45990000,
    "sick": 3
  },
  {
    "latitude": 11.7401,
    "pop": 427246,
    "longitude": 92.6586,
    "name": "Andaman and Nicobar Islands",
    "country": "IN",
    "lastUpdated": "2020-03-28T16:41:03.139Z",
    "dead": 0,
    "id": "0jStOpTUNRaQYJqgmRoK",
    "infected": 6,
    "recovered": 0,
    "sick": 6
  },
  {
    "infected": 562,
    "recovered": 43,
    "latitude": 25.315058,
    "pop": 2639000,
    "longitude": 51.145517,
    "name": "Qatar",
    "country": "QA",
    "lastUpdated": "2020-03-28T16:43:03.788Z",
    "dead": 0,
    "id": "0m4aECS0Z2DGFEr8ldgI",
    "sick": 519
  },
  {
    "infected": 15,
    "recovered": 0,
    "latitude": 22.9868,
    "pop": 90320000,
    "longitude": 87.855,
    "name": "West Bengal",
    "country": "IN",
    "lastUpdated": "2020-03-28T16:41:03.265Z",
    "dead": 1,
    "id": "0n54EMSDJcRoT1QEvw80",
    "sick": 14
  },
  {
    "longitude": 78.6569,
    "name": "Madhya Pradesh",
    "country": "IN",
    "lastUpdated": "2020-03-28T16:41:03.165Z",
    "dead": 2,
    "id": "0s18o5DrDAHjbu5MFcrj",
    "infected": 30,
    "recovered": 0,
    "latitude": 22.9734,
    "pop": 73340000,
    "sick": 28
  },
  {
    "latitude": 37.0902,
    "longitude": -95.7129,
    "name": "Unknown US state",
    "country": "US",
    "dead": 0,
    "lastUpdated": "2020-03-28T16:43:03.604Z",
    "id": "0tFoopNTs6e4tOoaltu2",
    "infected": 0,
    "recovered": 3219,
    "sick": 0
  },
  {
    "latitude": 35.64249,
    "pop": 37330000,
    "longitude": 108.472214,
    "name": "Shaanxi",
    "country": "CN",
    "lastUpdated": "2020-03-28T16:44:06.329Z",
    "dead": 3,
    "id": "0x2HLhr5z5xAtEdO4iZm",
    "infected": 253,
    "recovered": 242,
    "sick": 8
  },
  {
    "id": "19MvIhipqTyYv1H37Upw",
    "infected": 241,
    "recovered": 3,
    "latitude": 41.643351,
    "pop": 2077000,
    "longitude": 21.668393,
    "name": "North Macedonia",
    "country": "MK",
    "lastUpdated": "2020-03-28T16:43:03.649Z",
    "dead": 4,
    "sick": 234
  },
  {
    "latitude": 53.1355,
    "pop": 521542,
    "longitude": -57.6604,
    "name": "Newfoundland and Labrador",
    "country": "CA",
    "lastUpdated": "2020-03-28T16:45:12.350Z",
    "dead": 0,
    "id": "1DOMOmCWDtva46OVSZLv",
    "infected": 102,
    "recovered": 0,
    "sick": 102
  },
  {
    "longitude": 96.779286,
    "name": "Qinghai",
    "country": "CN",
    "lastUpdated": "2020-03-28T16:44:06.243Z",
    "dead": 0,
    "id": "1Fap7rZu9SIRqf5TG9Dg",
    "infected": 18,
    "recovered": 18,
    "latitude": 35.801933,
    "pop": 5627000,
    "sick": 0
  },
  {
    "infected": 7092,
    "recovered": 176,
    "latitude": 44.9,
    "pop": 4376000,
    "longitude": 8.206944,
    "name": "Piemonte",
    "country": "IT",
    "lastUpdated": "2020-03-28T16:46:09.204Z",
    "dead": 569,
    "id": "1eTSQyfp8RoDPeFrIwun",
    "sick": 6347
  },
  {
    "infected": 3477,
    "recovered": 6,
    "latitude": -14.235004,
    "pop": 209300000,
    "longitude": -51.925282,
    "name": "Brazil",
    "country": "BR",
    "lastUpdated": "2020-03-28T16:43:03.695Z",
    "dead": 93,
    "id": "1f0YoV0vAcexEhpESyZc",
    "sick": 3378
  },
  {
    "latitude": 47.4116,
    "pop": 3550000,
    "longitude": 28.3699,
    "name": "Moldova",
    "country": "MD",
    "lastUpdated": "2020-03-28T16:43:03.661Z",
    "dead": 2,
    "id": "1qTPB8X3tyLyIdsb5TN3",
    "infected": 231,
    "recovered": 2,
    "sick": 227
  },
  {
    "id": "25qIBtsW2nfQj3pwBKg9",
    "infected": 1,
    "recovered": 1,
    "latitude": 30.15336,
    "pop": 3180000,
    "longitude": 88.787865,
    "name": "Tibet",
    "country": "CN",
    "lastUpdated": "2020-03-28T16:44:06.038Z",
    "dead": 0,
    "sick": 0
  },
  {
    "lastUpdated": "2020-03-28T16:43:03.730Z",
    "dead": 102,
    "id": "2KHYUb5t3lwzVVmDjwNX",
    "infected": 1155,
    "recovered": 59,
    "latitude": -1.572184,
    "pop": 264000000,
    "longitude": 115.66779,
    "name": "Indonesia",
    "country": "ID",
    "sick": 994
  },
  {
    "infected": 414,
    "recovered": 0,
    "latitude": 43.807191,
    "pop": 4191000,
    "longitude": -120.585594,
    "name": "Oregon",
    "country": "US",
    "lastUpdated": "2020-03-28T16:40:02.612Z",
    "dead": 12,
    "id": "2OrsssmGUs4XCzaZzvTv",
    "sick": 402
  },
  {
    "infected": 97,
    "recovered": 92,
    "latitude": 43.851921,
    "pop": 27460000,
    "longitude": 126.548103,
    "name": "Jilin",
    "country": "CN",
    "lastUpdated": "2020-03-28T16:44:06.233Z",
    "dead": 1,
    "id": "2jxHvSsxdnom0nPNvOT8",
    "sick": 4
  },
  {
    "longitude": -5.3536,
    "name": "Gibraltar",
    "country": "GI",
    "lastUpdated": "2020-03-28T16:43:04.327Z",
    "dead": 0,
    "id": "2p11BjSAs3wVyymgqBOe",
    "infected": 56,
    "recovered": 14,
    "latitude": 36.1408,
    "pop": 34571,
    "sick": 42
  },
  {
    "infected": 561,
    "recovered": 64,
    "latitude": 47.7516,
    "pop": 2567000,
    "longitude": 1.6751,
    "name": "Centre-Val de Loire",
    "country": "FR",
    "lastUpdated": "2020-03-28T08:52:19.860Z",
    "dead": 26,
    "id": "2sLNkkHpyaHx7dD3aMDO",
    "sick": 471
  },
  {
    "longitude": 12.643751,
    "name": "Umbria",
    "country": "IT",
    "lastUpdated": "2020-03-28T16:46:09.233Z",
    "dead": 21,
    "id": "319tiZOMczx1y0DfvOib",
    "infected": 884,
    "recovered": 39,
    "latitude": 42.565044,
    "pop": 884640,
    "sick": 824
  },
  {
    "dead": 0,
    "lastUpdated": "2020-03-28T16:38:05.069Z",
    "id": "321X89hv9Zm8QyXGHYjy",
    "infected": 0,
    "recovered": 4700,
    "latitude": 51.1657,
    "longitude": 10.4515,
    "name": "Deutschland",
    "country": "DE",
    "sick": 0
  },
  {
    "longitude": 27.849332,
    "name": "Zambia",
    "country": "ZM",
    "lastUpdated": "2020-03-28T16:43:04.404Z",
    "dead": 0,
    "id": "3IlPjAbP5qVMn1nlgLTJ",
    "infected": 28,
    "recovered": 0,
    "latitude": -13.133896,
    "pop": 17090000,
    "sick": 28
  },
  {
    "latitude": 42.7044,
    "pop": 631219,
    "longitude": 19.3958,
    "name": "Montenegro",
    "country": "ME",
    "lastUpdated": "2020-03-28T16:43:04.301Z",
    "dead": 1,
    "id": "3LstMSN5XMYBkxbe5HN7",
    "infected": 82,
    "recovered": 0,
    "sick": 81
  },
  {
    "lastUpdated": "2020-03-28T16:40:02.832Z",
    "dead": 0,
    "id": "3OZoQsKrzxZ18EKyfGE6",
    "infected": 71,
    "recovered": 1,
    "latitude": -35.4735,
    "pop": 418440,
    "longitude": 149.0124,
    "name": "Australian Capital Territory",
    "country": "AU",
    "sick": 70
  },
  {
    "id": "3fC3bAyIRUquOQOEnQNe",
    "infected": 1139,
    "recovered": 0,
    "latitude": 40.4173,
    "pop": 11690000,
    "longitude": -82.9071,
    "name": "Ohio",
    "country": "US",
    "lastUpdated": "2020-03-28T16:40:02.563Z",
    "dead": 20,
    "sick": 1119
  },
  {
    "latitude": 21.0079,
    "pop": 4420000,
    "longitude": -10.9408,
    "name": "Mauritania",
    "country": "MR",
    "lastUpdated": "2020-03-28T16:43:04.287Z",
    "dead": 0,
    "id": "4NnFMekRK2m14IlnZZoj",
    "infected": 5,
    "recovered": 0,
    "sick": 5
  },
  {
    "lastUpdated": "2020-03-28T16:45:12.395Z",
    "dead": 16,
    "id": "4hfZRUoUgI4a3vrG0GBk",
    "infected": 792,
    "recovered": 0,
    "latitude": 53.7267,
    "pop": 5071000,
    "longitude": -127.6476,
    "name": "British Columbia",
    "country": "CA",
    "sick": 776
  },
  {
    "longitude": -7.920053,
    "name": "Portugal",
    "country": "PT",
    "lastUpdated": "2020-03-28T16:43:03.731Z",
    "dead": 100,
    "id": "4rQLxUCMmQLpbi6E9tbH",
    "infected": 5170,
    "recovered": 43,
    "latitude": 41.065877,
    "pop": 10290000,
    "sick": 5027
  },
  {
    "id": "4zqzRm2xHn0CDVOUQJ8p",
    "infected": 182,
    "recovered": 15,
    "latitude": 40.3426,
    "pop": 9898000,
    "longitude": 47.93802,
    "name": "Azerbaijan",
    "country": "AZ",
    "lastUpdated": "2020-03-28T16:43:03.680Z",
    "dead": 4,
    "sick": 163
  },
  {
    "infected": 10,
    "recovered": 1,
    "latitude": 25.025885,
    "pop": 395361,
    "longitude": -78.035889,
    "name": "Bahamas",
    "country": "BS",
    "lastUpdated": "2020-03-28T16:43:04.332Z",
    "dead": 0,
    "id": "5MHegCUO9L3LiAU7DDey",
    "sick": 9
  },
  {
    "longitude": 146.921097,
    "name": "New South Wales",
    "country": "AU",
    "lastUpdated": "2020-03-28T16:40:02.732Z",
    "dead": 7,
    "id": "5N16a2OXXRpsEFanw0TC",
    "infected": 1617,
    "recovered": 4,
    "latitude": -31.253218,
    "pop": 7544000,
    "sick": 1606
  },
  {
    "latitude": -20.9043045,
    "pop": 280460,
    "longitude": 165.618042,
    "name": "New Caledonia",
    "country": "NC",
    "lastUpdated": "2020-03-28T16:43:04.254Z",
    "dead": 0,
    "id": "5fg04eyDwFw3kEXnrxez",
    "infected": 15,
    "recovered": 0,
    "sick": 15
  },
  {
    "longitude": 84.124008,
    "name": "Nepal",
    "country": "NP",
    "lastUpdated": "2020-03-28T16:43:04.317Z",
    "dead": 0,
    "id": "5gXZIjRgAvd6xWN1LOv8",
    "infected": 5,
    "recovered": 1,
    "latitude": 28.394857,
    "pop": 29300000,
    "sick": 4
  },
  {
    "latitude": 12.879721,
    "pop": 104900000,
    "longitude": 121.774017,
    "name": "Philippines",
    "country": "PH",
    "lastUpdated": "2020-03-28T16:43:03.775Z",
    "dead": 68,
    "id": "5pwmh7aSdGRKqRbnuyc0",
    "infected": 1075,
    "recovered": 35,
    "sick": 972
  },
  {
    "recovered": 0,
    "latitude": -17.824858,
    "pop": 14802190,
    "longitude": 31.053028,
    "name": "Zimbabwe",
    "country": "ZW",
    "lastUpdated": "2020-03-28T16:43:04.283Z",
    "dead": 1,
    "id": "5qtR9nx4BLwu1ODTniaY",
    "infected": 7,
    "sick": 6
  },
  {
    "recovered": 1,
    "latitude": 55.621011,
    "pop": 2794000,
    "longitude": 23.804991,
    "name": "Lithuania",
    "country": "LT",
    "lastUpdated": "2020-03-28T16:43:03.701Z",
    "dead": 5,
    "id": "694ON7d0mRJDeM1gHBTR",
    "infected": 382,
    "sick": 376
  },
  {
    "infected": 560,
    "recovered": 112,
    "latitude": 22.396427,
    "pop": 7392000,
    "longitude": 114.109497,
    "name": "Hong Kong",
    "country": "HK",
    "lastUpdated": "2020-03-28T16:43:03.697Z",
    "dead": 4,
    "id": "6IcHIIH0zXpY0POmBZTv",
    "sick": 444
  },
  {
    "infected": 6,
    "recovered": 0,
    "latitude": 9.3077,
    "pop": 11180000,
    "longitude": 2.3158,
    "name": "Benin",
    "country": "BJ",
    "lastUpdated": "2020-03-28T16:43:04.341Z",
    "dead": 0,
    "id": "6SlpghTyB6lpMFvx3g9U",
    "sick": 6
  },
  {
    "lastUpdated": "2020-03-28T16:46:09.324Z",
    "dead": 5402,
    "id": "6ZHcvMIzVWIaRnc4R3Qp",
    "infected": 37298,
    "recovered": 8001,
    "latitude": 45.6667,
    "pop": 10040000,
    "longitude": 9.5,
    "name": "Lombardia",
    "country": "IT",
    "sick": 23895
  },
  {
    "latitude": 46.0569,
    "pop": 2067000,
    "longitude": 14.5058,
    "name": "Slovenia",
    "country": "SI",
    "lastUpdated": "2020-03-28T16:43:03.698Z",
    "dead": 9,
    "id": "6ahNiyKDSDAftCctgLH3",
    "infected": 684,
    "recovered": 10,
    "sick": 665
  },
  {
    "recovered": 0,
    "latitude": -0.8037,
    "pop": 2025000,
    "longitude": 11.6094,
    "name": "Gabon",
    "country": "GA",
    "lastUpdated": "2020-03-28T16:43:04.357Z",
    "dead": 1,
    "id": "6pBi38TUgYfFm0bry2uh",
    "infected": 7,
    "sick": 6
  },
  {
    "latitude": 17.901672,
    "pop": 9131,
    "longitude": -62.818544,
    "name": "Saint-Barthélémy",
    "country": "FR",
    "lastUpdated": "2020-03-28T08:53:20.629Z",
    "dead": 0,
    "id": "78Ox26bNHDA2Pk2b3Uwn",
    "infected": 3,
    "recovered": 0,
    "sick": 3
  },
  {
    "infected": 7,
    "recovered": 0,
    "latitude": 17.0608,
    "pop": 102012,
    "longitude": -61.7964,
    "name": "Antigua and Barbuda",
    "country": "AG",
    "lastUpdated": "2020-03-28T16:43:04.401Z",
    "dead": 0,
    "id": "7hVFcEV7nV0MrQr3LHrl",
    "sick": 7
  },
  {
    "infected": 11862,
    "recovered": 276,
    "latitude": 48.7904,
    "pop": 13000000,
    "longitude": 11.4979,
    "name": "Bayern",
    "country": "DE",
    "lastUpdated": "2020-03-28T16:38:05.160Z",
    "dead": 85,
    "id": "7kCrrlOBE3jN6FtOVNUB",
    "sick": 11501
  },
  {
    "recovered": 34,
    "latitude": 47.4979,
    "pop": 9773000,
    "longitude": 19.0402,
    "name": "Hungary",
    "country": "HU",
    "lastUpdated": "2020-03-28T16:43:03.693Z",
    "dead": 11,
    "id": "7rYC2iFB50c55Ihgbs4Q",
    "infected": 343,
    "sick": 298
  },
  {
    "longitude": 12.3547,
    "name": "Cameroon",
    "country": "CM",
    "lastUpdated": "2020-03-28T16:43:04.088Z",
    "dead": 2,
    "id": "8C0d7WVCjyUGtnc2gUAR",
    "infected": 91,
    "recovered": 2,
    "latitude": 7.3697,
    "pop": 24050000,
    "sick": 87
  },
  {
    "infected": 74,
    "recovered": 0,
    "latitude": -16.2902,
    "pop": 11050000,
    "longitude": -63.5887,
    "name": "Bolivia",
    "country": "BO",
    "lastUpdated": "2020-03-28T16:43:04.329Z",
    "dead": 0,
    "id": "8RihJrXw4NQXPxaRxr1u",
    "sick": 74
  },
  {
    "infected": 1,
    "recovered": 0,
    "latitude": 12.9843,
    "pop": 109897,
    "longitude": -61.2872,
    "name": "St. Vincent Grenadines",
    "country": "VC",
    "lastUpdated": "2020-03-28T16:43:04.375Z",
    "dead": 0,
    "id": "8ZTySQROQejkDAad0qxQ",
    "sick": 1
  },
  {
    "recovered": 198,
    "latitude": 1.352083,
    "pop": 5621000,
    "longitude": 103.819839,
    "name": "Singapore",
    "country": "SG",
    "lastUpdated": "2020-03-28T16:43:03.686Z",
    "dead": 2,
    "id": "8pA3fM4xC2c2wv1b4TnE",
    "infected": 802,
    "sick": 602
  },
  {
    "recovered": 141,
    "latitude": 47.2184,
    "pop": 3787000,
    "longitude": -1.5536,
    "name": "Pays de la Loire",
    "country": "FR",
    "lastUpdated": "2020-03-28T08:52:25.940Z",
    "dead": 31,
    "id": "98hwAoohgWEOQVa3NlM5",
    "infected": 368,
    "sick": 196
  },
  {
    "infected": 5,
    "recovered": 0,
    "latitude": 12.8628,
    "pop": 40530000,
    "longitude": 30.2176,
    "name": "Sudan",
    "country": "SD",
    "lastUpdated": "2020-03-28T16:43:04.376Z",
    "dead": 1,
    "id": "9DPOkpIqrFy9mR4e9fuv",
    "sick": 4
  },
  {
    "lastUpdated": "2020-03-28T16:43:03.790Z",
    "dead": 30,
    "id": "9QcETqEcM2fTv9zRvx5T",
    "infected": 1452,
    "recovered": 139,
    "latitude": 45.943161,
    "pop": 19530000,
    "longitude": 24.966761,
    "name": "Romania",
    "country": "RO",
    "sick": 1283
  },
  {
    "lastUpdated": "2020-03-28T16:43:04.282Z",
    "dead": 1,
    "id": "9Y5wmCqNCC6ZrenM31uA",
    "infected": 4,
    "recovered": 0,
    "latitude": 12.136389,
    "pop": 6218000,
    "longitude": -86.251389,
    "name": "Nicaragua",
    "country": "NI",
    "sick": 3
  },
  {
    "infected": 1167,
    "recovered": 10,
    "latitude": 61.92411,
    "pop": 5513000,
    "longitude": 25.748152,
    "name": "Finland",
    "country": "FI",
    "lastUpdated": "2020-03-28T16:43:03.652Z",
    "dead": 9,
    "id": "9p6OCdZbUUwBLA60Gk3W",
    "sick": 1148
  },
  {
    "latitude": 43.311643,
    "pop": 1356000,
    "longitude": -71.590315,
    "name": "New Hampshire",
    "country": "US",
    "lastUpdated": "2020-03-28T16:40:02.614Z",
    "dead": 2,
    "id": "A84CwQ52kA46Hr7pn6Bm",
    "infected": 187,
    "recovered": 0,
    "sick": 185
  },
  {
    "longitude": -71.412257,
    "name": "Rhode Island",
    "country": "US",
    "lastUpdated": "2020-03-28T16:40:02.558Z",
    "dead": 0,
    "id": "AEUWUHS65qvjEslew11c",
    "infected": 203,
    "recovered": 0,
    "latitude": 41.823261,
    "pop": 1057000,
    "sick": 203
  },
  {
    "lastUpdated": "2020-03-28T16:46:09.267Z",
    "dead": 1267,
    "id": "AJ9jQ0iyKsafsmf5yHAR",
    "infected": 11588,
    "recovered": 960,
    "latitude": 44.498955,
    "pop": 4453000,
    "longitude": 11.327591,
    "name": "Emilia Romagna",
    "country": "IT",
    "sick": 9361
  },
  {
    "id": "AKjFRQGnzuuZQhv5Qwx7",
    "infected": 669,
    "recovered": 36,
    "latitude": 49.3964,
    "pop": 990509,
    "longitude": 7.023,
    "name": "Saarland",
    "country": "DE",
    "lastUpdated": "2020-03-28T16:38:05.149Z",
    "dead": 6,
    "sick": 627
  },
  {
    "infected": 10,
    "recovered": 2,
    "latitude": 71.7069,
    "pop": 56171,
    "longitude": -42.6043,
    "name": "Greenland",
    "country": "GL",
    "lastUpdated": "2020-03-28T16:43:04.394Z",
    "dead": 0,
    "id": "APaZzlGCEeuoLBtzTJMe",
    "sick": 8
  },
  {
    "latitude": 45.65107,
    "pop": 971395,
    "longitude": -63.582687,
    "name": "Nova Scotia",
    "country": "CA",
    "lastUpdated": "2020-03-28T16:45:12.438Z",
    "dead": 0,
    "id": "AVCpxeh0fuH2WrHWNDYH",
    "infected": 90,
    "recovered": 0,
    "sick": 90
  },
  {
    "id": "AcULcZBozObOhwuRKMjJ",
    "infected": 129,
    "recovered": 0,
    "latitude": 47.012918,
    "pop": 1062000,
    "longitude": -109.128641,
    "name": "Montana",
    "country": "US",
    "lastUpdated": "2020-03-28T16:40:02.593Z",
    "dead": 1,
    "sick": 128
  },
  {
    "recovered": 934,
    "latitude": 27.285971,
    "pop": 45200000,
    "longitude": 116.01609,
    "name": "Jiangxi",
    "country": "CN",
    "lastUpdated": "2020-03-28T16:44:06.230Z",
    "dead": 1,
    "id": "AmBYm5J6E9Cuez1FQjiN",
    "infected": 936,
    "sick": 1
  },
  {
    "infected": 454,
    "recovered": 29,
    "latitude": 28.033886,
    "pop": 41320000,
    "longitude": 1.659626,
    "name": "Algeria",
    "country": "DZ",
    "lastUpdated": "2020-03-28T16:43:03.768Z",
    "dead": 29,
    "id": "AwN0CScPDApcLFgz6e3z",
    "sick": 396
  },
  {
    "longitude": 15.2,
    "name": "Croatia",
    "country": "HR",
    "lastUpdated": "2020-03-28T16:43:03.663Z",
    "dead": 5,
    "id": "B82Ef45M8cDu4q7VsSHF",
    "infected": 657,
    "recovered": 45,
    "latitude": 45.099998,
    "pop": 4076000,
    "sick": 607
  },
  {
    "infected": 10,
    "recovered": 0,
    "latitude": 17.6077881,
    "pop": 23716000,
    "longitude": 8.081666,
    "name": "Niger",
    "country": "NE",
    "lastUpdated": "2020-03-28T16:43:04.308Z",
    "dead": 1,
    "id": "BENubqQInFUJzhpZTsLT",
    "sick": 9
  },
  {
    "longitude": -76.98432,
    "name": "Maryland",
    "country": "US",
    "lastUpdated": "2020-03-28T16:40:02.561Z",
    "dead": 5,
    "id": "BF51mWl51fgEcyBpCSzb",
    "infected": 995,
    "recovered": 0,
    "latitude": 39.509109,
    "pop": 6043000,
    "sick": 990
  },
  {
    "infected": 94,
    "recovered": 32,
    "latitude": 53.709808,
    "pop": 9508000,
    "longitude": 27.953388,
    "name": "Belarus",
    "country": "BY",
    "lastUpdated": "2020-03-28T16:43:04.129Z",
    "dead": 0,
    "id": "BGg6yVU5VP71B8NXU0oh",
    "sick": 62
  },
  {
    "lastUpdated": "2020-03-28T08:52:23.020Z",
    "dead": 24,
    "id": "BGtoyzb7y54LVlJ91rbf",
    "infected": 688,
    "recovered": 73,
    "latitude": 48.8799,
    "pop": 3319000,
    "longitude": 0.1713,
    "name": "Normandie",
    "country": "FR",
    "sick": 591
  },
  {
    "infected": 665,
    "recovered": 0,
    "latitude": 34.048927,
    "pop": 7172000,
    "longitude": -111.093735,
    "name": "Arizona",
    "country": "US",
    "lastUpdated": "2020-03-28T16:40:02.610Z",
    "dead": 13,
    "id": "BTEESCuD2ZbS1afunR2A",
    "sick": 652
  },
  {
    "infected": 46108,
    "recovered": 0,
    "latitude": 40.719042,
    "pop": 19540000,
    "longitude": -73.982597,
    "name": "New York",
    "country": "US",
    "lastUpdated": "2020-03-28T16:40:02.516Z",
    "dead": 603,
    "id": "C3BCUzV80z9GfiuByIcr",
    "sick": 45505
  },
  {
    "recovered": 11,
    "latitude": 49.731626,
    "pop": 10650000,
    "longitude": 15.359413,
    "name": "Czechia",
    "country": "CZ",
    "lastUpdated": "2020-03-28T16:43:03.618Z",
    "dead": 9,
    "id": "C6S76AggdWVU8G22jFHQ",
    "infected": 2541,
    "sick": 2521
  },
  {
    "infected": 476,
    "recovered": 265,
    "latitude": 26.0667,
    "pop": 1493000,
    "longitude": 50.557701,
    "name": "Bahrain",
    "country": "BH",
    "lastUpdated": "2020-03-28T16:43:03.442Z",
    "dead": 4,
    "id": "C7cj4nwRITs13KnaJrQ2",
    "sick": 207
  },
  {
    "latitude": 27.0238,
    "pop": 68890000,
    "longitude": 74.2179,
    "name": "Rajasthan",
    "country": "IN",
    "lastUpdated": "2020-03-28T16:41:03.196Z",
    "dead": 0,
    "id": "CKZCZTPlrcq5fbfUPA9k",
    "infected": 54,
    "recovered": 3,
    "sick": 51
  },
  {
    "infected": 19,
    "recovered": 0,
    "latitude": 13.803,
    "pop": 6378000,
    "longitude": -88.9053,
    "name": "El Salvador",
    "country": "SV",
    "lastUpdated": "2020-03-28T16:43:04.298Z",
    "dead": 0,
    "id": "Cgvmtle61ehMvCzRzYx7",
    "sick": 19
  },
  {
    "longitude": -1.17432,
    "name": "United Kingdom",
    "country": "GB",
    "lastUpdated": "2020-03-28T16:43:03.744Z",
    "dead": 1019,
    "id": "CrXu6i5Sqx11iwdfHfBs",
    "infected": 17089,
    "recovered": 135,
    "latitude": 52.355518,
    "pop": 66440000,
    "sick": 15935
  },
  {
    "infected": 372,
    "recovered": 28,
    "latitude": 40.259003,
    "pop": 2973000,
    "longitude": 44.818474,
    "name": "Armenia",
    "country": "AM",
    "lastUpdated": "2020-03-28T16:43:03.688Z",
    "dead": 1,
    "id": "DCJCtZoBTWQ4mzdDNljD",
    "sick": 343
  },
  {
    "id": "DdBt8qsG6A3g92oOR3ow",
    "infected": 34,
    "recovered": 10,
    "latitude": 22.192039,
    "pop": 622567,
    "longitude": 113.551262,
    "name": "Macao",
    "country": "MO",
    "lastUpdated": "2020-03-28T16:43:04.396Z",
    "dead": 0,
    "sick": 24
  },
  {
    "latitude": 42.962334,
    "pop": 577737,
    "longitude": -107.534868,
    "name": "Wyoming",
    "country": "US",
    "lastUpdated": "2020-03-28T16:40:02.641Z",
    "dead": 0,
    "id": "DrGzziUglmBognCGY7R2",
    "infected": 73,
    "recovered": 0,
    "sick": 73
  },
  {
    "id": "Dtr1lap1RpJpXJdXGJiW",
    "infected": 1061,
    "recovered": 52,
    "latitude": 40.6401,
    "pop": 10740000,
    "longitude": 22.9444,
    "name": "Greece",
    "country": "GR",
    "lastUpdated": "2020-03-28T16:43:03.728Z",
    "dead": 32,
    "sick": 977
  },
  {
    "id": "EKTfs8e7M6DXzI1HqyyX",
    "infected": 283,
    "recovered": 30,
    "latitude": 25.03841,
    "pop": 23780000,
    "longitude": 121.563698,
    "name": "Taiwan",
    "country": "TW",
    "lastUpdated": "2020-03-28T16:43:03.733Z",
    "dead": 2,
    "sick": 251
  },
  {
    "infected": 263,
    "recovered": 3,
    "latitude": 10.327273,
    "pop": 4906000,
    "longitude": -84.387618,
    "name": "Costa Rica",
    "country": "CR",
    "lastUpdated": "2020-03-28T16:43:03.771Z",
    "dead": 2,
    "id": "EQzJvzVHKjs8kLmK7BMu",
    "sick": 258
  },
  {
    "infected": 45,
    "recovered": 0,
    "latitude": 22.2587,
    "pop": 62700000,
    "longitude": 71.1924,
    "name": "Gujarat",
    "country": "IN",
    "lastUpdated": "2020-03-28T16:41:03.262Z",
    "dead": 3,
    "id": "ERwk9R9en4m9WbdoMbIg",
    "sick": 42
  },
  {
    "longitude": 76.7794,
    "name": "Chandigarh",
    "country": "IN",
    "lastUpdated": "2020-03-28T16:41:03.228Z",
    "dead": 0,
    "id": "Esl5UlCVB9s8pmGB5Ofr",
    "infected": 8,
    "recovered": 0,
    "latitude": 30.7333,
    "pop": 1055000,
    "sick": 8
  },
  {
    "longitude": -66.664513,
    "name": "Puerto Rico",
    "country": "PR",
    "lastUpdated": "2020-03-28T16:40:02.598Z",
    "dead": 3,
    "id": "F4rPrEVGAIMM5rfPEMv4",
    "infected": 100,
    "recovered": 0,
    "latitude": 18.200178,
    "pop": 3195000,
    "sick": 97
  },
  {
    "lastUpdated": "2020-03-28T16:43:03.739Z",
    "dead": 4,
    "id": "FCDmlmnIIswd8bQiUjfN",
    "infected": 110,
    "recovered": 2,
    "latitude": 33.93911,
    "pop": 35530000,
    "longitude": 67.709953,
    "name": "Afghanistan",
    "country": "AF",
    "sick": 104
  },
  {
    "latitude": 29.431585,
    "pop": 30480000,
    "longitude": 106.912254,
    "name": "Chongqing",
    "country": "CN",
    "lastUpdated": "2020-03-28T16:44:06.036Z",
    "dead": 6,
    "id": "FErOU1m4Tj7jIkRam3vF",
    "infected": 578,
    "recovered": 570,
    "sick": 2
  },
  {
    "longitude": 47.481766,
    "name": "Kuwait",
    "country": "KW",
    "lastUpdated": "2020-03-28T16:43:03.656Z",
    "dead": 0,
    "id": "FZsUkhxBEgqsPb4eO0PN",
    "infected": 235,
    "recovered": 64,
    "latitude": 29.311661,
    "pop": 4137000,
    "sick": 171
  },
  {
    "latitude": 11.1271,
    "pop": 67860000,
    "longitude": 78.6569,
    "name": "Tamil Nadu",
    "country": "IN",
    "lastUpdated": "2020-03-28T16:41:03.158Z",
    "dead": 1,
    "id": "FeS45oMNC27pI17F0xEV",
    "infected": 40,
    "recovered": 2,
    "sick": 37
  },
  {
    "longitude": -70.430399,
    "name": "Dominican Republic",
    "country": "DO",
    "lastUpdated": "2020-03-28T16:43:03.777Z",
    "dead": 28,
    "id": "FuiVEJvWb0QMCpxJ3563",
    "infected": 719,
    "recovered": 3,
    "latitude": 18.947829,
    "pop": 10770000,
    "sick": 688
  },
  {
    "id": "FyC551oNwmENxbr9Yght",
    "infected": 56,
    "recovered": 1,
    "latitude": 18.1124,
    "pop": 35190000,
    "longitude": 79.0193,
    "name": "Telengana",
    "country": "IN",
    "lastUpdated": "2020-03-28T16:41:03.269Z",
    "dead": 0,
    "sick": 55
  },
  {
    "latitude": 48.669,
    "pop": 5450000,
    "longitude": 19.699,
    "name": "Slovakia",
    "country": "SK",
    "lastUpdated": "2020-03-28T16:43:03.606Z",
    "dead": 0,
    "id": "FzIDXoqWnTI3nUfhPyT2",
    "infected": 292,
    "recovered": 2,
    "sick": 290
  },
  {
    "infected": 1420,
    "recovered": 29,
    "latitude": 30.37532,
    "pop": 197000000,
    "longitude": 69.345116,
    "name": "Pakistan",
    "country": "PK",
    "lastUpdated": "2020-03-28T16:43:03.613Z",
    "dead": 12,
    "id": "GAp7Wb6IMhdgbvEtMza9",
    "sick": 1379
  },
  {
    "infected": 38,
    "recovered": 1,
    "latitude": 31.1471,
    "pop": 27980000,
    "longitude": 75.3412,
    "name": "Punjab",
    "country": "IN",
    "lastUpdated": "2020-03-28T16:41:03.095Z",
    "dead": 1,
    "id": "GGru8cG08mANO8XDDUtZ",
    "sick": 36
  },
  {
    "infected": 468,
    "recovered": 52,
    "latitude": 23.424076,
    "pop": 9400000,
    "longitude": 53.847816,
    "name": "United Arab Emirates",
    "country": "AE",
    "lastUpdated": "2020-03-28T16:43:03.653Z",
    "dead": 2,
    "id": "GHzBIsHy2GiBc5JV2HMs",
    "sick": 414
  },
  {
    "longitude": -119.339046,
    "name": "California",
    "country": "US",
    "lastUpdated": "2020-03-28T16:40:02.605Z",
    "dead": 102,
    "id": "Gh46r6vuaY7fbGt3IboN",
    "infected": 4886,
    "recovered": 0,
    "latitude": 36.621981,
    "pop": 39560000,
    "sick": 4784
  },
  {
    "infected": 322,
    "recovered": 0,
    "latitude": 35.87189,
    "pop": 3943000,
    "longitude": -97.145514,
    "name": "Oklahoma",
    "country": "US",
    "lastUpdated": "2020-03-28T16:40:02.626Z",
    "dead": 8,
    "id": "GpF8ULuKOQiFDCUHN44h",
    "sick": 314
  },
  {
    "infected": 1003,
    "recovered": 110,
    "latitude": 46.5,
    "pop": 520891,
    "longitude": 11.35,
    "name": "P.A. Bolzano",
    "country": "IT",
    "lastUpdated": "2020-03-28T16:46:09.276Z",
    "dead": 60,
    "id": "Gzx6GX1qhBm714BkEC6l",
    "sick": 833
  },
  {
    "latitude": 42.83263,
    "pop": 24710000,
    "longitude": 113.750972,
    "name": "Inner Mongolia",
    "country": "CN",
    "lastUpdated": "2020-03-28T16:44:05.939Z",
    "dead": 1,
    "id": "H3JeVigVbo5CSYfZG4WI",
    "infected": 94,
    "recovered": 74,
    "sick": 19
  },
  {
    "infected": 621,
    "recovered": 0,
    "latitude": 39.74536,
    "pop": 3034000,
    "longitude": -116.724977,
    "name": "Nevada",
    "country": "US",
    "lastUpdated": "2020-03-28T16:40:02.645Z",
    "dead": 10,
    "id": "H3bDg4eV30up4WWrIDAS",
    "sick": 611
  },
  {
    "longitude": 75.7139,
    "name": "Karnataka",
    "country": "IN",
    "lastUpdated": "2020-03-28T16:41:03.237Z",
    "dead": 2,
    "id": "HN5mGmxlqlSeFSNeu1K5",
    "infected": 55,
    "recovered": 3,
    "latitude": 15.3173,
    "pop": 64060000,
    "sick": 50
  },
  {
    "latitude": 27.5142,
    "pop": 807610,
    "longitude": 90.4336,
    "name": "Bhutan",
    "country": "BT",
    "lastUpdated": "2020-03-28T16:43:04.309Z",
    "dead": 0,
    "id": "HRDpwyxpqW9RN0xLFyNu",
    "infected": 3,
    "recovered": 0,
    "sick": 3
  },
  {
    "infected": 104,
    "recovered": 5,
    "latitude": 41.3775,
    "pop": 32390000,
    "longitude": 64.5853,
    "name": "Uzbekistan",
    "country": "UZ",
    "lastUpdated": "2020-03-28T16:43:03.690Z",
    "dead": 2,
    "id": "HRTA10dtrruDEwjJEGMp",
    "sick": 97
  },
  {
    "infected": 191,
    "recovered": 0,
    "latitude": 34.138916,
    "pop": 2095000,
    "longitude": -105.576255,
    "name": "New Mexico",
    "country": "US",
    "lastUpdated": "2020-03-28T16:40:02.647Z",
    "dead": 1,
    "id": "HSSFomRju0doHhWgW8On",
    "sick": 190
  },
  {
    "longitude": 12.4296,
    "name": "Mecklenburg-Vorpommern",
    "country": "DE",
    "lastUpdated": "2020-03-28T16:38:05.066Z",
    "dead": 1,
    "id": "He1gSS1v50t06i3YrqvB",
    "infected": 309,
    "recovered": 11,
    "latitude": 53.6127,
    "pop": 1635000,
    "sick": 297
  },
  {
    "id": "I4OJ6z9Vjs1byOcbsJrd",
    "infected": 717,
    "recovered": 4,
    "latitude": 23.634501,
    "pop": 129200000,
    "longitude": -102.552788,
    "name": "Mexico",
    "country": "MX",
    "lastUpdated": "2020-03-28T16:43:03.641Z",
    "dead": 12,
    "sick": 701
  },
  {
    "latitude": 42.25,
    "pop": 1315000,
    "longitude": 13.75,
    "name": "Abruzzo",
    "country": "IT",
    "lastUpdated": "2020-03-28T16:46:09.260Z",
    "dead": 68,
    "id": "I9EqrZfbPnkioNU4wZGz",
    "infected": 1017,
    "recovered": 24,
    "sick": 925
  },
  {
    "latitude": 23.363855,
    "pop": 113460000,
    "longitude": 113.373448,
    "name": "Guangdong",
    "country": "CN",
    "lastUpdated": "2020-03-28T16:44:05.830Z",
    "dead": 8,
    "id": "IAX0OQLVnUwU7FX0ENF1",
    "infected": 1467,
    "recovered": 1341,
    "sick": 118
  },
  {
    "lastUpdated": "2020-03-28T16:44:05.943Z",
    "dead": 22,
    "id": "IFuMrMvSjoiX5agYvllh",
    "infected": 1275,
    "recovered": 1251,
    "latitude": 33.875408,
    "pop": 94000000,
    "longitude": 113.484016,
    "name": "Henan",
    "country": "CN",
    "sick": 2
  },
  {
    "infected": 8,
    "recovered": 0,
    "latitude": 19.0558,
    "pop": 10980000,
    "longitude": -73.0513,
    "name": "Haiti",
    "country": "HT",
    "lastUpdated": "2020-03-28T16:43:04.289Z",
    "dead": 0,
    "id": "InZ38sIqyK7FN7XAOZoX",
    "sick": 8
  },
  {
    "latitude": 32.528564,
    "pop": 10520000,
    "longitude": -83.280125,
    "name": "Georgia (US)",
    "country": "US",
    "lastUpdated": "2020-03-28T16:40:02.619Z",
    "dead": 65,
    "id": "IvQkDJkTAsoIqPRAU25n",
    "infected": 2198,
    "recovered": 0,
    "sick": 2133
  },
  {
    "infected": 451,
    "recovered": 50,
    "latitude": -42.8285,
    "pop": 4794000,
    "longitude": 172.488081,
    "name": "New Zealand",
    "country": "NZ",
    "lastUpdated": "2020-03-28T16:43:03.781Z",
    "dead": 0,
    "id": "IvVhpOoGpH6JVkGyUhXN",
    "sick": 401
  },
  {
    "latitude": 6.4238,
    "pop": 31980000,
    "longitude": -66.5897,
    "name": "Venezuela",
    "country": "VE",
    "lastUpdated": "2020-03-28T16:43:03.627Z",
    "dead": 2,
    "id": "J3mZXlfEnnJx4CDZLvRG",
    "infected": 113,
    "recovered": 39,
    "sick": 72
  },
  {
    "infected": 162,
    "recovered": 15,
    "latitude": 35.1264,
    "pop": 1170000,
    "longitude": 33.4299,
    "name": "Cyprus",
    "country": "CY",
    "lastUpdated": "2020-03-28T16:43:03.665Z",
    "dead": 5,
    "id": "JQByE4l2OA6sGOqIcWrM",
    "sick": 142
  },
  {
    "recovered": 0,
    "latitude": 25.0961,
    "pop": 99020000,
    "longitude": 85.3131,
    "name": "Bihar",
    "country": "IN",
    "lastUpdated": "2020-03-28T16:41:03.146Z",
    "dead": 1,
    "id": "JR7hOGked7CZtIs2nCV5",
    "infected": 9,
    "sick": 8
  },
  {
    "latitude": 14.628434,
    "pop": 16910000,
    "longitude": -90.522713,
    "name": "Guatemala",
    "country": "GT",
    "lastUpdated": "2020-03-28T16:43:04.380Z",
    "dead": 1,
    "id": "JUWE6bG3b5oL7fKQMSvv",
    "infected": 32,
    "recovered": 4,
    "sick": 27
  },
  {
    "lastUpdated": "2020-03-28T16:43:03.647Z",
    "dead": 15,
    "id": "JcFsHSn2WvZ5LJW42ovG",
    "infected": 1605,
    "recovered": 40,
    "latitude": 49.8153,
    "pop": 602005,
    "longitude": 6.1296,
    "name": "Luxembourg",
    "country": "LU",
    "sick": 1550
  },
  {
    "longitude": 0.8248,
    "name": "Togo",
    "country": "TG",
    "lastUpdated": "2020-03-28T16:43:04.338Z",
    "dead": 1,
    "id": "JrBbirlBKGdWSdcDt7PF",
    "infected": 25,
    "recovered": 1,
    "latitude": 8.6195,
    "pop": 7798000,
    "sick": 23
  },
  {
    "id": "JzZ8sbqzjutThVjkPKPL",
    "infected": 313,
    "recovered": 9,
    "latitude": 42.7339,
    "pop": 7050000,
    "longitude": 25.4858,
    "name": "Bulgaria",
    "country": "BG",
    "lastUpdated": "2020-03-28T16:43:03.780Z",
    "dead": 6,
    "sick": 298
  },
  {
    "infected": 2696,
    "recovered": 305,
    "latitude": 44.5,
    "pop": 1557000,
    "longitude": 8.833,
    "name": "Liguria",
    "country": "IT",
    "lastUpdated": "2020-03-28T16:46:09.229Z",
    "dead": 331,
    "id": "KLXicxFogWnu0dLp4bNK",
    "sick": 2060
  },
  {
    "lastUpdated": "2020-03-28T16:46:09.241Z",
    "dead": 177,
    "id": "KrLrJbpDqqiXgUPGCCW9",
    "infected": 3450,
    "recovered": 103,
    "latitude": 43.4167,
    "pop": 3737000,
    "longitude": 11,
    "name": "Toscana",
    "country": "IT",
    "sick": 3170
  },
  {
    "latitude": 7.873054,
    "pop": 21440000,
    "longitude": 80.771797,
    "name": "Sri Lanka",
    "country": "LK",
    "lastUpdated": "2020-03-28T16:43:03.643Z",
    "dead": 1,
    "id": "KsWzJO06cf0d6LJ4ZNh9",
    "infected": 113,
    "recovered": 9,
    "sick": 103
  },
  {
    "latitude": 15.9129,
    "pop": 49670000,
    "longitude": 79.74,
    "name": "Andhra Pradesh",
    "country": "IN",
    "lastUpdated": "2020-03-28T16:41:03.208Z",
    "dead": 0,
    "id": "KtQIo2DoqjELtPAlyDVO",
    "infected": 14,
    "recovered": 1,
    "sick": 13
  },
  {
    "latitude": 61.52401,
    "pop": 144500000,
    "longitude": 105.318756,
    "name": "Russia",
    "country": "RU",
    "lastUpdated": "2020-03-28T16:43:03.615Z",
    "dead": 4,
    "id": "KwOuGBKSMRlmwftxAvLX",
    "infected": 1264,
    "recovered": 49,
    "sick": 1211
  },
  {
    "recovered": 0,
    "latitude": 18.0708,
    "pop": 32125,
    "longitude": -63.0501,
    "name": "Saint-Martin",
    "country": "FR",
    "lastUpdated": "2020-03-28T08:52:15.644Z",
    "dead": 0,
    "id": "LBUtrLDKJiupXjlUNTUe",
    "infected": 11,
    "sick": 11
  },
  {
    "infected": 56,
    "recovered": 0,
    "latitude": 47.166,
    "pop": 38557,
    "longitude": 9.5554,
    "name": "Liechtenstein",
    "country": "LI",
    "lastUpdated": "2020-03-28T16:43:04.294Z",
    "dead": 0,
    "id": "LTGEU2E9MFkrCcFhZYVk",
    "sick": 56
  },
  {
    "recovered": 0,
    "latitude": 9.9456,
    "pop": 12720000,
    "longitude": -9.6966,
    "name": "Guinea",
    "country": "GN",
    "lastUpdated": "2020-03-28T16:43:04.395Z",
    "dead": 0,
    "id": "LU2QWt5ao8IJa8evNYVV",
    "infected": 8,
    "sick": 8
  },
  {
    "latitude": 3.9193051,
    "pop": 563402,
    "longitude": -56.0277824,
    "name": "Suriname",
    "country": "SR",
    "lastUpdated": "2020-03-28T16:43:04.280Z",
    "dead": 0,
    "id": "LglKINHyQpYpFxjckbQ6",
    "infected": 8,
    "recovered": 0,
    "sick": 8
  },
  {
    "lastUpdated": "2020-03-28T16:45:12.329Z",
    "dead": 0,
    "id": "LkIDKY0CMAqzbwBHyYCP",
    "infected": 104,
    "recovered": 0,
    "latitude": 52.9399,
    "pop": 1174000,
    "longitude": -106.4509,
    "name": "Saskatchewan",
    "country": "CA",
    "sick": 104
  },
  {
    "latitude": 37.8393,
    "pop": 4468000,
    "longitude": -84.27,
    "name": "Kentucky",
    "country": "US",
    "lastUpdated": "2020-03-28T16:40:02.586Z",
    "dead": 7,
    "id": "MC8MXFw9iXYybnF8v7e6",
    "infected": 302,
    "recovered": 0,
    "sick": 295
  },
  {
    "lastUpdated": "2020-03-28T16:40:02.582Z",
    "dead": 25,
    "id": "MOxDkmQ4wBi1CuAdVxDE",
    "infected": 1234,
    "recovered": 0,
    "latitude": 40.2672,
    "pop": 6692000,
    "longitude": -86.1349,
    "name": "Indiana",
    "country": "US",
    "sick": 1209
  },
  {
    "id": "MdQOfc1gNh2DOqwSP6UV",
    "infected": 101,
    "recovered": 3,
    "latitude": 7.54,
    "pop": 24290000,
    "longitude": -5.5471,
    "name": "Ivory Coast",
    "country": "CI",
    "lastUpdated": "2020-03-28T16:43:03.584Z",
    "dead": 0,
    "sick": 98
  },
  {
    "recovered": 1464,
    "latitude": 51.4332,
    "pop": 17910000,
    "longitude": 7.6616,
    "name": "Nordrhein-Westfalen",
    "country": "DE",
    "lastUpdated": "2020-03-28T16:38:05.056Z",
    "dead": 105,
    "id": "MjpYq3zQyAvSQlVVYjD2",
    "infected": 12744,
    "sick": 11175
  },
  {
    "lastUpdated": "2020-03-28T16:44:06.041Z",
    "dead": 0,
    "id": "MntmjjuHljarCdt6aIeE",
    "infected": 75,
    "recovered": 75,
    "latitude": 37.330509,
    "pop": 6301000,
    "longitude": 105.977203,
    "name": "Ningxia",
    "country": "CN",
    "sick": 0
  },
  {
    "id": "N3XsRBwJSsNclkEf7Zz5",
    "infected": 9781,
    "recovered": 552,
    "latitude": 48.6616,
    "pop": 11020000,
    "longitude": 9.3501,
    "name": "Baden-Württemberg",
    "country": "DE",
    "lastUpdated": "2020-03-28T16:38:04.950Z",
    "dead": 101,
    "sick": 9128
  },
  {
    "recovered": 5,
    "latitude": 44.696652,
    "pop": 3507000,
    "longitude": 17.824332,
    "name": "Bosnia and Herzegovina",
    "country": "BA",
    "lastUpdated": "2020-03-28T16:43:03.692Z",
    "dead": 4,
    "id": "N7c13sCQF0G789XAVazJ",
    "infected": 257,
    "sick": 248
  },
  {
    "longitude": 111.856857,
    "name": "Shanxi",
    "country": "CN",
    "lastUpdated": "2020-03-28T16:44:05.936Z",
    "dead": 0,
    "id": "NBRIGIRrJB1Ry8prDNAC",
    "infected": 135,
    "recovered": 133,
    "latitude": 37.242565,
    "pop": 36500000,
    "sick": 2
  },
  {
    "latitude": 35.7596,
    "pop": 10380000,
    "longitude": -79.0193,
    "name": "North Carolina",
    "country": "US",
    "lastUpdated": "2020-03-28T16:40:02.609Z",
    "dead": 5,
    "id": "NC64Qp5kTqAfiTuR27k8",
    "infected": 993,
    "recovered": 0,
    "sick": 988
  },
  {
    "recovered": 42,
    "latitude": 52.4125,
    "pop": 2504000,
    "longitude": 12.5316,
    "name": "Brandenburg",
    "country": "DE",
    "lastUpdated": "2020-03-28T16:38:05.060Z",
    "dead": 3,
    "id": "NJjo2gfBvnbK4xatrsUz",
    "infected": 721,
    "sick": 676
  },
  {
    "latitude": 30.0668,
    "pop": 10080000,
    "longitude": 79.0193,
    "name": "Uttarakhand",
    "country": "IN",
    "lastUpdated": "2020-03-28T16:41:03.218Z",
    "dead": 0,
    "id": "NMeZEcGToxXfpi16PfFV",
    "infected": 5,
    "recovered": 0,
    "sick": 5
  },
  {
    "lastUpdated": "2020-03-28T16:38:04.948Z",
    "dead": 9,
    "id": "Nk5vPgUIXsWVfbWZf15O",
    "infected": 2604,
    "recovered": 149,
    "latitude": 50.6521,
    "pop": 6243000,
    "longitude": 9.1624,
    "name": "Hessen",
    "country": "DE",
    "sick": 2446
  },
  {
    "latitude": 56.96776,
    "pop": 1920000,
    "longitude": 25.837107,
    "name": "Latvia",
    "country": "LV",
    "lastUpdated": "2020-03-28T16:43:03.783Z",
    "dead": 0,
    "id": "NmmMKy0YqA8StHdGzB5N",
    "infected": 305,
    "recovered": 1,
    "sick": 304
  },
  {
    "id": "O4g88K49HKEZLFXm5gxb",
    "infected": 3,
    "recovered": 0,
    "latitude": 6.4281,
    "pop": 4732000,
    "longitude": -9.4295,
    "name": "Liberia",
    "country": "LR",
    "lastUpdated": "2020-03-28T16:43:04.343Z",
    "dead": 0,
    "sick": 3
  },
  {
    "infected": 542,
    "recovered": 0,
    "latitude": 34.003307,
    "pop": 5084000,
    "longitude": -80.525613,
    "name": "South Carolina",
    "country": "US",
    "lastUpdated": "2020-03-28T16:40:02.621Z",
    "dead": 13,
    "id": "ONU4CK8QjViFHKg2w5if",
    "sick": 529
  },
  {
    "longitude": -89.582775,
    "name": "Mississippi",
    "country": "US",
    "lastUpdated": "2020-03-28T16:40:02.661Z",
    "dead": 8,
    "id": "OYa0jFzdbAgo8zUsRv6q",
    "infected": 580,
    "recovered": 0,
    "latitude": 33.51822,
    "pop": 2987000,
    "sick": 572
  },
  {
    "infected": 168,
    "recovered": 0,
    "latitude": 45.2538,
    "pop": 1338000,
    "longitude": -69.4455,
    "name": "Maine",
    "country": "US",
    "lastUpdated": "2020-03-28T16:40:02.567Z",
    "dead": 1,
    "id": "OcXNp9kNVSwrRlG3bNVN",
    "sick": 167
  },
  {
    "latitude": -41.915264,
    "pop": 515000,
    "longitude": 146.725256,
    "name": "Tasmania",
    "country": "AU",
    "lastUpdated": "2020-03-28T16:40:02.841Z",
    "dead": 0,
    "id": "OnOseaqWdnuP18oruABW",
    "infected": 58,
    "recovered": 3,
    "sick": 55
  },
  {
    "lastUpdated": "2020-03-28T16:43:04.302Z",
    "dead": 1,
    "id": "P4mwRFLbrvT0t75uD8Wo",
    "infected": 8,
    "recovered": 0,
    "latitude": 19.3133,
    "pop": 61559,
    "longitude": -81.2546,
    "name": "Cayman Islands",
    "country": "KY",
    "sick": 7
  },
  {
    "recovered": 0,
    "latitude": 16.7424984,
    "pop": 5900,
    "longitude": -62.1873665,
    "name": "Montserrat",
    "country": "MS",
    "lastUpdated": "2020-03-28T16:43:04.385Z",
    "dead": 0,
    "id": "PEDkeFMTOZpvHiSVxBk7",
    "infected": 5,
    "sick": 5
  },
  {
    "lastUpdated": "2020-03-28T16:43:04.134Z",
    "dead": 0,
    "id": "PEcgZGEkyhABztt1Ufgc",
    "infected": 54,
    "recovered": 0,
    "latitude": -1.9403,
    "pop": 12210000,
    "longitude": 29.8739,
    "name": "Rwanda",
    "country": "RW",
    "sick": 54
  },
  {
    "infected": 398,
    "recovered": 0,
    "latitude": 46.7296,
    "pop": 5611000,
    "longitude": -94.6859,
    "name": "Minnesota",
    "country": "US",
    "lastUpdated": "2020-03-28T16:40:02.546Z",
    "dead": 4,
    "id": "PJvVYosLIhbcRZYnKX1R",
    "sick": 394
  },
  {
    "lastUpdated": "2020-03-28T16:40:02.624Z",
    "dead": 34,
    "id": "PTwQr9ijo0TBBsPH2sdJ",
    "infected": 3029,
    "recovered": 0,
    "latitude": 40.6331,
    "pop": 12740000,
    "longitude": -89.3985,
    "name": "Illinois",
    "country": "US",
    "sick": 2995
  },
  {
    "latitude": 13.909444,
    "pop": 178844,
    "longitude": -60.978893,
    "name": "Saint Lucia",
    "country": "LC",
    "lastUpdated": "2020-03-28T16:43:04.364Z",
    "dead": 0,
    "id": "PjLqCeFdyzdZNcZxMkK1",
    "infected": 3,
    "recovered": 1,
    "sick": 2
  },
  {
    "latitude": 34.201507,
    "pop": 11530000,
    "longitude": 9.460554,
    "name": "Tunisia",
    "country": "TN",
    "lastUpdated": "2020-03-28T16:43:03.752Z",
    "dead": 7,
    "id": "Pr76V4raf108uSRoEXac",
    "infected": 227,
    "recovered": 2,
    "sick": 218
  },
  {
    "lastUpdated": "2020-03-28T16:43:04.137Z",
    "dead": 0,
    "id": "PuQgOd9KWiMzGZXm11sR",
    "infected": 9,
    "recovered": 0,
    "latitude": -26.5225,
    "pop": 1367000,
    "longitude": 31.4659,
    "name": "Eswatini",
    "country": "SZ",
    "sick": 9
  },
  {
    "id": "Q18mrGvFWTLX2BU9SqhQ",
    "infected": 685,
    "recovered": 171,
    "latitude": -37.009609,
    "pop": 6359000,
    "longitude": 143.94853,
    "name": "Victoria",
    "country": "AU",
    "lastUpdated": "2020-03-28T16:40:02.836Z",
    "dead": 3,
    "sick": 511
  },
  {
    "latitude": 54.2194,
    "pop": 2890000,
    "longitude": 9.6961,
    "name": "Schleswig-Holstein",
    "country": "DE",
    "lastUpdated": "2020-03-28T16:38:04.953Z",
    "dead": 5,
    "id": "Q39XkabIYxt15mHINzTa",
    "infected": 917,
    "recovered": 11,
    "sick": 901
  },
  {
    "infected": 645,
    "recovered": 20,
    "latitude": 58.595272,
    "pop": 1328000,
    "longitude": 25.013607,
    "name": "Estonia",
    "country": "EE",
    "lastUpdated": "2020-03-28T16:43:03.687Z",
    "dead": 1,
    "id": "QR9go2hQKXjty7JHUYe4",
    "sick": 624
  },
  {
    "longitude": 143.9555,
    "name": "Papua New Guinea",
    "country": "PG",
    "lastUpdated": "2020-03-28T16:43:04.135Z",
    "dead": 0,
    "id": "QlZrE4nosm5WfdA2aCDg",
    "infected": 1,
    "recovered": 0,
    "latitude": -6.315,
    "pop": 8251000,
    "sick": 1
  },
  {
    "id": "QqhD3YDMKXojvQY3Yu41",
    "infected": 19,
    "recovered": 0,
    "latitude": 18.3358,
    "pop": 107268,
    "longitude": -64.8963,
    "name": "U.S. Virgin Islands",
    "country": "US",
    "lastUpdated": "2020-03-28T16:40:02.617Z",
    "dead": 0,
    "sick": 19
  },
  {
    "infected": 11,
    "recovered": 0,
    "latitude": 15.414999,
    "pop": 71937,
    "longitude": -61.3709755,
    "name": "Dominica",
    "country": "DM",
    "lastUpdated": "2020-03-28T16:43:04.274Z",
    "dead": 0,
    "id": "Qy2qW2ep5wltnYjPJBxh",
    "sick": 11
  },
  {
    "infected": 786,
    "recovered": 2,
    "latitude": 8.538,
    "pop": 4099000,
    "longitude": -80.7821,
    "name": "Panama",
    "country": "PA",
    "lastUpdated": "2020-03-28T16:43:03.671Z",
    "dead": 14,
    "id": "R8YCgephnxTufvcPWMgx",
    "sick": 770
  },
  {
    "infected": 95,
    "recovered": 3,
    "latitude": 15.2,
    "pop": 9265000,
    "longitude": -86.2419,
    "name": "Honduras",
    "country": "HN",
    "lastUpdated": "2020-03-28T16:43:04.402Z",
    "dead": 1,
    "id": "RA2SE0p2bVhqo0P2hzGY",
    "sick": 91
  },
  {
    "latitude": 45.633331,
    "pop": 1216000,
    "longitude": 13.8,
    "name": "Friuli Venezia Giulia",
    "country": "IT",
    "lastUpdated": "2020-03-28T16:46:09.333Z",
    "dead": 76,
    "id": "RCrDBCdBNYzgLNr0aB2H",
    "infected": 1317,
    "recovered": 214,
    "sick": 1027
  },
  {
    "latitude": 41.878,
    "pop": 3156000,
    "longitude": -93.0977,
    "name": "Iowa",
    "country": "US",
    "lastUpdated": "2020-03-28T16:40:02.569Z",
    "dead": 3,
    "id": "RX0KDu1AFrlCsrRso0nb",
    "infected": 235,
    "recovered": 0,
    "sick": 232
  },
  {
    "infected": 219,
    "recovered": 0,
    "latitude": 39.0119,
    "pop": 2912000,
    "longitude": -98.4842,
    "name": "Kansas",
    "country": "US",
    "lastUpdated": "2020-03-28T16:40:02.590Z",
    "dead": 4,
    "id": "Rf4uvBfP3GRDSHdZElRd",
    "sick": 215
  },
  {
    "longitude": 6.1878,
    "name": "Grand Est",
    "country": "FR",
    "lastUpdated": "2020-03-28T08:53:06.908Z",
    "dead": 657,
    "id": "RmEgf1xeclWt7XCF9oiR",
    "infected": 5479,
    "recovered": 1074,
    "latitude": 48.6998,
    "pop": 5518000,
    "sick": 3748
  },
  {
    "latitude": 51.2538,
    "pop": 14570000,
    "longitude": -85.3232,
    "name": "Ontario",
    "country": "CA",
    "lastUpdated": "2020-03-28T16:45:12.405Z",
    "dead": 18,
    "id": "Rx4TuyMpfGb3S8wYJX0x",
    "infected": 994,
    "recovered": 0,
    "sick": 976
  },
  {
    "infected": 66,
    "recovered": 13,
    "latitude": 14.652027,
    "pop": 376480,
    "longitude": -61.011715,
    "name": "Martinique",
    "country": "FR",
    "lastUpdated": "2020-03-28T08:53:16.532Z",
    "dead": 1,
    "id": "SDdefnq1bc3ZNr7SpEsW",
    "sick": 52
  },
  {
    "infected": 137,
    "recovered": 2,
    "latitude": 7.9465,
    "pop": 28830000,
    "longitude": -1.0232,
    "name": "Ghana",
    "country": "GH",
    "lastUpdated": "2020-03-28T16:43:03.792Z",
    "dead": 4,
    "id": "SG9VWLOV3x2JsTkXmVSz",
    "sick": 131
  },
  {
    "latitude": 46.818188,
    "pop": 8570000,
    "longitude": 8.227512,
    "name": "Switzerland",
    "country": "CH",
    "lastUpdated": "2020-03-28T16:43:03.709Z",
    "dead": 242,
    "id": "SGe9sCPayMqh6RsGFaBA",
    "infected": 13377,
    "recovered": 1530,
    "sick": 11605
  },
  {
    "recovered": 0,
    "latitude": 46.8139,
    "pop": 8485000,
    "longitude": -71.208,
    "name": "Quebec",
    "country": "CA",
    "lastUpdated": "2020-03-28T16:45:12.418Z",
    "dead": 18,
    "id": "SHoOE3NiJgWAlDVBzwYH",
    "infected": 2024,
    "sick": 2006
  },
  {
    "latitude": 42.6026,
    "pop": 1831000,
    "longitude": 20.903,
    "name": "Kosovo",
    "country": "XK",
    "lastUpdated": "2020-03-28T16:29:09.083Z",
    "dead": 1,
    "id": "SMWvuMMuKp2QK7O2tNia",
    "infected": 88,
    "recovered": 1,
    "sick": 86
  },
  {
    "lastUpdated": "2020-03-28T16:41:03.246Z",
    "dead": 0,
    "id": "SPcujsH2YlUaoAr8AiWF",
    "infected": 3,
    "recovered": 0,
    "latitude": 15.2993,
    "pop": 1817000,
    "longitude": 74.124,
    "name": "Goa",
    "country": "IN",
    "sick": 3
  },
  {
    "recovered": 7,
    "latitude": 39,
    "pop": 1957000,
    "longitude": 16.5,
    "name": "Calabria",
    "country": "IT",
    "lastUpdated": "2020-03-28T16:46:09.264Z",
    "dead": 18,
    "id": "SZdF624x0v1LlyzZjKFu",
    "infected": 494,
    "sick": 469
  },
  {
    "latitude": 41.4925,
    "pop": 1929000,
    "longitude": -99.9018,
    "name": "Nebraska",
    "country": "US",
    "lastUpdated": "2020-03-28T16:40:02.630Z",
    "dead": 2,
    "id": "SakhKQzKu1LRI8laqdQq",
    "infected": 90,
    "recovered": 0,
    "sick": 88
  },
  {
    "infected": 94,
    "recovered": 0,
    "latitude": -21.1151,
    "pop": 859959,
    "longitude": 55.5364,
    "name": "La Réunion",
    "country": "FR",
    "lastUpdated": "2020-03-28T08:52:06.269Z",
    "dead": 0,
    "id": "SgHzWAAYK1j2sipovxM6",
    "sick": 94
  },
  {
    "id": "SioMALgUbo7peXmbco2f",
    "infected": 99,
    "recovered": 13,
    "latitude": 12.565679,
    "pop": 16010000,
    "longitude": 104.990967,
    "name": "Cambodia",
    "country": "KH",
    "lastUpdated": "2020-03-28T16:43:04.086Z",
    "dead": 0,
    "sick": 86
  },
  {
    "latitude": 13.4443,
    "pop": 164229,
    "longitude": 144.7937,
    "name": "Guam",
    "country": "GU",
    "lastUpdated": "2020-03-28T16:40:02.572Z",
    "dead": 1,
    "id": "SsWhuEElU7dCTTuH5fdQ",
    "infected": 51,
    "recovered": 0,
    "sick": 50
  },
  {
    "id": "T3iRf8mTUTAzbKrORTap",
    "infected": 58,
    "recovered": 2,
    "latitude": -4.0383,
    "pop": 81340000,
    "longitude": 21.7587,
    "name": "DR Congo",
    "country": "CD",
    "lastUpdated": "2020-03-28T16:43:04.323Z",
    "dead": 6,
    "sick": 50
  },
  {
    "infected": 1203,
    "recovered": 37,
    "latitude": 23.635796,
    "pop": 32940000,
    "longitude": 44.344334,
    "name": "Saudi Arabia",
    "country": "SA",
    "lastUpdated": "2020-03-28T16:43:03.724Z",
    "dead": 4,
    "id": "T7NffoeCgTUpAbOHvYwP",
    "sick": 1162
  },
  {
    "id": "TQZmzsLhJqjtCSExAkCP",
    "infected": 120,
    "recovered": 25,
    "latitude": 4.506106,
    "pop": 428697,
    "longitude": 114.650692,
    "name": "Brunei",
    "country": "BN",
    "lastUpdated": "2020-03-28T16:43:03.773Z",
    "dead": 1,
    "sick": 94
  },
  {
    "latitude": 45.4471,
    "pop": 8027000,
    "longitude": 4.3853,
    "name": "Auvergne-Rhône-Alpes",
    "country": "FR",
    "lastUpdated": "2020-03-28T08:52:49.156Z",
    "dead": 165,
    "id": "TT0MKODSjrxHvG19xZCa",
    "infected": 2093,
    "recovered": 606,
    "sick": 1322
  },
  {
    "infected": 1740,
    "recovered": 0,
    "latitude": 39.318928,
    "pop": 5696000,
    "longitude": -105.461392,
    "name": "Colorado",
    "country": "US",
    "lastUpdated": "2020-03-28T16:40:02.613Z",
    "dead": 31,
    "id": "Th4dlpXXmSDgi1OHs36P",
    "sick": 1709
  },
  {
    "infected": 207,
    "recovered": 21,
    "latitude": 12.2383,
    "pop": 19190000,
    "longitude": -1.5616,
    "name": "Burkina Faso",
    "country": "BF",
    "lastUpdated": "2020-03-28T16:43:03.673Z",
    "dead": 11,
    "id": "Tup6oDCHj6DgqZR3nQ3x",
    "sick": 175
  },
  {
    "lastUpdated": "2020-03-28T16:43:04.353Z",
    "dead": 0,
    "id": "TvqURPN5xzVBXsmGP46N",
    "infected": 7,
    "recovered": 0,
    "latitude": 12.104818,
    "pop": 112381,
    "longitude": -61.670761,
    "name": "Grenada",
    "country": "GD",
    "sick": 7
  },
  {
    "longitude": 12.56902,
    "name": "Denmark",
    "country": "DK",
    "lastUpdated": "2020-03-28T16:43:03.602Z",
    "dead": 65,
    "id": "Ty1AY3VLPJcRZgdBIERx",
    "infected": 2201,
    "recovered": 1,
    "latitude": 55.675758,
    "pop": 5603000,
    "sick": 2135
  },
  {
    "latitude": 36.395859,
    "pop": 100472400,
    "longitude": 118.769882,
    "name": "Shandong",
    "country": "CN",
    "lastUpdated": "2020-03-28T16:44:05.950Z",
    "dead": 7,
    "id": "U0tkTJ9CGsBuFJ2Gdoum",
    "infected": 772,
    "recovered": 752,
    "sick": 13
  },
  {
    "longitude": 12.457777,
    "name": "San Marino",
    "country": "SM",
    "lastUpdated": "2020-03-28T16:43:03.762Z",
    "dead": 21,
    "id": "U12rMD5GDW58Q0lIwrB1",
    "infected": 223,
    "recovered": 6,
    "latitude": 43.94236,
    "pop": 33400,
    "sick": 196
  },
  {
    "infected": 1499,
    "recovered": 404,
    "latitude": 36.204823,
    "pop": 126800000,
    "longitude": 138.25293,
    "name": "Japan",
    "country": "JP",
    "lastUpdated": "2020-03-28T16:43:03.756Z",
    "dead": 49,
    "id": "U13Gy4BpRLAZ95bPmBXd",
    "sick": 1046
  },
  {
    "infected": 23,
    "recovered": 0,
    "latitude": 1.3733,
    "pop": 42860000,
    "longitude": 32.2903,
    "name": "Uganda",
    "country": "UG",
    "lastUpdated": "2020-03-28T16:43:04.277Z",
    "dead": 0,
    "id": "UCZXEgnHtxUoChWLR6fQ",
    "sick": 23
  },
  {
    "lastUpdated": "2020-03-28T16:43:04.368Z",
    "dead": 0,
    "id": "UIbrFy6kiTTF0D37Kqmp",
    "infected": 4,
    "recovered": 0,
    "latitude": -11.2027,
    "pop": 29780000,
    "longitude": 17.8739,
    "name": "Angola",
    "country": "AO",
    "sick": 4
  },
  {
    "recovered": 131,
    "latitude": 48.202,
    "pop": 3329000,
    "longitude": -2.9326,
    "name": "Bretagne",
    "country": "FR",
    "lastUpdated": "2020-03-28T08:52:41.628Z",
    "dead": 34,
    "id": "URKMlJ7OTNldjpaxFbjE",
    "infected": 603,
    "sick": 438
  },
  {
    "latitude": 53.5511,
    "pop": 1822000,
    "longitude": 9.9937,
    "name": "Hamburg",
    "country": "DE",
    "lastUpdated": "2020-03-28T16:38:05.051Z",
    "dead": 4,
    "id": "UfFaUECHINUutv1M9tzq",
    "infected": 1935,
    "recovered": 1,
    "sick": 1930
  },
  {
    "id": "UrF45V1VqMo6YBib2KlL",
    "infected": 14,
    "recovered": 0,
    "latitude": -19.4914,
    "pop": 211945,
    "longitude": 132.551,
    "name": "Northern Territory",
    "country": "AU",
    "lastUpdated": "2020-03-28T16:40:02.735Z",
    "dead": 0,
    "sick": 14
  },
  {
    "infected": 3,
    "recovered": 0,
    "latitude": 18.0424805,
    "pop": 41109,
    "longitude": -63.0548286,
    "name": "Sint Maarten",
    "country": "SX",
    "lastUpdated": "2020-03-28T16:43:04.314Z",
    "dead": 0,
    "id": "UsxgpiuFCtlR2CW1UUFm",
    "sick": 3
  },
  {
    "id": "V1qE740s3EUGyKGr6SVv",
    "infected": 1,
    "recovered": 0,
    "latitude": 11.943179,
    "pop": 241773,
    "longitude": 79.808206,
    "name": "Puducherry",
    "country": "IN",
    "lastUpdated": "2020-03-28T16:41:03.198Z",
    "dead": 0,
    "sick": 1
  },
  {
    "infected": 539,
    "recovered": 10,
    "latitude": 3.527606,
    "pop": 49070000,
    "longitude": -72.998674,
    "name": "Colombia",
    "country": "CO",
    "lastUpdated": "2020-03-28T16:43:03.742Z",
    "dead": 6,
    "id": "VAAmtxtDuCY0o55zRsOh",
    "sick": 523
  },
  {
    "lastUpdated": "2020-03-28T16:43:03.634Z",
    "dead": 3,
    "id": "VAG9AcMABTf8oIAfELPh",
    "infected": 119,
    "recovered": 4,
    "latitude": 21.5218,
    "pop": 11480000,
    "longitude": -77.7812,
    "name": "Cuba",
    "country": "CU",
    "sick": 112
  },
  {
    "latitude": 25.181129,
    "pop": 45970000,
    "longitude": 101.864143,
    "name": "Yunnan",
    "country": "CN",
    "lastUpdated": "2020-03-28T16:44:06.135Z",
    "dead": 2,
    "id": "VIf8T8PD3ZzlzAm5eBCX",
    "infected": 180,
    "recovered": 172,
    "sick": 6
  },
  {
    "recovered": 11,
    "latitude": 26.8467,
    "pop": 204200000,
    "longitude": 80.9462,
    "name": "Uttar Pradesh",
    "country": "IN",
    "lastUpdated": "2020-03-28T16:41:03.177Z",
    "dead": 0,
    "id": "VcKcLdCkC6YpPfIDnRVD",
    "infected": 55,
    "sick": 44
  },
  {
    "latitude": 64.8255,
    "pop": 44826,
    "longitude": -124.8457,
    "name": "Northwest Territories",
    "country": "CA",
    "lastUpdated": "2020-03-28T16:45:12.446Z",
    "dead": 0,
    "id": "Vd3lLgrNsr81plzTgZkz",
    "infected": 1,
    "recovered": 0,
    "sick": 1
  },
  {
    "recovered": 256,
    "latitude": 43.8927,
    "pop": 5893000,
    "longitude": 3.2828,
    "name": "Occitanie",
    "country": "FR",
    "lastUpdated": "2020-03-28T08:52:35.220Z",
    "dead": 61,
    "id": "WAnbFrEjtZDTCIYBt8rz",
    "infected": 1082,
    "sick": 765
  },
  {
    "longitude": 16.5,
    "name": "Basilicata",
    "country": "IT",
    "lastUpdated": "2020-03-28T16:46:09.270Z",
    "dead": 3,
    "id": "WD502XimGXnWzqYg7zxL",
    "infected": 151,
    "recovered": 1,
    "latitude": 40.5,
    "pop": 567118,
    "sick": 147
  },
  {
    "latitude": 24.6637,
    "pop": 2722000,
    "longitude": 93.9063,
    "name": "Manipur",
    "country": "IN",
    "lastUpdated": "2020-03-28T16:41:03.271Z",
    "dead": 0,
    "id": "WKsJQmcpWKxnp0nCwN77",
    "infected": 1,
    "recovered": 0,
    "sick": 1
  },
  {
    "latitude": -30.5595,
    "pop": 56720000,
    "longitude": 22.9375,
    "name": "South Africa",
    "country": "ZA",
    "lastUpdated": "2020-03-28T16:43:03.740Z",
    "dead": 1,
    "id": "Whrue10NtwIObLvFFyBr",
    "infected": 1170,
    "recovered": 31,
    "sick": 1138
  },
  {
    "infected": 3,
    "recovered": 0,
    "latitude": 13.443182,
    "pop": 2101000,
    "longitude": -15.3101387,
    "name": "Gambia",
    "country": "GM",
    "lastUpdated": "2020-03-28T16:43:04.410Z",
    "dead": 1,
    "id": "Wk811YwpQxsOCfz8As86",
    "sick": 2
  },
  {
    "recovered": 15,
    "latitude": 23.685,
    "pop": 164700000,
    "longitude": 90.3563,
    "name": "Bangladesh",
    "country": "BD",
    "lastUpdated": "2020-03-28T16:43:04.304Z",
    "dead": 5,
    "id": "WpLayPPLIJ7VcHZdQaoM",
    "infected": 48,
    "sick": 28
  },
  {
    "infected": 7497,
    "recovered": 536,
    "latitude": 45.5,
    "pop": 4905000,
    "longitude": 11.75,
    "name": "Veneto",
    "country": "IT",
    "lastUpdated": "2020-03-28T16:46:09.185Z",
    "dead": 313,
    "id": "X2iRhHF6f9pUnJcxPc3J",
    "sick": 6648
  },
  {
    "lastUpdated": "2020-03-28T16:41:03.172Z",
    "dead": 0,
    "id": "X3PZqaJxtnlxcgP4tzya",
    "infected": 13,
    "recovered": 3,
    "latitude": 34.152588,
    "pop": 274289,
    "longitude": 77.577049,
    "name": "Ladakh",
    "country": "IN",
    "sick": 10
  },
  {
    "longitude": 118.278992,
    "name": "Fujian",
    "country": "CN",
    "lastUpdated": "2020-03-28T16:44:05.932Z",
    "dead": 1,
    "id": "XBBw0iMPrmiEu3qogkbi",
    "infected": 337,
    "recovered": 295,
    "latitude": 25.92448,
    "pop": 38560000,
    "sick": 41
  },
  {
    "latitude": -32.5228,
    "pop": 3457000,
    "longitude": -55.7658,
    "name": "Uruguay",
    "country": "UY",
    "lastUpdated": "2020-03-28T16:43:03.675Z",
    "dead": 0,
    "id": "XrsuLstdybIqIvv0E0aJ",
    "infected": 274,
    "recovered": 0,
    "sick": 274
  },
  {
    "lastUpdated": "2020-03-28T08:52:32.053Z",
    "dead": 19,
    "id": "YGXgIObKVabP2CYEdcb9",
    "infected": 225,
    "recovered": 70,
    "latitude": 42.0396,
    "pop": 339178,
    "longitude": 9.0129,
    "name": "Corse",
    "country": "FR",
    "sick": 136
  },
  {
    "longitude": 35.2332,
    "name": "Palestine",
    "country": "PS",
    "lastUpdated": "2020-03-28T16:43:04.336Z",
    "dead": 1,
    "id": "YMzKw0SnXG71VT7H1jff",
    "infected": 97,
    "recovered": 18,
    "latitude": 31.9522,
    "pop": 5052000,
    "sick": 78
  },
  {
    "infected": 85,
    "recovered": 0,
    "latitude": 64.2008,
    "pop": 737438,
    "longitude": -149.4937,
    "name": "Alaska",
    "country": "US",
    "lastUpdated": "2020-03-28T16:40:02.600Z",
    "dead": 2,
    "id": "YaCODTMD1KKRnrAlkg2u",
    "sick": 83
  },
  {
    "infected": 9478,
    "recovered": 4811,
    "latitude": 37.568291,
    "pop": 51470000,
    "longitude": 126.99778,
    "name": "South Korea",
    "country": "KR",
    "lastUpdated": "2020-03-28T16:43:03.770Z",
    "dead": 144,
    "id": "Yw9uBekNlefXBcOCNMfP",
    "sick": 4523
  },
  {
    "infected": 26,
    "recovered": 0,
    "latitude": 13.193887,
    "pop": 285719,
    "longitude": -59.543198,
    "name": "Barbados",
    "country": "BB",
    "lastUpdated": "2020-03-28T16:43:04.271Z",
    "dead": 0,
    "id": "YzZqZMJGvG6joQCdiuXC",
    "sick": 26
  },
  {
    "infected": 1481,
    "recovered": 7,
    "latitude": 52.2297,
    "pop": 37980000,
    "longitude": 21.0122,
    "name": "Poland",
    "country": "PL",
    "lastUpdated": "2020-03-28T16:43:03.645Z",
    "dead": 17,
    "id": "ZAZNuCK1VweBaTLCFzCk",
    "sick": 1457
  },
  {
    "latitude": -17.713371,
    "pop": 905502,
    "longitude": 178.065033,
    "name": "Fiji",
    "country": "FJ",
    "lastUpdated": "2020-03-28T16:43:04.358Z",
    "dead": 0,
    "id": "ZmzOT0sJgfWXEpRImItC",
    "infected": 5,
    "recovered": 0,
    "sick": 5
  },
  {
    "lastUpdated": "2020-03-28T16:40:02.581Z",
    "dead": 27,
    "id": "Zqy0gftQzocR49jEJNMl",
    "infected": 1291,
    "recovered": 0,
    "latitude": 41.6032,
    "pop": 3573000,
    "longitude": -73.0877,
    "name": "Connecticut",
    "country": "US",
    "sick": 1264
  },
  {
    "longitude": 13.516667,
    "name": "Marche",
    "country": "IT",
    "lastUpdated": "2020-03-28T16:46:09.251Z",
    "dead": 336,
    "id": "Zwbjs4XN7P9s849Q3zFj",
    "infected": 3196,
    "recovered": 10,
    "latitude": 43.616943,
    "pop": 1532000,
    "sick": 2850
  },
  {
    "latitude": 51.011,
    "pop": 2137000,
    "longitude": 10.8453,
    "name": "Thüringen",
    "country": "DE",
    "lastUpdated": "2020-03-28T16:38:05.054Z",
    "dead": 5,
    "id": "a9OgUWo6ZSWA3HyF0xnj",
    "infected": 702,
    "recovered": 80,
    "sick": 617
  },
  {
    "lastUpdated": "2020-03-28T16:40:02.830Z",
    "dead": 0,
    "id": "a9p9pAOsjg1WAjPGc2a6",
    "infected": 287,
    "recovered": 6,
    "latitude": -30.000233,
    "pop": 1677000,
    "longitude": 136.209152,
    "name": "South Australia",
    "country": "AU",
    "sick": 281
  },
  {
    "longitude": -91.8318,
    "name": "Missouri",
    "country": "US",
    "lastUpdated": "2020-03-28T16:40:02.591Z",
    "dead": 9,
    "id": "aPubGfQ8ToSEuKJldKRT",
    "infected": 713,
    "recovered": 0,
    "latitude": 37.9643,
    "pop": 6126000,
    "sick": 704
  },
  {
    "longitude": 108.26651,
    "name": "Guangxi",
    "country": "CN",
    "lastUpdated": "2020-03-28T16:44:05.845Z",
    "dead": 2,
    "id": "aTa8MiBjtH3iY0SRs2HQ",
    "infected": 254,
    "recovered": 250,
    "latitude": 23.64407,
    "pop": 48380000,
    "sick": 2
  },
  {
    "id": "adcBUeAYp6ey0ZXCzKNs",
    "infected": 3,
    "recovered": 0,
    "latitude": 6.6111,
    "pop": 4659000,
    "longitude": 20.9394,
    "name": "CAR",
    "country": "CF",
    "lastUpdated": "2020-03-28T16:43:04.312Z",
    "dead": 0,
    "sick": 3
  },
  {
    "lastUpdated": "2020-03-28T16:40:02.560Z",
    "dead": 17,
    "id": "afeZTVC1J1SMMNFxkrcc",
    "infected": 739,
    "recovered": 0,
    "latitude": 37.4316,
    "pop": 8518000,
    "longitude": -78.6569,
    "name": "Virginia",
    "country": "US",
    "sick": 722
  },
  {
    "recovered": 410,
    "latitude": 39.904202,
    "pop": 21540000,
    "longitude": 116.407394,
    "name": "Beijing",
    "country": "CN",
    "lastUpdated": "2020-03-28T16:44:06.238Z",
    "dead": 8,
    "id": "alj4hkxg9cjrTxOzwFKt",
    "infected": 573,
    "sick": 155
  },
  {
    "recovered": 131,
    "latitude": 33.22319,
    "pop": 38270000,
    "longitude": 43.679291,
    "name": "Iraq",
    "country": "IQ",
    "lastUpdated": "2020-03-28T16:43:03.639Z",
    "dead": 42,
    "id": "b7TwXX46FA0EmH1CjHET",
    "infected": 506,
    "sick": 333
  },
  {
    "lastUpdated": "2020-03-28T16:43:03.704Z",
    "dead": 0,
    "id": "b9p1JhVml3GGC7iiPmKv",
    "infected": 130,
    "recovered": 18,
    "latitude": 14.457474,
    "pop": 15850000,
    "longitude": -14.358636,
    "name": "Senegal",
    "country": "SN",
    "sick": 112
  },
  {
    "infected": 38,
    "recovered": 1,
    "latitude": -0.0236,
    "pop": 49700000,
    "longitude": 37.9062,
    "name": "Kenya",
    "country": "KE",
    "lastUpdated": "2020-03-28T16:43:04.240Z",
    "dead": 1,
    "id": "bVHiTolbUJGHIeVht3eG",
    "sick": 36
  },
  {
    "lastUpdated": "2020-03-28T16:40:02.556Z",
    "dead": 108,
    "id": "bYp4RRHv19M7lYtSzQeV",
    "infected": 8825,
    "recovered": 0,
    "latitude": 39.561889,
    "pop": 8909000,
    "longitude": -74.672169,
    "name": "New Jersey",
    "country": "US",
    "sick": 8717
  },
  {
    "recovered": 320,
    "latitude": 3.139,
    "pop": 31620000,
    "longitude": 101.6869,
    "name": "Malaysia",
    "country": "MY",
    "lastUpdated": "2020-03-28T16:43:03.722Z",
    "dead": 27,
    "id": "bdqD4kpdqGgUaX70Tm2Q",
    "infected": 2320,
    "sick": 1973
  },
  {
    "recovered": 16,
    "latitude": 60.128162,
    "pop": 10120000,
    "longitude": 18.643501,
    "name": "Sweden",
    "country": "SE",
    "lastUpdated": "2020-03-28T16:43:03.681Z",
    "dead": 105,
    "id": "bignnyt2A8BBx8VNo32p",
    "infected": 3069,
    "sick": 2948
  },
  {
    "lastUpdated": "2020-03-28T16:43:03.726Z",
    "dead": 10,
    "id": "cCGmFmwHOoBrEpvG3qBP",
    "infected": 197,
    "recovered": 31,
    "latitude": 40.973765,
    "pop": 2877000,
    "longitude": 20.010162,
    "name": "Albania",
    "country": "AL",
    "sick": 156
  },
  {
    "longitude": 96.199379,
    "name": "Myanmar",
    "country": "MM",
    "lastUpdated": "2020-03-28T16:43:04.398Z",
    "dead": 0,
    "id": "cIbchhSBTuxXmXYgpkdB",
    "infected": 8,
    "recovered": 0,
    "latitude": 16.871311,
    "pop": 55901000,
    "sick": 8
  },
  {
    "recovered": 0,
    "latitude": -25.953724,
    "pop": 29670000,
    "longitude": 32.588711,
    "name": "Mozambique",
    "country": "MZ",
    "lastUpdated": "2020-03-28T16:43:04.366Z",
    "dead": 0,
    "id": "cO8TChMvQvAtoZMNurTQ",
    "infected": 8,
    "sick": 8
  },
  {
    "infected": 12,
    "recovered": 0,
    "latitude": 46.8625,
    "pop": 3076000,
    "longitude": 103.8467,
    "name": "Mongolia",
    "country": "MN",
    "lastUpdated": "2020-03-28T16:43:04.291Z",
    "dead": 0,
    "id": "cPxONYsVo6BgvCW9HUeQ",
    "sick": 12
  },
  {
    "infected": 963,
    "recovered": 97,
    "latitude": 64.963051,
    "pop": 364260,
    "longitude": -19.020836,
    "name": "Iceland",
    "country": "IS",
    "lastUpdated": "2020-03-28T16:43:03.749Z",
    "dead": 2,
    "id": "cPxe7nsRnOf6aOPqHElJ",
    "sick": 864
  },
  {
    "latitude": 31.046051,
    "pop": 8712000,
    "longitude": 34.851612,
    "name": "Israel",
    "country": "IL",
    "lastUpdated": "2020-03-28T16:43:03.625Z",
    "dead": 12,
    "id": "cX891t0ONLNFj0MYq6La",
    "infected": 3460,
    "recovered": 89,
    "sick": 3359
  },
  {
    "longitude": -53.112909,
    "name": "Guyane",
    "country": "FR",
    "lastUpdated": "2020-03-28T08:53:13.044Z",
    "dead": 0,
    "id": "cc7s6hYGQ2MovBBBgkKb",
    "infected": 28,
    "recovered": 0,
    "latitude": 4.749531,
    "pop": 290691,
    "sick": 28
  },
  {
    "infected": 155,
    "recovered": 54,
    "latitude": 61.8926,
    "pop": 49290,
    "longitude": -6.9118,
    "name": "Faeroe Islands",
    "country": "FO",
    "lastUpdated": "2020-03-28T16:43:03.598Z",
    "dead": 0,
    "id": "cgzd5EM8PZv5ziJtTz1w",
    "sick": 101
  },
  {
    "lastUpdated": "2020-03-28T16:40:02.656Z",
    "dead": 23,
    "id": "chj2FF3zb4Xxcop9RHre",
    "infected": 2345,
    "recovered": 0,
    "latitude": 41.2033,
    "pop": 12810000,
    "longitude": -77.1945,
    "name": "Pennsylvania",
    "country": "US",
    "sick": 2322
  },
  {
    "recovered": 191,
    "latitude": 45.7087,
    "pop": 5987000,
    "longitude": 0.6269,
    "name": "Nouvelle-Aquitaine",
    "country": "FR",
    "lastUpdated": "2020-03-28T08:52:28.844Z",
    "dead": 42,
    "id": "cpf3Y5PQTYywIm3PrpIQ",
    "infected": 912,
    "sick": 679
  },
  {
    "infected": 72248,
    "recovered": 12285,
    "latitude": 40.463669,
    "pop": 46660000,
    "longitude": -3.74922,
    "name": "Spain",
    "country": "ES",
    "lastUpdated": "2020-03-28T16:43:03.660Z",
    "dead": 5812,
    "id": "d0ExINgPaWUBm3l4ioJL",
    "sick": 54151
  },
  {
    "recovered": 1,
    "latitude": 42.50837,
    "pop": 76965,
    "longitude": 1.517155,
    "name": "Andorra",
    "country": "AD",
    "lastUpdated": "2020-03-28T16:43:03.678Z",
    "dead": 3,
    "id": "dedMXSYR2k92wkSXNZqn",
    "infected": 308,
    "sick": 304
  },
  {
    "id": "dzCgqYduzyncjNKU9z6G",
    "infected": 165,
    "recovered": 0,
    "latitude": 38.831163,
    "pop": 967171,
    "longitude": -75.375673,
    "name": "Delaware",
    "country": "US",
    "lastUpdated": "2020-03-28T16:40:02.601Z",
    "dead": 2,
    "sick": 163
  },
  {
    "id": "dzIcCaUZlbIXuRw0SyDE",
    "infected": 5698,
    "recovered": 42,
    "latitude": 38.9637,
    "pop": 80810000,
    "longitude": 35.2433,
    "name": "Turkey",
    "country": "TR",
    "lastUpdated": "2020-03-28T16:43:03.667Z",
    "dead": 92,
    "sick": 5564
  },
  {
    "lastUpdated": "2020-03-28T16:43:03.705Z",
    "dead": 68,
    "id": "e3BtI12qbqhE8jypOoZu",
    "infected": 8030,
    "recovered": 225,
    "latitude": 47.516232,
    "pop": 8822000,
    "longitude": 14.550072,
    "name": "Austria",
    "country": "AT",
    "sick": 7737
  },
  {
    "latitude": 52.6367,
    "pop": 7963000,
    "longitude": 9.8451,
    "name": "Niedersachsen",
    "country": "DE",
    "lastUpdated": "2020-03-28T16:38:04.865Z",
    "dead": 21,
    "id": "e3CJgTO8wVbBQZaxqNze",
    "infected": 3483,
    "recovered": 372,
    "sick": 3090
  },
  {
    "latitude": 41.097481,
    "pop": 43900000,
    "longitude": 122.310669,
    "name": "Liaoning",
    "country": "CN",
    "lastUpdated": "2020-03-28T16:44:05.844Z",
    "dead": 2,
    "id": "e7P83iImanpd9r36oXK3",
    "infected": 132,
    "recovered": 124,
    "sick": 6
  },
  {
    "latitude": 31.230391,
    "pop": 24240000,
    "longitude": 121.473701,
    "name": "Shanghai",
    "country": "CN",
    "lastUpdated": "2020-03-28T16:44:05.843Z",
    "dead": 5,
    "id": "e9pQqQa7CEblCYoDtfKo",
    "infected": 485,
    "recovered": 334,
    "sick": 146
  },
  {
    "longitude": -71.382439,
    "name": "Massachusetts",
    "country": "US",
    "lastUpdated": "2020-03-28T16:40:02.628Z",
    "dead": 35,
    "id": "eCKDGssww4pF7NrxOySu",
    "infected": 3240,
    "recovered": 0,
    "latitude": 42.407211,
    "pop": 6902000,
    "sick": 3205
  },
  {
    "latitude": 43.740451,
    "pop": 38695,
    "longitude": 7.432032,
    "name": "Monaco",
    "country": "MC",
    "lastUpdated": "2020-03-28T16:43:04.414Z",
    "dead": 0,
    "id": "eLgKPNUwYM5MNDAtF6ql",
    "infected": 42,
    "recovered": 1,
    "sick": 41
  },
  {
    "lastUpdated": "2020-03-28T08:52:45.164Z",
    "dead": 139,
    "id": "ejrjMKfHexGnK52FS9Aa",
    "infected": 1569,
    "recovered": 432,
    "latitude": 47.2805,
    "pop": 2686000,
    "longitude": 4.9994,
    "name": "Bourgogne-Franche-Comté",
    "country": "FR",
    "sick": 998
  },
  {
    "latitude": 48.0196,
    "pop": 18040000,
    "longitude": 66.9237,
    "name": "Kazakhstan",
    "country": "KZ",
    "lastUpdated": "2020-03-28T16:43:03.795Z",
    "dead": 1,
    "id": "etrmrftkQg6Kbd9seAga",
    "infected": 228,
    "recovered": 16,
    "sick": 211
  },
  {
    "longitude": 102.960701,
    "name": "Sichuan",
    "country": "CN",
    "lastUpdated": "2020-03-28T16:44:05.945Z",
    "dead": 3,
    "id": "eyK5bxFkwdoAouIBvLFM",
    "infected": 548,
    "recovered": 536,
    "latitude": 30.14208,
    "pop": 81100000,
    "sick": 9
  },
  {
    "infected": 152,
    "recovered": 23,
    "latitude": 21.473534,
    "pop": 4636000,
    "longitude": 55.975414,
    "name": "Oman",
    "country": "OM",
    "lastUpdated": "2020-03-28T16:43:03.684Z",
    "dead": 0,
    "id": "f9kmlhYtc3WA3kjbWszW",
    "sick": 129
  },
  {
    "infected": 1700,
    "recovered": 17,
    "latitude": 51.1045,
    "pop": 4081000,
    "longitude": 13.2017,
    "name": "Sachsen",
    "country": "DE",
    "lastUpdated": "2020-03-28T16:38:05.155Z",
    "dead": 9,
    "id": "fGqVm2khm3IBRs709S1f",
    "sick": 1674
  },
  {
    "infected": 7731,
    "recovered": 0,
    "latitude": 47,
    "longitude": 2,
    "name": "Région non communiquée",
    "country": "FR",
    "dead": 0,
    "lastUpdated": "2020-03-27T20:01:51.534Z",
    "id": "fIp76gl05LhZ0aOxUbhz",
    "sick": 7731
  },
  {
    "infected": 3,
    "recovered": 0,
    "latitude": 15.4542,
    "pop": 14900000,
    "longitude": 18.7322,
    "name": "Chad",
    "country": "TD",
    "lastUpdated": "2020-03-28T16:43:04.320Z",
    "dead": 0,
    "id": "fJc9CaZGR1OCHaW8Tn4V",
    "sick": 3
  },
  {
    "recovered": 18,
    "latitude": 31.295929,
    "pop": 9702000,
    "longitude": 36.691952,
    "name": "Jordan",
    "country": "JO",
    "lastUpdated": "2020-03-28T16:43:03.636Z",
    "dead": 1,
    "id": "fK06AziL8wyrcoz7rsmJ",
    "infected": 235,
    "sick": 216
  },
  {
    "longitude": -81.555239,
    "name": "Florida",
    "country": "US",
    "lastUpdated": "2020-03-28T16:40:02.575Z",
    "dead": 46,
    "id": "fNganaGVPifA4QahEQPS",
    "infected": 3198,
    "recovered": 0,
    "latitude": 27.716933,
    "pop": 21300000,
    "sick": 3152
  },
  {
    "id": "fNnE9CD0SttEVrCUo1Ym",
    "infected": 712,
    "recovered": 587,
    "latitude": 35.452016,
    "longitude": 139.664285,
    "name": "Diamond Princess (Cruise)",
    "country": "ZZ",
    "dead": 10,
    "lastUpdated": "2020-03-28T08:50:19.549Z",
    "sick": 115
  },
  {
    "infected": 1391,
    "recovered": 125,
    "latitude": 46.0679,
    "pop": 538223,
    "longitude": 11.1211,
    "name": "P.A. Trento",
    "country": "IT",
    "lastUpdated": "2020-03-28T16:46:09.272Z",
    "dead": 102,
    "id": "fOlU5JggPKOO8jbHh5GD",
    "sick": 1164
  },
  {
    "lastUpdated": "2020-03-28T16:38:05.152Z",
    "dead": 8,
    "id": "ffKhENYKy3bwsyBLiYtE",
    "infected": 2161,
    "recovered": 645,
    "latitude": 52.52,
    "pop": 3748000,
    "longitude": 13.405,
    "name": "Berlin",
    "country": "DE",
    "sick": 1508
  },
  {
    "infected": 67801,
    "recovered": 62098,
    "latitude": 31.160629,
    "pop": 58500000,
    "longitude": 112.255402,
    "name": "Hubei",
    "country": "CN",
    "lastUpdated": "2020-03-28T16:44:06.236Z",
    "dead": 3177,
    "id": "fiJ14DCxw15e3SMemh8R",
    "sick": 2526
  },
  {
    "latitude": 50.4501,
    "pop": 42220000,
    "longitude": 30.5234,
    "name": "Ukraine",
    "country": "UA",
    "lastUpdated": "2020-03-28T16:43:03.785Z",
    "dead": 8,
    "id": "flbZ2kaR5kBuV8XZ2Nsu",
    "infected": 311,
    "recovered": 5,
    "sick": 298
  },
  {
    "lastUpdated": "2020-03-28T16:43:04.139Z",
    "dead": 0,
    "id": "fst48lrFxiMJbQPf4nur",
    "infected": 58,
    "recovered": 0,
    "latitude": 41.2044,
    "pop": 6202000,
    "longitude": 74.7661,
    "name": "Kyrgyzstan",
    "country": "KG",
    "sick": 58
  },
  {
    "id": "g0lRMtEJbucWIGqSPn0I",
    "infected": 9762,
    "recovered": 3,
    "latitude": 52.132633,
    "pop": 17180000,
    "longitude": 5.291266,
    "name": "Netherlands",
    "country": "NL",
    "lastUpdated": "2020-03-28T16:43:03.736Z",
    "dead": 639,
    "sick": 9120
  },
  {
    "longitude": -92.288012,
    "name": "Arkansas",
    "country": "US",
    "lastUpdated": "2020-03-28T16:40:02.595Z",
    "dead": 3,
    "id": "gIdgxJZfTl2QOSYEwMAz",
    "infected": 386,
    "recovered": 0,
    "latitude": 34.69522,
    "pop": 3014000,
    "sick": 383
  },
  {
    "infected": 5,
    "recovered": 0,
    "latitude": 4.8604159,
    "pop": 777859,
    "longitude": -58.9301796,
    "name": "Guyana",
    "country": "GY",
    "lastUpdated": "2020-03-28T16:43:04.334Z",
    "dead": 1,
    "id": "gXd2X2PjmGP0XVwxpWqT",
    "sick": 4
  },
  {
    "infected": 58,
    "recovered": 0,
    "latitude": 43.9695,
    "pop": 882235,
    "longitude": -99.9018,
    "name": "South Dakota",
    "country": "US",
    "lastUpdated": "2020-03-28T16:40:02.573Z",
    "dead": 1,
    "id": "gYDsNgvuvtbg8t77w6FS",
    "sick": 57
  },
  {
    "lastUpdated": "2020-03-28T16:43:03.609Z",
    "dead": 0,
    "id": "h9UqxYZ5xC4JZrmdDz0q",
    "infected": 149,
    "recovered": 2,
    "latitude": 35.894231,
    "pop": 493559,
    "longitude": 14.432846,
    "name": "Malta",
    "country": "MT",
    "sick": 147
  },
  {
    "latitude": 28.7041,
    "pop": 18980000,
    "longitude": 77.1025,
    "name": "Delhi",
    "country": "IN",
    "lastUpdated": "2020-03-28T16:41:03.192Z",
    "dead": 1,
    "id": "hqwsh1rmvkWI3LFUVuMk",
    "infected": 39,
    "recovered": 6,
    "sick": 32
  },
  {
    "lastUpdated": "2020-03-28T16:44:05.837Z",
    "dead": 2,
    "id": "iGkTscdD0XyHFSP23Qrp",
    "infected": 136,
    "recovered": 125,
    "latitude": 35.751835,
    "pop": 25580000,
    "longitude": 104.28611,
    "name": "Gansu",
    "country": "CN",
    "sick": 9
  },
  {
    "recovered": 0,
    "latitude": 34.8021,
    "pop": 18270000,
    "longitude": 38.9968,
    "name": "Syria",
    "country": "SY",
    "lastUpdated": "2020-03-28T16:43:04.387Z",
    "dead": 0,
    "id": "iHf1IZQP3CA3sT2erzyh",
    "infected": 5,
    "sick": 5
  },
  {
    "infected": 176,
    "recovered": 11,
    "latitude": 10.8505,
    "pop": 34800000,
    "longitude": 76.2711,
    "name": "Kerala",
    "country": "IN",
    "lastUpdated": "2020-03-28T16:41:03.179Z",
    "dead": 0,
    "id": "idymmgoqLHImnBdyC7r7",
    "sick": 165
  },
  {
    "infected": 76,
    "recovered": 6,
    "latitude": 16.265,
    "pop": 395700,
    "longitude": -61.551,
    "name": "Guadeloupe",
    "country": "FR",
    "lastUpdated": "2020-03-28T08:52:11.772Z",
    "dead": 1,
    "id": "j8eMjjqNAqHAJhAKdBYN",
    "sick": 69
  },
  {
    "longitude": 7.309,
    "name": "Rheinland-Pfalz",
    "country": "DE",
    "lastUpdated": "2020-03-28T16:38:05.162Z",
    "dead": 12,
    "id": "jKn2pIFlIBScjb47GjRX",
    "infected": 2357,
    "recovered": 50,
    "latitude": 50.1183,
    "pop": 4074000,
    "sick": 2295
  },
  {
    "infected": 161,
    "recovered": 133,
    "latitude": 39.343357,
    "pop": 15000000,
    "longitude": 117.361649,
    "name": "Tianjin",
    "country": "CN",
    "lastUpdated": "2020-03-28T16:44:05.839Z",
    "dead": 3,
    "id": "jMlHjIOb7eMPSxFBrmG1",
    "sick": 25
  },
  {
    "recovered": 0,
    "latitude": 17.1898766,
    "pop": 397000,
    "longitude": -88.4976501,
    "name": "Belize",
    "country": "BZ",
    "lastUpdated": "2020-03-28T16:43:04.390Z",
    "dead": 0,
    "id": "jOc8JUDWxCmquh49oZxV",
    "infected": 2,
    "sick": 2
  },
  {
    "latitude": 44.5588,
    "pop": 629299,
    "longitude": -72.5778,
    "name": "Vermont",
    "country": "US",
    "lastUpdated": "2020-03-28T16:40:02.603Z",
    "dead": 10,
    "id": "jPC0eOG50FWknCDe3K6P",
    "infected": 184,
    "recovered": 0,
    "sick": 174
  },
  {
    "infected": 2121,
    "recovered": 5,
    "latitude": 53.3498,
    "pop": 4830000,
    "longitude": -6.2603,
    "name": "Ireland",
    "country": "IE",
    "lastUpdated": "2020-03-28T16:43:03.444Z",
    "dead": 22,
    "id": "jpVXEDCyfyq26gPoCtHL",
    "sick": 2094
  },
  {
    "lastUpdated": "2020-03-28T16:45:12.367Z",
    "dead": 0,
    "id": "k73gNv36u1SmziUF6mUw",
    "infected": 3,
    "recovered": 0,
    "latitude": 64.2823,
    "pop": 35874,
    "longitude": -135,
    "name": "Yukon",
    "country": "CA",
    "sick": 3
  },
  {
    "lastUpdated": "2020-03-28T16:46:09.246Z",
    "dead": 21,
    "id": "kF99avagXvBfZTHv9ETi",
    "infected": 530,
    "recovered": 13,
    "latitude": 40.078072,
    "pop": 1648000,
    "longitude": 9.283447,
    "name": "Sardegna",
    "country": "IT",
    "sick": 496
  },
  {
    "id": "l4nYeaqwy2yrEVqnijFj",
    "infected": 12,
    "recovered": 0,
    "latitude": 11.572076,
    "pop": 956985,
    "longitude": 43.145645,
    "name": "Djibouti",
    "country": "DJ",
    "lastUpdated": "2020-03-28T16:43:04.407Z",
    "dead": 0,
    "sick": 12
  },
  {
    "infected": 234,
    "recovered": 0,
    "latitude": 44.0682,
    "pop": 1754000,
    "longitude": -114.742,
    "name": "Idaho",
    "country": "US",
    "lastUpdated": "2020-03-28T16:40:02.565Z",
    "dead": 4,
    "id": "l7fHSKOmcaRX3tq9FCT6",
    "sick": 230
  },
  {
    "infected": 1334,
    "recovered": 29,
    "latitude": 40.816666,
    "pop": 4048000,
    "longitude": 16.549999,
    "name": "Puglia",
    "country": "IT",
    "lastUpdated": "2020-03-28T16:46:09.257Z",
    "dead": 69,
    "id": "lAKH5Wfg4GhaM54VElFN",
    "sick": 1236
  },
  {
    "latitude": 10.6918,
    "pop": 1369000,
    "longitude": -61.2225,
    "name": "Trinidad and Tobago",
    "country": "TT",
    "lastUpdated": "2020-03-28T16:43:04.306Z",
    "dead": 2,
    "id": "lfLdfRP7hyiA6MVnQqqn",
    "infected": 74,
    "recovered": 1,
    "sick": 71
  },
  {
    "lastUpdated": "2020-03-28T16:43:04.392Z",
    "dead": 1,
    "id": "lgqPuia1S3ApA5Lsl2la",
    "infected": 5,
    "recovered": 0,
    "latitude": 16.5388,
    "pop": 546388,
    "longitude": -23.0418,
    "name": "Cape Verde",
    "country": "CV",
    "sick": 4
  },
  {
    "latitude": 42.524635,
    "pop": 21810000,
    "longitude": 87.539589,
    "name": "Xinjiang",
    "country": "CN",
    "lastUpdated": "2020-03-28T16:44:05.940Z",
    "dead": 3,
    "id": "lhPjpn6CzqTRDN0RW8uE",
    "infected": 76,
    "recovered": 73,
    "sick": 0
  },
  {
    "id": "m45gI2UbWMuTrOnTtp9k",
    "infected": 16,
    "recovered": 9,
    "latitude": 3.2028,
    "pop": 436330,
    "longitude": 73.2207,
    "name": "Maldives",
    "country": "MV",
    "lastUpdated": "2020-03-28T16:43:04.265Z",
    "dead": 0,
    "sick": 7
  },
  {
    "infected": 4,
    "recovered": 0,
    "latitude": 41.9029,
    "pop": 1000,
    "longitude": 12.4534,
    "name": "Vatican City",
    "country": "VA",
    "lastUpdated": "2020-03-28T16:43:04.355Z",
    "dead": 0,
    "id": "mF7rVMdVnazAuw8G22xs",
    "sick": 4
  },
  {
    "infected": 180,
    "recovered": 25,
    "latitude": 19.7515,
    "pop": 114200000,
    "longitude": 75.7139,
    "name": "Maharashtra",
    "country": "IN",
    "lastUpdated": "2020-03-28T16:41:03.205Z",
    "dead": 5,
    "id": "mJtdLs4ub6CkcAOeMWUm",
    "sick": 150
  },
  {
    "infected": 1909,
    "recovered": 61,
    "latitude": -33.4489,
    "pop": 18050000,
    "longitude": -70.6693,
    "name": "Chile",
    "country": "CL",
    "lastUpdated": "2020-03-28T16:43:03.650Z",
    "dead": 6,
    "id": "mSACWVbCy5QE7ciLA93J",
    "sick": 1842
  },
  {
    "recovered": 1,
    "latitude": -6.369,
    "pop": 57310000,
    "longitude": 34.8888,
    "name": "Tanzania",
    "country": "TZ",
    "lastUpdated": "2020-03-28T16:43:04.258Z",
    "dead": 0,
    "id": "mnew3ojzmWV0dWSPfCQ9",
    "infected": 13,
    "sick": 12
  },
  {
    "recovered": 0,
    "latitude": 15.1794,
    "pop": 4475000,
    "longitude": 39.7823,
    "name": "Eritrea",
    "country": "ER",
    "lastUpdated": "2020-03-28T16:43:04.268Z",
    "dead": 0,
    "id": "n6OSwOVBdUie3xeZJmOf",
    "infected": 6,
    "sick": 6
  },
  {
    "lastUpdated": "2020-03-28T16:40:02.639Z",
    "dead": 6,
    "id": "nLhJXE2apq8yNNj363ai",
    "infected": 1321,
    "recovered": 0,
    "latitude": 35.693323,
    "pop": 6770000,
    "longitude": -86.605748,
    "name": "Tennessee",
    "country": "US",
    "sick": 1315
  },
  {
    "longitude": 55.492,
    "name": "Seychelles",
    "country": "SC",
    "lastUpdated": "2020-03-28T16:43:04.412Z",
    "dead": 0,
    "id": "oB5fSyjWJ0FbNAkssuci",
    "infected": 7,
    "recovered": 0,
    "latitude": -4.6796,
    "pop": 95843,
    "sick": 7
  },
  {
    "lastUpdated": "2020-03-28T16:43:03.765Z",
    "dead": 23,
    "id": "oJ5vSDE9vgXC2PG8LElp",
    "infected": 358,
    "recovered": 11,
    "latitude": 31.893778,
    "pop": 35740000,
    "longitude": -6.196132,
    "name": "Morocco",
    "country": "MA",
    "sick": 324
  },
  {
    "lastUpdated": "2020-03-28T08:52:52.388Z",
    "dead": 169,
    "id": "ofWLu9EuQoK2nHjwU1mA",
    "infected": 1753,
    "recovered": 401,
    "latitude": 50.4801,
    "pop": 5978000,
    "longitude": 2.7937,
    "name": "Hauts-de-France",
    "country": "FR",
    "sick": 1183
  },
  {
    "recovered": 0,
    "latitude": 31.1048,
    "pop": 6856000,
    "longitude": 77.1734,
    "name": "Himachal Pradesh",
    "country": "IN",
    "lastUpdated": "2020-03-28T16:41:03.185Z",
    "dead": 1,
    "id": "oqLEd2Z9P3FJeQsfIk8e",
    "infected": 3,
    "sick": 2
  },
  {
    "infected": 625,
    "recovered": 8,
    "latitude": -20.917574,
    "pop": 5071000,
    "longitude": 142.702789,
    "name": "Queensland",
    "country": "AU",
    "lastUpdated": "2020-03-28T16:40:02.834Z",
    "dead": 1,
    "id": "oxz2l1rJipCsfMfy8Mmk",
    "sick": 616
  },
  {
    "infected": 484,
    "recovered": 469,
    "latitude": 47.121647,
    "pop": 38310000,
    "longitude": 128.738235,
    "name": "Heilongjiang",
    "country": "CN",
    "lastUpdated": "2020-03-28T16:44:06.030Z",
    "dead": 13,
    "id": "p1aZboN4BtRJe7hPl8cw",
    "sick": 2
  },
  {
    "lastUpdated": "2020-03-28T16:44:06.138Z",
    "dead": 6,
    "id": "pFhBwPnGGpQ6DLppJ6YS",
    "infected": 990,
    "recovered": 984,
    "latitude": 32.026379,
    "pop": 62000000,
    "longitude": 117.252747,
    "name": "Anhui",
    "country": "CN",
    "sick": 0
  },
  {
    "infected": 3,
    "recovered": 0,
    "latitude": 2.046934,
    "pop": 14740000,
    "longitude": 45.318161,
    "name": "Somalia",
    "country": "SO",
    "lastUpdated": "2020-03-28T16:43:04.405Z",
    "dead": 0,
    "id": "pHrUAOBW5WDdMsVWpEEi",
    "sick": 3
  },
  {
    "infected": 6,
    "recovered": 0,
    "latitude": 21.2787,
    "pop": 25550000,
    "longitude": 81.8661,
    "name": "Chhattisgarh",
    "country": "IN",
    "lastUpdated": "2020-03-28T16:41:03.189Z",
    "dead": 0,
    "id": "pu6AXEsDnpmmqnhajobN",
    "sick": 6
  },
  {
    "latitude": 38.9072,
    "pop": 633427,
    "longitude": -77.0369,
    "name": "Washington, D.C.",
    "country": "US",
    "lastUpdated": "2020-03-28T16:40:02.643Z",
    "dead": 4,
    "id": "q5cfvHprVTraL1yXnhDx",
    "infected": 304,
    "recovered": 0,
    "sick": 300
  },
  {
    "id": "qAbgEfrtA8NbQkzMFkEk",
    "infected": 0,
    "recovered": 354,
    "latitude": 56.1304,
    "longitude": -106.3468,
    "name": "Unknown Canadian province",
    "country": "CA",
    "dead": 0,
    "lastUpdated": "2020-03-28T16:43:03.608Z",
    "sick": 0
  },
  {
    "infected": 278,
    "recovered": 1,
    "latitude": -26.190439,
    "pop": 2589000,
    "longitude": 123.325947,
    "name": "Western Australia",
    "country": "AU",
    "lastUpdated": "2020-03-28T16:40:02.929Z",
    "dead": 2,
    "id": "qnQ0dkxAxnDP01YpdZgk",
    "sick": 275
  },
  {
    "latitude": 50.503887,
    "pop": 11400000,
    "longitude": 4.469936,
    "name": "Belgium",
    "country": "BE",
    "lastUpdated": "2020-03-28T16:43:03.601Z",
    "dead": 353,
    "id": "qpAxVz0garcS0gNZxtOw",
    "infected": 9134,
    "recovered": 1063,
    "sick": 7718
  },
  {
    "latitude": 39,
    "pop": 1806000,
    "longitude": -80.5,
    "name": "West Virginia",
    "country": "US",
    "lastUpdated": "2020-03-28T16:40:02.607Z",
    "dead": 0,
    "id": "qrYN2o4c4gAK3ffF5JIw",
    "infected": 96,
    "recovered": 0,
    "sick": 96
  },
  {
    "id": "qsrWiq0qCmIG66hpWojP",
    "infected": 2026,
    "recovered": 0,
    "latitude": 31,
    "pop": 28700000,
    "longitude": -100,
    "name": "Texas",
    "country": "US",
    "lastUpdated": "2020-03-28T16:40:02.480Z",
    "dead": 26,
    "sick": 2000
  },
  {
    "recovered": 642,
    "latitude": 43.9352,
    "pop": 5059000,
    "longitude": 6.0679,
    "name": "Provence-Alpes-Côte d’Azur",
    "country": "FR",
    "lastUpdated": "2020-03-28T08:52:38.204Z",
    "dead": 48,
    "id": "qyX9xXEuKg3co8yKe3Fl",
    "infected": 1927,
    "sick": 1237
  },
  {
    "infected": 2746,
    "recovered": 0,
    "latitude": 30.9843,
    "pop": 4660000,
    "longitude": -91.9623,
    "name": "Louisiana",
    "country": "US",
    "lastUpdated": "2020-03-28T16:40:02.583Z",
    "dead": 119,
    "id": "qzuktS0qQVU4PEookjss",
    "sick": 2627
  },
  {
    "infected": 1,
    "recovered": 0,
    "latitude": 23.1645,
    "pop": 1116000,
    "longitude": 92.9376,
    "name": "Mizoram",
    "country": "IN",
    "lastUpdated": "2020-03-28T16:41:03.167Z",
    "dead": 0,
    "id": "r54PtV0VHsIOc0YPTyhd",
    "sick": 1
  },
  {
    "infected": 33,
    "recovered": 1,
    "latitude": 12.5211,
    "pop": 105264,
    "longitude": -69.9683,
    "name": "Aruba",
    "country": "AW",
    "lastUpdated": "2020-03-28T16:43:04.378Z",
    "dead": 0,
    "id": "rKbrli0DkAmp1UpbrqHQ",
    "sick": 32
  },
  {
    "id": "rKnSEyG03ak4YmGzonlg",
    "infected": 174,
    "recovered": 21,
    "latitude": 14.058324,
    "pop": 95540000,
    "longitude": 108.277199,
    "name": "Vietnam",
    "country": "VN",
    "lastUpdated": "2020-03-28T16:43:03.629Z",
    "dead": 0,
    "sick": 153
  },
  {
    "lastUpdated": "2020-03-28T16:43:04.382Z",
    "dead": 0,
    "id": "rS04qvFoAknfeZsL2w5f",
    "infected": 12,
    "recovered": 0,
    "latitude": 1.6508009,
    "pop": 1268000,
    "longitude": 10.2678947,
    "name": "Equatorial Guinea",
    "country": "GQ",
    "sick": 12
  },
  {
    "longitude": 45.1662,
    "name": "Mayotte",
    "country": "FR",
    "lastUpdated": "2020-03-28T08:52:08.924Z",
    "dead": 0,
    "id": "rUQ6Z3pmWTPVlqEUSmN7",
    "infected": 35,
    "recovered": 0,
    "latitude": -12.8275,
    "pop": 270372,
    "sick": 35
  },
  {
    "recovered": 1225,
    "latitude": 29.159849,
    "pop": 57370000,
    "longitude": 120.326447,
    "name": "Zhejiang",
    "country": "CN",
    "lastUpdated": "2020-03-28T16:44:06.133Z",
    "dead": 1,
    "id": "rgBVJ4hPofqjjchnroiY",
    "infected": 1251,
    "sick": 25
  },
  {
    "recovered": 2,
    "latitude": 45.734955,
    "pop": 126202,
    "longitude": 7.313076,
    "name": "Valle d'Aosta",
    "country": "IT",
    "lastUpdated": "2020-03-28T16:46:09.328Z",
    "dead": 37,
    "id": "rqbHQdev461heM0vyE9L",
    "infected": 452,
    "sick": 413
  },
  {
    "recovered": 7,
    "latitude": 60.472023,
    "pop": 5368000,
    "longitude": 8.468946,
    "name": "Norway",
    "country": "NO",
    "lastUpdated": "2020-03-28T16:43:03.433Z",
    "dead": 20,
    "id": "rxSafpWsyKhfkV0HTtb4",
    "infected": 3973,
    "sick": 3946
  },
  {
    "infected": 542,
    "recovered": 0,
    "latitude": 53.9333,
    "pop": 4371000,
    "longitude": -116.5765,
    "name": "Alberta",
    "country": "CA",
    "lastUpdated": "2020-03-28T16:45:12.378Z",
    "dead": 2,
    "id": "sBFMOzZJdrdXdyLZpweO",
    "sick": 540
  },
  {
    "longitude": 109.949684,
    "name": "Hainan",
    "country": "CN",
    "lastUpdated": "2020-03-28T16:44:06.240Z",
    "dead": 6,
    "id": "sKNhMvgXeyivpNFg02RA",
    "infected": 168,
    "recovered": 162,
    "latitude": 19.566395,
    "pop": 9258000,
    "sick": 0
  },
  {
    "latitude": -10.33755,
    "pop": 32170000,
    "longitude": -75.630295,
    "name": "Peru",
    "country": "PE",
    "lastUpdated": "2020-03-28T16:43:03.707Z",
    "dead": 11,
    "id": "sLL1jETcJYjT6g5bfcEG",
    "infected": 635,
    "recovered": 16,
    "sick": 608
  },
  {
    "id": "sgsBhTwHxF1VVnqXbXXp",
    "infected": 319,
    "recovered": 310,
    "latitude": 37.89566,
    "pop": 74700000,
    "longitude": 114.904221,
    "name": "Hebei",
    "country": "CN",
    "lastUpdated": "2020-03-28T16:44:05.928Z",
    "dead": 6,
    "sick": 3
  },
  {
    "infected": 90,
    "recovered": 14,
    "latitude": 42.3154,
    "pop": 3717000,
    "longitude": 43.3569,
    "name": "Georgia",
    "country": "GE",
    "lastUpdated": "2020-03-28T16:43:04.132Z",
    "dead": 0,
    "id": "sjW9OwjFqrOvjVHRXWoR",
    "sick": 76
  },
  {
    "id": "t2fq7L9UcXfhuXfQNVRj",
    "infected": 56,
    "recovered": 1,
    "latitude": -23.4425,
    "pop": 6811000,
    "longitude": -58.4438,
    "name": "Paraguay",
    "country": "PY",
    "lastUpdated": "2020-03-28T16:43:04.373Z",
    "dead": 3,
    "sick": 52
  },
  {
    "infected": 482,
    "recovered": 0,
    "latitude": 39.147061,
    "pop": 3161000,
    "longitude": -111.596466,
    "name": "Utah",
    "country": "US",
    "lastUpdated": "2020-03-28T16:40:02.651Z",
    "dead": 2,
    "id": "tSmr8vNsiDhhpXMSBsms",
    "sick": 480
  },
  {
    "recovered": 1014,
    "latitude": 27.3818,
    "pop": 67370000,
    "longitude": 111.510681,
    "name": "Hunan",
    "country": "CN",
    "lastUpdated": "2020-03-28T16:44:05.841Z",
    "dead": 4,
    "id": "tdNRDDrgvBQqqwzdFGh4",
    "infected": 1018,
    "sick": 0
  },
  {
    "infected": 146,
    "recovered": 144,
    "latitude": 26.842964,
    "pop": 34750000,
    "longitude": 107.290283,
    "name": "Guizhou",
    "country": "CN",
    "lastUpdated": "2020-03-28T16:44:05.948Z",
    "dead": 2,
    "id": "tyY4QSHWG9sXqSO9jm0Y",
    "sick": 0
  },
  {
    "longitude": 57.6755,
    "name": "Mauritius",
    "country": "MU",
    "lastUpdated": "2020-03-28T16:43:03.787Z",
    "dead": 2,
    "id": "uZg9Xtu4zR5tp12TMpOQ",
    "infected": 102,
    "recovered": 0,
    "latitude": -20.2067,
    "pop": 1265000,
    "sick": 100
  },
  {
    "recovered": 12,
    "latitude": 29.0588,
    "pop": 25350000,
    "longitude": 76.0856,
    "name": "Haryana",
    "country": "IN",
    "lastUpdated": "2020-03-28T16:41:03.161Z",
    "dead": 0,
    "id": "ubUuY89n0cXVgahI4Ytp",
    "infected": 33,
    "sick": 21
  },
  {
    "infected": 109,
    "recovered": 14,
    "latitude": 41.6667,
    "pop": 308493,
    "longitude": 14.5,
    "name": "Molise",
    "country": "IT",
    "lastUpdated": "2020-03-28T16:46:09.273Z",
    "dead": 9,
    "id": "ueDdQxnY3NvbnoCcPaDH",
    "sick": 86
  },
  {
    "lastUpdated": "2020-03-28T16:44:06.042Z",
    "dead": 0,
    "id": "uvxN28EpGmRq3K9REtBP",
    "infected": 641,
    "recovered": 631,
    "latitude": 32.93708,
    "pop": 80400000,
    "longitude": 119.151932,
    "name": "Jiangsu",
    "country": "CN",
    "sick": 10
  },
  {
    "lastUpdated": "2020-03-28T09:23:02.332Z",
    "dead": 29,
    "id": "uxAceZxiizwmo60pyyGn",
    "infected": 561,
    "recovered": 22,
    "latitude": 51.9503,
    "pop": 2277000,
    "longitude": 11.6923,
    "name": "Sachsen-Anhalt",
    "country": "DE",
    "sick": 510
  },
  {
    "latitude": 33.7782,
    "pop": 12550000,
    "longitude": 76.5762,
    "name": "Jammu and Kashmir",
    "country": "IN",
    "lastUpdated": "2020-03-28T16:41:03.256Z",
    "dead": 1,
    "id": "v5wfBhxjYTpTMaKko6AW",
    "infected": 20,
    "recovered": 1,
    "sick": 18
  },
  {
    "id": "v8JcH4FHH7BDpJlNNHjv",
    "infected": 536,
    "recovered": 116,
    "latitude": 26.820553,
    "pop": 97550000,
    "longitude": 30.802498,
    "name": "Egypt",
    "country": "EG",
    "lastUpdated": "2020-03-28T16:43:03.623Z",
    "dead": 30,
    "sick": 390
  },
  {
    "lastUpdated": "2020-03-28T16:40:02.637Z",
    "dead": 175,
    "id": "vCUVQn7RK8pkw5y2rvYN",
    "infected": 3730,
    "recovered": 0,
    "latitude": 47.288374,
    "pop": 7536000,
    "longitude": -119.928431,
    "name": "Washington",
    "country": "US",
    "sick": 3555
  },
  {
    "lastUpdated": "2020-03-28T16:43:04.371Z",
    "dead": 1,
    "id": "vMGALmMJbagxGIbLyFfS",
    "infected": 30,
    "recovered": 2,
    "latitude": 18.1096,
    "pop": 2890000,
    "longitude": -77.2975,
    "name": "Jamaica",
    "country": "JM",
    "sick": 27
  },
  {
    "id": "vSMJR4m49MZM15umlC9B",
    "infected": 644,
    "recovered": 0,
    "latitude": 32.3182,
    "pop": 4888000,
    "longitude": -86.9023,
    "name": "Alabama",
    "country": "US",
    "lastUpdated": "2020-03-28T16:40:02.570Z",
    "dead": 4,
    "sick": 640
  },
  {
    "lastUpdated": "2020-03-28T08:52:56.204Z",
    "dead": 578,
    "id": "vSwFXxTSLgzsG25zOJUy",
    "infected": 7660,
    "recovered": 1598,
    "latitude": 48.8499,
    "pop": 12210000,
    "longitude": 2.637,
    "name": "Ile-de-France",
    "country": "FR",
    "sick": 5484
  },
  {
    "id": "vjK6292ALJl5wq8XHw3P",
    "infected": 11,
    "recovered": 0,
    "latitude": 46.5107,
    "pop": 156947,
    "longitude": -63.4168,
    "name": "Prince Edward Island",
    "country": "CA",
    "lastUpdated": "2020-03-28T16:45:12.427Z",
    "dead": 0,
    "sick": 11
  },
  {
    "latitude": 32.42791,
    "pop": 81160000,
    "longitude": 53.688046,
    "name": "Iran",
    "country": "IR",
    "lastUpdated": "2020-03-28T16:43:03.746Z",
    "dead": 2517,
    "id": "vkkXVaqUswO5JsMZx0mX",
    "infected": 35408,
    "recovered": 11679,
    "sick": 21212
  },
  {
    "latitude": 53.7609,
    "pop": 1369000,
    "longitude": -98.8139,
    "name": "Manitoba",
    "country": "CA",
    "lastUpdated": "2020-03-28T16:45:12.407Z",
    "dead": 1,
    "id": "wCnlOr8oX3DlF0otQrFc",
    "infected": 39,
    "recovered": 0,
    "sick": 38
  },
  {
    "infected": 690,
    "recovered": 72,
    "latitude": -34.6037,
    "pop": 44270000,
    "longitude": -58.3816,
    "name": "Argentina",
    "country": "AR",
    "lastUpdated": "2020-03-28T16:43:03.751Z",
    "dead": 17,
    "id": "wEl0cjiA6OcZiI9kaSsF",
    "sick": 601
  },
  {
    "latitude": 44.3148,
    "pop": 9996000,
    "longitude": -85.6024,
    "name": "Michigan",
    "country": "US",
    "lastUpdated": "2020-03-28T16:40:02.649Z",
    "dead": 92,
    "id": "wgRwpPMGBaKLAl1xo1C7",
    "infected": 3657,
    "recovered": 0,
    "sick": 3565
  },
  {
    "recovered": 0,
    "latitude": 21.287261,
    "pop": 1420000,
    "longitude": -157.838954,
    "name": "Hawaii",
    "country": "US",
    "lastUpdated": "2020-03-28T16:40:02.578Z",
    "dead": 0,
    "id": "wi47s9vKxiMqxfgurj3B",
    "infected": 120,
    "sick": 120
  },
  {
    "latitude": 41.9,
    "pop": 5897000,
    "longitude": 12.7167,
    "name": "Lazio",
    "country": "IT",
    "lastUpdated": "2020-03-28T16:46:09.236Z",
    "dead": 118,
    "id": "wj8SKMWy2gkQBhGU3R3L",
    "infected": 2295,
    "recovered": 164,
    "sick": 2013
  },
  {
    "latitude": 34.08267,
    "pop": 6082000,
    "longitude": 35.918113,
    "name": "Lebanon",
    "country": "LB",
    "lastUpdated": "2020-03-28T16:43:03.755Z",
    "dead": 8,
    "id": "xFgM48q8JxVPfvQLQDNb",
    "infected": 412,
    "recovered": 27,
    "sick": 377
  },
  {
    "lastUpdated": "2020-03-28T16:43:04.351Z",
    "dead": 1,
    "id": "xHWPTTpNHEwWv6MqfxP5",
    "infected": 89,
    "recovered": 3,
    "latitude": 9.081999,
    "pop": 190900000,
    "longitude": 8.675277,
    "name": "Nigeria",
    "country": "NG",
    "sick": 85
  },
  {
    "infected": 83,
    "recovered": 0,
    "latitude": 47.5515,
    "pop": 760077,
    "longitude": -101.002,
    "name": "North Dakota",
    "country": "US",
    "lastUpdated": "2020-03-28T16:40:02.663Z",
    "dead": 1,
    "id": "xQpNodSQfHNHAtG9Onnj",
    "sick": 82
  },
  {
    "id": "xSHgaJlyPxHFWB6hhyng",
    "infected": 926,
    "recovered": 0,
    "latitude": 44.5,
    "pop": 5814000,
    "longitude": -89.5,
    "name": "Wisconsin",
    "country": "US",
    "lastUpdated": "2020-03-28T16:40:02.579Z",
    "dead": 14,
    "sick": 912
  },