[
  {
    "longitude": -81.7006,
    "name": "San Andrés",
    "latitude": 12.5847,
    "dead": 0,
    "lastUpdated": "2020-07-14T07:15:12.294Z",
    "recovered": 21,
    "infected": 29,
    "id": "01b09TY4vmuZwzVuiRFK",
    "pop": 72600,
    "country": "CO",
    "sick": 8,
    "invisible": false
  },
  {
    "recovered": 238,
    "infected": 252,
    "id": "0FOJefeLxQYXQ1CnJm9o",
    "pop": 63196,
    "country": "GG",
    "longitude": -2.5895,
    "name": "Guernsey",
    "alwaysShow": false,
    "latitude": 49.4482,
    "dead": 13,
    "lastUpdated": "2020-07-14T06:52:03.714Z",
    "sick": 1,
    "invisible": false
  },
  {
    "lastUpdated": "2020-07-14T07:01:02.169Z",
    "recovered": 4094,
    "infected": 4779,
    "state": "72",
    "id": "0GJcws44NSPsDHAuxJhW",
    "pop": 5827000,
    "country": "IT",
    "longitude": 14.333333,
    "name": "Campania",
    "latitude": 41.066666,
    "dead": 432,
    "sick": 253,
    "invisible": false
  },
  {
    "name": "Tarapacá",
    "latitude": -20.2167,
    "dead": 111,
    "lastUpdated": "2020-07-14T07:21:15.201Z",
    "recovered": 0,
    "infected": 7191,
    "id": "0HDQbiHe462xMCUV5HiI",
    "pop": 383870,
    "country": "CL",
    "longitude": -70.14222,
    "sick": 7080,
    "invisible": false
  },
  {
    "id": "0VG7S6aaK4eSo59fL9JO",
    "pop": 45990000,
    "country": "IN",
    "longitude": 85.0985,
    "name": "Odisha",
    "latitude": 20.9517,
    "dead": 96,
    "lastUpdated": "2020-07-14T07:11:01.857Z",
    "recovered": 9255,
    "infected": 14280,
    "sick": 4929,
    "invisible": false
  },
  {
    "latitude": 20.4737,
    "dead": 805,
    "lastUpdated": "2020-07-14T04:32:17.593Z",
    "recovered": 0,
    "infected": 4864,
    "id": "0XmCRqiK2ZaehoEJvfer",
    "pop": 2990300,
    "country": "MX",
    "longitude": -98.8582,
    "name": "Hidalgo",
    "sick": 4059,
    "invisible": false
  },
  {
    "id": "0jStOpTUNRaQYJqgmRoK",
    "pop": 427246,
    "country": "IN",
    "longitude": 92.6586,
    "name": "Andaman and Nicobar Islands",
    "latitude": 11.7401,
    "dead": 0,
    "lastUpdated": "2020-07-14T07:11:01.860Z",
    "recovered": 109,
    "infected": 166,
    "sick": 57,
    "invisible": false
  },
  {
    "lastUpdated": "2020-07-14T07:16:04.913Z",
    "recovered": 100627,
    "infected": 104016,
    "id": "0m4aECS0Z2DGFEr8ldgI",
    "pop": 2639000,
    "country": "QA",
    "longitude": 51.145517,
    "name": "Qatar",
    "latitude": 25.315058,
    "dead": 149,
    "sick": 3240,
    "invisible": false
  },
  {
    "recovered": 19213,
    "infected": 31448,
    "id": "0n54EMSDJcRoT1QEvw80",
    "pop": 90320000,
    "country": "IN",
    "longitude": 87.855,
    "name": "West Bengal",
    "latitude": 22.9868,
    "dead": 956,
    "lastUpdated": "2020-07-14T07:11:01.854Z",
    "sick": 11279,
    "invisible": false
  },
  {
    "longitude": 78.6569,
    "name": "Madhya Pradesh",
    "latitude": 22.9734,
    "dead": 663,
    "lastUpdated": "2020-07-14T07:11:01.854Z",
    "recovered": 13208,
    "infected": 18207,
    "id": "0s18o5DrDAHjbu5MFcrj",
    "pop": 73340000,
    "country": "IN",
    "sick": 4336,
    "invisible": false
  },
  {
    "lastUpdated": "2020-07-14T07:16:04.912Z",
    "recovered": 1549469,
    "infected": 0,
    "id": "0tFoopNTs6e4tOoaltu2",
    "country": "US",
    "longitude": -95.7129,
    "invisible": true,
    "name": "Unknown US state",
    "latitude": 37.0902,
    "dead": 0,
    "sick": 0
  },
  {
    "lastUpdated": "2020-07-14T07:23:04.366Z",
    "recovered": 314,
    "infected": 321,
    "id": "0x2HLhr5z5xAtEdO4iZm",
    "pop": 37330000,
    "country": "CN",
    "longitude": 108.472214,
    "name": "Shaanxi",
    "latitude": 35.64249,
    "dead": 3,
    "sick": 4,
    "invisible": false
  },
  {
    "country": "MK",
    "longitude": 21.668393,
    "name": "North Macedonia",
    "latitude": 41.643351,
    "dead": 385,
    "lastUpdated": "2020-07-14T07:16:04.922Z",
    "recovered": 4326,
    "infected": 8197,
    "id": "19MvIhipqTyYv1H37Upw",
    "pop": 2077000,
    "sick": 3486,
    "invisible": false
  },
  {
    "state": "NL",
    "id": "1DOMOmCWDtva46OVSZLv",
    "pop": 521542,
    "country": "CA",
    "longitude": -57.6604,
    "name": "Newfoundland and Labrador",
    "latitude": 53.1355,
    "dead": 3,
    "lastUpdated": "2020-07-14T07:07:02.072Z",
    "recovered": 258,
    "infected": 262,
    "sick": 1,
    "invisible": false
  },
  {
    "name": "Qinghai",
    "latitude": 35.801933,
    "dead": 0,
    "lastUpdated": "2020-07-14T07:23:04.369Z",
    "recovered": 18,
    "infected": 18,
    "id": "1Fap7rZu9SIRqf5TG9Dg",
    "pop": 5627000,
    "country": "CN",
    "longitude": 96.779286,
    "sick": 0,
    "invisible": false
  },
  {
    "recovered": 189063,
    "infected": 0,
    "id": "1YXQMlVL3fUeDZmcVfJw",
    "pop": 126200000,
    "country": "MX",
    "longitude": -102.5528,
    "invisible": true,
    "name": "Unknown Mexico state",
    "latitude": 23.6345,
    "dead": 0,
    "lastUpdated": "2020-07-14T07:16:04.912Z",
    "sick": 0
  },
  {
    "lastUpdated": "2020-07-14T07:00:11.688Z",
    "recovered": 2697,
    "infected": 4751,
    "id": "1at5nIap9H51v32otlQl",
    "pop": 1960000,
    "country": "RU",
    "longitude": 73.3167,
    "name": "Omsk Oblast",
    "latitude": 55.0555,
    "dead": 40,
    "sick": 2014,
    "invisible": false
  },
  {
    "name": "Piemonte",
    "latitude": 44.9,
    "dead": 4112,
    "lastUpdated": "2020-07-14T07:01:02.170Z",
    "recovered": 26339,
    "infected": 31504,
    "state": "21",
    "id": "1eTSQyfp8RoDPeFrIwun",
    "pop": 4376000,
    "country": "IT",
    "longitude": 8.206944,
    "sick": 1053,
    "invisible": false
  },
  {
    "longitude": 15.461,
    "name": "Lubuskie",
    "latitude": 51.993,
    "dead": 0,
    "lastUpdated": "2020-07-14T07:03:02.049Z",
    "recovered": 0,
    "infected": 239,
    "id": "1j1OurxLTpZYuWIWwQ9F",
    "pop": 1003000,
    "country": "PL",
    "sick": 239,
    "invisible": false
  },
  {
    "id": "1qTPB8X3tyLyIdsb5TN3",
    "pop": 3550000,
    "country": "MD",
    "longitude": 28.3699,
    "name": "Moldova",
    "latitude": 47.4116,
    "dead": 649,
    "lastUpdated": "2020-07-14T07:16:04.917Z",
    "recovered": 12793,
    "infected": 19439,
    "sick": 5997,
    "invisible": false
  },
  {
    "lastUpdated": "2020-07-14T07:17:02.716Z",
    "recovered": 0,
    "infected": 9223,
    "id": "22PJOAThcDFKgSbyQIkD",
    "country": "US",
    "longitude": -95.7129,
    "invisible": true,
    "name": "Federal Bureau of Prisons",
    "latitude": 37.0902,
    "dead": 96,
    "sick": 9127
  },
  {
    "name": "Tibet",
    "latitude": 30.15336,
    "dead": 0,
    "lastUpdated": "2020-07-14T07:23:04.369Z",
    "recovered": 1,
    "infected": 1,
    "id": "25qIBtsW2nfQj3pwBKg9",
    "pop": 3180000,
    "country": "CN",
    "longitude": 88.787865,
    "sick": 0,
    "invisible": false
  },
  {
    "name": "Indonesia",
    "latitude": -1.572184,
    "dead": 3656,
    "lastUpdated": "2020-07-14T07:16:04.914Z",
    "recovered": 36689,
    "infected": 76981,
    "id": "2KHYUb5t3lwzVVmDjwNX",
    "pop": 264000000,
    "country": "ID",
    "longitude": 115.66779,
    "sick": 36636,
    "invisible": false
  },
  {
    "latitude": 43.807191,
    "dead": 237,
    "lastUpdated": "2020-07-14T07:17:02.698Z",
    "recovered": 0,
    "infected": 12438,
    "state": "OR",
    "id": "2OrsssmGUs4XCzaZzvTv",
    "pop": 4191000,
    "country": "US",
    "longitude": -120.585594,
    "name": "Oregon",
    "sick": 12201,
    "invisible": false
  },
  {
    "longitude": -70.400002,
    "name": "Antofagasta",
    "latitude": -23.65,
    "dead": 225,
    "lastUpdated": "2020-07-14T07:21:15.202Z",
    "recovered": 0,
    "infected": 12034,
    "id": "2c5HBZ1ffkCVXnMYUWnY",
    "pop": 425000,
    "country": "CL",
    "sick": 11809,
    "invisible": false
  },
  {
    "recovered": 0,
    "infected": 31552,
    "state": "AP",
    "id": "2dzhyWsBSPpENWlNew0b",
    "pop": 9029000,
    "country": "BR",
    "longitude": -51.070534,
    "name": "Amapá",
    "latitude": 0.035574,
    "dead": 478,
    "lastUpdated": "2020-07-14T06:57:02.261Z",
    "sick": 31074,
    "invisible": false
  },
  {
    "longitude": 126.548103,
    "name": "Jilin",
    "latitude": 43.851921,
    "dead": 2,
    "lastUpdated": "2020-07-14T07:23:04.368Z",
    "recovered": 153,
    "infected": 155,
    "id": "2jxHvSsxdnom0nPNvOT8",
    "pop": 27460000,
    "country": "CN",
    "sick": 0,
    "invisible": false
  },
  {
    "lastUpdated": "2020-07-14T07:16:04.942Z",
    "recovered": 179,
    "infected": 180,
    "id": "2p11BjSAs3wVyymgqBOe",
    "pop": 34571,
    "country": "GI",
    "longitude": -5.3536,
    "name": "Gibraltar",
    "latitude": 36.1408,
    "dead": 0,
    "sick": 1,
    "invisible": false
  },
  {
    "recovered": 1995,
    "infected": 4578,
    "id": "2sLNkkHpyaHx7dD3aMDO",
    "pop": 2567000,
    "country": "FR",
    "longitude": 1.6751,
    "name": "Centre-Val de Loire",
    "latitude": 47.7516,
    "dead": 553,
    "lastUpdated": "2020-07-13T22:40:40.922Z",
    "sick": 2030,
    "invisible": false
  },
  {
    "lastUpdated": "2020-07-14T07:01:02.171Z",
    "recovered": 1362,
    "infected": 1450,
    "state": "55",
    "id": "319tiZOMczx1y0DfvOib",
    "pop": 884640,
    "country": "IT",
    "longitude": 12.643751,
    "name": "Umbria",
    "latitude": 42.565044,
    "dead": 80,
    "sick": 8,
    "invisible": false
  },
  {
    "recovered": 232,
    "infected": 774,
    "id": "38T96Q3XNjt5FSJygPed",
    "pop": 1355000,
    "country": "CO",
    "longitude": -76.6131592,
    "name": "Cauca",
    "latitude": 2.43823,
    "dead": 28,
    "lastUpdated": "2020-07-14T07:15:12.294Z",
    "sick": 514,
    "invisible": false
  },
  {
    "latitude": -13.133896,
    "dead": 42,
    "lastUpdated": "2020-07-14T07:16:04.924Z",
    "recovered": 1412,
    "infected": 1895,
    "id": "3IlPjAbP5qVMn1nlgLTJ",
    "pop": 17090000,
    "country": "ZM",
    "longitude": 27.849332,
    "name": "Zambia",
    "sick": 441,
    "invisible": false
  },
  {
    "longitude": 19.3958,
    "name": "Montenegro",
    "latitude": 42.7044,
    "dead": 24,
    "lastUpdated": "2020-07-14T07:16:04.925Z",
    "recovered": 330,
    "infected": 1287,
    "id": "3LstMSN5XMYBkxbe5HN7",
    "pop": 631219,
    "country": "ME",
    "sick": 933,
    "invisible": false
  },
  {
    "name": "Australian Capital Territory",
    "latitude": -35.4735,
    "dead": 3,
    "lastUpdated": "2020-07-14T06:43:24.800Z",
    "recovered": 105,
    "infected": 113,
    "state": "ACT",
    "id": "3OZoQsKrzxZ18EKyfGE6",
    "pop": 418440,
    "country": "AU",
    "longitude": 149.0124,
    "sick": 5,
    "invisible": false
  },
  {
    "lastUpdated": "2020-07-14T07:00:11.687Z",
    "recovered": 4337,
    "infected": 5306,
    "id": "3PfzjWjvOkfgxc672BHQ",
    "pop": 608000,
    "country": "RU",
    "longitude": 38.8389,
    "name": "Yaroslavl Oblast",
    "latitude": 57.8992,
    "dead": 22,
    "sick": 947,
    "invisible": false
  },
  {
    "id": "3PpqgIUJAtzxo1j7z56i",
    "pop": 321000,
    "country": "RU",
    "longitude": 95.626,
    "name": "Tuva",
    "latitude": 51.8873,
    "dead": 32,
    "lastUpdated": "2020-07-14T07:00:11.687Z",
    "recovered": 2039,
    "infected": 5444,
    "sick": 3373,
    "invisible": false
  },
  {
    "longitude": 92.9376,
    "name": "Assam",
    "latitude": 26.2006,
    "dead": 45,
    "lastUpdated": "2020-07-14T07:11:01.857Z",
    "recovered": 11417,
    "infected": 17808,
    "id": "3cCbnJCsK7mKlTO08K1o",
    "pop": 30940000,
    "country": "IN",
    "sick": 6346,
    "invisible": false
  },
  {
    "lastUpdated": "2020-07-14T07:17:02.687Z",
    "recovered": 0,
    "infected": 66891,
    "state": "OH",
    "id": "3fC3bAyIRUquOQOEnQNe",
    "pop": 11690000,
    "country": "US",
    "longitude": -82.9071,
    "name": "Ohio",
    "latitude": 40.4173,
    "dead": 3069,
    "sick": 63822,
    "invisible": false
  },
  {
    "name": "Sinaloa",
    "latitude": 25,
    "dead": 1662,
    "lastUpdated": "2020-07-14T07:02:09.398Z",
    "recovered": 0,
    "infected": 10312,
    "id": "3kFCzJguabtBvXaHxgiu",
    "pop": 3066400,
    "country": "MX",
    "longitude": -107.5,
    "sick": 8650,
    "invisible": false
  },
  {
    "latitude": 3.420556,
    "dead": 455,
    "lastUpdated": "2020-07-14T07:15:12.292Z",
    "recovered": 5788,
    "infected": 12975,
    "id": "3mC2LveOpXV8P1PmQGUj",
    "pop": 4708300,
    "country": "CO",
    "longitude": -76.522224,
    "name": "Valle del Cauca",
    "sick": 6732,
    "invisible": false
  },
  {
    "name": "Mauritania",
    "latitude": 21.0079,
    "dead": 147,
    "lastUpdated": "2020-07-14T07:16:04.923Z",
    "recovered": 2501,
    "infected": 5446,
    "id": "4NnFMekRK2m14IlnZZoj",
    "pop": 4420000,
    "country": "MR",
    "longitude": -10.9408,
    "sick": 2798,
    "invisible": false
  },
  {
    "state": "BC",
    "id": "4hfZRUoUgI4a3vrG0GBk",
    "pop": 5071000,
    "country": "CA",
    "longitude": -127.6476,
    "name": "British Columbia",
    "latitude": 53.7267,
    "dead": 189,
    "lastUpdated": "2020-07-14T07:07:02.071Z",
    "recovered": 2718,
    "infected": 3115,
    "sick": 208,
    "invisible": false
  },
  {
    "recovered": 0,
    "infected": 132044,
    "state": "RJ",
    "id": "4kq0z3kh5zt3YAUWxvtE",
    "pop": 17159960,
    "country": "BR",
    "longitude": -43.196388,
    "name": "Rio de Janeiro",
    "latitude": -22.908333,
    "dead": 11474,
    "lastUpdated": "2020-07-14T06:57:02.259Z",
    "sick": 120570,
    "invisible": false
  },
  {
    "latitude": -11.409874,
    "dead": 2535,
    "lastUpdated": "2020-07-14T06:57:02.259Z",
    "recovered": 0,
    "infected": 106891,
    "state": "BA",
    "id": "4yDbkEyqsNzZJjfrciYV",
    "pop": 14812617,
    "country": "BR",
    "longitude": -41.280857,
    "name": "Bahia",
    "sick": 104356,
    "invisible": false
  },
  {
    "longitude": 47.93802,
    "name": "Azerbaijan",
    "latitude": 40.3426,
    "dead": 313,
    "lastUpdated": "2020-07-14T07:16:04.917Z",
    "recovered": 15640,
    "infected": 24570,
    "id": "4zqzRm2xHn0CDVOUQJ8p",
    "pop": 9898000,
    "country": "AZ",
    "sick": 8617,
    "invisible": false
  },
  {
    "recovered": 0,
    "infected": 10530,
    "id": "54cfsdsRF76XVHWtZs19",
    "pop": 3672300,
    "country": "MX",
    "longitude": -97.861099,
    "name": "Tamaulipas",
    "latitude": 22.233105,
    "dead": 707,
    "lastUpdated": "2020-07-14T07:02:09.399Z",
    "sick": 9823,
    "invisible": false
  },
  {
    "lastUpdated": "2020-07-14T07:07:07.067Z",
    "recovered": 9465,
    "infected": 35284,
    "state": "VLG",
    "id": "57ydD48mLRD2YoyteJZj",
    "pop": 6596000,
    "country": "BE",
    "longitude": 3.7265,
    "name": "Flanders",
    "latitude": 51.0109,
    "dead": 4907,
    "sick": 20912,
    "invisible": false
  },
  {
    "id": "5MHegCUO9L3LiAU7DDey",
    "pop": 395361,
    "country": "BS",
    "longitude": -78.035889,
    "name": "Bahamas",
    "latitude": 25.025885,
    "dead": 11,
    "lastUpdated": "2020-07-14T07:16:04.943Z",
    "recovered": 91,
    "infected": 113,
    "sick": 11,
    "invisible": false
  },
  {
    "latitude": -31.253218,
    "dead": 49,
    "lastUpdated": "2020-07-14T06:43:24.809Z",
    "recovered": 2988,
    "infected": 3492,
    "state": "NSW",
    "id": "5N16a2OXXRpsEFanw0TC",
    "pop": 7544000,
    "country": "AU",
    "longitude": 146.921097,
    "name": "New South Wales",
    "sick": 455,
    "invisible": false
  },
  {
    "country": "SS",
    "longitude": 31.3069782,
    "name": "South Sudan",
    "latitude": 6.8769908,
    "dead": 41,
    "lastUpdated": "2020-07-14T07:16:04.924Z",
    "recovered": 333,
    "infected": 2148,
    "id": "5N4PRxsCDzzwk7R200V1",
    "pop": 12580000,
    "sick": 1774,
    "invisible": false
  },
  {
    "latitude": 39.484,
    "dead": 1432,
    "lastUpdated": "2020-07-13T22:26:16.474Z",
    "recovered": 9970,
    "infected": 15604,
    "state": "VC",
    "id": "5Va9A7CXR8AXdUz4HTJj",
    "pop": 4975000,
    "country": "ES",
    "longitude": -0.7533,
    "name": "C. Valenciana",
    "sick": 4202,
    "invisible": false
  },
  {
    "lastUpdated": "2020-07-14T07:16:04.945Z",
    "recovered": 21,
    "infected": 21,
    "id": "5fg04eyDwFw3kEXnrxez",
    "pop": 280460,
    "country": "NC",
    "longitude": 165.618042,
    "name": "New Caledonia",
    "latitude": -20.9043045,
    "dead": 0,
    "sick": 0,
    "invisible": false
  },
  {
    "lastUpdated": "2020-07-14T07:16:04.917Z",
    "recovered": 10294,
    "infected": 16945,
    "id": "5gXZIjRgAvd6xWN1LOv8",
    "pop": 29300000,
    "country": "NP",
    "longitude": 84.124008,
    "name": "Nepal",
    "latitude": 28.394857,
    "dead": 38,
    "sick": 6613,
    "invisible": false
  },
  {
    "latitude": 12.879721,
    "dead": 1599,
    "lastUpdated": "2020-07-14T07:16:04.915Z",
    "recovered": 20371,
    "infected": 57006,
    "id": "5pwmh7aSdGRKqRbnuyc0",
    "pop": 104900000,
    "country": "PH",
    "longitude": 121.774017,
    "name": "Philippines",
    "sick": 35036,
    "invisible": false
  },
  {
    "name": "Zimbabwe",
    "latitude": -17.824858,
    "dead": 19,
    "lastUpdated": "2020-07-14T07:16:04.926Z",
    "recovered": 343,
    "infected": 1034,
    "id": "5qtR9nx4BLwu1ODTniaY",
    "pop": 14802190,
    "country": "ZW",
    "longitude": 31.053028,
    "sick": 672,
    "invisible": false
  },
  {
    "pop": 356890,
    "country": "US",
    "lastUpdated": "2020-07-14T07:17:02.717Z",
    "state": "NA",
    "id": "5vkKgxTaKq1IH0Go357L",
    "longitude": -109.188,
    "invisible": false,
    "name": "Navajo Nation",
    "dead": 401,
    "latitude": 36.0672,
    "infected": 8243,
    "recovered": 0,
    "sick": 7842
  },
  {
    "lastUpdated": "2020-07-14T04:32:17.591Z",
    "recovered": 0,
    "infected": 58114,
    "id": "61E7TGjUwAo9xu6Y6gAH",
    "pop": 8781300,
    "country": "MX",
    "longitude": -99.177254,
    "name": "Ciudad de México",
    "latitude": 19.432241,
    "dead": 7722,
    "sick": 50392,
    "invisible": false
  },
  {
    "longitude": 35.1889,
    "name": "Kaluga Oblast",
    "latitude": 54.3873,
    "dead": 51,
    "lastUpdated": "2020-07-14T07:00:11.685Z",
    "recovered": 4676,
    "infected": 6656,
    "id": "63KYOuWe41mvqWQrJbr2",
    "pop": 1012000,
    "country": "RU",
    "sick": 1929,
    "invisible": false
  },
  {
    "recovered": 1571,
    "infected": 1874,
    "id": "694ON7d0mRJDeM1gHBTR",
    "pop": 2794000,
    "country": "LT",
    "longitude": 23.804991,
    "name": "Lithuania",
    "latitude": 55.621011,
    "dead": 79,
    "lastUpdated": "2020-07-14T07:16:04.925Z",
    "sick": 224,
    "invisible": false
  },
  {
    "country": "GB",
    "longitude": -0.5596,
    "name": "South East",
    "latitude": 51.1781,
    "dead": 0,
    "lastUpdated": "2020-07-14T07:13:14.457Z",
    "recovered": 0,
    "infected": 34305,
    "state": "EN",
    "id": "6IQAsvrmBv0HPdeTnh4x",
    "pop": 9175000,
    "sick": 34305,
    "invisible": false
  },
  {
    "longitude": 114.109497,
    "name": "Hong Kong",
    "latitude": 22.396427,
    "dead": 8,
    "lastUpdated": "2020-07-14T07:16:04.925Z",
    "recovered": 1217,
    "infected": 1522,
    "id": "6IcHIIH0zXpY0POmBZTv",
    "pop": 7392000,
    "country": "HK",
    "sick": 297,
    "invisible": false
  },
  {
    "recovered": 0,
    "infected": 16260,
    "state": "AC",
    "id": "6LQesrx5bHJsVUi1TXBp",
    "pop": 869265,
    "country": "BR",
    "longitude": -72.4,
    "name": "Acre",
    "latitude": -8.65,
    "dead": 430,
    "lastUpdated": "2020-07-14T06:57:02.261Z",
    "sick": 15830,
    "invisible": false
  },
  {
    "recovered": 557,
    "infected": 1378,
    "id": "6SlpghTyB6lpMFvx3g9U",
    "pop": 11180000,
    "country": "BJ",
    "longitude": 2.3158,
    "name": "Benin",
    "latitude": 9.3077,
    "dead": 26,
    "lastUpdated": "2020-07-14T07:16:04.925Z",
    "sick": 795,
    "invisible": false
  },
  {
    "recovered": 70375,
    "infected": 95143,
    "state": "25",
    "id": "6ZHcvMIzVWIaRnc4R3Qp",
    "pop": 10040000,
    "country": "IT",
    "longitude": 9.5,
    "name": "Lombardia",
    "latitude": 45.6667,
    "dead": 16757,
    "lastUpdated": "2020-07-14T07:01:02.169Z",
    "sick": 8011,
    "invisible": false
  },
  {
    "id": "6ahNiyKDSDAftCctgLH3",
    "pop": 2067000,
    "country": "SI",
    "longitude": 14.5058,
    "name": "Slovenia",
    "latitude": 46.0569,
    "dead": 111,
    "lastUpdated": "2020-07-14T07:16:04.925Z",
    "recovered": 1473,
    "infected": 1849,
    "sick": 265,
    "invisible": false
  },
  {
    "lastUpdated": "2020-07-14T07:21:15.202Z",
    "recovered": 0,
    "infected": 1633,
    "id": "6nyns7UGGgkU7pxrHf8i",
    "pop": 300000,
    "country": "CL",
    "longitude": -70.331398,
    "name": "Atacama",
    "latitude": -27.3667908,
    "dead": 9,
    "sick": 1624,
    "invisible": false
  },
  {
    "recovered": 3475,
    "infected": 6026,
    "id": "6pBi38TUgYfFm0bry2uh",
    "pop": 2025000,
    "country": "GA",
    "longitude": 11.6094,
    "name": "Gabon",
    "latitude": -0.8037,
    "dead": 46,
    "lastUpdated": "2020-07-14T07:16:04.923Z",
    "sick": 2505,
    "invisible": false
  },
  {
    "latitude": 22.1498,
    "dead": 286,
    "lastUpdated": "2020-07-14T07:02:09.399Z",
    "recovered": 0,
    "infected": 4654,
    "id": "6vjIVg1gSANFZghV7xtS",
    "pop": 2831900,
    "country": "MX",
    "longitude": -100.9792,
    "name": "San Luis Potosí",
    "sick": 4368,
    "invisible": false
  },
  {
    "alwaysShow": true,
    "latitude": 17.901672,
    "dead": 0,
    "lastUpdated": "2020-07-14T07:16:04.946Z",
    "recovered": 6,
    "infected": 6,
    "id": "78Ox26bNHDA2Pk2b3Uwn",
    "pop": 9131,
    "country": "FR",
    "longitude": -62.818544,
    "name": "Saint-Barthélémy",
    "sick": 0,
    "invisible": false
  },
  {
    "latitude": 54.367,
    "dead": 38,
    "lastUpdated": "2020-07-14T07:03:02.048Z",
    "recovered": 0,
    "infected": 713,
    "id": "7JDx6UJiwGSJyL1fChaJ",
    "pop": 2305000,
    "country": "PL",
    "longitude": 18.633,
    "name": "Pomorskie",
    "sick": 675,
    "invisible": false
  },
  {
    "latitude": 35.2923,
    "dead": 2,
    "lastUpdated": "2020-07-13T22:27:27.091Z",
    "recovered": 125,
    "infected": 139,
    "state": "ML",
    "id": "7UASdZTZ1nPzzBwSTEA9",
    "pop": 84690,
    "country": "ES",
    "longitude": -2.9381,
    "name": "Melilla",
    "sick": 12,
    "invisible": false
  },
  {
    "lastUpdated": "2020-07-14T07:16:04.943Z",
    "recovered": 57,
    "infected": 74,
    "id": "7hVFcEV7nV0MrQr3LHrl",
    "pop": 102012,
    "country": "AG",
    "longitude": -61.7964,
    "name": "Antigua and Barbuda",
    "latitude": 17.0608,
    "dead": 3,
    "sick": 14,
    "invisible": false
  },
  {
    "lastUpdated": "2020-07-14T07:00:06.651Z",
    "recovered": 45791,
    "infected": 49600,
    "state": "BY",
    "id": "7kCrrlOBE3jN6FtOVNUB",
    "pop": 13000000,
    "country": "DE",
    "longitude": 11.4979,
    "name": "Bayern",
    "latitude": 48.7904,
    "dead": 2655,
    "sick": 1154,
    "invisible": false
  },
  {
    "longitude": 19.0402,
    "name": "Hungary",
    "latitude": 47.4979,
    "dead": 595,
    "lastUpdated": "2020-07-14T07:16:04.923Z",
    "recovered": 3073,
    "infected": 4247,
    "id": "7rYC2iFB50c55Ihgbs4Q",
    "pop": 9773000,
    "country": "HU",
    "sick": 579,
    "invisible": false
  },
  {
    "country": "CO",
    "longitude": -74.7813,
    "name": "Barranquilla D.E.",
    "latitude": 10.9685,
    "dead": 1136,
    "lastUpdated": "2020-07-14T07:15:12.294Z",
    "recovered": 8671,
    "infected": 19158,
    "id": "7tqLvLyXcBDK808nJv0m",
    "pop": 1206000,
    "sick": 9351,
    "invisible": false
  },
  {
    "lastUpdated": "2020-07-14T07:16:04.919Z",
    "recovered": 11928,
    "infected": 15173,
    "id": "8C0d7WVCjyUGtnc2gUAR",
    "pop": 24050000,
    "country": "CM",
    "longitude": 12.3547,
    "name": "Cameroon",
    "latitude": 7.3697,
    "dead": 359,
    "sick": 2886,
    "invisible": false
  },
  {
    "state": "BRU",
    "id": "8DOZWbN6bDdgaLXVlUEu",
    "pop": 1209000,
    "country": "BE",
    "longitude": 4.3517,
    "name": "Brussels",
    "latitude": 50.8503,
    "dead": 1488,
    "lastUpdated": "2020-07-14T07:07:07.068Z",
    "recovered": 2825,
    "infected": 6518,
    "sick": 2205,
    "invisible": false
  },
  {
    "latitude": -16.2902,
    "dead": 1866,
    "lastUpdated": "2020-07-14T07:16:04.915Z",
    "recovered": 15294,
    "infected": 49250,
    "id": "8RihJrXw4NQXPxaRxr1u",
    "pop": 11050000,
    "country": "BO",
    "longitude": -63.5887,
    "name": "Bolivia",
    "sick": 32090,
    "invisible": false
  },
  {
    "name": "St. Vincent Grenadines",
    "latitude": 12.9843,
    "dead": 0,
    "lastUpdated": "2020-07-14T07:16:04.944Z",
    "recovered": 29,
    "infected": 35,
    "id": "8ZTySQROQejkDAad0qxQ",
    "pop": 109897,
    "country": "VC",
    "longitude": -61.2872,
    "sick": 6,
    "invisible": false
  },
  {
    "lastUpdated": "2020-07-14T07:16:04.915Z",
    "recovered": 42541,
    "infected": 46283,
    "id": "8pA3fM4xC2c2wv1b4TnE",
    "pop": 5621000,
    "country": "SG",
    "longitude": 103.819839,
    "name": "Singapore",
    "latitude": 1.352083,
    "dead": 26,
    "sick": 3716,
    "invisible": false
  },
  {
    "longitude": -1.5536,
    "name": "Pays de la Loire",
    "latitude": 47.2184,
    "dead": 470,
    "lastUpdated": "2020-07-13T22:40:16.910Z",
    "recovered": 2118,
    "infected": 4276,
    "id": "98hwAoohgWEOQVa3NlM5",
    "pop": 3787000,
    "country": "FR",
    "sick": 1688,
    "invisible": false
  },
  {
    "longitude": -90.19885,
    "name": "Campeche",
    "latitude": 19.30754,
    "dead": 289,
    "lastUpdated": "2020-07-14T04:32:17.592Z",
    "recovered": 0,
    "infected": 3135,
    "id": "9DAvxOObTqIvMOU93nlY",
    "pop": 952300,
    "country": "MX",
    "sick": 2846,
    "invisible": false
  },
  {
    "name": "Sudan",
    "latitude": 12.8628,
    "dead": 657,
    "lastUpdated": "2020-07-14T07:16:04.921Z",
    "recovered": 5403,
    "infected": 10316,
    "id": "9DPOkpIqrFy9mR4e9fuv",
    "pop": 40530000,
    "country": "SD",
    "longitude": 30.2176,
    "sick": 4256,
    "invisible": false
  },
  {
    "latitude": 58.5501,
    "dead": 23,
    "lastUpdated": "2020-07-14T07:00:11.692Z",
    "recovered": 1197,
    "infected": 1855,
    "id": "9JFYfvpcejMIgYlHpngA",
    "pop": 643000,
    "country": "RU",
    "longitude": 43.9541,
    "name": "Kostroma Oblast",
    "sick": 635,
    "invisible": false
  },
  {
    "name": "Romania",
    "latitude": 45.943161,
    "dead": 1901,
    "lastUpdated": "2020-07-14T07:16:04.916Z",
    "recovered": 21692,
    "infected": 32948,
    "id": "9QcETqEcM2fTv9zRvx5T",
    "pop": 19530000,
    "country": "RO",
    "longitude": 24.966761,
    "sick": 9355,
    "invisible": false
  },
  {
    "lastUpdated": "2020-07-14T07:16:04.924Z",
    "recovered": 1993,
    "infected": 2846,
    "id": "9Y5wmCqNCC6ZrenM31uA",
    "pop": 6218000,
    "country": "NI",
    "longitude": -86.251389,
    "name": "Nicaragua",
    "latitude": 12.136389,
    "dead": 91,
    "sick": 762,
    "invisible": false
  },
  {
    "recovered": 1730,
    "infected": 2412,
    "id": "9dIzxqDSVqPyINkHqwGv",
    "pop": 18540000,
    "country": "ML",
    "longitude": -3.996166,
    "name": "Mali",
    "latitude": 17.5706921,
    "dead": 121,
    "lastUpdated": "2020-07-14T07:16:04.924Z",
    "sick": 561,
    "invisible": false
  },
  {
    "latitude": 61.92411,
    "dead": 329,
    "lastUpdated": "2020-07-14T07:16:04.922Z",
    "recovered": 6800,
    "infected": 7295,
    "id": "9p6OCdZbUUwBLA60Gk3W",
    "pop": 5513000,
    "country": "FI",
    "longitude": 25.748152,
    "name": "Finland",
    "sick": 166,
    "invisible": false
  },
  {
    "id": "A6Us0fpQVCc85SoIqzg3",
    "pop": 2876000,
    "country": "RU",
    "longitude": 95.1104,
    "name": "Krasnoyarsk Krai",
    "latitude": 64.248,
    "dead": 232,
    "lastUpdated": "2020-07-14T07:00:11.684Z",
    "recovered": 6811,
    "infected": 10628,
    "sick": 3585,
    "invisible": false
  },
  {
    "latitude": 43.311643,
    "dead": 391,
    "lastUpdated": "2020-07-14T07:17:02.698Z",
    "recovered": 0,
    "infected": 6068,
    "state": "NH",
    "id": "A84CwQ52kA46Hr7pn6Bm",
    "pop": 1356000,
    "country": "US",
    "longitude": -71.590315,
    "name": "New Hampshire",
    "sick": 5677,
    "invisible": false
  },
  {
    "recovered": 0,
    "infected": 17487,
    "state": "RI",
    "id": "AEUWUHS65qvjEslew11c",
    "pop": 1057000,
    "country": "US",
    "longitude": -71.412257,
    "name": "Rhode Island",
    "latitude": 41.823261,
    "dead": 984,
    "lastUpdated": "2020-07-14T07:17:02.697Z",
    "sick": 16503,
    "invisible": false
  },
  {
    "longitude": 11.327591,
    "name": "Emilia-Romagna",
    "latitude": 44.498955,
    "dead": 4269,
    "lastUpdated": "2020-07-14T07:01:02.169Z",
    "recovered": 23496,
    "infected": 28958,
    "state": "45",
    "id": "AJ9jQ0iyKsafsmf5yHAR",
    "pop": 4453000,
    "country": "IT",
    "sick": 1193,
    "invisible": false
  },
  {
    "recovered": 2618,
    "infected": 2840,
    "state": "SL",
    "id": "AKjFRQGnzuuZQhv5Qwx7",
    "pop": 990509,
    "country": "DE",
    "longitude": 7.023,
    "name": "Saarland",
    "latitude": 49.3964,
    "dead": 178,
    "lastUpdated": "2020-07-14T07:00:06.653Z",
    "sick": 44,
    "invisible": false
  },
  {
    "recovered": 5039,
    "infected": 8900,
    "id": "AOapJ3gElQApd8Gnt8EL",
    "pop": 3493000,
    "country": "RU",
    "longitude": 60.8789,
    "name": "Chelyabinsk Oblast",
    "latitude": 54.4319,
    "dead": 88,
    "lastUpdated": "2020-07-14T07:00:11.684Z",
    "sick": 3773,
    "invisible": false
  },
  {
    "longitude": -71.167,
    "name": "Maule",
    "latitude": -35.717,
    "dead": 94,
    "lastUpdated": "2020-07-14T07:21:15.203Z",
    "recovered": 0,
    "infected": 7156,
    "id": "APTPgjAsjFi0nsGyJV7M",
    "pop": 1125002,
    "country": "CL",
    "sick": 7062,
    "invisible": false
  },
  {
    "longitude": -42.6043,
    "name": "Greenland",
    "latitude": 71.7069,
    "dead": 0,
    "lastUpdated": "2020-07-14T07:16:04.945Z",
    "recovered": 13,
    "infected": 13,
    "id": "APaZzlGCEeuoLBtzTJMe",
    "pop": 56171,
    "country": "GL",
    "sick": 0,
    "invisible": false
  },
  {
    "name": "Buryatia",
    "latitude": 54.8331,
    "dead": 25,
    "lastUpdated": "2020-07-14T07:00:11.689Z",
    "recovered": 2542,
    "infected": 3414,
    "id": "ATxF6ZoDJ2ibdE6ZRYIX",
    "pop": 984000,
    "country": "RU",
    "longitude": 112.4061,
    "sick": 847,
    "invisible": false
  },
  {
    "name": "Nova Scotia",
    "latitude": 45.65107,
    "dead": 63,
    "lastUpdated": "2020-07-14T07:07:02.073Z",
    "recovered": 1000,
    "infected": 1066,
    "state": "NS",
    "id": "AVCpxeh0fuH2WrHWNDYH",
    "pop": 971395,
    "country": "CA",
    "longitude": -63.582687,
    "sick": 3,
    "invisible": false
  },
  {
    "longitude": -109.128641,
    "name": "Montana",
    "latitude": 47.012918,
    "dead": 32,
    "lastUpdated": "2020-07-14T07:17:02.714Z",
    "recovered": 0,
    "infected": 1843,
    "state": "MT",
    "id": "AcULcZBozObOhwuRKMjJ",
    "pop": 1062000,
    "country": "US",
    "sick": 1811,
    "invisible": false
  },
  {
    "lastUpdated": "2020-07-14T07:16:04.922Z",
    "recovered": 5278,
    "infected": 6596,
    "id": "AiIGs3ybYZZhm1ytVopr",
    "pop": 9275000,
    "country": "TJ",
    "longitude": 71.2761,
    "name": "Tajikistan",
    "latitude": 38.861,
    "dead": 55,
    "sick": 1263,
    "invisible": false
  },
  {
    "latitude": 27.285971,
    "dead": 1,
    "lastUpdated": "2020-07-14T07:23:04.368Z",
    "recovered": 931,
    "infected": 932,
    "id": "AmBYm5J6E9Cuez1FQjiN",
    "pop": 45200000,
    "country": "CN",
    "longitude": 116.01609,
    "name": "Jiangxi",
    "sick": 0,
    "invisible": false
  },
  {
    "recovered": 0,
    "infected": 15973,
    "state": "WA",
    "id": "AoLhHdTydeWTfmp9koEX",
    "pop": 3136000,
    "country": "GB",
    "longitude": -3.7837,
    "name": "Wales",
    "latitude": 52.1307,
    "dead": 1541,
    "lastUpdated": "2020-07-14T07:13:14.455Z",
    "sick": 14432,
    "invisible": false
  },
  {
    "name": "Khakassia",
    "latitude": 53.0452,
    "dead": 19,
    "lastUpdated": "2020-07-14T07:00:11.690Z",
    "recovered": 1748,
    "infected": 2374,
    "id": "Avls64fLKoEsBFH0Ol0b",
    "pop": 537000,
    "country": "RU",
    "longitude": 90.3982,
    "sick": 607,
    "invisible": false
  },
  {
    "id": "AwN0CScPDApcLFgz6e3z",
    "pop": 41320000,
    "country": "DZ",
    "longitude": 1.659626,
    "name": "Algeria",
    "latitude": 28.033886,
    "dead": 1018,
    "lastUpdated": "2020-07-14T07:16:04.917Z",
    "recovered": 14019,
    "infected": 19689,
    "sick": 4652,
    "invisible": false
  },
  {
    "longitude": 15.2,
    "name": "Croatia",
    "latitude": 45.099998,
    "dead": 119,
    "lastUpdated": "2020-07-14T07:16:04.923Z",
    "recovered": 2514,
    "infected": 3775,
    "id": "B82Ef45M8cDu4q7VsSHF",
    "pop": 4076000,
    "country": "HR",
    "sick": 1142,
    "invisible": false
  },
  {
    "longitude": 8.081666,
    "name": "Niger",
    "latitude": 17.6077881,
    "dead": 68,
    "lastUpdated": "2020-07-14T07:16:04.926Z",
    "recovered": 992,
    "infected": 1099,
    "id": "BENubqQInFUJzhpZTsLT",
    "pop": 23716000,
    "country": "NE",
    "sick": 39,
    "invisible": false
  },
  {
    "latitude": 39.509109,
    "dead": 3325,
    "lastUpdated": "2020-07-14T07:17:02.687Z",
    "recovered": 0,
    "infected": 73527,
    "state": "MD",
    "id": "BF51mWl51fgEcyBpCSzb",
    "pop": 6043000,
    "country": "US",
    "longitude": -76.98432,
    "name": "Maryland",
    "sick": 70202,
    "invisible": false
  },
  {
    "latitude": 53.709808,
    "dead": 468,
    "lastUpdated": "2020-07-14T07:16:04.914Z",
    "recovered": 55492,
    "infected": 65114,
    "id": "BGg6yVU5VP71B8NXU0oh",
    "pop": 9508000,
    "country": "BY",
    "longitude": 27.953388,
    "name": "Belarus",
    "sick": 9154,
    "invisible": false
  },
  {
    "recovered": 1703,
    "infected": 3681,
    "id": "BGtoyzb7y54LVlJ91rbf",
    "pop": 3319000,
    "country": "FR",
    "longitude": 0.1713,
    "name": "Normandie",
    "latitude": 48.8799,
    "dead": 436,
    "lastUpdated": "2020-07-13T22:40:30.097Z",
    "sick": 1542,
    "invisible": false
  },
  {
    "lastUpdated": "2020-07-14T07:13:14.457Z",
    "recovered": 0,
    "infected": 12869,
    "state": "EN",
    "id": "BQqMOlPFD36ZEDTGd3WC",
    "pop": 5616000,
    "country": "GB",
    "longitude": -3.9995,
    "name": "South West",
    "latitude": 50.7772,
    "dead": 0,
    "sick": 12869,
    "invisible": false
  },
  {
    "longitude": -111.093735,
    "name": "Arizona",
    "latitude": 34.048927,
    "dead": 2245,
    "lastUpdated": "2020-07-14T07:17:02.678Z",
    "recovered": 0,
    "infected": 123824,
    "state": "AZ",
    "id": "BTEESCuD2ZbS1afunR2A",
    "pop": 7172000,
    "country": "US",
    "sick": 121579,
    "invisible": false
  },
  {
    "recovered": 2998,
    "infected": 5108,
    "id": "BUb7oDHcBM4lQ5cufNoG",
    "pop": 949000,
    "country": "RU",
    "longitude": 32.6677,
    "name": "Smolensk Oblast",
    "latitude": 54.9883,
    "dead": 78,
    "lastUpdated": "2020-07-14T07:00:11.687Z",
    "sick": 2032,
    "invisible": false
  },
  {
    "recovered": 3375,
    "infected": 3833,
    "id": "BWojXmuKU3szKlS7CE4k",
    "pop": 1283000,
    "country": "RU",
    "longitude": 50.2097,
    "name": "Kirov Oblast",
    "latitude": 58.4199,
    "dead": 45,
    "lastUpdated": "2020-07-14T07:00:11.689Z",
    "sick": 413,
    "invisible": false
  },
  {
    "longitude": 14.552812,
    "name": "Zachodniopomorskie",
    "latitude": 53.428543,
    "dead": 23,
    "lastUpdated": "2020-07-14T07:03:02.049Z",
    "recovered": 0,
    "infected": 637,
    "id": "BZwZOAlDJ8AIiaRVLyC9",
    "pop": 1676000,
    "country": "PL",
    "sick": 614,
    "invisible": false
  },
  {
    "latitude": -33.4489,
    "dead": 0,
    "lastUpdated": "2020-07-14T07:16:04.912Z",
    "recovered": 286556,
    "infected": 0,
    "id": "BbiuZcm8oURX7cZwaa5U",
    "country": "CL",
    "longitude": -70.6693,
    "invisible": true,
    "name": "Unknown Chile region",
    "sick": 0
  },
  {
    "longitude": 34.3015,
    "name": "Malawi",
    "latitude": -13.2543,
    "dead": 39,
    "lastUpdated": "2020-07-14T07:16:04.924Z",
    "recovered": 747,
    "infected": 2430,
    "id": "BfT8o5DaEixC6JIZ28kY",
    "pop": 18620000,
    "country": "MW",
    "sick": 1644,
    "invisible": false
  },
  {
    "latitude": -3.3730559,
    "dead": 1,
    "lastUpdated": "2020-07-14T07:16:04.942Z",
    "recovered": 207,
    "infected": 269,
    "id": "BnpMamidC5yYzeK8tPUL",
    "pop": 10860000,
    "country": "BI",
    "longitude": 29.9188862,
    "name": "Burundi",
    "sick": 61,
    "invisible": false
  },
  {
    "id": "BrToMzyq8y2xdwXn75kM",
    "pop": 5385000,
    "country": "PL",
    "longitude": 21.002,
    "name": "Mazowieckie",
    "latitude": 52.257,
    "dead": 353,
    "lastUpdated": "2020-07-14T07:03:02.046Z",
    "recovered": 0,
    "infected": 5449,
    "sick": 5096,
    "invisible": false
  },
  {
    "longitude": -71.347573,
    "name": "Amazonas (Colombia)",
    "latitude": -1.333845,
    "dead": 101,
    "lastUpdated": "2020-07-14T07:15:12.295Z",
    "recovered": 2196,
    "infected": 2428,
    "id": "C25xSDm4iYibX5RYML14",
    "pop": 74751,
    "country": "CO",
    "sick": 131,
    "invisible": false
  },
  {
    "state": "NY",
    "id": "C3BCUzV80z9GfiuByIcr",
    "pop": 19540000,
    "country": "US",
    "longitude": -73.982597,
    "name": "New York",
    "latitude": 40.719042,
    "dead": 32445,
    "lastUpdated": "2020-07-14T07:17:02.677Z",
    "recovered": 0,
    "infected": 428303,
    "sick": 395858,
    "invisible": false
  },
  {
    "lastUpdated": "2020-07-14T07:15:12.296Z",
    "recovered": 11,
    "infected": 14,
    "id": "C5YXFiytAc1w9swtVGLz",
    "pop": 42800,
    "country": "CO",
    "longitude": -67.92389,
    "name": "Guainía",
    "latitude": 3.86528,
    "dead": 1,
    "sick": 2,
    "invisible": false
  },
  {
    "id": "C6S76AggdWVU8G22jFHQ",
    "pop": 10650000,
    "country": "CZ",
    "longitude": 15.359413,
    "name": "Czechia",
    "latitude": 49.731626,
    "dead": 353,
    "lastUpdated": "2020-07-14T07:16:04.919Z",
    "recovered": 8373,
    "infected": 13238,
    "sick": 4512,
    "invisible": false
  },
  {
    "lastUpdated": "2020-07-14T07:16:04.916Z",
    "recovered": 29099,
    "infected": 33476,
    "id": "C7cj4nwRITs13KnaJrQ2",
    "pop": 1493000,
    "country": "BH",
    "longitude": 50.557701,
    "name": "Bahrain",
    "latitude": 26.0667,
    "dead": 109,
    "sick": 4268,
    "invisible": false
  },
  {
    "lastUpdated": "2020-07-14T07:15:12.295Z",
    "recovered": 522,
    "infected": 1204,
    "id": "CA9LaAl3bNaeAqBuozn4",
    "pop": 1285400,
    "country": "CO",
    "longitude": -74.4057,
    "name": "Magdalena",
    "latitude": 10.4113,
    "dead": 128,
    "sick": 554,
    "invisible": false
  },
  {
    "latitude": 26.909979,
    "dead": 376,
    "lastUpdated": "2020-07-14T07:02:09.398Z",
    "recovered": 0,
    "infected": 7338,
    "id": "CCUFp4urvgXPo5unfMGy",
    "pop": 3073500,
    "country": "MX",
    "longitude": -101.430756,
    "name": "Coahuila",
    "sick": 6962,
    "invisible": false
  },
  {
    "name": "Rajasthan",
    "latitude": 27.0238,
    "dead": 521,
    "lastUpdated": "2020-07-14T07:11:01.854Z",
    "recovered": 18754,
    "infected": 25034,
    "id": "CKZCZTPlrcq5fbfUPA9k",
    "pop": 68890000,
    "country": "IN",
    "longitude": 74.2179,
    "sick": 5759,
    "invisible": false
  },
  {
    "id": "CX8z9U1iABNBhc1VK2Dy",
    "pop": 218000,
    "country": "RU",
    "longitude": 86.2199,
    "name": "Altai",
    "latitude": 50.6182,
    "dead": 1,
    "lastUpdated": "2020-07-14T07:00:11.693Z",
    "recovered": 567,
    "infected": 1099,
    "sick": 531,
    "invisible": false
  },
  {
    "latitude": 13.803,
    "dead": 267,
    "lastUpdated": "2020-07-14T07:16:04.922Z",
    "recovered": 5761,
    "infected": 9978,
    "id": "Cgvmtle61ehMvCzRzYx7",
    "pop": 6378000,
    "country": "SV",
    "longitude": -88.9053,
    "name": "El Salvador",
    "sick": 3950,
    "invisible": false
  },
  {
    "recovered": 622,
    "infected": 1055,
    "id": "D4WkbqyUXY1pazbOxfKx",
    "pop": 144000,
    "country": "RU",
    "longitude": 153.915,
    "name": "Magadan Oblast",
    "latitude": 62.6643,
    "dead": 5,
    "lastUpdated": "2020-07-14T07:00:11.693Z",
    "sick": 428,
    "invisible": false
  },
  {
    "id": "DAp3PFow4BuCMYWWTo3i",
    "pop": 1078000,
    "country": "RU",
    "longitude": 82.6765,
    "name": "Tomsk Oblast",
    "latitude": 58.897,
    "dead": 24,
    "lastUpdated": "2020-07-14T07:00:11.689Z",
    "recovered": 1707,
    "infected": 3041,
    "sick": 1310,
    "invisible": false
  },
  {
    "recovered": 20729,
    "infected": 32490,
    "id": "DCJCtZoBTWQ4mzdDNljD",
    "pop": 2973000,
    "country": "AM",
    "longitude": 44.818474,
    "name": "Armenia",
    "latitude": 40.259003,
    "dead": 581,
    "lastUpdated": "2020-07-14T07:16:04.916Z",
    "sick": 11180,
    "invisible": false
  },
  {
    "name": "Boyacá",
    "latitude": 5.535,
    "dead": 16,
    "lastUpdated": "2020-07-14T07:15:12.295Z",
    "recovered": 285,
    "infected": 499,
    "id": "DJJraANgQbEqz1wBBtZz",
    "pop": 1278000,
    "country": "CO",
    "longitude": -73.368,
    "sick": 198,
    "invisible": false
  },
  {
    "country": "RU",
    "longitude": 44.0684,
    "name": "Mordovia",
    "latitude": 54.2369,
    "dead": 29,
    "lastUpdated": "2020-07-14T07:00:11.689Z",
    "recovered": 2755,
    "infected": 3865,
    "id": "DKwy7USk22oXUQGEvO42",
    "pop": 834000,
    "sick": 1081,
    "invisible": false
  },
  {
    "state": "EN",
    "id": "DPwBt2aJuwF0O71vwfM9",
    "pop": 7300000,
    "country": "GB",
    "longitude": -2.5945,
    "name": "North West",
    "latitude": 53.6221,
    "dead": 0,
    "lastUpdated": "2020-07-14T07:13:14.457Z",
    "recovered": 0,
    "infected": 43544,
    "sick": 43544,
    "invisible": false
  },
  {
    "recovered": 137,
    "infected": 150,
    "id": "DZyTD0Mu5WIcK6yTcJ91",
    "pop": 65440,
    "country": "BM",
    "longitude": -64.75737,
    "name": "Bermuda",
    "latitude": 32.3213844,
    "dead": 9,
    "lastUpdated": "2020-07-14T07:16:04.943Z",
    "sick": 4,
    "invisible": false
  },
  {
    "name": "Turks and Caicos",
    "latitude": 21.694,
    "dead": 2,
    "lastUpdated": "2020-07-14T07:16:04.943Z",
    "recovered": 11,
    "infected": 72,
    "id": "DaMrRSIGJXIG36nW0Pnc",
    "pop": 35446,
    "country": "TC",
    "longitude": -71.7979,
    "sick": 59,
    "invisible": false
  },
  {
    "name": "Castilla La Mancha",
    "latitude": 39.2796,
    "dead": 3030,
    "lastUpdated": "2020-07-13T22:25:42.981Z",
    "recovered": 6392,
    "infected": 27026,
    "state": "CM",
    "id": "Dbng0NBTH41EEwBxhMzE",
    "pop": 2035000,
    "country": "ES",
    "longitude": -3.0977,
    "sick": 17604,
    "invisible": false
  },
  {
    "country": "PL",
    "longitude": 20.006,
    "name": "Malopolskie",
    "latitude": 50.023,
    "dead": 45,
    "lastUpdated": "2020-07-14T07:03:02.047Z",
    "recovered": 0,
    "infected": 2086,
    "id": "DcQ3D0WkacXEbv6iznRB",
    "pop": 3361000,
    "sick": 2041,
    "invisible": false
  },
  {
    "country": "MO",
    "longitude": 113.551262,
    "name": "Macao",
    "latitude": 22.192039,
    "dead": 0,
    "lastUpdated": "2020-07-14T07:16:04.944Z",
    "recovered": 45,
    "infected": 46,
    "id": "DdBt8qsG6A3g92oOR3ow",
    "pop": 622567,
    "sick": 1,
    "invisible": false
  },
  {
    "id": "Dh0O1vmhrVfmsCsfZCUg",
    "pop": 2651000,
    "country": "IN",
    "longitude": 91.3662,
    "name": "Meghalaya",
    "latitude": 25.467,
    "dead": 2,
    "lastUpdated": "2020-07-14T07:11:01.860Z",
    "recovered": 46,
    "infected": 316,
    "sick": 268,
    "invisible": false
  },
  {
    "lastUpdated": "2020-07-14T07:00:11.684Z",
    "recovered": 8097,
    "infected": 10823,
    "id": "DqzAhNFTJFQVm88ma21P",
    "pop": 4220000,
    "country": "RU",
    "longitude": 41.8259,
    "name": "Rostov Oblast",
    "latitude": 47.6853,
    "dead": 164,
    "sick": 2562,
    "invisible": false
  },
  {
    "latitude": 42.962334,
    "dead": 21,
    "lastUpdated": "2020-07-14T07:17:02.714Z",
    "recovered": 0,
    "infected": 1904,
    "state": "WY",
    "id": "DrGzziUglmBognCGY7R2",
    "pop": 577737,
    "country": "US",
    "longitude": -107.534868,
    "name": "Wyoming",
    "sick": 1883,
    "invisible": false
  },
  {
    "id": "Dtr1lap1RpJpXJdXGJiW",
    "pop": 10740000,
    "country": "GR",
    "longitude": 23.7275,
    "name": "Greece",
    "latitude": 37.9838,
    "dead": 193,
    "lastUpdated": "2020-07-14T07:16:04.923Z",
    "recovered": 1374,
    "infected": 3826,
    "sick": 2259,
    "invisible": false
  },
  {
    "country": "RU",
    "longitude": 56.5872,
    "name": "Perm Krai",
    "latitude": 58.8232,
    "dead": 96,
    "lastUpdated": "2020-07-14T07:00:11.688Z",
    "recovered": 3366,
    "infected": 4474,
    "id": "E8vIyXLVNtcY9dxLHICp",
    "pop": 2623000,
    "sick": 1012,
    "invisible": false
  },
  {
    "lastUpdated": "2020-07-14T07:00:11.688Z",
    "recovered": 2503,
    "infected": 4120,
    "id": "EHKZ6ivhrJUs3XqNDBOw",
    "pop": 3692000,
    "country": "RU",
    "longitude": 66.9483,
    "name": "Tyumen Oblast",
    "latitude": 56.9634,
    "dead": 20,
    "sick": 1597,
    "invisible": false
  },
  {
    "longitude": 121.563698,
    "name": "Taiwan",
    "latitude": 25.03841,
    "dead": 7,
    "lastUpdated": "2020-07-14T07:16:04.927Z",
    "recovered": 440,
    "infected": 451,
    "id": "EKTfs8e7M6DXzI1HqyyX",
    "pop": 23780000,
    "country": "TW",
    "sick": 4,
    "invisible": false
  },
  {
    "longitude": -84.387618,
    "name": "Costa Rica",
    "latitude": 10.327273,
    "dead": 34,
    "lastUpdated": "2020-07-14T07:16:04.922Z",
    "recovered": 2304,
    "infected": 8036,
    "id": "EQzJvzVHKjs8kLmK7BMu",
    "pop": 4906000,
    "country": "CR",
    "sick": 5698,
    "invisible": false
  },
  {
    "id": "ERwk9R9en4m9WbdoMbIg",
    "pop": 62700000,
    "country": "IN",
    "longitude": 71.1924,
    "name": "Gujarat",
    "latitude": 22.2587,
    "dead": 2056,
    "lastUpdated": "2020-07-14T07:11:01.854Z",
    "recovered": 29806,
    "infected": 42808,
    "sick": 10946,
    "invisible": false
  },
  {
    "id": "EVMBsgCJedjHy91mDYEC",
    "pop": 1155000,
    "country": "RU",
    "longitude": 42.5884,
    "name": "Arkhangelsk Oblast",
    "latitude": 63.2853,
    "dead": 105,
    "lastUpdated": "2020-07-14T07:00:11.685Z",
    "recovered": 4544,
    "infected": 7122,
    "sick": 2473,
    "invisible": false
  },
  {
    "id": "Esl5UlCVB9s8pmGB5Ofr",
    "pop": 1055000,
    "country": "IN",
    "longitude": 76.7794,
    "name": "Chandigarh",
    "latitude": 30.7333,
    "dead": 8,
    "lastUpdated": "2020-07-14T07:11:01.859Z",
    "recovered": 423,
    "infected": 588,
    "sick": 157,
    "invisible": false
  },
  {
    "latitude": 51.24,
    "dead": 20,
    "lastUpdated": "2020-07-14T07:03:02.048Z",
    "recovered": 0,
    "infected": 822,
    "id": "Esy1La2CxwH5uB8bGVWZ",
    "pop": 2148000,
    "country": "PL",
    "longitude": 22.653,
    "name": "Lubelskie",
    "sick": 802,
    "invisible": false
  },
  {
    "longitude": -66.664513,
    "name": "Puerto Rico",
    "alwaysShow": true,
    "dead": 167,
    "latitude": 18.200178,
    "infected": 10010,
    "recovered": 0,
    "pop": 3195000,
    "country": "US",
    "lastUpdated": "2020-07-14T07:17:02.716Z",
    "state": "PR",
    "id": "F4rPrEVGAIMM5rfPEMv4",
    "sick": 9843,
    "invisible": false
  },
  {
    "name": "Cundinamarca",
    "latitude": 4.862437,
    "dead": 97,
    "lastUpdated": "2020-07-14T07:15:12.294Z",
    "recovered": 2082,
    "infected": 4310,
    "id": "F7MED5VwEhi3JvJu6KjB",
    "pop": 2919000,
    "country": "CO",
    "longitude": -74.058655,
    "sick": 2131,
    "invisible": false
  },
  {
    "lastUpdated": "2020-07-14T07:16:04.942Z",
    "recovered": 296,
    "infected": 317,
    "id": "F8LnLqvuWoWh8awBqiw1",
    "pop": 832322,
    "country": "KM",
    "longitude": 43.3333,
    "name": "Comoros",
    "latitude": -11.6455,
    "dead": 7,
    "sick": 14,
    "invisible": false
  },
  {
    "longitude": 67.709953,
    "name": "Afghanistan",
    "latitude": 33.93911,
    "dead": 1038,
    "lastUpdated": "2020-07-14T07:16:04.916Z",
    "recovered": 21417,
    "infected": 34730,
    "id": "FCDmlmnIIswd8bQiUjfN",
    "pop": 35530000,
    "country": "AF",
    "sick": 12275,
    "invisible": false
  },
  {
    "latitude": 29.431585,
    "dead": 6,
    "lastUpdated": "2020-07-14T07:23:04.367Z",
    "recovered": 575,
    "infected": 582,
    "id": "FErOU1m4Tj7jIkRam3vF",
    "pop": 30480000,
    "country": "CN",
    "longitude": 106.912254,
    "name": "Chongqing",
    "sick": 1,
    "invisible": false
  },
  {
    "recovered": 45356,
    "infected": 55508,
    "id": "FZsUkhxBEgqsPb4eO0PN",
    "pop": 4137000,
    "country": "KW",
    "longitude": 47.481766,
    "name": "Kuwait",
    "latitude": 29.311661,
    "dead": 393,
    "lastUpdated": "2020-07-14T07:16:04.915Z",
    "sick": 9759,
    "invisible": false
  },
  {
    "lastUpdated": "2020-07-14T06:57:02.260Z",
    "recovered": 0,
    "infected": 38221,
    "state": "SE",
    "id": "FboWeolpM62SZCLwdilT",
    "pop": 2278308,
    "country": "BR",
    "longitude": -37.0717,
    "name": "Sergipe",
    "latitude": -10.9111,
    "dead": 1012,
    "sick": 37209,
    "invisible": false
  },
  {
    "lastUpdated": "2020-07-14T07:11:01.853Z",
    "recovered": 92567,
    "infected": 142798,
    "id": "FeS45oMNC27pI17F0xEV",
    "pop": 67860000,
    "country": "IN",
    "longitude": 78.6569,
    "name": "Tamil Nadu",
    "latitude": 11.1271,
    "dead": 2032,
    "sick": 48199,
    "invisible": false
  },
  {
    "latitude": 18.947829,
    "dead": 903,
    "lastUpdated": "2020-07-14T07:16:04.915Z",
    "recovered": 22441,
    "infected": 45506,
    "id": "FuiVEJvWb0QMCpxJ3563",
    "pop": 10770000,
    "country": "DO",
    "longitude": -70.430399,
    "name": "Dominican Republic",
    "sick": 22162,
    "invisible": false
  },
  {
    "recovered": 23679,
    "infected": 36221,
    "id": "FyC551oNwmENxbr9Yght",
    "pop": 35190000,
    "country": "IN",
    "longitude": 79.0193,
    "name": "Telengana",
    "latitude": 18.1124,
    "dead": 365,
    "lastUpdated": "2020-07-14T07:11:01.854Z",
    "sick": 12177,
    "invisible": false
  },
  {
    "longitude": 19.699,
    "name": "Slovakia",
    "latitude": 48.669,
    "dead": 28,
    "lastUpdated": "2020-07-14T07:16:04.924Z",
    "recovered": 1493,
    "infected": 1902,
    "id": "FzIDXoqWnTI3nUfhPyT2",
    "pop": 5450000,
    "country": "SK",
    "sick": 381,
    "invisible": false
  },
  {
    "country": "PK",
    "longitude": 69.345116,
    "name": "Pakistan",
    "latitude": 30.37532,
    "dead": 5320,
    "lastUpdated": "2020-07-14T07:16:04.913Z",
    "recovered": 170656,
    "infected": 253604,
    "id": "GAp7Wb6IMhdgbvEtMza9",
    "pop": 197000000,
    "sick": 77628,
    "invisible": false
  },
  {
    "longitude": 75.3412,
    "name": "Punjab",
    "latitude": 31.1471,
    "dead": 204,
    "lastUpdated": "2020-07-14T07:11:01.858Z",
    "recovered": 5586,
    "infected": 8178,
    "id": "GGru8cG08mANO8XDDUtZ",
    "pop": 27980000,
    "country": "IN",
    "sick": 2388,
    "invisible": false
  },
  {
    "longitude": 53.847816,
    "name": "United Arab Emirates",
    "latitude": 23.424076,
    "dead": 334,
    "lastUpdated": "2020-07-14T07:16:04.915Z",
    "recovered": 45513,
    "infected": 55198,
    "id": "GHzBIsHy2GiBc5JV2HMs",
    "pop": 9400000,
    "country": "AE",
    "sick": 9351,
    "invisible": false
  },
  {
    "name": "Grand Princess",
    "latitude": 37.0902,
    "dead": 3,
    "lastUpdated": "2020-07-14T07:17:02.717Z",
    "recovered": 0,
    "infected": 103,
    "id": "GLViSIjDjwvptOphedAu",
    "country": "US",
    "longitude": -95.7129,
    "invisible": true,
    "sick": 100
  },
  {
    "recovered": 0,
    "infected": 34181,
    "state": "EN",
    "id": "GPtoS0Yy2EnNafpmmTqY",
    "pop": 10100000,
    "country": "GB",
    "longitude": -0.1278,
    "name": "London",
    "latitude": 51.5074,
    "dead": 0,
    "lastUpdated": "2020-07-14T07:13:14.456Z",
    "sick": 34181,
    "invisible": false
  },
  {
    "latitude": 36.621981,
    "dead": 7096,
    "lastUpdated": "2020-07-14T07:17:02.677Z",
    "recovered": 0,
    "infected": 336037,
    "state": "CA",
    "id": "Gh46r6vuaY7fbGt3IboN",
    "pop": 39560000,
    "country": "US",
    "longitude": -119.339046,
    "name": "California",
    "sick": 328941,
    "invisible": false
  },
  {
    "recovered": 310,
    "infected": 525,
    "id": "GljWeVnun6o9DeW6rlEm",
    "pop": 343709,
    "country": "IN",
    "longitude": 72.8397,
    "name": "Dadra and Nagar Haveli",
    "latitude": 20.4283,
    "dead": 1,
    "lastUpdated": "2020-07-14T07:11:01.860Z",
    "sick": 214,
    "invisible": false
  },
  {
    "longitude": -97.145514,
    "name": "Oklahoma",
    "latitude": 35.87189,
    "dead": 424,
    "lastUpdated": "2020-07-14T07:17:02.697Z",
    "recovered": 0,
    "infected": 20745,
    "state": "OK",
    "id": "GpF8ULuKOQiFDCUHN44h",
    "pop": 3943000,
    "country": "US",
    "sick": 20321,
    "invisible": false
  },
  {
    "recovered": 29,
    "infected": 147,
    "id": "Gr09a1wn3BnMqjQbgEun",
    "pop": 256627,
    "country": "CO",
    "longitude": -71.557,
    "name": "Arauca",
    "latitude": 6.492,
    "dead": 0,
    "lastUpdated": "2020-07-14T07:15:12.295Z",
    "sick": 118,
    "invisible": false
  },
  {
    "recovered": 3464,
    "infected": 5565,
    "id": "GsecjBfopdgTOnyRgtCA",
    "pop": 1014000,
    "country": "RU",
    "longitude": 41.483,
    "name": "Ivanovo Oblast",
    "latitude": 57.1057,
    "dead": 59,
    "lastUpdated": "2020-07-14T07:00:11.687Z",
    "sick": 2042,
    "invisible": false
  },
  {
    "lastUpdated": "2020-07-14T07:01:02.170Z",
    "recovered": 2286,
    "infected": 2673,
    "state": "BA",
    "id": "Gzx6GX1qhBm714BkEC6l",
    "pop": 520891,
    "country": "IT",
    "longitude": 11.35,
    "name": "P.A. Bolzano",
    "latitude": 46.5,
    "dead": 292,
    "sick": 95,
    "invisible": false
  },
  {
    "lastUpdated": "2020-07-14T07:23:04.365Z",
    "recovered": 237,
    "infected": 249,
    "id": "H3JeVigVbo5CSYfZG4WI",
    "pop": 24710000,
    "country": "CN",
    "longitude": 113.750972,
    "name": "Inner Mongolia",
    "latitude": 42.83263,
    "dead": 1,
    "sick": 11,
    "invisible": false
  },
  {
    "latitude": 39.74536,
    "dead": 593,
    "lastUpdated": "2020-07-14T07:17:02.696Z",
    "recovered": 0,
    "infected": 28515,
    "state": "NV",
    "id": "H3bDg4eV30up4WWrIDAS",
    "pop": 3034000,
    "country": "US",
    "longitude": -116.724977,
    "name": "Nevada",
    "sick": 27922,
    "invisible": false
  },
  {
    "name": "Ceará",
    "latitude": -3.731862,
    "dead": 6947,
    "lastUpdated": "2020-07-14T06:57:02.259Z",
    "recovered": 0,
    "infected": 137206,
    "state": "CE",
    "id": "HEMWNnFxeFEoeOCBOLJD",
    "pop": 9075649,
    "country": "BR",
    "longitude": -38.526669,
    "sick": 130259,
    "invisible": false
  },
  {
    "id": "HN5mGmxlqlSeFSNeu1K5",
    "pop": 64060000,
    "country": "IN",
    "longitude": 75.7139,
    "name": "Karnataka",
    "latitude": 15.3173,
    "dead": 759,
    "lastUpdated": "2020-07-14T07:11:01.854Z",
    "recovered": 16249,
    "infected": 41581,
    "sick": 24573,
    "invisible": false
  },
  {
    "id": "HRDpwyxpqW9RN0xLFyNu",
    "pop": 807610,
    "country": "BT",
    "longitude": 90.4336,
    "name": "Bhutan",
    "latitude": 27.5142,
    "dead": 0,
    "lastUpdated": "2020-07-14T07:16:04.943Z",
    "recovered": 78,
    "infected": 84,
    "sick": 6,
    "invisible": false
  },
  {
    "country": "UZ",
    "longitude": 64.5853,
    "name": "Uzbekistan",
    "latitude": 41.3775,
    "dead": 64,
    "lastUpdated": "2020-07-14T07:16:04.919Z",
    "recovered": 8030,
    "infected": 13872,
    "id": "HRTA10dtrruDEwjJEGMp",
    "pop": 32390000,
    "sick": 5778,
    "invisible": false
  },
  {
    "lastUpdated": "2020-07-14T07:17:02.698Z",
    "recovered": 0,
    "infected": 15291,
    "state": "NM",
    "id": "HSSFomRju0doHhWgW8On",
    "pop": 2095000,
    "country": "US",
    "longitude": -105.576255,
    "name": "New Mexico",
    "latitude": 34.138916,
    "dead": 548,
    "sick": 14743,
    "invisible": false
  },
  {
    "recovered": 0,
    "infected": 769,
    "id": "HZkACHjW7NlYjg8vEMj2",
    "pop": 412812,
    "country": "CL",
    "longitude": -72.3311,
    "name": "Los Ríos",
    "latitude": -40.231,
    "dead": 11,
    "lastUpdated": "2020-07-14T07:21:15.203Z",
    "sick": 758,
    "invisible": false
  },
  {
    "longitude": 12.4296,
    "name": "Mecklenburg-Vorpommern",
    "latitude": 53.6127,
    "dead": 21,
    "lastUpdated": "2020-07-14T07:00:06.653Z",
    "recovered": 782,
    "infected": 809,
    "state": "MV",
    "id": "He1gSS1v50t06i3YrqvB",
    "pop": 1635000,
    "country": "DE",
    "sick": 6,
    "invisible": false
  },
  {
    "longitude": 13.75,
    "name": "Abruzzo",
    "latitude": 42.25,
    "dead": 466,
    "lastUpdated": "2020-07-14T07:01:02.159Z",
    "recovered": 2719,
    "infected": 3328,
    "state": "65",
    "id": "I9EqrZfbPnkioNU4wZGz",
    "pop": 1315000,
    "country": "IT",
    "sick": 143,
    "invisible": false
  },
  {
    "country": "CN",
    "longitude": 113.373448,
    "name": "Guangdong",
    "latitude": 23.363855,
    "dead": 8,
    "lastUpdated": "2020-07-14T07:23:04.365Z",
    "recovered": 1635,
    "infected": 1650,
    "id": "IAX0OQLVnUwU7FX0ENF1",
    "pop": 113460000,
    "sick": 7,
    "invisible": false
  },
  {
    "recovered": 1254,
    "infected": 1276,
    "id": "IFuMrMvSjoiX5agYvllh",
    "pop": 94000000,
    "country": "CN",
    "longitude": 113.484016,
    "name": "Henan",
    "latitude": 33.875408,
    "dead": 22,
    "lastUpdated": "2020-07-14T07:23:04.368Z",
    "sick": 0,
    "invisible": false
  },
  {
    "latitude": 37.2,
    "dead": 15,
    "lastUpdated": "2020-07-13T22:03:06.178Z",
    "recovered": 0,
    "infected": 708,
    "id": "IHqRHC8K3OZPN8gniM7V",
    "pop": 451000,
    "country": "PT",
    "longitude": -8.16667,
    "name": "Algarve",
    "sick": 693,
    "invisible": false
  },
  {
    "recovered": 1110,
    "infected": 1721,
    "id": "IKWjRUo0SYgHQKdWjTvq",
    "pop": 333194,
    "country": "CO",
    "longitude": -77.0197,
    "name": "Buenaventura D.E.",
    "latitude": 3.883,
    "dead": 114,
    "lastUpdated": "2020-07-14T07:15:12.295Z",
    "sick": 497,
    "invisible": false
  },
  {
    "state": "EN",
    "id": "INyu1R48Ppv8cfW4Nuz4",
    "pop": 4811000,
    "country": "GB",
    "longitude": -0.995,
    "name": "East Midlands",
    "latitude": 52.87,
    "dead": 0,
    "lastUpdated": "2020-07-14T07:13:14.456Z",
    "recovered": 0,
    "infected": 22023,
    "sick": 22023,
    "invisible": false
  },
  {
    "longitude": -102.317,
    "name": "Aguascalientes",
    "latitude": 22.017,
    "dead": 205,
    "lastUpdated": "2020-07-14T07:02:09.400Z",
    "recovered": 0,
    "infected": 3835,
    "id": "ISRKMzEDojyrZ9iyWwex",
    "pop": 1342600,
    "country": "MX",
    "sick": 3630,
    "invisible": false
  },
  {
    "longitude": -100.316116,
    "name": "Nuevo León",
    "latitude": 25.686613,
    "dead": 635,
    "lastUpdated": "2020-07-14T07:02:09.400Z",
    "recovered": 0,
    "infected": 19987,
    "id": "IdKbgzgKLpjBFh4UPOwu",
    "pop": 5321300,
    "country": "MX",
    "sick": 19352,
    "invisible": false
  },
  {
    "longitude": -106.069099,
    "name": "Chihuahua",
    "latitude": 28.632996,
    "dead": 742,
    "lastUpdated": "2020-07-14T07:02:09.398Z",
    "recovered": 0,
    "infected": 5609,
    "id": "IhhiYI6T0TX4CYVPcnmH",
    "pop": 3826900,
    "country": "MX",
    "sick": 4867,
    "invisible": false
  },
  {
    "id": "ImnOiVx9Cb8Nw7cbRcQ7",
    "pop": 480600,
    "country": "CL",
    "longitude": -72.57,
    "name": "Ñuble",
    "latitude": -36.7,
    "dead": 40,
    "lastUpdated": "2020-07-14T07:21:15.203Z",
    "recovered": 0,
    "infected": 2989,
    "sick": 2949,
    "invisible": false
  },
  {
    "lastUpdated": "2020-07-14T07:16:04.922Z",
    "recovered": 3022,
    "infected": 6727,
    "id": "InZ38sIqyK7FN7XAOZoX",
    "pop": 10980000,
    "country": "HT",
    "longitude": -73.0513,
    "name": "Haiti",
    "latitude": 19.0558,
    "dead": 141,
    "sick": 3564,
    "invisible": false
  },
  {
    "name": "Georgia (US)",
    "latitude": 32.528564,
    "dead": 3026,
    "lastUpdated": "2020-07-14T07:17:02.678Z",
    "recovered": 0,
    "infected": 120569,
    "state": "GA",
    "id": "IvQkDJkTAsoIqPRAU25n",
    "pop": 10520000,
    "country": "US",
    "longitude": -83.280125,
    "sick": 117543,
    "invisible": false
  },
  {
    "lastUpdated": "2020-07-14T07:16:04.925Z",
    "recovered": 1498,
    "infected": 1545,
    "id": "IvVhpOoGpH6JVkGyUhXN",
    "pop": 4794000,
    "country": "NZ",
    "longitude": 172.488081,
    "name": "New Zealand",
    "latitude": -42.8285,
    "dead": 22,
    "sick": 25,
    "invisible": false
  },
  {
    "name": "Arunachal Pradesh",
    "latitude": 28.218,
    "dead": 3,
    "lastUpdated": "2020-07-14T07:11:01.860Z",
    "recovered": 145,
    "infected": 387,
    "id": "IwYKiIVY18NGwdGQFGWW",
    "pop": 1255000,
    "country": "IN",
    "longitude": 94.7278,
    "sick": 239,
    "invisible": false
  },
  {
    "latitude": 6.4238,
    "dead": 93,
    "lastUpdated": "2020-07-14T07:16:04.922Z",
    "recovered": 2671,
    "infected": 9707,
    "id": "J3mZXlfEnnJx4CDZLvRG",
    "pop": 28870000,
    "country": "VE",
    "longitude": -66.5897,
    "name": "Venezuela",
    "sick": 6943,
    "invisible": false
  },
  {
    "id": "JEMCwkwXK39jd1lZ7VgJ",
    "pop": 107932,
    "country": "CO",
    "longitude": -72.633,
    "name": "Guaviare",
    "latitude": 2.567,
    "dead": 0,
    "lastUpdated": "2020-07-14T07:15:12.296Z",
    "recovered": 36,
    "infected": 42,
    "sick": 6,
    "invisible": false
  },
  {
    "id": "JOJVBvOnsLDJPVeYJaI2",
    "pop": 453000,
    "country": "RU",
    "longitude": 40.1754,
    "name": "Adygea",
    "latitude": 44.8229,
    "dead": 14,
    "lastUpdated": "2020-07-14T07:00:11.690Z",
    "recovered": 1740,
    "infected": 2258,
    "sick": 504,
    "invisible": false
  },
  {
    "id": "JQByE4l2OA6sGOqIcWrM",
    "pop": 1170000,
    "country": "CY",
    "longitude": 33.4299,
    "name": "Cyprus",
    "latitude": 35.1264,
    "dead": 19,
    "lastUpdated": "2020-07-14T07:16:04.926Z",
    "recovered": 839,
    "infected": 1022,
    "sick": 164,
    "invisible": false
  },
  {
    "name": "Bihar",
    "latitude": 25.0961,
    "dead": 134,
    "lastUpdated": "2020-07-14T07:11:01.857Z",
    "recovered": 12364,
    "infected": 17421,
    "id": "JR7hOGked7CZtIs2nCV5",
    "pop": 99020000,
    "country": "IN",
    "longitude": 85.3131,
    "sick": 4923,
    "invisible": false
  },
  {
    "name": "Guatemala",
    "latitude": 14.628434,
    "dead": 1244,
    "lastUpdated": "2020-07-14T07:16:04.916Z",
    "recovered": 4321,
    "infected": 29742,
    "id": "JUWE6bG3b5oL7fKQMSvv",
    "pop": 17250000,
    "country": "GT",
    "longitude": -90.522713,
    "sick": 24177,
    "invisible": false
  },
  {
    "lastUpdated": "2020-07-14T07:16:04.923Z",
    "recovered": 4183,
    "infected": 4956,
    "id": "JcFsHSn2WvZ5LJW42ovG",
    "pop": 602005,
    "country": "LU",
    "longitude": 6.1296,
    "name": "Luxembourg",
    "latitude": 49.8153,
    "dead": 111,
    "sick": 662,
    "invisible": false
  },
  {
    "recovered": 631,
    "infected": 1366,
    "id": "JmOyaFe25yZCIV64JbZj",
    "pop": 2049000,
    "country": "CO",
    "longitude": -74.167,
    "name": "Bolívar",
    "latitude": 8.8,
    "dead": 64,
    "lastUpdated": "2020-07-14T07:15:12.295Z",
    "sick": 671,
    "invisible": false
  },
  {
    "lastUpdated": "2020-07-14T07:02:09.397Z",
    "recovered": 0,
    "infected": 10903,
    "id": "Jp9ePErcc8i1aOozEAMf",
    "pop": 3648100,
    "country": "MX",
    "longitude": -115.783,
    "name": "Baja California",
    "latitude": 31.4,
    "dead": 2214,
    "sick": 8689,
    "invisible": false
  },
  {
    "longitude": -75.8814316,
    "name": "Córdoba",
    "latitude": 8.7479801,
    "dead": 187,
    "lastUpdated": "2020-07-14T07:15:12.295Z",
    "recovered": 379,
    "infected": 1657,
    "id": "Jr8syCB0lydmPDXw8Q6N",
    "pop": 1786500,
    "country": "CO",
    "sick": 1091,
    "invisible": false
  },
  {
    "longitude": 0.8248,
    "name": "Togo",
    "latitude": 8.6195,
    "dead": 15,
    "lastUpdated": "2020-07-14T07:16:04.927Z",
    "recovered": 517,
    "infected": 721,
    "id": "JrBbirlBKGdWSdcDt7PF",
    "pop": 7798000,
    "country": "TG",
    "sick": 189,
    "invisible": false
  },
  {
    "recovered": 3517,
    "infected": 7411,
    "id": "JzZ8sbqzjutThVjkPKPL",
    "pop": 7050000,
    "country": "BG",
    "longitude": 25.4858,
    "name": "Bulgaria",
    "latitude": 42.7339,
    "dead": 276,
    "lastUpdated": "2020-07-14T07:16:04.922Z",
    "sick": 3618,
    "invisible": false
  },
  {
    "lastUpdated": "2020-07-14T07:03:02.048Z",
    "recovered": 0,
    "infected": 861,
    "id": "KGrK7gafkeWjmU6sHQd2",
    "pop": 1263000,
    "country": "PL",
    "longitude": 20.709,
    "name": "Świętokrzyskie",
    "latitude": 50.823,
    "dead": 42,
    "sick": 819,
    "invisible": false
  },
  {
    "lastUpdated": "2020-07-14T07:00:11.683Z",
    "recovered": 9964,
    "infected": 16127,
    "id": "KLBR5QHW6DePaGcFxlqH",
    "pop": 4325000,
    "country": "RU",
    "longitude": 61.9316,
    "name": "Sverdlovsk Oblast",
    "latitude": 59.0077,
    "dead": 163,
    "sick": 6000,
    "invisible": false
  },
  {
    "longitude": 8.833,
    "name": "Liguria",
    "latitude": 44.5,
    "dead": 1559,
    "lastUpdated": "2020-07-14T07:01:02.169Z",
    "recovered": 8255,
    "infected": 10032,
    "state": "42",
    "id": "KLXicxFogWnu0dLp4bNK",
    "pop": 1557000,
    "country": "IT",
    "sick": 218,
    "invisible": false
  },
  {
    "longitude": 47.9608,
    "name": "Mari El Republic",
    "latitude": 56.4385,
    "dead": 26,
    "lastUpdated": "2020-07-14T07:00:11.689Z",
    "recovered": 2894,
    "infected": 3325,
    "id": "KUnAVGJH6fLwFetE8A2x",
    "pop": 682000,
    "country": "RU",
    "sick": 405,
    "invisible": false
  },
  {
    "longitude": -73.2532,
    "name": "Cesar",
    "latitude": 10.4631,
    "dead": 35,
    "lastUpdated": "2020-07-14T07:15:12.294Z",
    "recovered": 872,
    "infected": 1557,
    "id": "KpOz3WmiZkrXUMlUJNlV",
    "pop": 1201000,
    "country": "CO",
    "sick": 650,
    "invisible": false
  },
  {
    "longitude": 11,
    "name": "Toscana",
    "latitude": 43.4167,
    "dead": 1122,
    "lastUpdated": "2020-07-14T07:01:02.171Z",
    "recovered": 8869,
    "infected": 10326,
    "state": "52",
    "id": "KrLrJbpDqqiXgUPGCCW9",
    "pop": 3737000,
    "country": "IT",
    "sick": 335,
    "invisible": false
  },
  {
    "latitude": 7.873054,
    "dead": 11,
    "lastUpdated": "2020-07-14T07:16:04.924Z",
    "recovered": 1981,
    "infected": 2646,
    "id": "KsWzJO06cf0d6LJ4ZNh9",
    "pop": 21440000,
    "country": "LK",
    "longitude": 80.771797,
    "name": "Sri Lanka",
    "sick": 654,
    "invisible": false
  },
  {
    "name": "Andhra Pradesh",
    "latitude": 15.9129,
    "dead": 365,
    "lastUpdated": "2020-07-14T07:11:01.854Z",
    "recovered": 16464,
    "infected": 31103,
    "id": "KtQIo2DoqjELtPAlyDVO",
    "pop": 49670000,
    "country": "IN",
    "longitude": 79.74,
    "sick": 14274,
    "invisible": false
  },
  {
    "id": "LBUtrLDKJiupXjlUNTUe",
    "pop": 32125,
    "country": "FR",
    "longitude": -63.0501,
    "name": "Saint-Martin",
    "alwaysShow": true,
    "latitude": 18.0708,
    "dead": 3,
    "lastUpdated": "2020-07-14T07:16:04.944Z",
    "recovered": 37,
    "infected": 43,
    "sick": 3,
    "invisible": false
  },
  {
    "longitude": 36.9242,
    "name": "Oryol Oblast",
    "latitude": 52.7856,
    "dead": 75,
    "lastUpdated": "2020-07-14T07:00:11.687Z",
    "recovered": 3612,
    "infected": 5069,
    "id": "LD8TNScpLrLRvgpQAn9T",
    "pop": 747000,
    "country": "RU",
    "sick": 1382,
    "invisible": false
  },
  {
    "lastUpdated": "2020-07-14T07:16:04.943Z",
    "recovered": 81,
    "infected": 84,
    "id": "LTGEU2E9MFkrCcFhZYVk",
    "pop": 38557,
    "country": "LI",
    "longitude": 9.5554,
    "name": "Liechtenstein",
    "latitude": 47.166,
    "dead": 1,
    "sick": 2,
    "invisible": false
  },
  {
    "recovered": 4862,
    "infected": 6141,
    "id": "LU2QWt5ao8IJa8evNYVV",
    "pop": 12720000,
    "country": "GN",
    "longitude": -9.6966,
    "name": "Guinea",
    "latitude": 9.9456,
    "dead": 37,
    "lastUpdated": "2020-07-14T07:16:04.923Z",
    "sick": 1242,
    "invisible": false
  },
  {
    "country": "MX",
    "longitude": -110.5,
    "name": "Sonora",
    "latitude": 29.6667,
    "dead": 1287,
    "lastUpdated": "2020-07-14T04:32:17.590Z",
    "recovered": 0,
    "infected": 12850,
    "id": "LYCBHrA9ms6GcxpLGPCT",
    "pop": 3062000,
    "sick": 11563,
    "invisible": false
  },
  {
    "id": "LglKINHyQpYpFxjckbQ6",
    "pop": 563402,
    "country": "SR",
    "longitude": -56.0277824,
    "name": "Suriname",
    "latitude": 3.9193051,
    "dead": 18,
    "lastUpdated": "2020-07-14T07:16:04.926Z",
    "recovered": 526,
    "infected": 780,
    "sick": 236,
    "invisible": false
  },
  {
    "country": "CA",
    "longitude": -106.4509,
    "name": "Saskatchewan",
    "latitude": 52.9399,
    "dead": 15,
    "lastUpdated": "2020-07-14T07:07:02.072Z",
    "recovered": 766,
    "infected": 871,
    "state": "SK",
    "id": "LkIDKY0CMAqzbwBHyYCP",
    "pop": 1174000,
    "sick": 90,
    "invisible": false
  },
  {
    "lastUpdated": "2020-07-14T07:16:04.945Z",
    "recovered": 8,
    "infected": 10,
    "id": "LooNn6RuMiDhQnwa9svw",
    "pop": 636442,
    "country": "EH",
    "longitude": -12.8858,
    "name": "Western Sahara",
    "latitude": 24.2155,
    "dead": 1,
    "sick": 1,
    "invisible": false
  },
  {
    "lastUpdated": "2020-07-13T22:24:50.817Z",
    "recovered": 1063,
    "infected": 3422,
    "state": "AS",
    "id": "Lsga7AvYNnY0qQ5gEfV8",
    "pop": 1022000,
    "country": "ES",
    "longitude": -5.951843,
    "name": "Principado de Asturias",
    "latitude": 43.363129,
    "dead": 334,
    "sick": 2025,
    "invisible": false
  },
  {
    "latitude": 39.4937,
    "dead": 519,
    "lastUpdated": "2020-07-13T22:26:24.998Z",
    "recovered": 2652,
    "infected": 4192,
    "state": "EX",
    "id": "LuEErlF7dVKI0eJsRjFm",
    "pop": 1065000,
    "country": "ES",
    "longitude": -6.0679,
    "name": "Extremadura",
    "sick": 1021,
    "invisible": false
  },
  {
    "lastUpdated": "2020-07-14T07:02:09.399Z",
    "recovered": 0,
    "infected": 14274,
    "id": "M3wdiueFtwrUHiQ2rOXA",
    "pop": 5965000,
    "country": "MX",
    "longitude": -101.2591,
    "name": "Guanajuato",
    "latitude": 21.0186,
    "dead": 809,
    "sick": 13465,
    "invisible": false
  },
  {
    "latitude": 37.8393,
    "dead": 629,
    "lastUpdated": "2020-07-14T07:17:02.697Z",
    "recovered": 0,
    "infected": 19653,
    "state": "KY",
    "id": "MC8MXFw9iXYybnF8v7e6",
    "pop": 4468000,
    "country": "US",
    "longitude": -84.27,
    "name": "Kentucky",
    "sick": 19024,
    "invisible": false
  },
  {
    "latitude": 55.3781,
    "dead": 40245,
    "lastUpdated": "2020-07-14T07:13:14.457Z",
    "recovered": 0,
    "infected": 8257,
    "id": "MEjlm8VYdGA28TTTnQmf",
    "country": "GB",
    "longitude": -3.436,
    "invisible": true,
    "name": "Unknown UK region or state",
    "sick": 0
  },
  {
    "recovered": 0,
    "infected": 18142,
    "id": "MG4e9tulLJ010SZJvbYN",
    "pop": 3689000,
    "country": "PT",
    "longitude": -7.7441,
    "name": "Norte",
    "latitude": 41.3006,
    "dead": 823,
    "lastUpdated": "2020-07-13T22:03:06.177Z",
    "sick": 17319,
    "invisible": false
  },
  {
    "longitude": -4.2026,
    "name": "Scotland",
    "latitude": 56.4907,
    "dead": 2490,
    "lastUpdated": "2020-07-14T07:13:14.456Z",
    "recovered": 0,
    "infected": 18365,
    "state": "SC",
    "id": "MObRYyIriHG337L8FyFC",
    "pop": 5450000,
    "country": "GB",
    "sick": 15875,
    "invisible": false
  },
  {
    "longitude": -86.1349,
    "name": "Indiana",
    "latitude": 40.2672,
    "dead": 2762,
    "lastUpdated": "2020-07-14T07:17:02.687Z",
    "recovered": 0,
    "infected": 52037,
    "state": "IN",
    "id": "MOxDkmQ4wBi1CuAdVxDE",
    "pop": 6692000,
    "country": "US",
    "sick": 49275,
    "invisible": false
  },
  {
    "latitude": 7.54,
    "dead": 84,
    "lastUpdated": "2020-07-14T07:16:04.919Z",
    "recovered": 6810,
    "infected": 12872,
    "id": "MdQOfc1gNh2DOqwSP6UV",
    "pop": 24290000,
    "country": "CI",
    "longitude": -5.5471,
    "name": "Ivory Coast",
    "sick": 5978,
    "invisible": false
  },
  {
    "longitude": 7.6616,
    "name": "Nordrhein-Westfalen",
    "latitude": 51.4332,
    "dead": 1721,
    "lastUpdated": "2020-07-14T07:00:06.653Z",
    "recovered": 41338,
    "infected": 45130,
    "state": "NW",
    "id": "MjpYq3zQyAvSQlVVYjD2",
    "pop": 17910000,
    "country": "DE",
    "sick": 2071,
    "invisible": false
  },
  {
    "id": "MntmjjuHljarCdt6aIeE",
    "pop": 6301000,
    "country": "CN",
    "longitude": 105.977203,
    "name": "Ningxia",
    "latitude": 37.330509,
    "dead": 0,
    "lastUpdated": "2020-07-14T07:23:04.369Z",
    "recovered": 75,
    "infected": 75,
    "sick": 0,
    "invisible": false
  },
  {
    "longitude": -52.203499186,
    "name": "Pará",
    "latitude": -3.20166586,
    "dead": 5293,
    "lastUpdated": "2020-07-14T06:57:02.259Z",
    "recovered": 0,
    "infected": 126509,
    "state": "PA",
    "id": "MuEB2UgkId5crsxi9zQT",
    "pop": 8513497,
    "country": "BR",
    "sick": 121216,
    "invisible": false
  },
  {
    "name": "Lipetsk Oblast",
    "latitude": 52.5265,
    "dead": 19,
    "lastUpdated": "2020-07-14T07:00:11.688Z",
    "recovered": 2856,
    "infected": 4223,
    "id": "N0KGfqgROVOjAxWcd8wi",
    "pop": 1150000,
    "country": "RU",
    "longitude": 39.2032,
    "sick": 1348,
    "invisible": false
  },
  {
    "lastUpdated": "2020-07-14T07:00:06.650Z",
    "recovered": 33732,
    "infected": 36513,
    "state": "BW",
    "id": "N3XsRBwJSsNclkEf7Zz5",
    "pop": 11020000,
    "country": "DE",
    "longitude": 9.3501,
    "name": "Baden-Württemberg",
    "latitude": 48.6616,
    "dead": 1893,
    "sick": 888,
    "invisible": false
  },
  {
    "name": "Bosnia and Herzegovina",
    "latitude": 44.696652,
    "dead": 226,
    "lastUpdated": "2020-07-14T07:16:04.922Z",
    "recovered": 3179,
    "infected": 6981,
    "id": "N7c13sCQF0G789XAVazJ",
    "pop": 3507000,
    "country": "BA",
    "longitude": 17.824332,
    "sick": 3576,
    "invisible": false
  },
  {
    "id": "NBRIGIRrJB1Ry8prDNAC",
    "pop": 36500000,
    "country": "CN",
    "longitude": 111.856857,
    "name": "Shanxi",
    "latitude": 37.242565,
    "dead": 0,
    "lastUpdated": "2020-07-14T07:23:04.367Z",
    "recovered": 198,
    "infected": 200,
    "sick": 2,
    "invisible": false
  },
  {
    "name": "North Carolina",
    "latitude": 35.7596,
    "dead": 1551,
    "lastUpdated": "2020-07-14T07:17:02.680Z",
    "recovered": 0,
    "infected": 87729,
    "state": "NC",
    "id": "NC64Qp5kTqAfiTuR27k8",
    "pop": 10380000,
    "country": "US",
    "longitude": -79.0193,
    "sick": 86178,
    "invisible": false
  },
  {
    "recovered": 3245,
    "infected": 3517,
    "state": "BB",
    "id": "NJjo2gfBvnbK4xatrsUz",
    "pop": 2504000,
    "country": "DE",
    "longitude": 12.5316,
    "name": "Brandenburg",
    "latitude": 52.4125,
    "dead": 177,
    "lastUpdated": "2020-07-14T07:00:06.652Z",
    "sick": 95,
    "invisible": false
  },
  {
    "infected": 33,
    "recovered": 0,
    "pop": 55144,
    "country": "US",
    "lastUpdated": "2020-07-14T07:17:02.716Z",
    "state": "MP",
    "id": "NLLL6pJhJSw0lrDMD4uP",
    "longitude": 145.6739,
    "name": "Northern Mariana Islands",
    "alwaysShow": true,
    "dead": 2,
    "latitude": 15.0979,
    "sick": 31,
    "invisible": false
  },
  {
    "recovered": 2856,
    "infected": 3608,
    "id": "NMeZEcGToxXfpi16PfFV",
    "pop": 10080000,
    "country": "IN",
    "longitude": 79.0193,
    "name": "Uttarakhand",
    "latitude": 30.0668,
    "dead": 49,
    "lastUpdated": "2020-07-14T07:11:01.859Z",
    "sick": 703,
    "invisible": false
  },
  {
    "lastUpdated": "2020-07-14T07:00:06.652Z",
    "recovered": 10288,
    "infected": 11216,
    "state": "HE",
    "id": "Nk5vPgUIXsWVfbWZf15O",
    "pop": 6243000,
    "country": "DE",
    "longitude": 9.1624,
    "name": "Hessen",
    "latitude": 50.6521,
    "dead": 521,
    "sick": 407,
    "invisible": false
  },
  {
    "latitude": 56.96776,
    "dead": 31,
    "lastUpdated": "2020-07-14T07:16:04.926Z",
    "recovered": 1022,
    "infected": 1174,
    "id": "NmmMKy0YqA8StHdGzB5N",
    "pop": 1920000,
    "country": "LV",
    "longitude": 25.837107,
    "name": "Latvia",
    "sick": 121,
    "invisible": false
  },
  {
    "latitude": -8.472372,
    "dead": 5652,
    "lastUpdated": "2020-07-14T06:57:02.260Z",
    "recovered": 0,
    "infected": 72901,
    "state": "PE",
    "id": "NyGlFL1gATK1Omv9qtcC",
    "pop": 9496294,
    "country": "BR",
    "longitude": -37.946777,
    "name": "Pernambuco",
    "sick": 67249,
    "invisible": false
  },
  {
    "country": "LR",
    "longitude": -9.4295,
    "name": "Liberia",
    "latitude": 6.4281,
    "dead": 51,
    "lastUpdated": "2020-07-14T07:16:04.926Z",
    "recovered": 439,
    "infected": 1024,
    "id": "O4g88K49HKEZLFXm5gxb",
    "pop": 4732000,
    "sick": 534,
    "invisible": false
  },
  {
    "name": "Altai Krai",
    "latitude": 51.7936,
    "dead": 51,
    "lastUpdated": "2020-07-14T07:00:11.685Z",
    "recovered": 3868,
    "infected": 6056,
    "id": "O5fNOGWKosps6JTrzkpn",
    "pop": 2350000,
    "country": "RU",
    "longitude": 82.6759,
    "sick": 2137,
    "invisible": false
  },
  {
    "longitude": 116.9677,
    "name": "Zabaykalsky Krai",
    "latitude": 53.0929,
    "dead": 45,
    "lastUpdated": "2020-07-14T07:00:11.689Z",
    "recovered": 2750,
    "infected": 3683,
    "id": "O6PDzAxKENYbLsLjPx2K",
    "pop": 1072000,
    "country": "RU",
    "sick": 888,
    "invisible": false
  },
  {
    "id": "ONU4CK8QjViFHKg2w5if",
    "pop": 5084000,
    "country": "US",
    "longitude": -80.525613,
    "name": "South Carolina",
    "latitude": 34.003307,
    "dead": 972,
    "lastUpdated": "2020-07-14T07:17:02.687Z",
    "recovered": 0,
    "infected": 58168,
    "state": "SC",
    "sick": 57196,
    "invisible": false
  },
  {
    "lastUpdated": "2020-07-14T07:17:02.695Z",
    "recovered": 0,
    "infected": 36680,
    "state": "MS",
    "id": "OYa0jFzdbAgo8zUsRv6q",
    "pop": 2987000,
    "country": "US",
    "longitude": -89.582775,
    "name": "Mississippi",
    "latitude": 33.51822,
    "dead": 1250,
    "sick": 35430,
    "invisible": false
  },
  {
    "longitude": -69.4455,
    "name": "Maine",
    "latitude": 45.2538,
    "dead": 114,
    "lastUpdated": "2020-07-14T07:17:02.714Z",
    "recovered": 0,
    "infected": 3558,
    "state": "ME",
    "id": "OcXNp9kNVSwrRlG3bNVN",
    "pop": 1338000,
    "country": "US",
    "sick": 3444,
    "invisible": false
  },
  {
    "lastUpdated": "2020-07-14T07:00:11.689Z",
    "recovered": 2524,
    "infected": 3318,
    "id": "OlKS5SPydHY2TedStFuf",
    "pop": 488000,
    "country": "RU",
    "longitude": 44.8203,
    "name": "Ingushetia",
    "latitude": 43.4052,
    "dead": 71,
    "sick": 723,
    "invisible": false
  },
  {
    "latitude": -41.915264,
    "dead": 13,
    "lastUpdated": "2020-07-14T06:43:24.811Z",
    "recovered": 215,
    "infected": 228,
    "state": "TAS",
    "id": "OnOseaqWdnuP18oruABW",
    "pop": 515000,
    "country": "AU",
    "longitude": 146.725256,
    "name": "Tasmania",
    "sick": 0,
    "invisible": false
  },
  {
    "recovered": 0,
    "infected": 28792,
    "state": "MT",
    "id": "P0GHFGUt1pkKTk5PM8uz",
    "pop": 3441998,
    "country": "BR",
    "longitude": -56.666668,
    "name": "Mato Grosso",
    "latitude": -16.35,
    "dead": 1085,
    "lastUpdated": "2020-07-14T06:57:02.261Z",
    "sick": 27707,
    "invisible": false
  },
  {
    "longitude": 40.5927,
    "name": "Vladimir Oblast",
    "latitude": 56.1553,
    "dead": 91,
    "lastUpdated": "2020-07-14T07:00:11.688Z",
    "recovered": 3820,
    "infected": 4962,
    "id": "P2I90oqdFSoVk03AaGo4",
    "pop": 1378000,
    "country": "RU",
    "sick": 1051,
    "invisible": false
  },
  {
    "recovered": 200,
    "infected": 203,
    "id": "P4mwRFLbrvT0t75uD8Wo",
    "pop": 61559,
    "country": "KY",
    "longitude": -81.2546,
    "name": "Cayman Islands",
    "latitude": 19.3133,
    "dead": 1,
    "lastUpdated": "2020-07-14T07:16:04.942Z",
    "sick": 2,
    "invisible": false
  },
  {
    "name": "Montserrat",
    "latitude": 16.7424984,
    "dead": 1,
    "lastUpdated": "2020-07-14T07:16:04.945Z",
    "recovered": 10,
    "infected": 12,
    "id": "PEDkeFMTOZpvHiSVxBk7",
    "pop": 5900,
    "country": "MS",
    "longitude": -62.1873665,
    "sick": 1,
    "invisible": false
  },
  {
    "latitude": -1.9403,
    "dead": 4,
    "lastUpdated": "2020-07-14T07:16:04.925Z",
    "recovered": 710,
    "infected": 1378,
    "id": "PEcgZGEkyhABztt1Ufgc",
    "pop": 12210000,
    "country": "RW",
    "longitude": 29.8739,
    "name": "Rwanda",
    "sick": 664,
    "invisible": false
  },
  {
    "lastUpdated": "2020-07-14T07:00:11.685Z",
    "recovered": 4015,
    "infected": 5967,
    "id": "PHlHdeqYd6KgxsJGfEz0",
    "pop": 4063000,
    "country": "RU",
    "longitude": 56.1645,
    "name": "Bashkortostan",
    "latitude": 54.2312,
    "dead": 19,
    "sick": 1933,
    "invisible": false
  },
  {
    "lastUpdated": "2020-07-14T07:17:02.690Z",
    "recovered": 0,
    "infected": 42772,
    "state": "MN",
    "id": "PJvVYosLIhbcRZYnKX1R",
    "pop": 5611000,
    "country": "US",
    "longitude": -94.6859,
    "name": "Minnesota",
    "latitude": 46.7296,
    "dead": 1542,
    "sick": 41230,
    "invisible": false
  },
  {
    "id": "PTwQr9ijo0TBBsPH2sdJ",
    "pop": 12740000,
    "country": "US",
    "longitude": -89.3985,
    "name": "Illinois",
    "latitude": 40.6331,
    "dead": 7394,
    "lastUpdated": "2020-07-14T07:17:02.678Z",
    "recovered": 0,
    "infected": 155931,
    "state": "IL",
    "sick": 148537,
    "invisible": false
  },
  {
    "lastUpdated": "2020-07-14T07:16:04.945Z",
    "recovered": 19,
    "infected": 22,
    "id": "PjLqCeFdyzdZNcZxMkK1",
    "pop": 178844,
    "country": "LC",
    "longitude": -60.978893,
    "name": "Saint Lucia",
    "latitude": 13.909444,
    "dead": 0,
    "sick": 3,
    "invisible": false
  },
  {
    "latitude": 42.6954,
    "dead": 528,
    "lastUpdated": "2020-07-13T22:26:55.077Z",
    "recovered": 3905,
    "infected": 8746,
    "state": "NC",
    "id": "PmUlsNx2uFLU797wwU39",
    "pop": 649900,
    "country": "ES",
    "longitude": -1.6761,
    "name": "Comunidad Foral de Navarra",
    "sick": 4313,
    "invisible": false
  },
  {
    "lastUpdated": "2020-07-14T07:16:04.925Z",
    "recovered": 1082,
    "infected": 1302,
    "id": "Pr76V4raf108uSRoEXac",
    "pop": 11530000,
    "country": "TN",
    "longitude": 9.460554,
    "name": "Tunisia",
    "latitude": 34.201507,
    "dead": 50,
    "sick": 170,
    "invisible": false
  },
  {
    "longitude": 31.4659,
    "name": "Eswatini",
    "latitude": -26.5225,
    "dead": 20,
    "lastUpdated": "2020-07-14T07:16:04.925Z",
    "recovered": 688,
    "infected": 1389,
    "id": "PuQgOd9KWiMzGZXm11sR",
    "pop": 1367000,
    "country": "SZ",
    "sick": 681,
    "invisible": false
  },
  {
    "longitude": 143.94853,
    "name": "Victoria",
    "latitude": -37.009609,
    "dead": 24,
    "lastUpdated": "2020-07-14T06:43:24.811Z",
    "recovered": 2395,
    "infected": 3967,
    "state": "VIC",
    "id": "Q18mrGvFWTLX2BU9SqhQ",
    "pop": 6359000,
    "country": "AU",
    "sick": 1548,
    "invisible": false
  },
  {
    "lastUpdated": "2020-07-14T07:00:06.654Z",
    "recovered": 3020,
    "infected": 3224,
    "state": "SH",
    "id": "Q39XkabIYxt15mHINzTa",
    "pop": 2890000,
    "country": "DE",
    "longitude": 9.6961,
    "name": "Schleswig-Holstein",
    "latitude": 54.2194,
    "dead": 159,
    "sick": 45,
    "invisible": false
  },
  {
    "id": "QGpQNhuoVTUPHXvS7qcu",
    "pop": 11329605,
    "country": "BR",
    "longitude": -52.031696,
    "name": "Rio Grande do Sul",
    "latitude": -27.953491,
    "dead": 995,
    "lastUpdated": "2020-07-14T06:57:02.260Z",
    "recovered": 0,
    "infected": 39656,
    "state": "RS",
    "sick": 38661,
    "invisible": false
  },
  {
    "country": "RU",
    "longitude": 46.9284,
    "name": "Chuvashia",
    "latitude": 55.5596,
    "dead": 46,
    "lastUpdated": "2020-07-14T07:00:11.686Z",
    "recovered": 3205,
    "infected": 5886,
    "id": "QGyuno7Bc4kwuvGFgMiO",
    "pop": 1231000,
    "sick": 2635,
    "invisible": false
  },
  {
    "id": "QR9go2hQKXjty7JHUYe4",
    "pop": 1328000,
    "country": "EE",
    "longitude": 25.013607,
    "name": "Estonia",
    "latitude": 58.595272,
    "dead": 69,
    "lastUpdated": "2020-07-14T07:16:04.924Z",
    "recovered": 1895,
    "infected": 2014,
    "sick": 50,
    "invisible": false
  },
  {
    "id": "QTafh5fpbS8abcuyEjaL",
    "pop": 840000,
    "country": "RU",
    "longitude": 54.8313,
    "name": "Komi Republic",
    "latitude": 63.8631,
    "dead": 36,
    "lastUpdated": "2020-07-14T07:00:11.688Z",
    "recovered": 2319,
    "infected": 4308,
    "sick": 1953,
    "invisible": false
  },
  {
    "recovered": 0,
    "infected": 63879,
    "state": "ES",
    "id": "QaWDLKH8SuwD0Qxq6c38",
    "pop": 3972388,
    "country": "BR",
    "longitude": -40.336,
    "name": "Espírito Santo",
    "latitude": -20.318,
    "dead": 2040,
    "lastUpdated": "2020-07-14T06:57:02.260Z",
    "sick": 61839,
    "invisible": false
  },
  {
    "recovered": 3991,
    "infected": 7228,
    "id": "Qh73PKA4KWeuPoqZfWXz",
    "pop": 795000,
    "country": "RU",
    "longitude": 35.0884,
    "name": "Murmansk Oblast",
    "latitude": 67.8443,
    "dead": 32,
    "lastUpdated": "2020-07-14T07:00:11.685Z",
    "sick": 3205,
    "invisible": false
  },
  {
    "id": "Qkho455pBwx88Gohs3hL",
    "pop": 8222700,
    "country": "MX",
    "longitude": -103.6667,
    "name": "Jalisco",
    "latitude": 20.3333,
    "dead": 1045,
    "lastUpdated": "2020-07-14T04:32:17.593Z",
    "recovered": 0,
    "infected": 19310,
    "sick": 18265,
    "invisible": false
  },
  {
    "longitude": 143.9555,
    "name": "Papua New Guinea",
    "latitude": -6.315,
    "dead": 0,
    "lastUpdated": "2020-07-14T07:16:04.945Z",
    "recovered": 8,
    "infected": 11,
    "id": "QlZrE4nosm5WfdA2aCDg",
    "pop": 8251000,
    "country": "PG",
    "sick": 3,
    "invisible": false
  },
  {
    "lastUpdated": "2020-07-14T07:17:02.716Z",
    "state": "VI",
    "id": "QqhD3YDMKXojvQY3Yu41",
    "longitude": -64.8963,
    "name": "U.S. Virgin Islands",
    "alwaysShow": true,
    "dead": 6,
    "latitude": 18.3358,
    "infected": 206,
    "recovered": 0,
    "pop": 107268,
    "country": "US",
    "sick": 200,
    "invisible": false
  },
  {
    "latitude": 15.414999,
    "dead": 0,
    "lastUpdated": "2020-07-14T07:16:04.945Z",
    "recovered": 18,
    "infected": 18,
    "id": "Qy2qW2ep5wltnYjPJBxh",
    "pop": 71937,
    "country": "DM",
    "longitude": -61.3709755,
    "name": "Dominica",
    "sick": 0,
    "invisible": false
  },
  {
    "id": "R3IHMWqIUhOJJTlrmbUZ",
    "pop": 344027,
    "country": "CO",
    "longitude": -72.167,
    "name": "Casanare",
    "latitude": 5.167,
    "dead": 1,
    "lastUpdated": "2020-07-14T07:15:12.294Z",
    "recovered": 59,
    "infected": 122,
    "sick": 62,
    "invisible": false
  },
  {
    "recovered": 23919,
    "infected": 47173,
    "id": "R8YCgephnxTufvcPWMgx",
    "pop": 4099000,
    "country": "PA",
    "longitude": -80.7821,
    "name": "Panama",
    "latitude": 8.538,
    "dead": 932,
    "lastUpdated": "2020-07-14T07:16:04.915Z",
    "sick": 22322,
    "invisible": false
  },
  {
    "id": "RA2SE0p2bVhqo0P2hzGY",
    "pop": 9265000,
    "country": "HN",
    "longitude": -86.2419,
    "name": "Honduras",
    "latitude": 15.2,
    "dead": 789,
    "lastUpdated": "2020-07-14T07:16:04.916Z",
    "recovered": 3123,
    "infected": 28579,
    "sick": 24667,
    "invisible": false
  },
  {
    "country": "CL",
    "longitude": -70.2979202,
    "name": "Arica y Parinacota",
    "latitude": -18.4745998,
    "dead": 28,
    "lastUpdated": "2020-07-14T07:21:15.192Z",
    "recovered": 0,
    "infected": 2562,
    "id": "RBt9RiwP7WUbMnJfD0lo",
    "pop": 224500,
    "sick": 2534,
    "invisible": false
  },
  {
    "longitude": 13.8,
    "name": "Friuli Venezia Giulia",
    "latitude": 45.633331,
    "dead": 345,
    "lastUpdated": "2020-07-14T07:01:02.169Z",
    "recovered": 2910,
    "infected": 3335,
    "state": "36",
    "id": "RCrDBCdBNYzgLNr0aB2H",
    "pop": 1216000,
    "country": "IT",
    "sick": 80,
    "invisible": false
  },
  {
    "recovered": 0,
    "infected": 35607,
    "state": "IA",
    "id": "RX0KDu1AFrlCsrRso0nb",
    "pop": 3156000,
    "country": "US",
    "longitude": -93.0977,
    "name": "Iowa",
    "latitude": 41.878,
    "dead": 755,
    "lastUpdated": "2020-07-14T07:17:02.696Z",
    "sick": 34852,
    "invisible": false
  },
  {
    "country": "CO",
    "longitude": -74.063644,
    "name": "Bogotá D.C.",
    "latitude": 4.624335,
    "dead": 1169,
    "lastUpdated": "2020-07-14T07:15:12.282Z",
    "recovered": 18421,
    "infected": 51281,
    "id": "RZ6PCe5TZsO15JjDObwO",
    "pop": 7413000,
    "sick": 31691,
    "invisible": false
  },
  {
    "id": "RaJxbzlnRFTuj4B8IbpC",
    "pop": 6846000,
    "country": "LY",
    "longitude": 17.2283306,
    "name": "Libya",
    "latitude": 26.3351002,
    "dead": 40,
    "lastUpdated": "2020-07-14T07:16:04.925Z",
    "recovered": 367,
    "infected": 1512,
    "sick": 1105,
    "invisible": false
  },
  {
    "lastUpdated": "2020-07-14T07:17:02.697Z",
    "recovered": 0,
    "infected": 20241,
    "state": "KS",
    "id": "Rf4uvBfP3GRDSHdZElRd",
    "pop": 2912000,
    "country": "US",
    "longitude": -98.4842,
    "name": "Kansas",
    "latitude": 39.0119,
    "dead": 297,
    "sick": 19944,
    "invisible": false
  },
  {
    "recovered": 12418,
    "infected": 26528,
    "id": "RmEgf1xeclWt7XCF9oiR",
    "pop": 5518000,
    "country": "FR",
    "longitude": 6.1878,
    "name": "Grand Est",
    "latitude": 48.6998,
    "dead": 3587,
    "lastUpdated": "2020-07-13T22:38:03.328Z",
    "sick": 10523,
    "invisible": false
  },
  {
    "longitude": 4.451,
    "name": "Wallonia",
    "latitude": 50.4176,
    "dead": 3392,
    "lastUpdated": "2020-07-14T07:07:07.069Z",
    "recovered": 4933,
    "infected": 19525,
    "state": "WAL",
    "id": "RryHraSohKQLAsdr1dHO",
    "pop": 3644000,
    "country": "BE",
    "sick": 11200,
    "invisible": false
  },
  {
    "recovered": 32663,
    "infected": 36839,
    "state": "ON",
    "id": "Rx4TuyMpfGb3S8wYJX0x",
    "pop": 14570000,
    "country": "CA",
    "longitude": -85.3232,
    "name": "Ontario",
    "latitude": 51.2538,
    "dead": 2722,
    "lastUpdated": "2020-07-14T07:07:02.071Z",
    "sick": 1454,
    "invisible": false
  },
  {
    "latitude": 41.652779,
    "dead": 2792,
    "lastUpdated": "2020-07-13T22:25:31.576Z",
    "recovered": 8716,
    "infected": 26081,
    "state": "CL",
    "id": "S8ewN4zaYp8mjtuqqOTw",
    "pop": 2408000,
    "country": "ES",
    "longitude": -4.723611,
    "name": "Castilla y León",
    "sick": 14573,
    "invisible": false
  },
  {
    "recovered": 98,
    "infected": 255,
    "id": "SDdefnq1bc3ZNr7SpEsW",
    "pop": 376480,
    "country": "FR",
    "longitude": -61.011715,
    "name": "Martinique",
    "alwaysShow": true,
    "latitude": 14.652027,
    "dead": 15,
    "lastUpdated": "2020-07-14T07:16:04.942Z",
    "sick": 142,
    "invisible": false
  },
  {
    "name": "Ghana",
    "latitude": 7.9465,
    "dead": 139,
    "lastUpdated": "2020-07-14T07:16:04.917Z",
    "recovered": 21067,
    "infected": 24988,
    "id": "SG9VWLOV3x2JsTkXmVSz",
    "pop": 28830000,
    "country": "GH",
    "longitude": -1.0232,
    "sick": 3782,
    "invisible": false
  },
  {
    "latitude": 46.818188,
    "dead": 1968,
    "lastUpdated": "2020-07-14T07:16:04.916Z",
    "recovered": 29600,
    "infected": 32946,
    "id": "SGe9sCPayMqh6RsGFaBA",
    "pop": 8570000,
    "country": "CH",
    "longitude": 8.227512,
    "name": "Switzerland",
    "sick": 1378,
    "invisible": false
  },
  {
    "longitude": 124.1238,
    "name": "Yakutia",
    "latitude": 66.7613,
    "dead": 35,
    "lastUpdated": "2020-07-14T07:00:11.688Z",
    "recovered": 4205,
    "infected": 4844,
    "id": "SGhKBmmh5hss7hrNR8hK",
    "pop": 964000,
    "country": "RU",
    "sick": 604,
    "invisible": false
  },
  {
    "recovered": 25911,
    "infected": 56621,
    "state": "QC",
    "id": "SHoOE3NiJgWAlDVBzwYH",
    "pop": 8485000,
    "country": "CA",
    "longitude": -71.208,
    "name": "Quebec",
    "latitude": 46.8139,
    "dead": 5628,
    "lastUpdated": "2020-07-14T07:07:02.071Z",
    "sick": 25082,
    "invisible": false
  },
  {
    "country": "XK",
    "longitude": 20.903,
    "name": "Kosovo",
    "latitude": 42.6026,
    "dead": 108,
    "lastUpdated": "2020-07-14T06:55:09.283Z",
    "recovered": 2370,
    "infected": 5118,
    "id": "SMWvuMMuKp2QK7O2tNia",
    "pop": 1831000,
    "sick": 2640,
    "invisible": false
  },
  {
    "longitude": 135,
    "name": "Primorsky Krai",
    "latitude": 45.0526,
    "dead": 59,
    "lastUpdated": "2020-07-14T07:00:11.687Z",
    "recovered": 3687,
    "infected": 5118,
    "id": "SNWCQwRwqYfxX8HZndTA",
    "pop": 1913000,
    "country": "RU",
    "sick": 1372,
    "invisible": false
  },
  {
    "id": "SPcujsH2YlUaoAr8AiWF",
    "pop": 1817000,
    "country": "IN",
    "longitude": 74.124,
    "name": "Goa",
    "latitude": 15.2993,
    "dead": 17,
    "lastUpdated": "2020-07-14T07:11:01.859Z",
    "recovered": 1540,
    "infected": 2583,
    "sick": 1026,
    "invisible": false
  },
  {
    "recovered": 0,
    "infected": 36696,
    "state": "GO",
    "id": "SV5AMF59J61Vt4cXWLgy",
    "pop": 6921161,
    "country": "BR",
    "longitude": -48.953403,
    "name": "Goiás",
    "latitude": -16.328547,
    "dead": 852,
    "lastUpdated": "2020-07-14T06:57:02.260Z",
    "sick": 35844,
    "invisible": false
  },
  {
    "id": "SYFarIS62W0EW9bOaJmN",
    "pop": 75500,
    "country": "CO",
    "longitude": -68.436,
    "name": "Vichada",
    "latitude": 6.181,
    "dead": 0,
    "lastUpdated": "2020-07-14T07:15:12.296Z",
    "recovered": 1,
    "infected": 1,
    "sick": 0,
    "invisible": false
  },
  {
    "longitude": 16.5,
    "name": "Calabria",
    "latitude": 39,
    "dead": 97,
    "lastUpdated": "2020-07-14T07:01:02.168Z",
    "recovered": 1062,
    "infected": 1216,
    "state": "78",
    "id": "SZdF624x0v1LlyzZjKFu",
    "pop": 1957000,
    "country": "IT",
    "sick": 57,
    "invisible": false
  },
  {
    "lastUpdated": "2020-07-14T07:17:02.696Z",
    "recovered": 0,
    "infected": 21399,
    "state": "NE",
    "id": "SakhKQzKu1LRI8laqdQq",
    "pop": 1929000,
    "country": "US",
    "longitude": -99.9018,
    "name": "Nebraska",
    "latitude": 41.4925,
    "dead": 288,
    "sick": 21111,
    "invisible": false
  },
  {
    "recovered": 472,
    "infected": 596,
    "id": "SgHzWAAYK1j2sipovxM6",
    "pop": 859959,
    "country": "FR",
    "longitude": 55.5364,
    "name": "La Réunion",
    "alwaysShow": true,
    "latitude": -21.1151,
    "dead": 3,
    "lastUpdated": "2020-07-14T07:16:04.927Z",
    "sick": 121,
    "invisible": false
  },
  {
    "latitude": 12.565679,
    "dead": 0,
    "lastUpdated": "2020-07-14T07:16:04.943Z",
    "recovered": 133,
    "infected": 165,
    "id": "SioMALgUbo7peXmbco2f",
    "pop": 16010000,
    "country": "KH",
    "longitude": 104.990967,
    "name": "Cambodia",
    "sick": 32,
    "invisible": false
  },
  {
    "infected": 312,
    "recovered": 0,
    "pop": 164229,
    "country": "US",
    "lastUpdated": "2020-07-14T07:17:02.716Z",
    "state": "GU",
    "id": "SsWhuEElU7dCTTuH5fdQ",
    "longitude": 144.7937,
    "name": "Guam",
    "alwaysShow": true,
    "dead": 5,
    "latitude": 13.4443,
    "sick": 307,
    "invisible": false
  },
  {
    "longitude": 19.1344,
    "invisible": true,
    "name": "Unknown Poland region",
    "latitude": 51.9189,
    "dead": 0,
    "lastUpdated": "2020-07-14T07:16:04.916Z",
    "recovered": 27515,
    "infected": 0,
    "id": "SuCr5emUaJ9RHTll1P1p",
    "country": "PL",
    "sick": 0
  },
  {
    "lastUpdated": "2020-07-14T07:00:11.692Z",
    "recovered": 1360,
    "infected": 1792,
    "id": "Sx03z01BJCAbrYkWhEaD",
    "pop": 1513000,
    "country": "RU",
    "longitude": 53.0278,
    "name": "Udmurtia",
    "latitude": 57.067,
    "dead": 19,
    "sick": 413,
    "invisible": false
  },
  {
    "id": "T3iRf8mTUTAzbKrORTap",
    "pop": 84070000,
    "country": "CD",
    "longitude": 21.7587,
    "name": "DR Congo",
    "latitude": -4.0383,
    "dead": 190,
    "lastUpdated": "2020-07-14T07:16:04.922Z",
    "recovered": 3620,
    "infected": 8075,
    "sick": 4265,
    "invisible": false
  },
  {
    "recovered": 169842,
    "infected": 235111,
    "id": "T7NffoeCgTUpAbOHvYwP",
    "pop": 32940000,
    "country": "SA",
    "longitude": 44.344334,
    "name": "Saudi Arabia",
    "latitude": 23.635796,
    "dead": 2243,
    "lastUpdated": "2020-07-14T07:16:04.913Z",
    "sick": 63026,
    "invisible": false
  },
  {
    "latitude": 42.2871,
    "dead": 366,
    "lastUpdated": "2020-07-13T22:27:11.755Z",
    "recovered": 3107,
    "infected": 5497,
    "state": "RI",
    "id": "TNDTapyb0k3l7Mds9q9R",
    "pop": 315700,
    "country": "ES",
    "longitude": -2.5396,
    "name": "La Rioja",
    "sick": 2024,
    "invisible": false
  },
  {
    "latitude": 20.400417,
    "dead": 657,
    "lastUpdated": "2020-07-14T04:32:17.591Z",
    "recovered": 0,
    "infected": 6320,
    "id": "TQCWbhIpJQBQxBjhCGVJ",
    "pop": 2207200,
    "country": "MX",
    "longitude": -89.134857,
    "name": "Yucatán",
    "sick": 5663,
    "invisible": false
  },
  {
    "recovered": 138,
    "infected": 141,
    "id": "TQZmzsLhJqjtCSExAkCP",
    "pop": 428697,
    "country": "BN",
    "longitude": 114.650692,
    "name": "Brunei",
    "latitude": 4.506106,
    "dead": 3,
    "lastUpdated": "2020-07-14T07:16:04.943Z",
    "sick": 0,
    "invisible": false
  },
  {
    "recovered": 7817,
    "infected": 15714,
    "state": "",
    "id": "TT0MKODSjrxHvG19xZCa",
    "pop": 8027000,
    "country": "FR",
    "longitude": 4.3853,
    "name": "Auvergne-Rhône-Alpes",
    "latitude": 45.4471,
    "dead": 1747,
    "lastUpdated": "2020-07-13T22:38:48.455Z",
    "sick": 6150,
    "invisible": false
  },
  {
    "id": "TeoNTu4aw5riC04sTd73",
    "pop": 758700,
    "country": "PT",
    "longitude": -7.9,
    "name": "Alentejo",
    "latitude": 38.5667,
    "dead": 18,
    "lastUpdated": "2020-07-13T22:03:06.178Z",
    "recovered": 0,
    "infected": 576,
    "sick": 558,
    "invisible": false
  },