[
  {
    "recovered": 4,
    "latitude": 12.5847,
    "pop": 72600,
    "longitude": -81.7006,
    "name": "San Andrés",
    "country": "CO",
    "lastUpdated": "2020-05-07T03:41:08.847Z",
    "dead": 0,
    "id": "01b09TY4vmuZwzVuiRFK",
    "infected": 6,
    "sick": 2,
    "invisible": false
  },
  {
    "lastUpdated": "2020-05-07T03:15:11.830Z",
    "dead": 13,
    "id": "0FOJefeLxQYXQ1CnJm9o",
    "infected": 252,
    "recovered": 222,
    "latitude": 49.4482,
    "pop": 63196,
    "longitude": -2.5895,
    "name": "Guernsey",
    "country": "GG",
    "sick": 17,
    "invisible": false
  },
  {
    "infected": 4532,
    "recovered": 1816,
    "latitude": 41.066666,
    "pop": 5827000,
    "longitude": 14.333333,
    "name": "Campania",
    "country": "IT",
    "lastUpdated": "2020-05-07T03:31:01.688Z",
    "dead": 376,
    "id": "0GJcws44NSPsDHAuxJhW",
    "sick": 2340,
    "invisible": false
  },
  {
    "infected": 339,
    "recovered": 0,
    "latitude": -20.2167,
    "pop": 383870,
    "longitude": -70.14222,
    "name": "Tarapacá",
    "country": "CL",
    "lastUpdated": "2020-05-07T03:41:11.625Z",
    "dead": 1,
    "id": "0HDQbiHe462xMCUV5HiI",
    "sick": 338,
    "invisible": false
  },
  {
    "recovered": 61,
    "latitude": 20.9517,
    "pop": 45990000,
    "longitude": 85.0985,
    "name": "Odisha",
    "country": "IN",
    "lastUpdated": "2020-05-07T03:41:01.316Z",
    "dead": 2,
    "id": "0VG7S6aaK4eSo59fL9JO",
    "infected": 205,
    "sick": 142,
    "invisible": false
  },
  {
    "latitude": 20.4737,
    "pop": 2990300,
    "longitude": -98.8582,
    "name": "Hidalgo",
    "country": "MX",
    "lastUpdated": "2020-05-07T03:32:15.297Z",
    "dead": 58,
    "id": "0XmCRqiK2ZaehoEJvfer",
    "infected": 396,
    "recovered": 0,
    "sick": 338,
    "invisible": false
  },
  {
    "infected": 33,
    "recovered": 32,
    "latitude": 11.7401,
    "pop": 427246,
    "longitude": 92.6586,
    "name": "Andaman and Nicobar Islands",
    "country": "IN",
    "lastUpdated": "2020-05-07T03:41:01.317Z",
    "dead": 0,
    "id": "0jStOpTUNRaQYJqgmRoK",
    "sick": 1,
    "invisible": false
  },
  {
    "id": "0m4aECS0Z2DGFEr8ldgI",
    "infected": 17972,
    "recovered": 2070,
    "latitude": 25.315058,
    "pop": 2639000,
    "longitude": 51.145517,
    "name": "Qatar",
    "country": "QA",
    "lastUpdated": "2020-05-07T03:40:08.999Z",
    "dead": 12,
    "sick": 15890,
    "invisible": false
  },
  {
    "latitude": 22.9868,
    "pop": 90320000,
    "longitude": 87.855,
    "name": "West Bengal",
    "country": "IN",
    "lastUpdated": "2020-05-07T03:41:01.315Z",
    "dead": 144,
    "id": "0n54EMSDJcRoT1QEvw80",
    "infected": 1456,
    "recovered": 265,
    "sick": 1047,
    "invisible": false
  },
  {
    "longitude": 78.6569,
    "name": "Madhya Pradesh",
    "country": "IN",
    "lastUpdated": "2020-05-07T03:41:01.314Z",
    "dead": 185,
    "id": "0s18o5DrDAHjbu5MFcrj",
    "infected": 3138,
    "recovered": 1099,
    "latitude": 22.9734,
    "pop": 73340000,
    "sick": 1854,
    "invisible": false
  },
  {
    "infected": 0,
    "recovered": 213084,
    "latitude": 37.0902,
    "longitude": -95.7129,
    "name": "Unknown US state",
    "country": "US",
    "lastUpdated": "2020-05-07T03:40:08.996Z",
    "dead": 0,
    "id": "0tFoopNTs6e4tOoaltu2",
    "invisible": true,
    "sick": 0
  },
  {
    "infected": 308,
    "recovered": 266,
    "latitude": 35.64249,
    "pop": 37330000,
    "longitude": 108.472214,
    "name": "Shaanxi",
    "country": "CN",
    "lastUpdated": "2020-05-07T03:38:12.405Z",
    "dead": 3,
    "id": "0x2HLhr5z5xAtEdO4iZm",
    "sick": 39,
    "invisible": false
  },
  {
    "infected": 1539,
    "recovered": 1057,
    "latitude": 41.643351,
    "pop": 2077000,
    "longitude": 21.668393,
    "name": "North Macedonia",
    "country": "MK",
    "lastUpdated": "2020-05-07T03:40:09.005Z",
    "dead": 88,
    "id": "19MvIhipqTyYv1H37Upw",
    "sick": 394,
    "invisible": false
  },
  {
    "infected": 259,
    "recovered": 0,
    "latitude": 53.1355,
    "pop": 521542,
    "longitude": -57.6604,
    "name": "Newfoundland and Labrador",
    "country": "CA",
    "lastUpdated": "2020-05-07T03:27:01.439Z",
    "dead": 3,
    "id": "1DOMOmCWDtva46OVSZLv",
    "sick": 256,
    "invisible": false
  },
  {
    "latitude": 35.801933,
    "pop": 5627000,
    "longitude": 96.779286,
    "name": "Qinghai",
    "country": "CN",
    "lastUpdated": "2020-05-07T03:38:12.410Z",
    "dead": 0,
    "id": "1Fap7rZu9SIRqf5TG9Dg",
    "infected": 18,
    "recovered": 18,
    "sick": 0,
    "invisible": false
  },
  {
    "invisible": true,
    "infected": 0,
    "recovered": 17781,
    "latitude": 23.6345,
    "pop": 126200000,
    "longitude": -102.5528,
    "name": "Unknown Mexico state",
    "country": "MX",
    "lastUpdated": "2020-05-07T03:40:08.998Z",
    "dead": 0,
    "id": "1YXQMlVL3fUeDZmcVfJw",
    "sick": 0
  },
  {
    "pop": 1960000,
    "longitude": 73.3167,
    "name": "Omsk Oblast",
    "country": "RU",
    "lastUpdated": "2020-05-07T03:34:15.026Z",
    "dead": 3,
    "id": "1at5nIap9H51v32otlQl",
    "infected": 197,
    "recovered": 40,
    "latitude": 55.0555,
    "sick": 154,
    "invisible": false
  },
  {
    "latitude": 44.9,
    "pop": 4376000,
    "longitude": 8.206944,
    "name": "Piemonte",
    "country": "IT",
    "lastUpdated": "2020-05-07T03:31:01.692Z",
    "dead": 3247,
    "id": "1eTSQyfp8RoDPeFrIwun",
    "infected": 27939,
    "recovered": 9834,
    "sick": 14858,
    "invisible": false
  },
  {
    "lastUpdated": "2020-05-07T03:33:09.628Z",
    "dead": 0,
    "id": "1j1OurxLTpZYuWIWwQ9F",
    "infected": 90,
    "recovered": 0,
    "latitude": 51.993,
    "pop": 1003000,
    "longitude": 15.461,
    "name": "Lubuskie",
    "country": "PL",
    "sick": 90,
    "invisible": false
  },
  {
    "infected": 4476,
    "recovered": 1658,
    "latitude": 47.4116,
    "pop": 3550000,
    "longitude": 28.3699,
    "name": "Moldova",
    "country": "MD",
    "lastUpdated": "2020-05-07T03:40:09.002Z",
    "dead": 143,
    "id": "1qTPB8X3tyLyIdsb5TN3",
    "sick": 2675,
    "invisible": false
  },
  {
    "latitude": 37.0902,
    "longitude": -95.7129,
    "name": "Federal Bureau of Prisons",
    "country": "US",
    "lastUpdated": "2020-05-07T03:39:09.576Z",
    "dead": 42,
    "id": "22PJOAThcDFKgSbyQIkD",
    "invisible": true,
    "infected": 2465,
    "recovered": 0,
    "sick": 2423
  },
  {
    "lastUpdated": "2020-05-07T03:38:12.410Z",
    "dead": 0,
    "id": "25qIBtsW2nfQj3pwBKg9",
    "infected": 1,
    "recovered": 1,
    "latitude": 30.15336,
    "pop": 3180000,
    "longitude": 88.787865,
    "name": "Tibet",
    "country": "CN",
    "sick": 0,
    "invisible": false
  },
  {
    "lastUpdated": "2020-05-07T03:40:09.000Z",
    "dead": 895,
    "id": "2KHYUb5t3lwzVVmDjwNX",
    "infected": 12438,
    "recovered": 2317,
    "latitude": -1.572184,
    "pop": 264000000,
    "longitude": 115.66779,
    "name": "Indonesia",
    "country": "ID",
    "sick": 9226,
    "invisible": false
  },
  {
    "infected": 2916,
    "recovered": 0,
    "latitude": 43.807191,
    "pop": 4191000,
    "longitude": -120.585594,
    "name": "Oregon",
    "country": "US",
    "lastUpdated": "2020-05-07T03:39:09.574Z",
    "dead": 115,
    "id": "2OrsssmGUs4XCzaZzvTv",
    "sick": 2801,
    "invisible": false
  },
  {
    "latitude": -23.65,
    "pop": 425000,
    "longitude": -70.400002,
    "name": "Antofagasta",
    "country": "CL",
    "lastUpdated": "2020-05-07T03:41:11.626Z",
    "dead": 7,
    "id": "2c5HBZ1ffkCVXnMYUWnY",
    "infected": 855,
    "recovered": 0,
    "sick": 848,
    "invisible": false
  },
  {
    "lastUpdated": "2020-05-07T03:41:02.821Z",
    "dead": 56,
    "id": "2dzhyWsBSPpENWlNew0b",
    "infected": 2046,
    "recovered": 0,
    "latitude": 0.035574,
    "pop": 9029000,
    "longitude": -51.070534,
    "name": "Amapá",
    "country": "BR",
    "sick": 1990,
    "invisible": false
  },
  {
    "latitude": 43.851921,
    "pop": 27460000,
    "longitude": 126.548103,
    "name": "Jilin",
    "country": "CN",
    "lastUpdated": "2020-05-07T03:38:12.407Z",
    "dead": 1,
    "id": "2jxHvSsxdnom0nPNvOT8",
    "infected": 112,
    "recovered": 103,
    "sick": 8,
    "invisible": false
  },
  {
    "lastUpdated": "2020-05-07T03:40:09.016Z",
    "dead": 0,
    "id": "2p11BjSAs3wVyymgqBOe",
    "infected": 144,
    "recovered": 136,
    "latitude": 36.1408,
    "pop": 34571,
    "longitude": -5.3536,
    "name": "Gibraltar",
    "country": "GI",
    "sick": 8,
    "invisible": false
  },
  {
    "recovered": 1361,
    "latitude": 47.7516,
    "pop": 2567000,
    "longitude": 1.6751,
    "name": "Centre-Val de Loire",
    "country": "FR",
    "lastUpdated": "2020-05-06T22:40:57.224Z",
    "dead": 429,
    "id": "2sLNkkHpyaHx7dD3aMDO",
    "infected": 3923,
    "sick": 2133,
    "invisible": false
  },
  {
    "lastUpdated": "2020-05-07T03:31:01.695Z",
    "dead": 70,
    "id": "319tiZOMczx1y0DfvOib",
    "infected": 1404,
    "recovered": 1163,
    "latitude": 42.565044,
    "pop": 884640,
    "longitude": 12.643751,
    "name": "Umbria",
    "country": "IT",
    "sick": 171,
    "invisible": false
  },
  {
    "id": "38T96Q3XNjt5FSJygPed",
    "infected": 40,
    "recovered": 15,
    "latitude": 2.43823,
    "pop": 1355000,
    "longitude": -76.6131592,
    "name": "Cauca",
    "country": "CO",
    "lastUpdated": "2020-05-07T03:41:08.847Z",
    "dead": 4,
    "sick": 21,
    "invisible": false
  },
  {
    "infected": 146,
    "recovered": 101,
    "latitude": -13.133896,
    "pop": 17090000,
    "longitude": 27.849332,
    "name": "Zambia",
    "country": "ZM",
    "lastUpdated": "2020-05-07T03:40:09.016Z",
    "dead": 4,
    "id": "3IlPjAbP5qVMn1nlgLTJ",
    "sick": 41,
    "invisible": false
  },
  {
    "infected": 324,
    "recovered": 261,
    "latitude": 42.7044,
    "pop": 631219,
    "longitude": 19.3958,
    "name": "Montenegro",
    "country": "ME",
    "lastUpdated": "2020-05-07T03:40:09.012Z",
    "dead": 8,
    "id": "3LstMSN5XMYBkxbe5HN7",
    "sick": 55,
    "invisible": false
  },
  {
    "id": "3OZoQsKrzxZ18EKyfGE6",
    "infected": 107,
    "recovered": 103,
    "latitude": -35.4735,
    "pop": 418440,
    "longitude": 149.0124,
    "name": "Australian Capital Territory",
    "country": "AU",
    "lastUpdated": "2020-05-07T03:32:27.760Z",
    "dead": 3,
    "sick": 1,
    "invisible": false
  },
  {
    "infected": 880,
    "recovered": 128,
    "latitude": 57.8992,
    "pop": 608000,
    "longitude": 38.8389,
    "name": "Yaroslavl Oblast",
    "country": "RU",
    "lastUpdated": "2020-05-07T03:34:15.023Z",
    "dead": 11,
    "id": "3PfzjWjvOkfgxc672BHQ",
    "sick": 741,
    "invisible": false
  },
  {
    "lastUpdated": "2020-05-07T03:34:15.027Z",
    "dead": 0,
    "id": "3PpqgIUJAtzxo1j7z56i",
    "infected": 51,
    "recovered": 29,
    "latitude": 51.8873,
    "pop": 321000,
    "longitude": 95.626,
    "name": "Tuva",
    "country": "RU",
    "sick": 22,
    "invisible": false
  },
  {
    "infected": 46,
    "recovered": 35,
    "latitude": 26.2006,
    "pop": 30940000,
    "longitude": 92.9376,
    "name": "Assam",
    "country": "IN",
    "lastUpdated": "2020-05-07T03:41:01.316Z",
    "dead": 1,
    "id": "3cCbnJCsK7mKlTO08K1o",
    "sick": 10,
    "invisible": false
  },
  {
    "recovered": 0,
    "latitude": 40.4173,
    "pop": 11690000,
    "longitude": -82.9071,
    "name": "Ohio",
    "country": "US",
    "lastUpdated": "2020-05-07T03:39:09.571Z",
    "dead": 1225,
    "id": "3fC3bAyIRUquOQOEnQNe",
    "infected": 21576,
    "sick": 20351,
    "invisible": false
  },
  {
    "id": "3kFCzJguabtBvXaHxgiu",
    "infected": 1261,
    "recovered": 0,
    "latitude": 25,
    "pop": 3066400,
    "longitude": -107.5,
    "name": "Sinaloa",
    "country": "MX",
    "lastUpdated": "2020-05-07T03:32:15.292Z",
    "dead": 187,
    "sick": 1074,
    "invisible": false
  },
  {
    "infected": 1129,
    "recovered": 296,
    "latitude": 3.420556,
    "pop": 4708300,
    "longitude": -76.522224,
    "name": "Valle del Cauca",
    "country": "CO",
    "lastUpdated": "2020-05-07T03:41:08.845Z",
    "dead": 64,
    "id": "3mC2LveOpXV8P1PmQGUj",
    "sick": 769,
    "invisible": false
  },
  {
    "infected": 8,
    "recovered": 6,
    "latitude": 21.0079,
    "pop": 4420000,
    "longitude": -10.9408,
    "name": "Mauritania",
    "country": "MR",
    "lastUpdated": "2020-05-07T03:40:09.062Z",
    "dead": 1,
    "id": "4NnFMekRK2m14IlnZZoj",
    "sick": 1,
    "invisible": false
  },
  {
    "pop": 5071000,
    "longitude": -127.6476,
    "name": "British Columbia",
    "country": "CA",
    "lastUpdated": "2020-05-07T03:27:01.439Z",
    "dead": 124,
    "id": "4hfZRUoUgI4a3vrG0GBk",
    "infected": 2255,
    "recovered": 0,
    "latitude": 53.7267,
    "sick": 2131,
    "invisible": false
  },
  {
    "infected": 13295,
    "recovered": 0,
    "latitude": -22.908333,
    "pop": 17159960,
    "longitude": -43.196388,
    "name": "Rio de Janeiro",
    "country": "BR",
    "lastUpdated": "2020-05-07T03:41:02.825Z",
    "dead": 1205,
    "id": "4kq0z3kh5zt3YAUWxvtE",
    "sick": 12090,
    "invisible": false
  },
  {
    "latitude": -11.409874,
    "pop": 14812617,
    "longitude": -41.280857,
    "name": "Bahia",
    "country": "BR",
    "lastUpdated": "2020-05-07T03:41:02.823Z",
    "dead": 160,
    "id": "4yDbkEyqsNzZJjfrciYV",
    "infected": 4301,
    "recovered": 0,
    "sick": 4141,
    "invisible": false
  },
  {
    "infected": 2127,
    "recovered": 1536,
    "latitude": 40.3426,
    "pop": 9898000,
    "longitude": 47.93802,
    "name": "Azerbaijan",
    "country": "AZ",
    "lastUpdated": "2020-05-07T03:40:09.003Z",
    "dead": 28,
    "id": "4zqzRm2xHn0CDVOUQJ8p",
    "sick": 563,
    "invisible": false
  },
  {
    "recovered": 0,
    "latitude": 22.233105,
    "pop": 3672300,
    "longitude": -97.861099,
    "name": "Tamaulipas",
    "country": "MX",
    "lastUpdated": "2020-05-07T03:32:15.296Z",
    "dead": 31,
    "id": "54cfsdsRF76XVHWtZs19",
    "infected": 701,
    "sick": 670,
    "invisible": false
  },
  {
    "infected": 28096,
    "recovered": 7094,
    "latitude": 51.0109,
    "pop": 6596000,
    "longitude": 3.7265,
    "name": "Flanders",
    "country": "BE",
    "lastUpdated": "2020-05-07T03:26:05.929Z",
    "dead": 4115,
    "id": "57ydD48mLRD2YoyteJZj",
    "sick": 16887,
    "invisible": false
  },
  {
    "infected": 92,
    "recovered": 26,
    "latitude": 25.025885,
    "pop": 395361,
    "longitude": -78.035889,
    "name": "Bahamas",
    "country": "BS",
    "lastUpdated": "2020-05-07T03:40:09.019Z",
    "dead": 11,
    "id": "5MHegCUO9L3LiAU7DDey",
    "sick": 55,
    "invisible": false
  },
  {
    "infected": 3042,
    "recovered": 2463,
    "latitude": -31.253218,
    "pop": 7544000,
    "longitude": 146.921097,
    "name": "New South Wales",
    "country": "AU",
    "lastUpdated": "2020-05-07T03:32:27.766Z",
    "dead": 44,
    "id": "5N16a2OXXRpsEFanw0TC",
    "sick": 535,
    "invisible": false
  },
  {
    "latitude": 6.8769908,
    "pop": 12580000,
    "longitude": 31.3069782,
    "name": "South Sudan",
    "country": "SS",
    "lastUpdated": "2020-05-07T03:40:09.021Z",
    "dead": 0,
    "id": "5N4PRxsCDzzwk7R200V1",
    "infected": 58,
    "recovered": 0,
    "sick": 58,
    "invisible": false
  },
  {
    "longitude": -0.7533,
    "name": "C. Valenciana",
    "country": "ES",
    "lastUpdated": "2020-05-07T03:32:09.521Z",
    "dead": 1291,
    "id": "5Va9A7CXR8AXdUz4HTJj",
    "infected": 13064,
    "recovered": 7747,
    "latitude": 39.484,
    "pop": 4975000,
    "sick": 4026,
    "invisible": false
  },
  {
    "longitude": 165.618042,
    "name": "New Caledonia",
    "country": "NC",
    "lastUpdated": "2020-05-07T03:40:09.051Z",
    "dead": 0,
    "id": "5fg04eyDwFw3kEXnrxez",
    "infected": 18,
    "recovered": 18,
    "latitude": -20.9043045,
    "pop": 280460,
    "sick": 0,
    "invisible": false
  },
  {
    "recovered": 22,
    "latitude": 28.394857,
    "pop": 29300000,
    "longitude": 84.124008,
    "name": "Nepal",
    "country": "NP",
    "lastUpdated": "2020-05-07T03:40:09.018Z",
    "dead": 0,
    "id": "5gXZIjRgAvd6xWN1LOv8",
    "infected": 99,
    "sick": 77,
    "invisible": false
  },
  {
    "latitude": 12.879721,
    "pop": 104900000,
    "longitude": 121.774017,
    "name": "Philippines",
    "country": "PH",
    "lastUpdated": "2020-05-07T03:40:09.000Z",
    "dead": 658,
    "id": "5pwmh7aSdGRKqRbnuyc0",
    "infected": 10004,
    "recovered": 1506,
    "sick": 7840,
    "invisible": false
  },
  {
    "id": "5qtR9nx4BLwu1ODTniaY",
    "infected": 34,
    "recovered": 5,
    "latitude": -17.824858,
    "pop": 14802190,
    "longitude": 31.053028,
    "name": "Zimbabwe",
    "country": "ZW",
    "lastUpdated": "2020-05-07T03:40:09.042Z",
    "dead": 4,
    "sick": 25,
    "invisible": false
  },
  {
    "infected": 2559,
    "recovered": 0,
    "latitude": 36.0672,
    "pop": 356890,
    "longitude": -109.188,
    "name": "Navajo Nation",
    "country": "US",
    "lastUpdated": "2020-05-07T03:39:09.576Z",
    "dead": 79,
    "id": "5vkKgxTaKq1IH0Go357L",
    "invisible": true,
    "sick": 2480
  },
  {
    "pop": 8781300,
    "longitude": -99.177254,
    "name": "Ciudad de México",
    "country": "MX",
    "lastUpdated": "2020-05-07T03:32:15.295Z",
    "dead": 543,
    "id": "61E7TGjUwAo9xu6Y6gAH",
    "infected": 7521,
    "recovered": 0,
    "latitude": 19.432241,
    "sick": 6978,
    "invisible": false
  },
  {
    "latitude": 54.3873,
    "pop": 1012000,
    "longitude": 35.1889,
    "name": "Kaluga Oblast",
    "country": "RU",
    "lastUpdated": "2020-05-07T03:34:14.998Z",
    "dead": 12,
    "id": "63KYOuWe41mvqWQrJbr2",
    "infected": 1407,
    "recovered": 170,
    "sick": 1225,
    "invisible": false
  },
  {
    "latitude": 55.621011,
    "pop": 2794000,
    "longitude": 23.804991,
    "name": "Lithuania",
    "country": "LT",
    "lastUpdated": "2020-05-07T03:40:09.006Z",
    "dead": 48,
    "id": "694ON7d0mRJDeM1gHBTR",
    "infected": 1428,
    "recovered": 718,
    "sick": 662,
    "invisible": false
  },
  {
    "pop": 9175000,
    "longitude": -0.5596,
    "name": "South East",
    "country": "GB",
    "lastUpdated": "2020-05-07T03:40:28.540Z",
    "dead": 0,
    "id": "6IQAsvrmBv0HPdeTnh4x",
    "infected": 18509,
    "recovered": 0,
    "latitude": 51.1781,
    "sick": 18509,
    "invisible": false
  },
  {
    "id": "6IcHIIH0zXpY0POmBZTv",
    "infected": 1041,
    "recovered": 932,
    "latitude": 22.396427,
    "pop": 7392000,
    "longitude": 114.109497,
    "name": "Hong Kong",
    "country": "HK",
    "lastUpdated": "2020-05-07T03:40:09.007Z",
    "dead": 4,
    "sick": 105,
    "invisible": false
  },
  {
    "latitude": -8.65,
    "pop": 869265,
    "longitude": -72.4,
    "name": "Acre",
    "country": "BR",
    "lastUpdated": "2020-05-07T03:41:02.724Z",
    "dead": 33,
    "id": "6LQesrx5bHJsVUi1TXBp",
    "infected": 943,
    "recovered": 0,
    "sick": 910,
    "invisible": false
  },
  {
    "latitude": 9.3077,
    "pop": 11180000,
    "longitude": 2.3158,
    "name": "Benin",
    "country": "BJ",
    "lastUpdated": "2020-05-07T03:40:09.018Z",
    "dead": 2,
    "id": "6SlpghTyB6lpMFvx3g9U",
    "infected": 96,
    "recovered": 50,
    "sick": 44,
    "invisible": false
  },
  {
    "infected": 79369,
    "recovered": 33005,
    "latitude": 45.6667,
    "pop": 10040000,
    "longitude": 9.5,
    "name": "Lombardia",
    "country": "IT",
    "lastUpdated": "2020-05-07T03:31:01.691Z",
    "dead": 14611,
    "id": "6ZHcvMIzVWIaRnc4R3Qp",
    "sick": 31753,
    "invisible": false
  },
  {
    "latitude": 46.0569,
    "pop": 2067000,
    "longitude": 14.5058,
    "name": "Slovenia",
    "country": "SI",
    "lastUpdated": "2020-05-07T03:40:09.006Z",
    "dead": 99,
    "id": "6ahNiyKDSDAftCctgLH3",
    "infected": 1448,
    "recovered": 246,
    "sick": 1103,
    "invisible": false
  },
  {
    "pop": 300000,
    "longitude": -70.331398,
    "name": "Atacama",
    "country": "CL",
    "lastUpdated": "2020-05-07T03:41:11.626Z",
    "dead": 0,
    "id": "6nyns7UGGgkU7pxrHf8i",
    "infected": 80,
    "recovered": 0,
    "latitude": -27.3667908,
    "sick": 80,
    "invisible": false
  },
  {
    "latitude": -0.8037,
    "pop": 2025000,
    "longitude": 11.6094,
    "name": "Gabon",
    "country": "GA",
    "lastUpdated": "2020-05-07T03:40:09.011Z",
    "dead": 6,
    "id": "6pBi38TUgYfFm0bry2uh",
    "infected": 397,
    "recovered": 93,
    "sick": 298,
    "invisible": false
  },
  {
    "longitude": -100.9792,
    "name": "San Luis Potosí",
    "country": "MX",
    "lastUpdated": "2020-05-07T03:32:15.297Z",
    "dead": 13,
    "id": "6vjIVg1gSANFZghV7xtS",
    "infected": 204,
    "recovered": 0,
    "latitude": 22.1498,
    "pop": 2831900,
    "sick": 191,
    "invisible": false
  },
  {
    "infected": 6,
    "recovered": 6,
    "latitude": 17.901672,
    "pop": 9131,
    "longitude": -62.818544,
    "name": "Saint-Barthélémy",
    "country": "FR",
    "lastUpdated": "2020-05-07T03:40:09.063Z",
    "dead": 0,
    "id": "78Ox26bNHDA2Pk2b3Uwn",
    "sick": 0,
    "invisible": false
  },
  {
    "infected": 460,
    "recovered": 0,
    "latitude": 54.367,
    "pop": 2305000,
    "longitude": 18.633,
    "name": "Pomorskie",
    "country": "PL",
    "lastUpdated": "2020-05-07T03:33:09.627Z",
    "dead": 21,
    "id": "7JDx6UJiwGSJyL1fChaJ",
    "sick": 439,
    "invisible": false
  },
  {
    "infected": 131,
    "recovered": 104,
    "latitude": 35.2923,
    "pop": 84690,
    "longitude": -2.9381,
    "name": "Melilla",
    "country": "ES",
    "lastUpdated": "2020-05-07T03:32:09.520Z",
    "dead": 2,
    "id": "7UASdZTZ1nPzzBwSTEA9",
    "sick": 25,
    "invisible": false
  },
  {
    "latitude": 17.0608,
    "pop": 102012,
    "longitude": -61.7964,
    "name": "Antigua and Barbuda",
    "country": "AG",
    "lastUpdated": "2020-05-07T03:40:09.042Z",
    "dead": 3,
    "id": "7hVFcEV7nV0MrQr3LHrl",
    "infected": 25,
    "recovered": 16,
    "sick": 6,
    "invisible": false
  },
  {
    "latitude": 48.7904,
    "pop": 13000000,
    "longitude": 11.4979,
    "name": "Bayern",
    "country": "DE",
    "lastUpdated": "2020-05-07T03:30:03.004Z",
    "dead": 2194,
    "id": "7kCrrlOBE3jN6FtOVNUB",
    "infected": 44453,
    "recovered": 35800,
    "sick": 6459,
    "invisible": false
  },
  {
    "infected": 3111,
    "recovered": 759,
    "latitude": 47.4979,
    "pop": 9773000,
    "longitude": 19.0402,
    "name": "Hungary",
    "country": "HU",
    "lastUpdated": "2020-05-07T03:40:09.002Z",
    "dead": 373,
    "id": "7rYC2iFB50c55Ihgbs4Q",
    "sick": 1979,
    "invisible": false
  },
  {
    "latitude": 10.9685,
    "pop": 2400000,
    "longitude": -74.7813,
    "name": "Barranquilla D.E.",
    "country": "CO",
    "lastUpdated": "2020-05-07T03:41:08.847Z",
    "dead": 19,
    "id": "7tqLvLyXcBDK808nJv0m",
    "infected": 319,
    "recovered": 47,
    "sick": 253,
    "invisible": false
  },
  {
    "infected": 2265,
    "recovered": 1000,
    "latitude": 7.3697,
    "pop": 24050000,
    "longitude": 12.3547,
    "name": "Cameroon",
    "country": "CM",
    "lastUpdated": "2020-05-07T03:40:09.003Z",
    "dead": 108,
    "id": "8C0d7WVCjyUGtnc2gUAR",
    "sick": 1157,
    "invisible": false
  },
  {
    "latitude": 50.8503,
    "pop": 1209000,
    "longitude": 4.3517,
    "name": "Brussels",
    "country": "BE",
    "lastUpdated": "2020-05-07T03:26:05.931Z",
    "dead": 1300,
    "id": "8DOZWbN6bDdgaLXVlUEu",
    "infected": 5178,
    "recovered": 2012,
    "sick": 1866,
    "invisible": false
  },
  {
    "pop": 11050000,
    "longitude": -63.5887,
    "name": "Bolivia",
    "country": "BO",
    "lastUpdated": "2020-05-07T03:40:09.003Z",
    "dead": 91,
    "id": "8RihJrXw4NQXPxaRxr1u",
    "infected": 1886,
    "recovered": 198,
    "latitude": -16.2902,
    "sick": 1597,
    "invisible": false
  },
  {
    "recovered": 9,
    "latitude": 12.9843,
    "pop": 109897,
    "longitude": -61.2872,
    "name": "St. Vincent Grenadines",
    "country": "VC",
    "lastUpdated": "2020-05-07T03:40:09.057Z",
    "dead": 0,
    "id": "8ZTySQROQejkDAad0qxQ",
    "infected": 17,
    "sick": 8,
    "invisible": false
  },
  {
    "infected": 20198,
    "recovered": 1634,
    "latitude": 1.352083,
    "pop": 5621000,
    "longitude": 103.819839,
    "name": "Singapore",
    "country": "SG",
    "lastUpdated": "2020-05-07T03:40:08.999Z",
    "dead": 20,
    "id": "8pA3fM4xC2c2wv1b4TnE",
    "sick": 18544,
    "invisible": false
  },
  {
    "lastUpdated": "2020-05-06T22:40:29.584Z",
    "dead": 368,
    "id": "98hwAoohgWEOQVa3NlM5",
    "infected": 3374,
    "recovered": 1360,
    "latitude": 47.2184,
    "pop": 3787000,
    "longitude": -1.5536,
    "name": "Pays de la Loire",
    "country": "FR",
    "sick": 1646,
    "invisible": false
  },
  {
    "latitude": 19.30754,
    "pop": 952300,
    "longitude": -90.19885,
    "name": "Campeche",
    "country": "MX",
    "lastUpdated": "2020-05-07T03:32:15.296Z",
    "dead": 25,
    "id": "9DAvxOObTqIvMOU93nlY",
    "infected": 202,
    "recovered": 0,
    "sick": 177,
    "invisible": false
  },
  {
    "infected": 852,
    "recovered": 80,
    "latitude": 12.8628,
    "pop": 40530000,
    "longitude": 30.2176,
    "name": "Sudan",
    "country": "SD",
    "lastUpdated": "2020-05-07T03:40:09.008Z",
    "dead": 49,
    "id": "9DPOkpIqrFy9mR4e9fuv",
    "sick": 723,
    "invisible": false
  },
  {
    "infected": 293,
    "recovered": 68,
    "latitude": 58.5501,
    "pop": 643000,
    "longitude": 43.9541,
    "name": "Kostroma Oblast",
    "country": "RU",
    "lastUpdated": "2020-05-07T03:34:15.026Z",
    "dead": 3,
    "id": "9JFYfvpcejMIgYlHpngA",
    "sick": 222,
    "invisible": false
  },
  {
    "infected": 14107,
    "recovered": 5788,
    "latitude": 45.943161,
    "pop": 19530000,
    "longitude": 24.966761,
    "name": "Romania",
    "country": "RO",
    "lastUpdated": "2020-05-07T03:40:08.999Z",
    "dead": 864,
    "id": "9QcETqEcM2fTv9zRvx5T",
    "sick": 7455,
    "invisible": false
  },
  {
    "infected": 16,
    "recovered": 7,
    "latitude": 12.136389,
    "pop": 6218000,
    "longitude": -86.251389,
    "name": "Nicaragua",
    "country": "NI",
    "lastUpdated": "2020-05-07T03:40:09.058Z",
    "dead": 5,
    "id": "9Y5wmCqNCC6ZrenM31uA",
    "sick": 4,
    "invisible": false
  },
  {
    "longitude": -3.996166,
    "name": "Mali",
    "country": "ML",
    "lastUpdated": "2020-05-07T03:40:09.009Z",
    "dead": 32,
    "id": "9dIzxqDSVqPyINkHqwGv",
    "infected": 631,
    "recovered": 261,
    "latitude": 17.5706921,
    "pop": 18540000,
    "sick": 338,
    "invisible": false
  },
  {
    "infected": 5573,
    "recovered": 3500,
    "latitude": 61.92411,
    "pop": 5513000,
    "longitude": 25.748152,
    "name": "Finland",
    "country": "FI",
    "lastUpdated": "2020-05-07T03:40:09.001Z",
    "dead": 252,
    "id": "9p6OCdZbUUwBLA60Gk3W",
    "sick": 1821,
    "invisible": false
  },
  {
    "infected": 910,
    "recovered": 162,
    "latitude": 64.248,
    "pop": 2876000,
    "longitude": 95.1104,
    "name": "Krasnoyarsk Krai",
    "country": "RU",
    "lastUpdated": "2020-05-07T03:34:15.023Z",
    "dead": 12,
    "id": "A6Us0fpQVCc85SoIqzg3",
    "sick": 736,
    "invisible": false
  },
  {
    "latitude": 43.311643,
    "pop": 1356000,
    "longitude": -71.590315,
    "name": "New Hampshire",
    "country": "US",
    "lastUpdated": "2020-05-07T03:39:09.574Z",
    "dead": 111,
    "id": "A84CwQ52kA46Hr7pn6Bm",
    "infected": 2740,
    "recovered": 0,
    "sick": 2629,
    "invisible": false
  },
  {
    "infected": 10205,
    "recovered": 0,
    "latitude": 41.823261,
    "pop": 1057000,
    "longitude": -71.412257,
    "name": "Rhode Island",
    "country": "US",
    "lastUpdated": "2020-05-07T03:39:09.572Z",
    "dead": 370,
    "id": "AEUWUHS65qvjEslew11c",
    "sick": 9835,
    "invisible": false
  },
  {
    "infected": 26379,
    "recovered": 14251,
    "latitude": 44.498955,
    "pop": 4453000,
    "longitude": 11.327591,
    "name": "Emilia-Romagna",
    "country": "IT",
    "lastUpdated": "2020-05-07T03:31:01.688Z",
    "dead": 3737,
    "id": "AJ9jQ0iyKsafsmf5yHAR",
    "sick": 8391,
    "invisible": false
  },
  {
    "infected": 2674,
    "recovered": 2152,
    "latitude": 49.3964,
    "pop": 990509,
    "longitude": 7.023,
    "name": "Saarland",
    "country": "DE",
    "lastUpdated": "2020-05-07T03:30:03.005Z",
    "dead": 143,
    "id": "AKjFRQGnzuuZQhv5Qwx7",
    "sick": 379,
    "invisible": false
  },
  {
    "latitude": 54.4319,
    "pop": 3493000,
    "longitude": 60.8789,
    "name": "Chelyabinsk Oblast",
    "country": "RU",
    "lastUpdated": "2020-05-07T03:34:15.023Z",
    "dead": 3,
    "id": "AOapJ3gElQApd8Gnt8EL",
    "infected": 812,
    "recovered": 111,
    "sick": 698,
    "invisible": false
  },
  {
    "id": "APTPgjAsjFi0nsGyJV7M",
    "infected": 408,
    "recovered": 0,
    "latitude": -35.717,
    "pop": 1125002,
    "longitude": -71.167,
    "name": "Maule",
    "country": "CL",
    "lastUpdated": "2020-05-07T03:41:11.627Z",
    "dead": 13,
    "sick": 395,
    "invisible": false
  },
  {
    "id": "APaZzlGCEeuoLBtzTJMe",
    "infected": 11,
    "recovered": 11,
    "latitude": 71.7069,
    "pop": 56171,
    "longitude": -42.6043,
    "name": "Greenland",
    "country": "GL",
    "lastUpdated": "2020-05-07T03:40:09.062Z",
    "dead": 0,
    "sick": 0,
    "invisible": false
  },
  {
    "id": "ATxF6ZoDJ2ibdE6ZRYIX",
    "infected": 450,
    "recovered": 133,
    "latitude": 54.8331,
    "pop": 984000,
    "longitude": 112.4061,
    "name": "Buryatia",
    "country": "RU",
    "lastUpdated": "2020-05-07T03:34:15.025Z",
    "dead": 4,
    "sick": 313,
    "invisible": false
  },
  {
    "id": "AVCpxeh0fuH2WrHWNDYH",
    "infected": 998,
    "recovered": 0,
    "latitude": 45.65107,
    "pop": 971395,
    "longitude": -63.582687,
    "name": "Nova Scotia",
    "country": "CA",
    "lastUpdated": "2020-05-07T03:27:01.439Z",
    "dead": 41,
    "sick": 957,
    "invisible": false
  },
  {
    "latitude": 47.012918,
    "pop": 1062000,
    "longitude": -109.128641,
    "name": "Montana",
    "country": "US",
    "lastUpdated": "2020-05-07T03:39:09.575Z",
    "dead": 16,
    "id": "AcULcZBozObOhwuRKMjJ",
    "infected": 457,
    "recovered": 0,
    "sick": 441,
    "invisible": false
  },
  {
    "latitude": 27.285971,
    "pop": 45200000,
    "longitude": 116.01609,
    "name": "Jiangxi",
    "country": "CN",
    "lastUpdated": "2020-05-07T03:38:12.409Z",
    "dead": 1,
    "id": "AmBYm5J6E9Cuez1FQjiN",
    "infected": 937,
    "recovered": 936,
    "sick": 0,
    "invisible": false
  },
  {
    "longitude": -3.7837,
    "name": "Wales",
    "country": "GB",
    "lastUpdated": "2020-05-07T03:40:28.538Z",
    "dead": 1044,
    "id": "AoLhHdTydeWTfmp9koEX",
    "infected": 10764,
    "recovered": 0,
    "latitude": 52.1307,
    "pop": 3136000,
    "sick": 9720,
    "invisible": false
  },
  {
    "latitude": 53.0452,
    "pop": 537000,
    "longitude": 90.3982,
    "name": "Khakassia",
    "country": "RU",
    "lastUpdated": "2020-05-07T03:34:15.026Z",
    "dead": 8,
    "id": "Avls64fLKoEsBFH0Ol0b",
    "infected": 340,
    "recovered": 35,
    "sick": 297,
    "invisible": false
  },
  {
    "infected": 4997,
    "recovered": 2197,
    "latitude": 28.033886,
    "pop": 41320000,
    "longitude": 1.659626,
    "name": "Algeria",
    "country": "DZ",
    "lastUpdated": "2020-05-07T03:40:09.001Z",
    "dead": 476,
    "id": "AwN0CScPDApcLFgz6e3z",
    "sick": 2324,
    "invisible": false
  },
  {
    "lastUpdated": "2020-05-07T03:40:09.003Z",
    "dead": 85,
    "id": "B82Ef45M8cDu4q7VsSHF",
    "infected": 2119,
    "recovered": 1601,
    "latitude": 45.099998,
    "pop": 4076000,
    "longitude": 15.2,
    "name": "Croatia",
    "country": "HR",
    "sick": 433,
    "invisible": false
  },
  {
    "latitude": 17.6077881,
    "pop": 23716000,
    "longitude": 8.081666,
    "name": "Niger",
    "country": "NE",
    "lastUpdated": "2020-05-07T03:40:09.008Z",
    "dead": 38,
    "id": "BENubqQInFUJzhpZTsLT",
    "infected": 770,
    "recovered": 561,
    "sick": 171,
    "invisible": false
  },
  {
    "pop": 6043000,
    "longitude": -76.98432,
    "name": "Maryland",
    "country": "US",
    "lastUpdated": "2020-05-07T03:39:09.571Z",
    "dead": 1437,
    "id": "BF51mWl51fgEcyBpCSzb",
    "infected": 28163,
    "recovered": 0,
    "latitude": 39.509109,
    "sick": 26726,
    "invisible": false
  },
  {
    "recovered": 4388,
    "latitude": 53.709808,
    "pop": 9508000,
    "longitude": 27.953388,
    "name": "Belarus",
    "country": "BY",
    "lastUpdated": "2020-05-07T03:40:08.999Z",
    "dead": 112,
    "id": "BGg6yVU5VP71B8NXU0oh",
    "infected": 19255,
    "sick": 14755,
    "invisible": false
  },
  {
    "latitude": 48.8799,
    "pop": 3319000,
    "longitude": 0.1713,
    "name": "Normandie",
    "country": "FR",
    "lastUpdated": "2020-05-06T22:40:43.022Z",
    "dead": 365,
    "id": "BGtoyzb7y54LVlJ91rbf",
    "infected": 3015,
    "recovered": 1155,
    "sick": 1495,
    "invisible": false
  },
  {
    "infected": 6726,
    "recovered": 0,
    "latitude": 50.7772,
    "pop": 5616000,
    "longitude": -3.9995,
    "name": "South West",
    "country": "GB",
    "lastUpdated": "2020-05-07T03:40:28.540Z",
    "dead": 0,
    "id": "BQqMOlPFD36ZEDTGd3WC",
    "sick": 6726,
    "invisible": false
  },
  {
    "id": "BTEESCuD2ZbS1afunR2A",
    "infected": 9707,
    "recovered": 0,
    "latitude": 34.048927,
    "pop": 7172000,
    "longitude": -111.093735,
    "name": "Arizona",
    "country": "US",
    "lastUpdated": "2020-05-07T03:39:09.573Z",
    "dead": 426,
    "sick": 9281,
    "invisible": false
  },
  {
    "infected": 535,
    "recovered": 91,
    "latitude": 54.9883,
    "pop": 949000,
    "longitude": 32.6677,
    "name": "Smolensk Oblast",
    "country": "RU",
    "lastUpdated": "2020-05-07T03:34:15.025Z",
    "dead": 5,
    "id": "BUb7oDHcBM4lQ5cufNoG",
    "sick": 439,
    "invisible": false
  },
  {
    "id": "BWojXmuKU3szKlS7CE4k",
    "infected": 661,
    "recovered": 103,
    "latitude": 58.4199,
    "pop": 1283000,
    "longitude": 50.2097,
    "name": "Kirov Oblast",
    "country": "RU",
    "lastUpdated": "2020-05-07T03:34:15.024Z",
    "dead": 4,
    "sick": 554,
    "invisible": false
  },
  {
    "infected": 452,
    "recovered": 0,
    "latitude": 53.428543,
    "pop": 1676000,
    "longitude": 14.552812,
    "name": "Zachodniopomorskie",
    "country": "PL",
    "lastUpdated": "2020-05-07T03:33:09.627Z",
    "dead": 15,
    "id": "BZwZOAlDJ8AIiaRVLyC9",
    "sick": 437,
    "invisible": false
  },
  {
    "longitude": -70.6693,
    "name": "Unknown Chile region",
    "country": "CL",
    "lastUpdated": "2020-05-07T03:41:11.628Z",
    "dead": 0,
    "id": "BbiuZcm8oURX7cZwaa5U",
    "invisible": true,
    "infected": 0,
    "recovered": 11189,
    "latitude": -33.4489,
    "sick": 0
  },
  {
    "lastUpdated": "2020-05-07T03:40:09.022Z",
    "dead": 3,
    "id": "BfT8o5DaEixC6JIZ28kY",
    "infected": 43,
    "recovered": 9,
    "latitude": -13.2543,
    "pop": 18620000,
    "longitude": 34.3015,
    "name": "Malawi",
    "country": "MW",
    "sick": 31,
    "invisible": false
  },
  {
    "latitude": -3.3730559,
    "pop": 10860000,
    "longitude": 29.9188862,
    "name": "Burundi",
    "country": "BI",
    "lastUpdated": "2020-05-07T03:40:09.061Z",
    "dead": 1,
    "id": "BnpMamidC5yYzeK8tPUL",
    "infected": 15,
    "recovered": 7,
    "sick": 7,
    "invisible": false
  },
  {
    "infected": 2673,
    "recovered": 0,
    "latitude": 52.257,
    "pop": 5385000,
    "longitude": 21.002,
    "name": "Mazowieckie",
    "country": "PL",
    "lastUpdated": "2020-05-07T03:33:09.625Z",
    "dead": 215,
    "id": "BrToMzyq8y2xdwXn75kM",
    "sick": 2458,
    "invisible": false
  },
  {
    "longitude": -71.347573,
    "name": "Amazonas (Colombia)",
    "country": "CO",
    "lastUpdated": "2020-05-07T03:41:08.848Z",
    "dead": 14,
    "id": "C25xSDm4iYibX5RYML14",
    "infected": 230,
    "recovered": 0,
    "latitude": -1.333845,
    "pop": 74751,
    "sick": 216,
    "invisible": false
  },
  {
    "latitude": 40.719042,
    "pop": 19540000,
    "longitude": -73.982597,
    "name": "New York",
    "country": "US",
    "lastUpdated": "2020-05-07T03:39:09.568Z",
    "dead": 25956,
    "id": "C3BCUzV80z9GfiuByIcr",
    "infected": 333491,
    "recovered": 0,
    "sick": 307535,
    "invisible": false
  },
  {
    "infected": 7974,
    "recovered": 4205,
    "latitude": 49.731626,
    "pop": 10650000,
    "longitude": 15.359413,
    "name": "Czechia",
    "country": "CZ",
    "lastUpdated": "2020-05-07T03:40:09.001Z",
    "dead": 262,
    "id": "C6S76AggdWVU8G22jFHQ",
    "sick": 3507,
    "invisible": false
  },
  {
    "latitude": 26.0667,
    "pop": 1493000,
    "longitude": 50.557701,
    "name": "Bahrain",
    "country": "BH",
    "lastUpdated": "2020-05-07T03:40:09.002Z",
    "dead": 8,
    "id": "C7cj4nwRITs13KnaJrQ2",
    "infected": 3934,
    "recovered": 1860,
    "sick": 2066,
    "invisible": false
  },
  {
    "longitude": -74.4057,
    "name": "Magdalena",
    "country": "CO",
    "lastUpdated": "2020-05-07T03:41:08.848Z",
    "dead": 6,
    "id": "CA9LaAl3bNaeAqBuozn4",
    "infected": 69,
    "recovered": 15,
    "latitude": 10.4113,
    "pop": 1285400,
    "sick": 48,
    "invisible": false
  },
  {
    "pop": 3073500,
    "longitude": -101.430756,
    "name": "Coahuila",
    "country": "MX",
    "lastUpdated": "2020-05-07T03:32:15.296Z",
    "dead": 49,
    "id": "CCUFp4urvgXPo5unfMGy",
    "infected": 517,
    "recovered": 0,
    "latitude": 26.909979,
    "sick": 468,
    "invisible": false
  },
  {
    "id": "CKZCZTPlrcq5fbfUPA9k",
    "infected": 3317,
    "recovered": 1739,
    "latitude": 27.0238,
    "pop": 68890000,
    "longitude": 74.2179,
    "name": "Rajasthan",
    "country": "IN",
    "lastUpdated": "2020-05-07T03:41:01.314Z",
    "dead": 93,
    "sick": 1485,
    "invisible": false
  },
  {
    "pop": 218000,
    "longitude": 86.2199,
    "name": "Altai",
    "country": "RU",
    "lastUpdated": "2020-05-07T03:34:15.027Z",
    "dead": 0,
    "id": "CX8z9U1iABNBhc1VK2Dy",
    "infected": 38,
    "recovered": 3,
    "latitude": 50.6182,
    "sick": 35,
    "invisible": false
  },
  {
    "lastUpdated": "2020-05-07T03:40:09.009Z",
    "dead": 15,
    "id": "Cgvmtle61ehMvCzRzYx7",
    "infected": 633,
    "recovered": 219,
    "latitude": 13.803,
    "pop": 6378000,
    "longitude": -88.9053,
    "name": "El Salvador",
    "country": "SV",
    "sick": 399,
    "invisible": false
  },
  {
    "latitude": 62.6643,
    "pop": 144000,
    "longitude": 153.915,
    "name": "Magadan Oblast",
    "country": "RU",
    "lastUpdated": "2020-05-07T03:34:15.027Z",
    "dead": 2,
    "id": "D4WkbqyUXY1pazbOxfKx",
    "infected": 136,
    "recovered": 56,
    "sick": 78,
    "invisible": false
  },
  {
    "longitude": 82.6765,
    "name": "Tomsk Oblast",
    "country": "RU",
    "lastUpdated": "2020-05-07T03:34:15.027Z",
    "dead": 1,
    "id": "DAp3PFow4BuCMYWWTo3i",
    "infected": 160,
    "recovered": 34,
    "latitude": 58.897,
    "pop": 1078000,
    "sick": 125,
    "invisible": false
  },
  {
    "infected": 2782,
    "recovered": 1135,
    "latitude": 40.259003,
    "pop": 2973000,
    "longitude": 44.818474,
    "name": "Armenia",
    "country": "AM",
    "lastUpdated": "2020-05-07T03:40:09.002Z",
    "dead": 40,
    "id": "DCJCtZoBTWQ4mzdDNljD",
    "sick": 1607,
    "invisible": false
  },
  {
    "infected": 60,
    "recovered": 18,
    "latitude": 5.535,
    "pop": 1278000,
    "longitude": -73.368,
    "name": "Boyacá",
    "country": "CO",
    "lastUpdated": "2020-05-07T03:41:08.848Z",
    "dead": 3,
    "id": "DJJraANgQbEqz1wBBtZz",
    "sick": 39,
    "invisible": false
  },
  {
    "lastUpdated": "2020-05-07T03:34:15.022Z",
    "dead": 5,
    "id": "DKwy7USk22oXUQGEvO42",
    "infected": 977,
    "recovered": 140,
    "latitude": 54.2369,
    "pop": 834000,
    "longitude": 44.0684,
    "name": "Mordovia",
    "country": "RU",
    "sick": 832,
    "invisible": false
  },
  {
    "id": "DPwBt2aJuwF0O71vwfM9",
    "infected": 21000,
    "recovered": 0,
    "latitude": 53.6221,
    "pop": 7300000,
    "longitude": -2.5945,
    "name": "North West",
    "country": "GB",
    "lastUpdated": "2020-05-07T03:40:28.540Z",
    "dead": 0,
    "sick": 21000,
    "invisible": false
  },
  {
    "infected": 118,
    "recovered": 59,
    "latitude": 32.3213844,
    "pop": 65440,
    "longitude": -64.75737,
    "name": "Bermuda",
    "country": "BM",
    "lastUpdated": "2020-05-07T03:40:09.017Z",
    "dead": 7,
    "id": "DZyTD0Mu5WIcK6yTcJ91",
    "sick": 52,
    "invisible": false
  },
  {
    "infected": 12,
    "recovered": 6,
    "latitude": 21.694,
    "pop": 35446,
    "longitude": -71.7979,
    "name": "Turks and Caicos",
    "country": "TC",
    "lastUpdated": "2020-05-07T03:40:09.062Z",
    "dead": 1,
    "id": "DaMrRSIGJXIG36nW0Pnc",
    "sick": 5,
    "invisible": false
  },
  {
    "latitude": 39.2796,
    "pop": 2035000,
    "longitude": -3.0977,
    "name": "Castilla La Mancha",
    "country": "ES",
    "lastUpdated": "2020-05-07T03:32:09.523Z",
    "dead": 2647,
    "id": "Dbng0NBTH41EEwBxhMzE",
    "infected": 22166,
    "recovered": 5862,
    "sick": 13657,
    "invisible": false
  },
  {
    "infected": 1009,
    "recovered": 0,
    "latitude": 50.023,
    "pop": 3361000,
    "longitude": 20.006,
    "name": "Malopolskie",
    "country": "PL",
    "lastUpdated": "2020-05-07T03:33:09.627Z",
    "dead": 32,
    "id": "DcQ3D0WkacXEbv6iznRB",
    "sick": 977,
    "invisible": false
  },
  {
    "lastUpdated": "2020-05-07T03:40:09.022Z",
    "dead": 0,
    "id": "DdBt8qsG6A3g92oOR3ow",
    "infected": 45,
    "recovered": 39,
    "latitude": 22.192039,
    "pop": 622567,
    "longitude": 113.551262,
    "name": "Macao",
    "country": "MO",
    "sick": 6,
    "invisible": false
  },
  {
    "id": "Dh0O1vmhrVfmsCsfZCUg",
    "infected": 12,
    "recovered": 10,
    "latitude": 25.467,
    "pop": 2651000,
    "longitude": 91.3662,
    "name": "Meghalaya",
    "country": "IN",
    "lastUpdated": "2020-05-07T03:41:01.317Z",
    "dead": 1,
    "sick": 1,
    "invisible": false
  },
  {
    "latitude": 47.6853,
    "pop": 4220000,
    "longitude": 41.8259,
    "name": "Rostov Oblast",
    "country": "RU",
    "lastUpdated": "2020-05-07T03:34:14.998Z",
    "dead": 12,
    "id": "DqzAhNFTJFQVm88ma21P",
    "infected": 1434,
    "recovered": 168,
    "sick": 1254,
    "invisible": false
  },
  {
    "latitude": 42.962334,
    "pop": 577737,
    "longitude": -107.534868,
    "name": "Wyoming",
    "country": "US",
    "lastUpdated": "2020-05-07T03:39:09.575Z",
    "dead": 7,
    "id": "DrGzziUglmBognCGY7R2",
    "infected": 631,
    "recovered": 0,
    "sick": 624,
    "invisible": false
  },
  {
    "infected": 2663,
    "recovered": 1374,
    "latitude": 37.9838,
    "pop": 10740000,
    "longitude": 23.7275,
    "name": "Greece",
    "country": "GR",
    "lastUpdated": "2020-05-07T03:40:09.003Z",
    "dead": 147,
    "id": "Dtr1lap1RpJpXJdXGJiW",
    "sick": 1142,
    "invisible": false
  },
  {
    "latitude": 58.8232,
    "pop": 2623000,
    "longitude": 56.5872,
    "name": "Perm Krai",
    "country": "RU",
    "lastUpdated": "2020-05-07T03:34:15.024Z",
    "dead": 9,
    "id": "E8vIyXLVNtcY9dxLHICp",
    "infected": 673,
    "recovered": 218,
    "sick": 446,
    "invisible": false
  },
  {
    "infected": 658,
    "recovered": 215,
    "latitude": 56.9634,
    "pop": 3692000,
    "longitude": 66.9483,
    "name": "Tyumen Oblast",
    "country": "RU",
    "lastUpdated": "2020-05-07T03:34:15.024Z",
    "dead": 4,
    "id": "EHKZ6ivhrJUs3XqNDBOw",
    "sick": 439,
    "invisible": false
  },
  {
    "latitude": 25.03841,
    "pop": 23780000,
    "longitude": 121.563698,
    "name": "Taiwan",
    "country": "TW",
    "lastUpdated": "2020-05-07T03:40:09.011Z",
    "dead": 6,
    "id": "EKTfs8e7M6DXzI1HqyyX",
    "infected": 439,
    "recovered": 339,
    "sick": 94,
    "invisible": false
  },
  {
    "pop": 4906000,
    "longitude": -84.387618,
    "name": "Costa Rica",
    "country": "CR",
    "lastUpdated": "2020-05-07T03:40:09.008Z",
    "dead": 6,
    "id": "EQzJvzVHKjs8kLmK7BMu",
    "infected": 761,
    "recovered": 428,
    "latitude": 10.327273,
    "sick": 327,
    "invisible": false
  },
  {
    "infected": 6625,
    "recovered": 1500,
    "latitude": 22.2587,
    "pop": 62700000,
    "longitude": 71.1924,
    "name": "Gujarat",
    "country": "IN",
    "lastUpdated": "2020-05-07T03:41:01.314Z",
    "dead": 396,
    "id": "ERwk9R9en4m9WbdoMbIg",
    "sick": 4729,
    "invisible": false
  },
  {
    "infected": 329,
    "recovered": 115,
    "latitude": 63.2853,
    "pop": 1155000,
    "longitude": 42.5884,
    "name": "Arkhangelsk Oblast",
    "country": "RU",
    "lastUpdated": "2020-05-07T03:34:15.026Z",
    "dead": 1,
    "id": "EVMBsgCJedjHy91mDYEC",
    "sick": 213,
    "invisible": false
  },
  {
    "infected": 124,
    "recovered": 21,
    "latitude": 30.7333,
    "pop": 1055000,
    "longitude": 76.7794,
    "name": "Chandigarh",
    "country": "IN",
    "lastUpdated": "2020-05-07T03:41:01.316Z",
    "dead": 1,
    "id": "Esl5UlCVB9s8pmGB5Ofr",
    "sick": 102,
    "invisible": false
  },
  {
    "infected": 380,
    "recovered": 0,
    "latitude": 51.24,
    "pop": 2148000,
    "longitude": 22.653,
    "name": "Lubelskie",
    "country": "PL",
    "lastUpdated": "2020-05-07T03:33:09.627Z",
    "dead": 14,
    "id": "Esy1La2CxwH5uB8bGVWZ",
    "sick": 366,
    "invisible": false
  },
  {
    "infected": 1968,
    "recovered": 0,
    "latitude": 18.200178,
    "pop": 3195000,
    "longitude": -66.664513,
    "name": "Puerto Rico",
    "country": "PR",
    "lastUpdated": "2020-05-07T03:39:09.575Z",
    "dead": 99,
    "id": "F4rPrEVGAIMM5rfPEMv4",
    "sick": 1869,
    "invisible": false
  },
  {
    "latitude": 4.862437,
    "pop": 2919000,
    "longitude": -74.058655,
    "name": "Cundinamarca",
    "country": "CO",
    "lastUpdated": "2020-05-07T03:41:08.847Z",
    "dead": 13,
    "id": "F7MED5VwEhi3JvJu6KjB",
    "infected": 259,
    "recovered": 114,
    "sick": 132,
    "invisible": false
  },
  {
    "latitude": -11.6455,
    "pop": 832322,
    "longitude": 43.3333,
    "name": "Comoros",
    "country": "KM",
    "lastUpdated": "2020-05-07T03:40:09.062Z",
    "dead": 1,
    "id": "F8LnLqvuWoWh8awBqiw1",
    "infected": 8,
    "recovered": 0,
    "sick": 7,
    "invisible": false
  },
  {
    "id": "FCDmlmnIIswd8bQiUjfN",
    "infected": 3392,
    "recovered": 458,
    "latitude": 33.93911,
    "pop": 35530000,
    "longitude": 67.709953,
    "name": "Afghanistan",
    "country": "AF",
    "lastUpdated": "2020-05-07T03:40:09.002Z",
    "dead": 104,
    "sick": 2830,
    "invisible": false
  },
  {
    "lastUpdated": "2020-05-07T03:38:12.409Z",
    "dead": 6,
    "id": "FErOU1m4Tj7jIkRam3vF",
    "infected": 579,
    "recovered": 573,
    "latitude": 29.431585,
    "pop": 30480000,
    "longitude": 106.912254,
    "name": "Chongqing",
    "country": "CN",
    "sick": 0,
    "invisible": false
  },
  {
    "latitude": 29.311661,
    "pop": 4137000,
    "longitude": 47.481766,
    "name": "Kuwait",
    "country": "KW",
    "lastUpdated": "2020-05-07T03:40:09.001Z",
    "dead": 42,
    "id": "FZsUkhxBEgqsPb4eO0PN",
    "infected": 6289,
    "recovered": 2219,
    "sick": 4028,
    "invisible": false
  },
  {
    "longitude": -37.0717,
    "name": "Sergipe",
    "country": "BR",
    "lastUpdated": "2020-05-07T03:41:02.826Z",
    "dead": 23,
    "id": "FboWeolpM62SZCLwdilT",
    "infected": 998,
    "recovered": 0,
    "latitude": -10.9111,
    "pop": 2278308,
    "sick": 975,
    "invisible": false
  },
  {
    "infected": 4829,
    "recovered": 1516,
    "latitude": 11.1271,
    "pop": 67860000,
    "longitude": 78.6569,
    "name": "Tamil Nadu",
    "country": "IN",
    "lastUpdated": "2020-05-07T03:41:01.314Z",
    "dead": 35,
    "id": "FeS45oMNC27pI17F0xEV",
    "sick": 3278,
    "invisible": false
  },
  {
    "latitude": 18.947829,
    "pop": 10770000,
    "longitude": -70.430399,
    "name": "Dominican Republic",
    "country": "DO",
    "lastUpdated": "2020-05-07T03:40:09.000Z",
    "dead": 362,
    "id": "FuiVEJvWb0QMCpxJ3563",
    "infected": 8807,
    "recovered": 1960,
    "sick": 6485,
    "invisible": false
  },
  {
    "longitude": 79.0193,
    "name": "Telengana",
    "country": "IN",
    "lastUpdated": "2020-05-07T03:41:01.315Z",
    "dead": 29,
    "id": "FyC551oNwmENxbr9Yght",
    "infected": 1107,
    "recovered": 648,
    "latitude": 18.1124,
    "pop": 35190000,
    "sick": 430,
    "invisible": false
  },
  {
    "infected": 1429,
    "recovered": 762,
    "latitude": 48.669,
    "pop": 5450000,
    "longitude": 19.699,
    "name": "Slovakia",
    "country": "SK",
    "lastUpdated": "2020-05-07T03:40:09.006Z",
    "dead": 25,
    "id": "FzIDXoqWnTI3nUfhPyT2",
    "sick": 642,
    "invisible": false
  },
  {
    "id": "GAp7Wb6IMhdgbvEtMza9",
    "infected": 24073,
    "recovered": 6464,
    "latitude": 30.37532,
    "pop": 197000000,
    "longitude": 69.345116,
    "name": "Pakistan",
    "country": "PK",
    "lastUpdated": "2020-05-07T03:40:08.998Z",
    "dead": 564,
    "sick": 17045,
    "invisible": false
  },
  {
    "id": "GGru8cG08mANO8XDDUtZ",
    "infected": 1526,
    "recovered": 135,
    "latitude": 31.1471,
    "pop": 27980000,
    "longitude": 75.3412,
    "name": "Punjab",
    "country": "IN",
    "lastUpdated": "2020-05-07T03:41:01.315Z",
    "dead": 27,
    "sick": 1364,
    "invisible": false
  },
  {
    "recovered": 3359,
    "latitude": 23.424076,
    "pop": 9400000,
    "longitude": 53.847816,
    "name": "United Arab Emirates",
    "country": "AE",
    "lastUpdated": "2020-05-07T03:40:08.999Z",
    "dead": 157,
    "id": "GHzBIsHy2GiBc5JV2HMs",
    "infected": 15738,
    "sick": 12222,
    "invisible": false
  },
  {
    "longitude": -95.7129,
    "name": "Grand Princess",
    "country": "US",
    "lastUpdated": "2020-05-07T03:39:09.576Z",
    "dead": 3,
    "id": "GLViSIjDjwvptOphedAu",
    "invisible": true,
    "infected": 103,
    "recovered": 0,
    "latitude": 37.0902,
    "sick": 100
  },
  {
    "lastUpdated": "2020-05-07T03:40:28.539Z",
    "dead": 0,
    "id": "GPtoS0Yy2EnNafpmmTqY",
    "infected": 25357,
    "recovered": 0,
    "latitude": 51.5074,
    "pop": 10100000,
    "longitude": -0.1278,
    "name": "London",
    "country": "GB",
    "sick": 25357,
    "invisible": false
  },
  {
    "infected": 60595,
    "recovered": 0,
    "latitude": 36.621981,
    "pop": 39560000,
    "longitude": -119.339046,
    "name": "California",
    "country": "US",
    "lastUpdated": "2020-05-07T03:39:09.570Z",
    "dead": 2460,
    "id": "Gh46r6vuaY7fbGt3IboN",
    "sick": 58135,
    "invisible": false
  },
  {
    "lastUpdated": "2020-05-07T03:41:01.320Z",
    "dead": 0,
    "id": "GljWeVnun6o9DeW6rlEm",
    "infected": 1,
    "recovered": 0,
    "latitude": 20.4283,
    "pop": 343709,
    "longitude": 72.8397,
    "name": "Dadra and Nagar Haveli",
    "country": "IN",
    "sick": 1,
    "invisible": false
  },
  {
    "lastUpdated": "2020-05-07T03:39:09.574Z",
    "dead": 253,
    "id": "GpF8ULuKOQiFDCUHN44h",
    "infected": 4201,
    "recovered": 0,
    "latitude": 35.87189,
    "pop": 3943000,
    "longitude": -97.145514,
    "name": "Oklahoma",
    "country": "US",
    "sick": 3948,
    "invisible": false
  },
  {
    "infected": 537,
    "recovered": 102,
    "latitude": 57.1057,
    "pop": 1014000,
    "longitude": 41.483,
    "name": "Ivanovo Oblast",
    "country": "RU",
    "lastUpdated": "2020-05-07T03:34:15.025Z",
    "dead": 7,
    "id": "GsecjBfopdgTOnyRgtCA",
    "sick": 428,
    "invisible": false
  },
  {
    "infected": 2543,
    "recovered": 1678,
    "latitude": 46.5,
    "pop": 520891,
    "longitude": 11.35,
    "name": "P.A. Bolzano",
    "country": "IT",
    "lastUpdated": "2020-05-07T03:31:01.687Z",
    "dead": 286,
    "id": "Gzx6GX1qhBm714BkEC6l",
    "sick": 579,
    "invisible": false
  },
  {
    "latitude": 42.83263,
    "pop": 24710000,
    "longitude": 113.750972,
    "name": "Inner Mongolia",
    "country": "CN",
    "lastUpdated": "2020-05-07T03:38:12.407Z",
    "dead": 1,
    "id": "H3JeVigVbo5CSYfZG4WI",
    "infected": 201,
    "recovered": 171,
    "sick": 29,
    "invisible": false
  },
  {
    "lastUpdated": "2020-05-07T03:39:09.574Z",
    "dead": 286,
    "id": "H3bDg4eV30up4WWrIDAS",
    "infected": 5663,
    "recovered": 0,
    "latitude": 39.74536,
    "pop": 3034000,
    "longitude": -116.724977,
    "name": "Nevada",
    "country": "US",
    "sick": 5377,
    "invisible": false
  },
  {
    "lastUpdated": "2020-05-07T03:41:02.823Z",
    "dead": 848,
    "id": "HEMWNnFxeFEoeOCBOLJD",
    "infected": 12304,
    "recovered": 0,
    "latitude": -3.731862,
    "pop": 9075649,
    "longitude": -38.526669,
    "name": "Ceará",
    "country": "BR",
    "sick": 11456,
    "invisible": false
  },
  {
    "lastUpdated": "2020-05-07T03:41:01.315Z",
    "dead": 29,
    "id": "HN5mGmxlqlSeFSNeu1K5",
    "infected": 693,
    "recovered": 354,
    "latitude": 15.3173,
    "pop": 64060000,
    "longitude": 75.7139,
    "name": "Karnataka",
    "country": "IN",
    "sick": 310,
    "invisible": false
  },
  {
    "lastUpdated": "2020-05-07T03:40:09.063Z",
    "dead": 0,
    "id": "HRDpwyxpqW9RN0xLFyNu",
    "infected": 7,
    "recovered": 5,
    "latitude": 27.5142,
    "pop": 807610,
    "longitude": 90.4336,
    "name": "Bhutan",
    "country": "BT",
    "sick": 2,
    "invisible": false
  },
  {
    "infected": 2233,
    "recovered": 1577,
    "latitude": 41.3775,
    "pop": 32390000,
    "longitude": 64.5853,
    "name": "Uzbekistan",
    "country": "UZ",
    "lastUpdated": "2020-05-07T03:40:09.003Z",
    "dead": 10,
    "id": "HRTA10dtrruDEwjJEGMp",
    "sick": 646,
    "invisible": false
  },
  {
    "infected": 4291,
    "recovered": 0,
    "latitude": 34.138916,
    "pop": 2095000,
    "longitude": -105.576255,
    "name": "New Mexico",
    "country": "US",
    "lastUpdated": "2020-05-07T03:39:09.574Z",
    "dead": 169,
    "id": "HSSFomRju0doHhWgW8On",
    "sick": 4122,
    "invisible": false
  },
  {
    "lastUpdated": "2020-05-07T03:41:11.627Z",
    "dead": 4,
    "id": "HZkACHjW7NlYjg8vEMj2",
    "infected": 200,
    "recovered": 0,
    "latitude": -40.231,
    "pop": 412812,
    "longitude": -72.3311,
    "name": "Los Ríos",
    "country": "CL",
    "sick": 196,
    "invisible": false
  },
  {
    "longitude": 12.4296,
    "name": "Mecklenburg-Vorpommern",
    "country": "DE",
    "lastUpdated": "2020-05-07T03:30:03.005Z",
    "dead": 20,
    "id": "He1gSS1v50t06i3YrqvB",
    "infected": 717,
    "recovered": 643,
    "latitude": 53.6127,
    "pop": 1635000,
    "sick": 54,
    "invisible": false
  },
  {
    "infected": 3047,
    "recovered": 915,
    "latitude": 42.25,
    "pop": 1315000,
    "longitude": 13.75,
    "name": "Abruzzo",
    "country": "IT",
    "lastUpdated": "2020-05-07T03:31:01.686Z",
    "dead": 341,
    "id": "I9EqrZfbPnkioNU4wZGz",
    "sick": 1791,
    "invisible": false
  },
  {
    "infected": 1589,
    "recovered": 1575,
    "latitude": 23.363855,
    "pop": 113460000,
    "longitude": 113.373448,
    "name": "Guangdong",
    "country": "CN",
    "lastUpdated": "2020-05-07T03:38:12.408Z",
    "dead": 8,
    "id": "IAX0OQLVnUwU7FX0ENF1",
    "sick": 6,
    "invisible": false
  },
  {
    "lastUpdated": "2020-05-07T03:38:12.408Z",
    "dead": 22,
    "id": "IFuMrMvSjoiX5agYvllh",
    "infected": 1276,
    "recovered": 1254,
    "latitude": 33.875408,
    "pop": 94000000,
    "longitude": 113.484016,
    "name": "Henan",
    "country": "CN",
    "sick": 0,
    "invisible": false
  },
  {
    "latitude": 37.2,
    "pop": 451000,
    "longitude": -8.16667,
    "name": "Algarve",
    "country": "PT",
    "lastUpdated": "2020-05-07T03:34:02.338Z",
    "dead": 13,
    "id": "IHqRHC8K3OZPN8gniM7V",
    "infected": 342,
    "recovered": 0,
    "sick": 329,
    "invisible": false
  },
  {
    "lastUpdated": "2020-05-07T03:41:08.848Z",
    "dead": 3,
    "id": "IKWjRUo0SYgHQKdWjTvq",
    "infected": 48,
    "recovered": 2,
    "latitude": 3.883,
    "pop": 333194,
    "longitude": -77.0197,
    "name": "Buenaventura D.E.",
    "country": "CO",
    "sick": 43,
    "invisible": false
  },
  {
    "infected": 7292,
    "recovered": 0,
    "latitude": 52.87,
    "pop": 4811000,
    "longitude": -0.995,
    "name": "East Midlands",
    "country": "GB",
    "lastUpdated": "2020-05-07T03:40:28.538Z",
    "dead": 0,
    "id": "INyu1R48Ppv8cfW4Nuz4",
    "sick": 7292,
    "invisible": false
  },
  {
    "infected": 358,
    "recovered": 0,
    "latitude": 22.017,
    "pop": 1342600,
    "longitude": -102.317,
    "name": "Aguascalientes",
    "country": "MX",
    "lastUpdated": "2020-05-07T03:32:15.297Z",
    "dead": 10,
    "id": "ISRKMzEDojyrZ9iyWwex",
    "sick": 348,
    "invisible": false
  },
  {
    "pop": 5321300,
    "longitude": -100.316116,
    "name": "Nuevo León",
    "country": "MX",
    "lastUpdated": "2020-05-07T03:32:15.297Z",
    "dead": 29,
    "id": "IdKbgzgKLpjBFh4UPOwu",
    "infected": 909,
    "recovered": 0,
    "latitude": 25.686613,
    "sick": 880,
    "invisible": false
  },
  {
    "lastUpdated": "2020-05-07T03:32:15.293Z",
    "dead": 125,
    "id": "IhhiYI6T0TX4CYVPcnmH",
    "infected": 684,
    "recovered": 0,
    "latitude": 28.632996,
    "pop": 3826900,
    "longitude": -106.069099,
    "name": "Chihuahua",
    "country": "MX",
    "sick": 559,
    "invisible": false
  },
  {
    "infected": 791,
    "recovered": 0,
    "latitude": -36.7,
    "pop": 480600,
    "longitude": -72.57,
    "name": "Ñuble",
    "country": "CL",
    "lastUpdated": "2020-05-07T03:41:11.627Z",
    "dead": 17,
    "id": "ImnOiVx9Cb8Nw7cbRcQ7",
    "sick": 774,
    "invisible": false
  },
  {
    "latitude": 19.0558,
    "pop": 10980000,
    "longitude": -73.0513,
    "name": "Haiti",
    "country": "HT",
    "lastUpdated": "2020-05-07T03:40:09.017Z",
    "dead": 12,
    "id": "InZ38sIqyK7FN7XAOZoX",
    "infected": 101,
    "recovered": 10,
    "sick": 79,
    "invisible": false
  },
  {
    "latitude": 32.528564,
    "pop": 10520000,
    "longitude": -83.280125,
    "name": "Georgia (US)",
    "country": "US",
    "lastUpdated": "2020-05-07T03:39:09.571Z",
    "dead": 1327,
    "id": "IvQkDJkTAsoIqPRAU25n",
    "infected": 30739,
    "recovered": 0,
    "sick": 29412,
    "invisible": false
  },
  {
    "recovered": 1332,
    "latitude": -42.8285,
    "pop": 4794000,
    "longitude": 172.488081,
    "name": "New Zealand",
    "country": "NZ",
    "lastUpdated": "2020-05-07T03:40:09.005Z",
    "dead": 21,
    "id": "IvVhpOoGpH6JVkGyUhXN",
    "infected": 1489,
    "sick": 136,
    "invisible": false
  },
  {
    "lastUpdated": "2020-05-07T03:41:01.319Z",
    "dead": 0,
    "id": "IwYKiIVY18NGwdGQFGWW",
    "infected": 1,
    "recovered": 1,
    "latitude": 28.218,
    "pop": 1255000,
    "longitude": 94.7278,
    "name": "Arunachal Pradesh",
    "country": "IN",
    "sick": 0,
    "invisible": false
  },
  {
    "infected": 379,
    "recovered": 176,
    "latitude": 6.4238,
    "pop": 31980000,
    "longitude": -66.5897,
    "name": "Venezuela",
    "country": "VE",
    "lastUpdated": "2020-05-07T03:40:09.011Z",
    "dead": 10,
    "id": "J3mZXlfEnnJx4CDZLvRG",
    "sick": 193,
    "invisible": false
  },
  {
    "latitude": 44.8229,
    "pop": 453000,
    "longitude": 40.1754,
    "name": "Adygea",
    "country": "RU",
    "lastUpdated": "2020-05-07T03:34:15.026Z",
    "dead": 7,
    "id": "JOJVBvOnsLDJPVeYJaI2",
    "infected": 202,
    "recovered": 107,
    "sick": 88,
    "invisible": false
  },
  {
    "latitude": 35.1264,
    "pop": 1170000,
    "longitude": 33.4299,
    "name": "Cyprus",
    "country": "CY",
    "lastUpdated": "2020-05-07T03:40:09.007Z",
    "dead": 15,
    "id": "JQByE4l2OA6sGOqIcWrM",
    "infected": 883,
    "recovered": 296,
    "sick": 572,
    "invisible": false
  },
  {
    "latitude": 25.0961,
    "pop": 99020000,
    "longitude": 85.3131,
    "name": "Bihar",
    "country": "IN",
    "lastUpdated": "2020-05-07T03:41:01.315Z",
    "dead": 4,
    "id": "JR7hOGked7CZtIs2nCV5",
    "infected": 542,
    "recovered": 188,
    "sick": 350,
    "invisible": false
  },
  {
    "recovered": 86,
    "latitude": 14.628434,
    "pop": 17250000,
    "longitude": -90.522713,
    "name": "Guatemala",
    "country": "GT",
    "lastUpdated": "2020-05-07T03:40:09.008Z",
    "dead": 21,
    "id": "JUWE6bG3b5oL7fKQMSvv",
    "infected": 798,
    "sick": 691,
    "invisible": false
  },
  {
    "latitude": 49.8153,
    "pop": 602005,
    "longitude": 6.1296,
    "name": "Luxembourg",
    "country": "LU",
    "lastUpdated": "2020-05-07T03:40:09.002Z",
    "dead": 98,
    "id": "JcFsHSn2WvZ5LJW42ovG",
    "infected": 3851,
    "recovered": 3452,
    "sick": 301,
    "invisible": false
  },
  {
    "infected": 31,
    "recovered": 11,
    "latitude": 8.8,
    "pop": 2049000,
    "longitude": -74.167,
    "name": "Bolívar",
    "country": "CO",
    "lastUpdated": "2020-05-07T03:41:08.848Z",
    "dead": 3,
    "id": "JmOyaFe25yZCIV64JbZj",
    "sick": 17,
    "invisible": false
  },
  {
    "latitude": 31.4,
    "pop": 3648100,
    "longitude": -115.783,
    "name": "Baja California",
    "country": "MX",
    "lastUpdated": "2020-05-07T03:32:15.292Z",
    "dead": 323,
    "id": "Jp9ePErcc8i1aOozEAMf",
    "infected": 2097,
    "recovered": 0,
    "sick": 1774,
    "invisible": false
  },
  {
    "infected": 30,
    "recovered": 9,
    "latitude": 8.7479801,
    "pop": 1786500,
    "longitude": -75.8814316,
    "name": "Córdoba",
    "country": "CO",
    "lastUpdated": "2020-05-07T03:41:08.848Z",
    "dead": 3,
    "id": "Jr8syCB0lydmPDXw8Q6N",
    "sick": 18,
    "invisible": false
  },
  {
    "recovered": 77,
    "latitude": 8.6195,
    "pop": 7798000,
    "longitude": 0.8248,
    "name": "Togo",
    "country": "TG",
    "lastUpdated": "2020-05-07T03:40:09.017Z",
    "dead": 9,
    "id": "JrBbirlBKGdWSdcDt7PF",
    "infected": 128,
    "sick": 42,
    "invisible": false
  },
  {
    "infected": 1778,
    "recovered": 360,
    "latitude": 42.7339,
    "pop": 7050000,
    "longitude": 25.4858,
    "name": "Bulgaria",
    "country": "BG",
    "lastUpdated": "2020-05-07T03:40:09.005Z",
    "dead": 84,
    "id": "JzZ8sbqzjutThVjkPKPL",
    "sick": 1334,
    "invisible": false
  },
  {
    "longitude": 20.709,
    "name": "Świętokrzyskie",
    "country": "PL",
    "lastUpdated": "2020-05-07T03:33:09.628Z",
    "dead": 10,
    "id": "KGrK7gafkeWjmU6sHQd2",
    "infected": 300,
    "recovered": 0,
    "latitude": 50.823,
    "pop": 1263000,
    "sick": 290,
    "invisible": false
  },
  {
    "infected": 1353,
    "recovered": 193,
    "latitude": 59.0077,
    "pop": 4325000,
    "longitude": 61.9316,
    "name": "Sverdlovsk Oblast",
    "country": "RU",
    "lastUpdated": "2020-05-07T03:34:14.998Z",
    "dead": 3,
    "id": "KLBR5QHW6DePaGcFxlqH",
    "sick": 1157,
    "invisible": false
  },
  {
    "infected": 8551,
    "recovered": 4002,
    "latitude": 44.5,
    "pop": 1557000,
    "longitude": 8.833,
    "name": "Liguria",
    "country": "IT",
    "lastUpdated": "2020-05-07T03:31:01.690Z",
    "dead": 1243,
    "id": "KLXicxFogWnu0dLp4bNK",
    "sick": 3306,
    "invisible": false
  },
  {
    "longitude": 47.9608,
    "name": "Mari El Republic",
    "country": "RU",
    "lastUpdated": "2020-05-07T03:34:15.023Z",
    "dead": 4,
    "id": "KUnAVGJH6fLwFetE8A2x",
    "infected": 783,
    "recovered": 458,
    "latitude": 56.4385,
    "pop": 682000,
    "sick": 321,
    "invisible": false
  },
  {
    "longitude": -73.2532,
    "name": "Cesar",
    "country": "CO",
    "lastUpdated": "2020-05-07T03:41:08.847Z",
    "dead": 10,
    "id": "KpOz3WmiZkrXUMlUJNlV",
    "infected": 70,
    "recovered": 36,
    "latitude": 10.4631,
    "pop": 1201000,
    "sick": 24,
    "invisible": false
  },
  {
    "infected": 9657,
    "recovered": 3670,
    "latitude": 43.4167,
    "pop": 3737000,
    "longitude": 11,
    "name": "Toscana",
    "country": "IT",
    "lastUpdated": "2020-05-07T03:31:01.694Z",
    "dead": 899,
    "id": "KrLrJbpDqqiXgUPGCCW9",
    "sick": 5088,
    "invisible": false
  },
  {
    "recovered": 215,
    "latitude": 7.873054,
    "pop": 21440000,
    "longitude": 80.771797,
    "name": "Sri Lanka",
    "country": "LK",
    "lastUpdated": "2020-05-07T03:40:09.008Z",
    "dead": 9,
    "id": "KsWzJO06cf0d6LJ4ZNh9",
    "infected": 797,
    "sick": 573,
    "invisible": false
  },
  {
    "lastUpdated": "2020-05-07T03:41:01.315Z",
    "dead": 36,
    "id": "KtQIo2DoqjELtPAlyDVO",
    "infected": 1777,
    "recovered": 729,
    "latitude": 15.9129,
    "pop": 49670000,
    "longitude": 79.74,
    "name": "Andhra Pradesh",
    "country": "IN",
    "sick": 1012,
    "invisible": false
  },
  {
    "lastUpdated": "2020-05-06T22:41:08.979Z",
    "dead": 3,
    "id": "LBUtrLDKJiupXjlUNTUe",
    "infected": 38,
    "recovered": 30,
    "latitude": 18.0708,
    "pop": 32125,
    "longitude": -63.0501,
    "name": "Saint-Martin",
    "country": "FR",
    "sick": 5,
    "invisible": false
  },
  {
    "pop": 747000,
    "longitude": 36.9242,
    "name": "Oryol Oblast",
    "country": "RU",
    "lastUpdated": "2020-05-07T03:34:15.023Z",
    "dead": 7,
    "id": "LD8TNScpLrLRvgpQAn9T",
    "infected": 813,
    "recovered": 139,
    "latitude": 52.7856,
    "sick": 667,
    "invisible": false
  },
  {
    "lastUpdated": "2020-05-07T03:40:09.021Z",
    "dead": 1,
    "id": "LTGEU2E9MFkrCcFhZYVk",
    "infected": 82,
    "recovered": 55,
    "latitude": 47.166,
    "pop": 38557,
    "longitude": 9.5554,
    "name": "Liechtenstein",
    "country": "LI",
    "sick": 26,
    "invisible": false
  },
  {
    "id": "LU2QWt5ao8IJa8evNYVV",
    "infected": 1856,
    "recovered": 597,
    "latitude": 9.9456,
    "pop": 12720000,
    "longitude": -9.6966,
    "name": "Guinea",
    "country": "GN",
    "lastUpdated": "2020-05-07T03:40:09.004Z",
    "dead": 11,
    "sick": 1248,
    "invisible": false
  },
  {
    "lastUpdated": "2020-05-07T03:32:15.293Z",
    "dead": 41,
    "id": "LYCBHrA9ms6GcxpLGPCT",
    "infected": 392,
    "recovered": 0,
    "latitude": 29.6667,
    "pop": 3062000,
    "longitude": -110.5,
    "name": "Sonora",
    "country": "MX",
    "sick": 351,
    "invisible": false
  },
  {
    "latitude": 3.9193051,
    "pop": 563402,
    "longitude": -56.0277824,
    "name": "Suriname",
    "country": "SR",
    "lastUpdated": "2020-05-07T03:40:09.062Z",
    "dead": 1,
    "id": "LglKINHyQpYpFxjckbQ6",
    "infected": 10,
    "recovered": 9,
    "sick": 0,
    "invisible": false
  },
  {
    "infected": 512,
    "recovered": 0,
    "latitude": 52.9399,
    "pop": 1174000,
    "longitude": -106.4509,
    "name": "Saskatchewan",
    "country": "CA",
    "lastUpdated": "2020-05-07T03:27:01.439Z",
    "dead": 7,
    "id": "LkIDKY0CMAqzbwBHyYCP",
    "sick": 505,
    "invisible": false
  },
  {
    "recovered": 5,
    "latitude": 24.2155,
    "pop": 636442,
    "longitude": -12.8858,
    "name": "Western Sahara",
    "country": "EH",
    "lastUpdated": "2020-05-07T03:40:09.063Z",
    "dead": 0,
    "id": "LooNn6RuMiDhQnwa9svw",
    "infected": 6,
    "sick": 1,
    "invisible": false
  },
  {
    "lastUpdated": "2020-05-07T03:32:09.519Z",
    "dead": 287,
    "id": "Lsga7AvYNnY0qQ5gEfV8",
    "infected": 3073,
    "recovered": 953,
    "latitude": 43.363129,
    "pop": 1022000,
    "longitude": -5.951843,
    "name": "Principado de Asturias",
    "country": "ES",
    "sick": 1833,
    "invisible": false
  },
  {
    "recovered": 2189,
    "latitude": 39.4937,
    "pop": 1065000,
    "longitude": -6.0679,
    "name": "Extremadura",
    "country": "ES",
    "lastUpdated": "2020-05-07T03:32:09.520Z",
    "dead": 463,
    "id": "LuEErlF7dVKI0eJsRjFm",
    "infected": 3746,
    "sick": 1094,
    "invisible": false
  },
  {
    "recovered": 0,
    "latitude": 21.0186,
    "pop": 5965000,
    "longitude": -101.2591,
    "name": "Guanajuato",
    "country": "MX",
    "lastUpdated": "2020-05-07T03:32:15.296Z",
    "dead": 41,
    "id": "M3wdiueFtwrUHiQ2rOXA",
    "infected": 446,
    "sick": 405,
    "invisible": false
  },
  {
    "infected": 5934,
    "recovered": 0,
    "latitude": 37.8393,
    "pop": 4468000,
    "longitude": -84.27,
    "name": "Kentucky",
    "country": "US",
    "lastUpdated": "2020-05-07T03:39:09.573Z",
    "dead": 283,
    "id": "MC8MXFw9iXYybnF8v7e6",
    "sick": 5651,
    "invisible": false
  },
  {
    "latitude": 55.3781,
    "longitude": -3.436,
    "name": "Unknown UK region or state",
    "country": "GB",
    "lastUpdated": "2020-05-07T03:40:28.541Z",
    "dead": 27008,
    "id": "MEjlm8VYdGA28TTTnQmf",
    "invisible": true,
    "infected": 49397,
    "recovered": 0,
    "sick": 22389
  },
  {
    "infected": 15256,
    "recovered": 0,
    "latitude": 41.3006,
    "pop": 3689000,
    "longitude": -7.7441,
    "name": "Norte",
    "country": "PT",
    "lastUpdated": "2020-05-07T03:34:02.328Z",
    "dead": 623,
    "id": "MG4e9tulLJ010SZJvbYN",
    "sick": 14633,
    "invisible": false
  },
  {
    "latitude": 56.4907,
    "pop": 5450000,
    "longitude": -4.2026,
    "name": "Scotland",
    "country": "GB",
    "lastUpdated": "2020-05-07T03:40:28.537Z",
    "dead": 1620,
    "id": "MObRYyIriHG337L8FyFC",
    "infected": 12709,
    "recovered": 0,
    "sick": 11089,
    "invisible": false
  },
  {
    "lastUpdated": "2020-05-07T03:39:09.571Z",
    "dead": 1377,
    "id": "MOxDkmQ4wBi1CuAdVxDE",
    "infected": 21870,
    "recovered": 0,
    "latitude": 40.2672,
    "pop": 6692000,
    "longitude": -86.1349,
    "name": "Indiana",
    "country": "US",
    "sick": 20493,
    "invisible": false
  },
  {
    "pop": 24290000,
    "longitude": -5.5471,
    "name": "Ivory Coast",
    "country": "CI",
    "lastUpdated": "2020-05-07T03:40:09.005Z",
    "dead": 18,
    "id": "MdQOfc1gNh2DOqwSP6UV",
    "infected": 1516,
    "recovered": 721,
    "latitude": 7.54,
    "sick": 777,
    "invisible": false
  },
  {
    "infected": 34401,
    "recovered": 26863,
    "latitude": 51.4332,
    "pop": 17910000,
    "longitude": 7.6616,
    "name": "Nordrhein-Westfalen",
    "country": "DE",
    "lastUpdated": "2020-05-07T03:30:03.005Z",
    "dead": 1386,
    "id": "MjpYq3zQyAvSQlVVYjD2",
    "sick": 6152,
    "invisible": false
  },
  {
    "id": "MntmjjuHljarCdt6aIeE",
    "infected": 75,
    "recovered": 75,
    "latitude": 37.330509,
    "pop": 6301000,
    "longitude": 105.977203,
    "name": "Ningxia",
    "country": "CN",
    "lastUpdated": "2020-05-07T03:38:12.410Z",
    "dead": 0,
    "sick": 0,
    "invisible": false
  },
  {
    "latitude": -3.20166586,
    "pop": 8513497,
    "longitude": -52.203499186,
    "name": "Pará",
    "country": "BR",
    "lastUpdated": "2020-05-07T03:41:02.824Z",
    "dead": 392,
    "id": "MuEB2UgkId5crsxi9zQT",
    "infected": 5017,
    "recovered": 0,
    "sick": 4625,
    "invisible": false
  },
  {
    "latitude": 52.5265,
    "pop": 1150000,
    "longitude": 39.2032,
    "name": "Lipetsk Oblast",
    "country": "RU",
    "lastUpdated": "2020-05-07T03:34:15.024Z",
    "dead": 2,
    "id": "N0KGfqgROVOjAxWcd8wi",
    "infected": 656,
    "recovered": 148,
    "sick": 506,
    "invisible": false
  },
  {
    "infected": 33748,
    "recovered": 26242,
    "latitude": 48.6616,
    "pop": 11020000,
    "longitude": 9.3501,
    "name": "Baden-Württemberg",
    "country": "DE",
    "lastUpdated": "2020-05-07T03:30:03.003Z",
    "dead": 1551,
    "id": "N3XsRBwJSsNclkEf7Zz5",
    "sick": 5955,
    "invisible": false
  },
  {
    "recovered": 928,
    "latitude": 44.696652,
    "pop": 3507000,
    "longitude": 17.824332,
    "name": "Bosnia and Herzegovina",
    "country": "BA",
    "lastUpdated": "2020-05-07T03:40:09.003Z",
    "dead": 86,
    "id": "N7c13sCQF0G789XAVazJ",
    "infected": 1987,
    "sick": 973,
    "invisible": false
  },
  {
    "longitude": 111.856857,
    "name": "Shanxi",
    "country": "CN",
    "lastUpdated": "2020-05-07T03:38:12.408Z",
    "dead": 0,
    "id": "NBRIGIRrJB1Ry8prDNAC",
    "infected": 198,
    "recovered": 194,
    "latitude": 37.242565,
    "pop": 36500000,
    "sick": 4,
    "invisible": false
  },
  {
    "lastUpdated": "2020-05-07T03:39:09.572Z",
    "dead": 493,
    "id": "NC64Qp5kTqAfiTuR27k8",
    "infected": 13054,
    "recovered": 0,
    "latitude": 35.7596,
    "pop": 10380000,
    "longitude": -79.0193,
    "name": "North Carolina",
    "country": "US",
    "sick": 12561,
    "invisible": false
  },
  {
    "recovered": 2360,
    "latitude": 52.4125,
    "pop": 2504000,
    "longitude": 12.5316,
    "name": "Brandenburg",
    "country": "DE",
    "lastUpdated": "2020-05-07T03:30:03.004Z",
    "dead": 154,
    "id": "NJjo2gfBvnbK4xatrsUz",
    "infected": 3097,
    "sick": 583,
    "invisible": false
  },
  {
    "infected": 15,
    "recovered": 0,
    "latitude": 15.0979,
    "pop": 55144,
    "longitude": -145.6739,
    "name": "Northern Mariana Islands",
    "country": "MP",
    "lastUpdated": "2020-05-07T03:39:09.575Z",
    "dead": 2,
    "id": "NLLL6pJhJSw0lrDMD4uP",
    "sick": 13,
    "invisible": false
  },
  {
    "latitude": 30.0668,
    "pop": 10080000,
    "longitude": 79.0193,
    "name": "Uttarakhand",
    "country": "IN",
    "lastUpdated": "2020-05-07T03:41:01.316Z",
    "dead": 1,
    "id": "NMeZEcGToxXfpi16PfFV",
    "infected": 61,
    "recovered": 39,
    "sick": 21,
    "invisible": false
  },
  {
    "longitude": 9.1624,
    "name": "Hessen",
    "country": "DE",
    "lastUpdated": "2020-05-07T03:30:03.005Z",
    "dead": 400,
    "id": "Nk5vPgUIXsWVfbWZf15O",
    "infected": 8738,
    "recovered": 5277,
    "latitude": 50.6521,
    "pop": 6243000,
    "sick": 3061,
    "invisible": false
  },
  {
    "latitude": 56.96776,
    "pop": 1920000,
    "longitude": 25.837107,
    "name": "Latvia",
    "country": "LV",
    "lastUpdated": "2020-05-07T03:40:09.007Z",
    "dead": 17,
    "id": "NmmMKy0YqA8StHdGzB5N",
    "infected": 900,
    "recovered": 464,
    "sick": 419,
    "invisible": false
  },
  {
    "recovered": 0,
    "latitude": -8.472372,
    "pop": 9496294,
    "longitude": -37.946777,
    "name": "Pernambuco",
    "country": "BR",
    "lastUpdated": "2020-05-07T03:41:02.824Z",
    "dead": 803,
    "id": "NyGlFL1gATK1Omv9qtcC",
    "infected": 9881,
    "sick": 9078,
    "invisible": false
  },
  {
    "infected": 178,
    "recovered": 75,
    "latitude": 6.4281,
    "pop": 4732000,
    "longitude": -9.4295,
    "name": "Liberia",
    "country": "LR",
    "lastUpdated": "2020-05-07T03:40:09.013Z",
    "dead": 20,
    "id": "O4g88K49HKEZLFXm5gxb",
    "sick": 83,
    "invisible": false
  },
  {
    "lastUpdated": "2020-05-07T03:34:15.025Z",
    "dead": 3,
    "id": "O5fNOGWKosps6JTrzkpn",
    "infected": 588,
    "recovered": 110,
    "latitude": 51.7936,
    "pop": 2350000,
    "longitude": 82.6759,
    "name": "Altai Krai",
    "country": "RU",
    "sick": 475,
    "invisible": false
  },
  {
    "lastUpdated": "2020-05-07T03:34:15.026Z",
    "dead": 0,
    "id": "O6PDzAxKENYbLsLjPx2K",
    "infected": 238,
    "recovered": 83,
    "latitude": 53.0929,
    "pop": 1072000,
    "longitude": 116.9677,
    "name": "Zabaykalsky Krai",
    "country": "RU",
    "sick": 155,
    "invisible": false
  },
  {
    "latitude": 34.003307,
    "pop": 5084000,
    "longitude": -80.525613,
    "name": "South Carolina",
    "country": "US",
    "lastUpdated": "2020-05-07T03:39:09.573Z",
    "dead": 305,
    "id": "ONU4CK8QjViFHKg2w5if",
    "infected": 6936,
    "recovered": 0,
    "sick": 6631,
    "invisible": false
  },
  {
    "latitude": 33.51822,
    "pop": 2987000,
    "longitude": -89.582775,
    "name": "Mississippi",
    "country": "US",
    "lastUpdated": "2020-05-07T03:39:09.573Z",
    "dead": 374,
    "id": "OYa0jFzdbAgo8zUsRv6q",
    "infected": 8424,
    "recovered": 0,
    "sick": 8050,
    "invisible": false
  },
  {
    "pop": 1338000,
    "longitude": -69.4455,
    "name": "Maine",
    "country": "US",
    "lastUpdated": "2020-05-07T03:39:09.575Z",
    "dead": 62,
    "id": "OcXNp9kNVSwrRlG3bNVN",
    "infected": 1254,
    "recovered": 0,
    "latitude": 45.2538,
    "sick": 1192,
    "invisible": false
  },
  {
    "lastUpdated": "2020-05-07T03:34:15.022Z",
    "dead": 27,
    "id": "OlKS5SPydHY2TedStFuf",
    "infected": 1018,
    "recovered": 198,
    "latitude": 43.4052,
    "pop": 488000,
    "longitude": 44.8203,
    "name": "Ingushetia",
    "country": "RU",
    "sick": 793,
    "invisible": false
  },
  {
    "latitude": -41.915264,
    "pop": 515000,
    "longitude": 146.725256,
    "name": "Tasmania",
    "country": "AU",
    "lastUpdated": "2020-05-07T03:32:27.768Z",
    "dead": 13,
    "id": "OnOseaqWdnuP18oruABW",
    "infected": 225,
    "recovered": 167,
    "sick": 45,
    "invisible": false
  },
  {
    "longitude": -56.666668,
    "name": "Mato Grosso",
    "country": "BR",
    "lastUpdated": "2020-05-07T03:41:02.824Z",
    "dead": 13,
    "id": "P0GHFGUt1pkKTk5PM8uz",
    "infected": 379,
    "recovered": 0,
    "latitude": -16.35,
    "pop": 3441998,
    "sick": 366,
    "invisible": false
  },
  {
    "infected": 1001,
    "recovered": 43,
    "latitude": 56.1553,
    "pop": 1378000,
    "longitude": 40.5927,
    "name": "Vladimir Oblast",
    "country": "RU",
    "lastUpdated": "2020-05-07T03:34:15.022Z",
    "dead": 12,
    "id": "P2I90oqdFSoVk03AaGo4",
    "sick": 946,
    "invisible": false
  },
  {
    "infected": 78,
    "recovered": 30,
    "latitude": 19.3133,
    "pop": 61559,
    "longitude": -81.2546,
    "name": "Cayman Islands",
    "country": "KY",
    "lastUpdated": "2020-05-07T03:40:09.021Z",
    "dead": 1,
    "id": "P4mwRFLbrvT0t75uD8Wo",
    "sick": 47,
    "invisible": false
  },
  {
    "infected": 11,
    "recovered": 7,
    "latitude": 16.7424984,
    "pop": 5900,
    "longitude": -62.1873665,
    "name": "Montserrat",
    "country": "MS",
    "lastUpdated": "2020-05-07T03:40:09.062Z",
    "dead": 1,
    "id": "PEDkeFMTOZpvHiSVxBk7",
    "sick": 3,
    "invisible": false
  },
  {
    "infected": 268,
    "recovered": 130,
    "latitude": -1.9403,
    "pop": 12210000,
    "longitude": 29.8739,
    "name": "Rwanda",
    "country": "RW",
    "lastUpdated": "2020-05-07T03:40:09.012Z",
    "dead": 0,
    "id": "PEcgZGEkyhABztt1Ufgc",
    "sick": 138,
    "invisible": false
  },
  {
    "pop": 4063000,
    "longitude": 56.1645,
    "name": "Bashkortostan",
    "country": "RU",
    "lastUpdated": "2020-05-07T03:34:14.999Z",
    "dead": 14,
    "id": "PHlHdeqYd6KgxsJGfEz0",
    "infected": 1160,
    "recovered": 259,
    "latitude": 54.2312,
    "sick": 887,
    "invisible": false
  },
  {
    "infected": 8579,
    "recovered": 0,
    "latitude": 46.7296,
    "pop": 5611000,
    "longitude": -94.6859,
    "name": "Minnesota",
    "country": "US",
    "lastUpdated": "2020-05-07T03:39:09.573Z",
    "dead": 485,
    "id": "PJvVYosLIhbcRZYnKX1R",
    "sick": 8094,
    "invisible": false
  },
  {
    "latitude": 40.6331,
    "pop": 12740000,
    "longitude": -89.3985,
    "name": "Illinois",
    "country": "US",
    "lastUpdated": "2020-05-07T03:39:09.569Z",
    "dead": 2974,
    "id": "PTwQr9ijo0TBBsPH2sdJ",
    "infected": 68232,
    "recovered": 0,
    "sick": 65258,
    "invisible": false
  },
  {
    "latitude": 13.909444,
    "pop": 178844,
    "longitude": -60.978893,
    "name": "Saint Lucia",
    "country": "LC",
    "lastUpdated": "2020-05-07T03:40:09.052Z",
    "dead": 0,
    "id": "PjLqCeFdyzdZNcZxMkK1",
    "infected": 18,
    "recovered": 15,
    "sick": 3,
    "invisible": false
  },
  {
    "infected": 6770,
    "recovered": 2628,
    "latitude": 42.6954,
    "pop": 649900,
    "longitude": -1.6761,
    "name": "Comunidad Foral de Navarra",
    "country": "ES",
    "lastUpdated": "2020-05-07T03:32:09.522Z",
    "dead": 476,
    "id": "PmUlsNx2uFLU797wwU39",
    "sick": 3666,
    "invisible": false
  },
  {
    "latitude": 34.201507,
    "pop": 11530000,
    "longitude": 9.460554,
    "name": "Tunisia",
    "country": "TN",
    "lastUpdated": "2020-05-07T03:40:09.007Z",
    "dead": 43,
    "id": "Pr76V4raf108uSRoEXac",
    "infected": 1025,
    "recovered": 591,
    "sick": 391,
    "invisible": false
  },
  {
    "lastUpdated": "2020-05-07T03:40:09.017Z",
    "dead": 2,
    "id": "PuQgOd9KWiMzGZXm11sR",
    "infected": 123,
    "recovered": 12,
    "latitude": -26.5225,
    "pop": 1367000,
    "longitude": 31.4659,
    "name": "Eswatini",
    "country": "SZ",
    "sick": 109,
    "invisible": false
  },
  {
    "latitude": -37.009609,
    "pop": 6359000,
    "longitude": 143.94853,
    "name": "Victoria",
    "country": "AU",
    "lastUpdated": "2020-05-07T02:02:28.255Z",
    "dead": 18,
    "id": "Q18mrGvFWTLX2BU9SqhQ",
    "infected": 1440,
    "recovered": 1331,
    "sick": 91,
    "invisible": false
  },
  {
    "lastUpdated": "2020-05-07T03:30:03.006Z",
    "dead": 132,
    "id": "Q39XkabIYxt15mHINzTa",
    "infected": 2848,
    "recovered": 2400,
    "latitude": 54.2194,
    "pop": 2890000,
    "longitude": 9.6961,
    "name": "Schleswig-Holstein",
    "country": "DE",
    "sick": 316,
    "invisible": false
  },
  {
    "infected": 2050,
    "recovered": 0,
    "latitude": -27.953491,
    "pop": 11329605,
    "longitude": -52.031696,
    "name": "Rio Grande do Sul",
    "country": "BR",
    "lastUpdated": "2020-05-07T03:41:02.825Z",
    "dead": 87,
    "id": "QGpQNhuoVTUPHXvS7qcu",
    "sick": 1963,
    "invisible": false
  },
  {
    "id": "QGyuno7Bc4kwuvGFgMiO",
    "infected": 892,
    "recovered": 161,
    "latitude": 55.5596,
    "pop": 1231000,
    "longitude": 46.9284,
    "name": "Chuvashia",
    "country": "RU",
    "lastUpdated": "2020-05-07T03:34:15.023Z",
    "dead": 8,
    "sick": 723,
    "invisible": false
  },
  {
    "infected": 1713,
    "recovered": 264,
    "latitude": 58.595272,
    "pop": 1328000,
    "longitude": 25.013607,
    "name": "Estonia",
    "country": "EE",
    "lastUpdated": "2020-05-07T03:40:09.005Z",
    "dead": 55,
    "id": "QR9go2hQKXjty7JHUYe4",
    "sick": 1394,
    "invisible": false
  },
  {
    "infected": 726,
    "recovered": 129,
    "latitude": 63.8631,
    "pop": 840000,
    "longitude": 54.8313,
    "name": "Komi Republic",
    "country": "RU",
    "lastUpdated": "2020-05-07T03:34:15.024Z",
    "dead": 7,
    "id": "QTafh5fpbS8abcuyEjaL",
    "sick": 590,
    "invisible": false
  },
  {
    "lastUpdated": "2020-05-07T03:41:02.823Z",
    "dead": 145,
    "id": "QaWDLKH8SuwD0Qxq6c38",
    "infected": 3568,
    "recovered": 0,
    "latitude": -20.318,
    "pop": 3972388,
    "longitude": -40.336,
    "name": "Espírito Santo",
    "country": "BR",
    "sick": 3423,
    "invisible": false
  },
  {
    "longitude": 35.0884,
    "name": "Murmansk Oblast",
    "country": "RU",
    "lastUpdated": "2020-05-07T03:34:14.998Z",
    "dead": 4,
    "id": "Qh73PKA4KWeuPoqZfWXz",
    "infected": 2237,
    "recovered": 161,
    "latitude": 67.8443,
    "pop": 795000,
    "sick": 2072,
    "invisible": false
  },
  {
    "latitude": 20.3333,
    "pop": 8222700,
    "longitude": -103.6667,
    "name": "Jalisco",
    "country": "MX",
    "lastUpdated": "2020-05-07T03:32:15.297Z",
    "dead": 38,
    "id": "Qkho455pBwx88Gohs3hL",
    "infected": 665,
    "recovered": 0,
    "sick": 627,
    "invisible": false
  },
  {
    "longitude": 143.9555,
    "name": "Papua New Guinea",
    "country": "PG",
    "lastUpdated": "2020-05-07T03:40:09.062Z",
    "dead": 0,
    "id": "QlZrE4nosm5WfdA2aCDg",
    "infected": 8,
    "recovered": 8,
    "latitude": -6.315,
    "pop": 8251000,
    "sick": 0,
    "invisible": false
  },
  {
    "latitude": 18.3358,
    "pop": 107268,
    "longitude": -64.8963,
    "name": "U.S. Virgin Islands",
    "country": "US",
    "lastUpdated": "2020-05-07T03:39:09.575Z",
    "dead": 4,
    "id": "QqhD3YDMKXojvQY3Yu41",
    "infected": 66,
    "recovered": 0,
    "sick": 62,
    "invisible": false
  },
  {
    "latitude": 15.414999,
    "pop": 71937,
    "longitude": -61.3709755,
    "name": "Dominica",
    "country": "DM",
    "lastUpdated": "2020-05-07T03:40:09.061Z",
    "dead": 0,
    "id": "Qy2qW2ep5wltnYjPJBxh",
    "infected": 16,
    "recovered": 14,
    "sick": 2,
    "invisible": false
  },
  {
    "infected": 20,
    "recovered": 7,
    "latitude": 5.167,
    "pop": 344027,
    "longitude": -72.167,
    "name": "Casanare",
    "country": "CO",
    "lastUpdated": "2020-05-07T03:41:08.847Z",
    "dead": 0,
    "id": "R3IHMWqIUhOJJTlrmbUZ",
    "sick": 13,
    "invisible": false
  },
  {
    "infected": 7731,
    "recovered": 859,
    "latitude": 8.538,
    "pop": 4099000,
    "longitude": -80.7821,
    "name": "Panama",
    "country": "PA",
    "lastUpdated": "2020-05-07T03:40:09.001Z",
    "dead": 218,
    "id": "R8YCgephnxTufvcPWMgx",
    "sick": 6654,
    "invisible": false
  },
  {
    "infected": 1461,
    "recovered": 132,
    "latitude": 15.2,
    "pop": 9265000,
    "longitude": -86.2419,
    "name": "Honduras",
    "country": "HN",
    "lastUpdated": "2020-05-07T03:40:09.006Z",
    "dead": 99,
    "id": "RA2SE0p2bVhqo0P2hzGY",
    "sick": 1230,
    "invisible": false
  },
  {
    "infected": 318,
    "recovered": 0,
    "latitude": -18.4745998,
    "pop": 224500,
    "longitude": -70.2979202,
    "name": "Arica y Parinacota",
    "country": "CL",
    "lastUpdated": "2020-05-07T03:41:11.572Z",
    "dead": 5,
    "id": "RBt9RiwP7WUbMnJfD0lo",
    "sick": 313,
    "invisible": false
  },
  {
    "pop": 1216000,
    "longitude": 13.8,
    "name": "Friuli Venezia Giulia",
    "country": "IT",
    "lastUpdated": "2020-05-07T03:31:01.688Z",
    "dead": 306,
    "id": "RCrDBCdBNYzgLNr0aB2H",
    "infected": 3094,
    "recovered": 1826,
    "latitude": 45.633331,
    "sick": 962,
    "invisible": false
  },
  {
    "lastUpdated": "2020-05-07T03:39:09.572Z",
    "dead": 219,
    "id": "RX0KDu1AFrlCsrRso0nb",
    "infected": 10404,
    "recovered": 0,
    "latitude": 41.878,
    "pop": 3156000,
    "longitude": -93.0977,
    "name": "Iowa",
    "country": "US",
    "sick": 10185,
    "invisible": false
  },
  {
    "longitude": -74.063644,
    "name": "Bogotá D.C.",
    "country": "CO",
    "lastUpdated": "2020-05-07T03:41:08.839Z",
    "dead": 128,
    "id": "RZ6PCe5TZsO15JjDObwO",
    "infected": 3469,
    "recovered": 836,
    "latitude": 4.624335,
    "pop": 7413000,
    "sick": 2505,
    "invisible": false
  },
  {
    "latitude": 26.3351002,
    "pop": 6846000,
    "longitude": 17.2283306,
    "name": "Libya",
    "country": "LY",
    "lastUpdated": "2020-05-07T03:40:09.021Z",
    "dead": 3,
    "id": "RaJxbzlnRFTuj4B8IbpC",
    "infected": 64,
    "recovered": 24,
    "sick": 37,
    "invisible": false
  },
  {
    "infected": 5993,
    "recovered": 0,
    "latitude": 39.0119,
    "pop": 2912000,
    "longitude": -98.4842,
    "name": "Kansas",
    "country": "US",
    "lastUpdated": "2020-05-07T03:39:09.573Z",
    "dead": 164,
    "id": "Rf4uvBfP3GRDSHdZElRd",
    "sick": 5829,
    "invisible": false
  },
  {
    "latitude": 48.6998,
    "pop": 5518000,
    "longitude": 6.1878,
    "name": "Grand Est",
    "country": "FR",
    "lastUpdated": "2020-05-06T22:37:31.324Z",
    "dead": 3037,
    "id": "RmEgf1xeclWt7XCF9oiR",
    "infected": 22098,
    "recovered": 8720,
    "sick": 10341,
    "invisible": false
  },
  {
    "infected": 16459,
    "recovered": 3625,
    "latitude": 50.4176,
    "pop": 3644000,
    "longitude": 4.451,
    "name": "Wallonia",
    "country": "BE",
    "lastUpdated": "2020-05-07T03:26:05.931Z",
    "dead": 2924,
    "id": "RryHraSohKQLAsdr1dHO",
    "sick": 9910,
    "invisible": false
  },
  {
    "lastUpdated": "2020-05-07T03:27:01.438Z",
    "dead": 1560,
    "id": "Rx4TuyMpfGb3S8wYJX0x",
    "infected": 19910,
    "recovered": 0,
    "latitude": 51.2538,
    "pop": 14570000,
    "longitude": -85.3232,
    "name": "Ontario",
    "country": "CA",
    "sick": 18350,
    "invisible": false
  },
  {
    "latitude": 41.652779,
    "pop": 2408000,
    "longitude": -4.723611,
    "name": "Castilla y León",
    "country": "ES",
    "lastUpdated": "2020-05-07T03:32:09.523Z",
    "dead": 1847,
    "id": "S8ewN4zaYp8mjtuqqOTw",
    "infected": 22156,
    "recovered": 7036,
    "sick": 13273,
    "invisible": false
  },
  {
    "recovered": 83,
    "latitude": 14.652027,
    "pop": 376480,
    "longitude": -61.011715,
    "name": "Martinique",
    "country": "FR",
    "lastUpdated": "2020-05-07T03:40:09.013Z",
    "dead": 14,
    "id": "SDdefnq1bc3ZNr7SpEsW",
    "infected": 182,
    "sick": 85,
    "invisible": false
  },
  {
    "latitude": 7.9465,
    "pop": 28830000,
    "longitude": -1.0232,
    "name": "Ghana",
    "country": "GH",
    "lastUpdated": "2020-05-07T03:40:09.002Z",
    "dead": 18,
    "id": "SG9VWLOV3x2JsTkXmVSz",
    "infected": 3091,
    "recovered": 294,
    "sick": 2779,
    "invisible": false
  },
  {
    "id": "SGe9sCPayMqh6RsGFaBA",
    "infected": 30060,
    "recovered": 25700,
    "latitude": 46.818188,
    "pop": 8570000,
    "longitude": 8.227512,
    "name": "Switzerland",
    "country": "CH",
    "lastUpdated": "2020-05-07T03:40:08.998Z",
    "dead": 1805,
    "sick": 2555,
    "invisible": false
  },
  {
    "recovered": 46,
    "latitude": 66.7613,
    "pop": 964000,
    "longitude": 124.1238,
    "name": "Yakutia",
    "country": "RU",
    "lastUpdated": "2020-05-07T03:34:15.026Z",
    "dead": 4,
    "id": "SGhKBmmh5hss7hrNR8hK",
    "infected": 348,
    "sick": 298,
    "invisible": false
  },
  {
    "infected": 34334,
    "recovered": 0,
    "latitude": 46.8139,
    "pop": 8485000,
    "longitude": -71.208,
    "name": "Quebec",
    "country": "CA",
    "lastUpdated": "2020-05-07T03:27:01.438Z",
    "dead": 2511,
    "id": "SHoOE3NiJgWAlDVBzwYH",
    "sick": 31823,
    "invisible": false
  },
  {
    "latitude": 42.6026,
    "pop": 1831000,
    "longitude": 20.903,
    "name": "Kosovo",
    "country": "XK",
    "lastUpdated": "2020-05-07T03:10:08.326Z",
    "dead": 26,
    "id": "SMWvuMMuKp2QK7O2tNia",
    "infected": 860,
    "recovered": 533,
    "sick": 301,
    "invisible": false
  },
  {
    "lastUpdated": "2020-05-07T03:34:15.024Z",
    "dead": 8,
    "id": "SNWCQwRwqYfxX8HZndTA",
    "infected": 684,
    "recovered": 112,
    "latitude": 45.0526,
    "pop": 1913000,
    "longitude": 135,
    "name": "Primorsky Krai",
    "country": "RU",
    "sick": 564,
    "invisible": false
  },
  {
    "lastUpdated": "2020-05-07T03:41:01.317Z",
    "dead": 0,
    "id": "SPcujsH2YlUaoAr8AiWF",
    "infected": 7,
    "recovered": 7,
    "latitude": 15.2993,
    "pop": 1817000,
    "longitude": 74.124,
    "name": "Goa",
    "country": "IN",
    "sick": 0,
    "invisible": false
  },
  {
    "infected": 1024,
    "recovered": 0,
    "latitude": -16.328547,
    "pop": 6921161,
    "longitude": -48.953403,
    "name": "Goiás",
    "country": "BR",
    "lastUpdated": "2020-05-07T03:41:02.823Z",
    "dead": 45,
    "id": "SV5AMF59J61Vt4cXWLgy",
    "sick": 979,
    "invisible": false
  },
  {
    "recovered": 389,
    "latitude": 39,
    "pop": 1957000,
    "longitude": 16.5,
    "name": "Calabria",
    "country": "IT",
    "lastUpdated": "2020-05-07T03:31:01.687Z",
    "dead": 89,
    "id": "SZdF624x0v1LlyzZjKFu",
    "infected": 1122,
    "sick": 644,
    "invisible": false
  },
  {
    "lastUpdated": "2020-05-07T03:39:09.573Z",
    "dead": 86,
    "id": "SakhKQzKu1LRI8laqdQq",
    "infected": 6771,
    "recovered": 0,
    "latitude": 41.4925,
    "pop": 1929000,
    "longitude": -99.9018,
    "name": "Nebraska",
    "country": "US",
    "sick": 6685,
    "invisible": false
  },
  {
    "recovered": 300,
    "latitude": -21.1151,
    "pop": 859959,
    "longitude": 55.5364,
    "name": "La Réunion",
    "country": "FR",
    "lastUpdated": "2020-05-07T03:40:09.011Z",
    "dead": 0,
    "id": "SgHzWAAYK1j2sipovxM6",
    "infected": 425,
    "sick": 125,
    "invisible": false
  },
  {
    "id": "SioMALgUbo7peXmbco2f",
    "infected": 122,
    "recovered": 120,
    "latitude": 12.565679,
    "pop": 16010000,
    "longitude": 104.990967,
    "name": "Cambodia",
    "country": "KH",
    "lastUpdated": "2020-05-07T03:40:09.017Z",
    "dead": 0,
    "sick": 2,
    "invisible": false
  },
  {
    "lastUpdated": "2020-05-07T03:39:09.575Z",
    "dead": 5,
    "id": "SsWhuEElU7dCTTuH5fdQ",
    "infected": 149,
    "recovered": 0,
    "latitude": 13.4443,
    "pop": 164229,
    "longitude": 144.7937,
    "name": "Guam",
    "country": "GU",
    "sick": 144,
    "invisible": false
  },
  {
    "infected": 0,
    "recovered": 4655,
    "latitude": 51.9189,
    "longitude": 19.1344,
    "name": "Unknown Poland region",
    "country": "PL",
    "lastUpdated": "2020-05-07T03:40:08.999Z",
    "dead": 0,
    "id": "SuCr5emUaJ9RHTll1P1p",
    "invisible": true,
    "sick": 0
  },
  {
    "lastUpdated": "2020-05-07T03:34:15.026Z",
    "dead": 10,
    "id": "Sx03z01BJCAbrYkWhEaD",
    "infected": 344,
    "recovered": 69,
    "latitude": 57.067,
    "pop": 1513000,
    "longitude": 53.0278,
    "name": "Udmurtia",
    "country": "RU",
    "sick": 265,
    "invisible": false
  },
  {
    "latitude": -4.0383,
    "pop": 81340000,
    "longitude": 21.7587,
    "name": "DR Congo",
    "country": "CD",
    "lastUpdated": "2020-05-07T03:40:09.008Z",
    "dead": 35,
    "id": "T3iRf8mTUTAzbKrORTap",
    "infected": 797,
    "recovered": 92,
    "sick": 670,
    "invisible": false
  },
  {
    "lastUpdated": "2020-05-07T03:40:08.998Z",
    "dead": 209,
    "id": "T7NffoeCgTUpAbOHvYwP",
    "infected": 31938,
    "recovered": 6783,
    "latitude": 23.635796,
    "pop": 32940000,
    "longitude": 44.344334,
    "name": "Saudi Arabia",
    "country": "SA",
    "sick": 24946,
    "invisible": false
  },
  {
    "lastUpdated": "2020-05-07T03:32:09.521Z",
    "dead": 337,
    "id": "TNDTapyb0k3l7Mds9q9R",
    "infected": 5322,
    "recovered": 2396,
    "latitude": 42.2871,
    "pop": 315700,
    "longitude": -2.5396,
    "name": "La Rioja",
    "country": "ES",
    "sick": 2589,
    "invisible": false
  },
  {
    "pop": 2207200,
    "longitude": -89.134857,
    "name": "Yucatán",
    "country": "MX",
    "lastUpdated": "2020-05-07T03:32:15.296Z",
    "dead": 57,
    "id": "TQCWbhIpJQBQxBjhCGVJ",
    "infected": 696,
    "recovered": 0,
    "latitude": 20.400417,
    "sick": 639,
    "invisible": false
  },
  {
    "latitude": 4.506106,
    "pop": 428697,
    "longitude": 114.650692,
    "name": "Brunei",
    "country": "BN",
    "lastUpdated": "2020-05-07T03:40:09.017Z",
    "dead": 1,
    "id": "TQZmzsLhJqjtCSExAkCP",
    "infected": 139,
    "recovered": 131,
    "sick": 7,
    "invisible": false
  },
  {
    "infected": 13317,
    "recovered": 5460,
    "latitude": 45.4471,
    "pop": 8027000,
    "longitude": 4.3853,
    "name": "Auvergne-Rhône-Alpes",
    "country": "FR",
    "lastUpdated": "2020-05-06T22:38:43.814Z",
    "dead": 1437,
    "id": "TT0MKODSjrxHvG19xZCa",
    "sick": 6420,
    "invisible": false
  },
  {
    "infected": 220,
    "recovered": 0,
    "latitude": 38.5667,
    "pop": 758700,
    "longitude": -7.9,
    "name": "Alentejo",
    "country": "PT",
    "lastUpdated": "2020-05-07T03:34:02.338Z",
    "dead": 1,
    "id": "TeoNTu4aw5riC04sTd73",
    "sick": 219,
    "invisible": false
  },
  {
    "lastUpdated": "2020-05-07T03:39:09.571Z",
    "dead": 921,
    "id": "Th4dlpXXmSDgi1OHs36P",
    "infected": 17830,
    "recovered": 0,
    "latitude": 39.318928,
    "pop": 5696000,
    "longitude": -105.461392,
    "name": "Colorado",
    "country": "US",
    "sick": 16909,
    "invisible": false
  },
  {
    "id": "Tup6oDCHj6DgqZR3nQ3x",
    "infected": 729,
    "recovered": 555,
    "latitude": 12.2383,
    "pop": 19190000,
    "longitude": -1.5616,
    "name": "Burkina Faso",
    "country": "BF",
    "lastUpdated": "2020-05-07T03:40:09.009Z",
    "dead": 48,
    "sick": 126,
    "invisible": false
  },
  {
    "lastUpdated": "2020-05-07T03:40:09.043Z",
    "dead": 0,
    "id": "TvqURPN5xzVBXsmGP46N",
    "infected": 21,
    "recovered": 13,
    "latitude": 12.104818,
    "pop": 112381,
    "longitude": -61.670761,
    "name": "Grenada",
    "country": "GD",
    "sick": 8,
    "invisible": false
  },
  {
    "infected": 9938,
    "recovered": 7493,
    "latitude": 55.675758,
    "pop": 5603000,
    "longitude": 12.56902,
    "name": "Denmark",
    "country": "DK",
    "lastUpdated": "2020-05-07T03:40:09.000Z",
    "dead": 506,
    "id": "Ty1AY3VLPJcRZgdBIERx",
    "sick": 1939,
    "invisible": false
  },
  {
    "pop": 5486000,
    "longitude": -1.0334,
    "name": "Yorkshire and The Humber",
    "country": "GB",
    "lastUpdated": "2020-05-07T03:40:28.541Z",
    "dead": 0,
    "id": "U0N7cIPJXAc4T6uKV60c",
    "infected": 11477,
    "recovered": 0,
    "latitude": 53.9062,
    "sick": 11477,
    "invisible": false
  },
  {
    "infected": 788,
    "recovered": 775,
    "latitude": 36.395859,
    "pop": 100472400,
    "longitude": 118.769882,
    "name": "Shandong",
    "country": "CN",
    "lastUpdated": "2020-05-07T03:38:12.408Z",
    "dead": 7,
    "id": "U0tkTJ9CGsBuFJ2Gdoum",
    "sick": 6,
    "invisible": false
  },
  {
    "latitude": 43.94236,
    "pop": 33400,
    "longitude": 12.457777,
    "name": "San Marino",
    "country": "SM",
    "lastUpdated": "2020-05-07T03:40:09.009Z",
    "dead": 41,
    "id": "U12rMD5GDW58Q0lIwrB1",
    "infected": 608,
    "recovered": 97,
    "sick": 470,
    "invisible": false
  },
  {
    "longitude": 138.25293,
    "name": "Japan",
    "country": "JP",
    "lastUpdated": "2020-05-07T03:40:08.999Z",
    "dead": 556,
    "id": "U13Gy4BpRLAZ95bPmBXd",
    "infected": 15253,
    "recovered": 4496,
    "latitude": 36.204823,
    "pop": 126800000,
    "sick": 10201,
    "invisible": false
  },
  {
    "latitude": 1.3733,
    "pop": 42860000,
    "longitude": 32.2903,
    "name": "Uganda",
    "country": "UG",
    "lastUpdated": "2020-05-07T03:40:09.018Z",
    "dead": 0,
    "id": "UCZXEgnHtxUoChWLR6fQ",
    "infected": 100,
    "recovered": 55,
    "sick": 45,
    "invisible": false
  },
  {
    "recovered": 11,
    "latitude": -11.2027,
    "pop": 29780000,
    "longitude": 17.8739,
    "name": "Angola",
    "country": "AO",
    "lastUpdated": "2020-05-07T03:40:09.042Z",
    "dead": 2,
    "id": "UIbrFy6kiTTF0D37Kqmp",
    "infected": 36,
    "sick": 23,
    "invisible": false
  },
  {
    "infected": 3298,
    "recovered": 422,
    "latitude": 56.3269,
    "pop": 1257000,
    "longitude": 44.0059,
    "name": "Nizhny Novgorod Oblast",
    "country": "RU",
    "lastUpdated": "2020-05-07T03:34:14.997Z",
    "dead": 16,
    "id": "UNiM5XWxcIc14zFA8zRS",
    "sick": 2860,
    "invisible": false
  },
  {
    "latitude": 48.202,
    "pop": 3329000,
    "longitude": -2.9326,
    "name": "Bretagne",
    "country": "FR",
    "lastUpdated": "2020-05-06T22:39:14.076Z",
    "dead": 223,
    "id": "URKMlJ7OTNldjpaxFbjE",
    "infected": 2132,
    "recovered": 897,
    "sick": 1012,
    "invisible": false
  },
  {
    "id": "UfFaUECHINUutv1M9tzq",
    "infected": 4881,
    "recovered": 3900,
    "latitude": 53.5511,
    "pop": 1822000,
    "longitude": 9.9937,
    "name": "Hamburg",
    "country": "DE",
    "lastUpdated": "2020-05-07T03:30:03.005Z",
    "dead": 190,
    "sick": 791,
    "invisible": false
  },