[
  {
    "name": "San Andrés",
    "latitude": 12.5847,
    "dead": 0,
    "lastUpdated": "2020-07-14T22:39:43.519Z",
    "recovered": 21,
    "infected": 29,
    "id": "01b09TY4vmuZwzVuiRFK",
    "pop": 72600,
    "country": "CO",
    "longitude": -81.7006,
    "sick": 8,
    "invisible": false
  },
  {
    "country": "GG",
    "longitude": -2.5895,
    "name": "Guernsey",
    "alwaysShow": false,
    "latitude": 49.4482,
    "dead": 13,
    "lastUpdated": "2020-07-14T22:36:04.521Z",
    "recovered": 238,
    "infected": 252,
    "id": "0FOJefeLxQYXQ1CnJm9o",
    "pop": 63196,
    "sick": 1,
    "invisible": false
  },
  {
    "lastUpdated": "2020-07-14T22:31:02.423Z",
    "recovered": 4095,
    "infected": 4779,
    "state": "72",
    "id": "0GJcws44NSPsDHAuxJhW",
    "pop": 5827000,
    "country": "IT",
    "longitude": 14.333333,
    "name": "Campania",
    "latitude": 41.066666,
    "dead": 432,
    "sick": 252,
    "invisible": false
  },
  {
    "id": "0HDQbiHe462xMCUV5HiI",
    "pop": 383870,
    "country": "CL",
    "longitude": -70.14222,
    "name": "Tarapacá",
    "latitude": -20.2167,
    "dead": 111,
    "lastUpdated": "2020-07-14T22:51:05.679Z",
    "recovered": 0,
    "infected": 7217,
    "sick": 7106,
    "invisible": false
  },
  {
    "name": "Odisha",
    "latitude": 20.9517,
    "dead": 96,
    "lastUpdated": "2020-07-14T22:41:02.124Z",
    "recovered": 9864,
    "infected": 14280,
    "id": "0VG7S6aaK4eSo59fL9JO",
    "pop": 45990000,
    "country": "IN",
    "longitude": 85.0985,
    "sick": 4320,
    "invisible": false
  },
  {
    "id": "0XmCRqiK2ZaehoEJvfer",
    "pop": 2990300,
    "country": "MX",
    "longitude": -98.8582,
    "name": "Hidalgo",
    "latitude": 20.4737,
    "dead": 805,
    "lastUpdated": "2020-07-14T22:32:02.166Z",
    "recovered": 0,
    "infected": 4864,
    "sick": 4059,
    "invisible": false
  },
  {
    "longitude": 92.6586,
    "name": "Andaman and Nicobar Islands",
    "latitude": 11.7401,
    "dead": 0,
    "lastUpdated": "2020-07-14T22:41:02.127Z",
    "recovered": 129,
    "infected": 171,
    "id": "0jStOpTUNRaQYJqgmRoK",
    "pop": 427246,
    "country": "IN",
    "sick": 42,
    "invisible": false
  },
  {
    "recovered": 101160,
    "infected": 104533,
    "id": "0m4aECS0Z2DGFEr8ldgI",
    "pop": 2639000,
    "country": "QA",
    "longitude": 51.145517,
    "name": "Qatar",
    "latitude": 25.315058,
    "dead": 150,
    "lastUpdated": "2020-07-14T22:46:03.307Z",
    "sick": 3223,
    "invisible": false
  },
  {
    "recovered": 19931,
    "infected": 32838,
    "id": "0n54EMSDJcRoT1QEvw80",
    "pop": 90320000,
    "country": "IN",
    "longitude": 87.855,
    "name": "West Bengal",
    "latitude": 22.9868,
    "dead": 980,
    "lastUpdated": "2020-07-14T22:41:02.124Z",
    "sick": 11927,
    "invisible": false
  },
  {
    "name": "Madhya Pradesh",
    "latitude": 22.9734,
    "dead": 673,
    "lastUpdated": "2020-07-14T22:41:02.124Z",
    "recovered": 13575,
    "infected": 19005,
    "id": "0s18o5DrDAHjbu5MFcrj",
    "pop": 73340000,
    "country": "IN",
    "longitude": 78.6569,
    "sick": 4757,
    "invisible": false
  },
  {
    "country": "US",
    "longitude": -95.7129,
    "invisible": true,
    "name": "Unknown US state",
    "latitude": 37.0902,
    "dead": 0,
    "lastUpdated": "2020-07-14T22:46:03.305Z",
    "recovered": 1588387,
    "infected": 0,
    "id": "0tFoopNTs6e4tOoaltu2",
    "sick": 0
  },
  {
    "id": "0x2HLhr5z5xAtEdO4iZm",
    "pop": 37330000,
    "country": "CN",
    "longitude": 108.472214,
    "name": "Shaanxi",
    "latitude": 35.64249,
    "dead": 3,
    "lastUpdated": "2020-07-14T22:23:11.358Z",
    "recovered": 314,
    "infected": 321,
    "sick": 4,
    "invisible": false
  },
  {
    "id": "19MvIhipqTyYv1H37Upw",
    "pop": 2077000,
    "country": "MK",
    "longitude": 21.668393,
    "name": "North Macedonia",
    "latitude": 41.643351,
    "dead": 389,
    "lastUpdated": "2020-07-14T22:46:03.313Z",
    "recovered": 4468,
    "infected": 8332,
    "sick": 3475,
    "invisible": false
  },
  {
    "name": "Newfoundland and Labrador",
    "latitude": 53.1355,
    "dead": 3,
    "lastUpdated": "2020-07-14T22:37:09.261Z",
    "recovered": 258,
    "infected": 262,
    "state": "NL",
    "id": "1DOMOmCWDtva46OVSZLv",
    "pop": 521542,
    "country": "CA",
    "longitude": -57.6604,
    "sick": 1,
    "invisible": false
  },
  {
    "id": "1Fap7rZu9SIRqf5TG9Dg",
    "pop": 5627000,
    "country": "CN",
    "longitude": 96.779286,
    "name": "Qinghai",
    "latitude": 35.801933,
    "dead": 0,
    "lastUpdated": "2020-07-14T22:23:11.360Z",
    "recovered": 18,
    "infected": 18,
    "sick": 0,
    "invisible": false
  },
  {
    "id": "1YXQMlVL3fUeDZmcVfJw",
    "pop": 126200000,
    "country": "MX",
    "longitude": -102.5528,
    "invisible": true,
    "name": "Unknown Mexico state",
    "latitude": 23.6345,
    "dead": 0,
    "lastUpdated": "2020-07-14T22:46:03.305Z",
    "recovered": 189063,
    "infected": 0,
    "sick": 0
  },
  {
    "id": "1at5nIap9H51v32otlQl",
    "pop": 1960000,
    "country": "RU",
    "longitude": 73.3167,
    "name": "Omsk Oblast",
    "latitude": 55.0555,
    "dead": 42,
    "lastUpdated": "2020-07-14T22:30:08.265Z",
    "recovered": 2756,
    "infected": 4844,
    "sick": 2046,
    "invisible": false
  },
  {
    "longitude": 8.206944,
    "name": "Piemonte",
    "latitude": 44.9,
    "dead": 4115,
    "lastUpdated": "2020-07-14T22:31:02.424Z",
    "recovered": 26478,
    "infected": 31507,
    "state": "21",
    "id": "1eTSQyfp8RoDPeFrIwun",
    "pop": 4376000,
    "country": "IT",
    "sick": 914,
    "invisible": false
  },
  {
    "id": "1j1OurxLTpZYuWIWwQ9F",
    "pop": 1003000,
    "country": "PL",
    "longitude": 15.461,
    "name": "Lubuskie",
    "latitude": 51.993,
    "dead": 0,
    "lastUpdated": "2020-07-14T22:33:01.565Z",
    "recovered": 0,
    "infected": 245,
    "sick": 245,
    "invisible": false
  },
  {
    "latitude": 47.4116,
    "dead": 655,
    "lastUpdated": "2020-07-14T22:46:03.311Z",
    "recovered": 13033,
    "infected": 19708,
    "id": "1qTPB8X3tyLyIdsb5TN3",
    "pop": 3550000,
    "country": "MD",
    "longitude": 28.3699,
    "name": "Moldova",
    "sick": 6020,
    "invisible": false
  },
  {
    "latitude": 37.0902,
    "dead": 96,
    "lastUpdated": "2020-07-14T22:47:02.228Z",
    "recovered": 0,
    "infected": 9529,
    "id": "22PJOAThcDFKgSbyQIkD",
    "country": "US",
    "longitude": -95.7129,
    "invisible": true,
    "name": "Federal Bureau of Prisons",
    "sick": 9433
  },
  {
    "country": "CN",
    "longitude": 88.787865,
    "name": "Tibet",
    "latitude": 30.15336,
    "dead": 0,
    "lastUpdated": "2020-07-14T22:23:11.360Z",
    "recovered": 1,
    "infected": 1,
    "id": "25qIBtsW2nfQj3pwBKg9",
    "pop": 3180000,
    "sick": 0,
    "invisible": false
  },
  {
    "name": "Indonesia",
    "latitude": -1.572184,
    "dead": 3710,
    "lastUpdated": "2020-07-14T22:46:03.308Z",
    "recovered": 37636,
    "infected": 78572,
    "id": "2KHYUb5t3lwzVVmDjwNX",
    "pop": 264000000,
    "country": "ID",
    "longitude": 115.66779,
    "sick": 37226,
    "invisible": false
  },
  {
    "longitude": -120.585594,
    "name": "Oregon",
    "latitude": 43.807191,
    "dead": 244,
    "lastUpdated": "2020-07-14T22:47:02.225Z",
    "recovered": 0,
    "infected": 12805,
    "state": "OR",
    "id": "2OrsssmGUs4XCzaZzvTv",
    "pop": 4191000,
    "country": "US",
    "sick": 12561,
    "invisible": false
  },
  {
    "latitude": -23.65,
    "dead": 228,
    "lastUpdated": "2020-07-14T22:51:05.680Z",
    "recovered": 0,
    "infected": 12224,
    "id": "2c5HBZ1ffkCVXnMYUWnY",
    "pop": 425000,
    "country": "CL",
    "longitude": -70.400002,
    "name": "Antofagasta",
    "sick": 11996,
    "invisible": false
  },
  {
    "latitude": 0.035574,
    "dead": 483,
    "lastUpdated": "2020-07-14T22:57:01.747Z",
    "recovered": 0,
    "infected": 31885,
    "state": "AP",
    "id": "2dzhyWsBSPpENWlNew0b",
    "pop": 9029000,
    "country": "BR",
    "longitude": -51.070534,
    "name": "Amapá",
    "sick": 31402,
    "invisible": false
  },
  {
    "longitude": 126.548103,
    "name": "Jilin",
    "latitude": 43.851921,
    "dead": 2,
    "lastUpdated": "2020-07-14T22:23:11.360Z",
    "recovered": 153,
    "infected": 155,
    "id": "2jxHvSsxdnom0nPNvOT8",
    "pop": 27460000,
    "country": "CN",
    "sick": 0,
    "invisible": false
  },
  {
    "id": "2p11BjSAs3wVyymgqBOe",
    "pop": 34571,
    "country": "GI",
    "longitude": -5.3536,
    "name": "Gibraltar",
    "latitude": 36.1408,
    "dead": 0,
    "lastUpdated": "2020-07-14T22:46:03.323Z",
    "recovered": 179,
    "infected": 180,
    "sick": 1,
    "invisible": false
  },
  {
    "latitude": 47.7516,
    "dead": 553,
    "lastUpdated": "2020-07-14T22:57:19.160Z",
    "recovered": 1995,
    "infected": 4578,
    "id": "2sLNkkHpyaHx7dD3aMDO",
    "pop": 2567000,
    "country": "FR",
    "longitude": 1.6751,
    "name": "Centre-Val de Loire",
    "sick": 2030,
    "invisible": false
  },
  {
    "latitude": 42.565044,
    "dead": 80,
    "lastUpdated": "2020-07-14T22:31:02.425Z",
    "recovered": 1362,
    "infected": 1450,
    "state": "55",
    "id": "319tiZOMczx1y0DfvOib",
    "pop": 884640,
    "country": "IT",
    "longitude": 12.643751,
    "name": "Umbria",
    "sick": 8,
    "invisible": false
  },
  {
    "latitude": 2.43823,
    "dead": 28,
    "lastUpdated": "2020-07-14T22:39:43.519Z",
    "recovered": 232,
    "infected": 774,
    "id": "38T96Q3XNjt5FSJygPed",
    "pop": 1355000,
    "country": "CO",
    "longitude": -76.6131592,
    "name": "Cauca",
    "sick": 514,
    "invisible": false
  },
  {
    "latitude": -13.133896,
    "dead": 42,
    "lastUpdated": "2020-07-14T22:46:03.319Z",
    "recovered": 1412,
    "infected": 1895,
    "id": "3IlPjAbP5qVMn1nlgLTJ",
    "pop": 17090000,
    "country": "ZM",
    "longitude": 27.849332,
    "name": "Zambia",
    "sick": 441,
    "invisible": false
  },
  {
    "longitude": 19.3958,
    "name": "Montenegro",
    "latitude": 42.7044,
    "dead": 24,
    "lastUpdated": "2020-07-14T22:46:03.320Z",
    "recovered": 330,
    "infected": 1287,
    "id": "3LstMSN5XMYBkxbe5HN7",
    "pop": 631219,
    "country": "ME",
    "sick": 933,
    "invisible": false
  },
  {
    "country": "AU",
    "longitude": 149.0124,
    "name": "Australian Capital Territory",
    "latitude": -35.4735,
    "dead": 3,
    "lastUpdated": "2020-07-14T22:28:20.682Z",
    "recovered": 105,
    "infected": 113,
    "state": "ACT",
    "id": "3OZoQsKrzxZ18EKyfGE6",
    "pop": 418440,
    "sick": 5,
    "invisible": false
  },
  {
    "name": "Yaroslavl Oblast",
    "latitude": 57.8992,
    "dead": 22,
    "lastUpdated": "2020-07-14T22:30:08.262Z",
    "recovered": 4436,
    "infected": 5347,
    "id": "3PfzjWjvOkfgxc672BHQ",
    "pop": 608000,
    "country": "RU",
    "longitude": 38.8389,
    "sick": 889,
    "invisible": false
  },
  {
    "name": "Tuva",
    "latitude": 51.8873,
    "dead": 40,
    "lastUpdated": "2020-07-14T22:30:08.261Z",
    "recovered": 2174,
    "infected": 5490,
    "id": "3PpqgIUJAtzxo1j7z56i",
    "pop": 321000,
    "country": "RU",
    "longitude": 95.626,
    "sick": 3276,
    "invisible": false
  },
  {
    "id": "3cCbnJCsK7mKlTO08K1o",
    "pop": 30940000,
    "country": "IN",
    "longitude": 92.9376,
    "name": "Assam",
    "latitude": 26.2006,
    "dead": 51,
    "lastUpdated": "2020-07-14T22:41:02.124Z",
    "recovered": 12174,
    "infected": 18667,
    "sick": 6442,
    "invisible": false
  },
  {
    "longitude": -82.9071,
    "name": "Ohio",
    "latitude": 40.4173,
    "dead": 3076,
    "lastUpdated": "2020-07-14T22:47:02.220Z",
    "recovered": 0,
    "infected": 68035,
    "state": "OH",
    "id": "3fC3bAyIRUquOQOEnQNe",
    "pop": 11690000,
    "country": "US",
    "sick": 64959,
    "invisible": false
  },
  {
    "lastUpdated": "2020-07-14T22:32:02.074Z",
    "recovered": 0,
    "infected": 10312,
    "id": "3kFCzJguabtBvXaHxgiu",
    "pop": 3066400,
    "country": "MX",
    "longitude": -107.5,
    "name": "Sinaloa",
    "latitude": 25,
    "dead": 1662,
    "sick": 8650,
    "invisible": false
  },
  {
    "lastUpdated": "2020-07-14T22:39:43.515Z",
    "recovered": 5788,
    "infected": 12975,
    "id": "3mC2LveOpXV8P1PmQGUj",
    "pop": 4708300,
    "country": "CO",
    "longitude": -76.522224,
    "name": "Valle del Cauca",
    "latitude": 3.420556,
    "dead": 455,
    "sick": 6732,
    "invisible": false
  },
  {
    "id": "4NnFMekRK2m14IlnZZoj",
    "pop": 4420000,
    "country": "MR",
    "longitude": -10.9408,
    "name": "Mauritania",
    "latitude": 21.0079,
    "dead": 147,
    "lastUpdated": "2020-07-14T22:46:03.314Z",
    "recovered": 2664,
    "infected": 5518,
    "sick": 2707,
    "invisible": false
  },
  {
    "state": "BC",
    "id": "4hfZRUoUgI4a3vrG0GBk",
    "pop": 5071000,
    "country": "CA",
    "longitude": -127.6476,
    "name": "British Columbia",
    "latitude": 53.7267,
    "dead": 189,
    "lastUpdated": "2020-07-14T22:37:09.259Z",
    "recovered": 2718,
    "infected": 3115,
    "sick": 208,
    "invisible": false
  },
  {
    "lastUpdated": "2020-07-14T22:57:01.745Z",
    "recovered": 0,
    "infected": 132822,
    "state": "RJ",
    "id": "4kq0z3kh5zt3YAUWxvtE",
    "pop": 17159960,
    "country": "BR",
    "longitude": -43.196388,
    "name": "Rio de Janeiro",
    "latitude": -22.908333,
    "dead": 11624,
    "sick": 121198,
    "invisible": false
  },
  {
    "state": "BA",
    "id": "4yDbkEyqsNzZJjfrciYV",
    "pop": 14812617,
    "country": "BR",
    "longitude": -41.280857,
    "name": "Bahia",
    "latitude": -11.409874,
    "dead": 2584,
    "lastUpdated": "2020-07-14T22:57:01.746Z",
    "recovered": 0,
    "infected": 110029,
    "sick": 107445,
    "invisible": false
  },
  {
    "recovered": 16150,
    "infected": 25113,
    "id": "4zqzRm2xHn0CDVOUQJ8p",
    "pop": 9898000,
    "country": "AZ",
    "longitude": 47.93802,
    "name": "Azerbaijan",
    "latitude": 40.3426,
    "dead": 319,
    "lastUpdated": "2020-07-14T22:46:03.310Z",
    "sick": 8644,
    "invisible": false
  },
  {
    "name": "Tamaulipas",
    "latitude": 22.233105,
    "dead": 707,
    "lastUpdated": "2020-07-14T22:32:02.076Z",
    "recovered": 0,
    "infected": 10530,
    "id": "54cfsdsRF76XVHWtZs19",
    "pop": 3672300,
    "country": "MX",
    "longitude": -97.861099,
    "sick": 9823,
    "invisible": false
  },
  {
    "latitude": 51.0109,
    "dead": 4907,
    "lastUpdated": "2020-07-14T22:37:06.311Z",
    "recovered": 9465,
    "infected": 35284,
    "state": "VLG",
    "id": "57ydD48mLRD2YoyteJZj",
    "pop": 6596000,
    "country": "BE",
    "longitude": 3.7265,
    "name": "Flanders",
    "sick": 20912,
    "invisible": false
  },
  {
    "latitude": 25.025885,
    "dead": 11,
    "lastUpdated": "2020-07-14T22:46:03.323Z",
    "recovered": 91,
    "infected": 113,
    "id": "5MHegCUO9L3LiAU7DDey",
    "pop": 395361,
    "country": "BS",
    "longitude": -78.035889,
    "name": "Bahamas",
    "sick": 11,
    "invisible": false
  },
  {
    "recovered": 2988,
    "infected": 3505,
    "state": "NSW",
    "id": "5N16a2OXXRpsEFanw0TC",
    "pop": 7544000,
    "country": "AU",
    "longitude": 146.921097,
    "name": "New South Wales",
    "latitude": -31.253218,
    "dead": 49,
    "lastUpdated": "2020-07-14T22:28:20.683Z",
    "sick": 468,
    "invisible": false
  },
  {
    "latitude": 6.8769908,
    "dead": 41,
    "lastUpdated": "2020-07-14T22:46:03.318Z",
    "recovered": 333,
    "infected": 2148,
    "id": "5N4PRxsCDzzwk7R200V1",
    "pop": 12580000,
    "country": "SS",
    "longitude": 31.3069782,
    "name": "South Sudan",
    "sick": 1774,
    "invisible": false
  },
  {
    "lastUpdated": "2020-07-14T22:51:26.584Z",
    "recovered": 9970,
    "infected": 15641,
    "state": "VC",
    "id": "5Va9A7CXR8AXdUz4HTJj",
    "pop": 4975000,
    "country": "ES",
    "longitude": -0.7533,
    "name": "C. Valenciana",
    "latitude": 39.484,
    "dead": 1432,
    "sick": 4239,
    "invisible": false
  },
  {
    "lastUpdated": "2020-07-14T22:46:03.324Z",
    "recovered": 21,
    "infected": 21,
    "id": "5fg04eyDwFw3kEXnrxez",
    "pop": 280460,
    "country": "NC",
    "longitude": 165.618042,
    "name": "New Caledonia",
    "latitude": -20.9043045,
    "dead": 0,
    "sick": 0,
    "invisible": false
  },
  {
    "recovered": 10328,
    "infected": 17061,
    "id": "5gXZIjRgAvd6xWN1LOv8",
    "pop": 29300000,
    "country": "NP",
    "longitude": 84.124008,
    "name": "Nepal",
    "latitude": 28.394857,
    "dead": 38,
    "lastUpdated": "2020-07-14T22:46:03.311Z",
    "sick": 6695,
    "invisible": false
  },
  {
    "recovered": 20459,
    "infected": 57545,
    "id": "5pwmh7aSdGRKqRbnuyc0",
    "pop": 104900000,
    "country": "PH",
    "longitude": 121.774017,
    "name": "Philippines",
    "latitude": 12.879721,
    "dead": 1603,
    "lastUpdated": "2020-07-14T22:46:03.309Z",
    "sick": 35483,
    "invisible": false
  },
  {
    "lastUpdated": "2020-07-14T22:46:03.320Z",
    "recovered": 343,
    "infected": 1064,
    "id": "5qtR9nx4BLwu1ODTniaY",
    "pop": 14802190,
    "country": "ZW",
    "longitude": 31.053028,
    "name": "Zimbabwe",
    "latitude": -17.824858,
    "dead": 20,
    "sick": 701,
    "invisible": false
  },
  {
    "longitude": -109.188,
    "invisible": false,
    "name": "Navajo Nation",
    "dead": 401,
    "latitude": 36.0672,
    "infected": 8243,
    "recovered": 0,
    "pop": 356890,
    "country": "US",
    "lastUpdated": "2020-07-14T22:47:02.229Z",
    "state": "NA",
    "id": "5vkKgxTaKq1IH0Go357L",
    "sick": 7842
  },
  {
    "latitude": 19.432241,
    "dead": 7722,
    "lastUpdated": "2020-07-14T22:32:02.075Z",
    "recovered": 0,
    "infected": 58114,
    "id": "61E7TGjUwAo9xu6Y6gAH",
    "pop": 8781300,
    "country": "MX",
    "longitude": -99.177254,
    "name": "Ciudad de México",
    "sick": 50392,
    "invisible": false
  },
  {
    "lastUpdated": "2020-07-14T22:30:08.258Z",
    "recovered": 4887,
    "infected": 6697,
    "id": "63KYOuWe41mvqWQrJbr2",
    "pop": 1012000,
    "country": "RU",
    "longitude": 35.1889,
    "name": "Kaluga Oblast",
    "latitude": 54.3873,
    "dead": 52,
    "sick": 1758,
    "invisible": false
  },
  {
    "id": "694ON7d0mRJDeM1gHBTR",
    "pop": 2794000,
    "country": "LT",
    "longitude": 23.804991,
    "name": "Lithuania",
    "latitude": 55.621011,
    "dead": 79,
    "lastUpdated": "2020-07-14T22:46:03.319Z",
    "recovered": 1571,
    "infected": 1875,
    "sick": 225,
    "invisible": false
  },
  {
    "longitude": -0.5596,
    "name": "South East",
    "latitude": 51.1781,
    "dead": 0,
    "lastUpdated": "2020-07-14T22:43:19.919Z",
    "recovered": 0,
    "infected": 34347,
    "state": "EN",
    "id": "6IQAsvrmBv0HPdeTnh4x",
    "pop": 9175000,
    "country": "GB",
    "sick": 34347,
    "invisible": false
  },
  {
    "id": "6IcHIIH0zXpY0POmBZTv",
    "pop": 7392000,
    "country": "HK",
    "longitude": 114.109497,
    "name": "Hong Kong",
    "latitude": 22.396427,
    "dead": 8,
    "lastUpdated": "2020-07-14T22:46:03.319Z",
    "recovered": 1229,
    "infected": 1570,
    "sick": 333,
    "invisible": false
  },
  {
    "latitude": -8.65,
    "dead": 436,
    "lastUpdated": "2020-07-14T22:57:01.760Z",
    "recovered": 0,
    "infected": 16479,
    "state": "AC",
    "id": "6LQesrx5bHJsVUi1TXBp",
    "pop": 869265,
    "country": "BR",
    "longitude": -72.4,
    "name": "Acre",
    "sick": 16043,
    "invisible": false
  },
  {
    "id": "6SlpghTyB6lpMFvx3g9U",
    "pop": 11180000,
    "country": "BJ",
    "longitude": 2.3158,
    "name": "Benin",
    "latitude": 9.3077,
    "dead": 26,
    "lastUpdated": "2020-07-14T22:46:03.320Z",
    "recovered": 557,
    "infected": 1378,
    "sick": 795,
    "invisible": false
  },
  {
    "state": "25",
    "id": "6ZHcvMIzVWIaRnc4R3Qp",
    "pop": 10040000,
    "country": "IT",
    "longitude": 9.5,
    "name": "Lombardia",
    "latitude": 45.6667,
    "dead": 16760,
    "lastUpdated": "2020-07-14T22:31:02.424Z",
    "recovered": 70461,
    "infected": 95173,
    "sick": 7952,
    "invisible": false
  },
  {
    "longitude": 14.5058,
    "name": "Slovenia",
    "latitude": 46.0569,
    "dead": 111,
    "lastUpdated": "2020-07-14T22:46:03.319Z",
    "recovered": 1488,
    "infected": 1859,
    "id": "6ahNiyKDSDAftCctgLH3",
    "pop": 2067000,
    "country": "SI",
    "sick": 260,
    "invisible": false
  },
  {
    "recovered": 0,
    "infected": 1674,
    "id": "6nyns7UGGgkU7pxrHf8i",
    "pop": 300000,
    "country": "CL",
    "longitude": -70.331398,
    "name": "Atacama",
    "latitude": -27.3667908,
    "dead": 9,
    "lastUpdated": "2020-07-14T22:51:05.680Z",
    "sick": 1665,
    "invisible": false
  },
  {
    "longitude": 11.6094,
    "name": "Gabon",
    "latitude": -0.8037,
    "dead": 46,
    "lastUpdated": "2020-07-14T22:46:03.314Z",
    "recovered": 3475,
    "infected": 6026,
    "id": "6pBi38TUgYfFm0bry2uh",
    "pop": 2025000,
    "country": "GA",
    "sick": 2505,
    "invisible": false
  },
  {
    "recovered": 0,
    "infected": 4669,
    "id": "6vjIVg1gSANFZghV7xtS",
    "pop": 2831900,
    "country": "MX",
    "longitude": -100.9792,
    "name": "San Luis Potosí",
    "latitude": 22.1498,
    "dead": 294,
    "lastUpdated": "2020-07-14T22:32:02.166Z",
    "sick": 4375,
    "invisible": false
  },
  {
    "longitude": -62.818544,
    "name": "Saint-Barthélémy",
    "alwaysShow": true,
    "latitude": 17.901672,
    "dead": 0,
    "lastUpdated": "2020-07-14T22:46:03.325Z",
    "recovered": 6,
    "infected": 6,
    "id": "78Ox26bNHDA2Pk2b3Uwn",
    "pop": 9131,
    "country": "FR",
    "sick": 0,
    "invisible": false
  },
  {
    "id": "7JDx6UJiwGSJyL1fChaJ",
    "pop": 2305000,
    "country": "PL",
    "longitude": 18.633,
    "name": "Pomorskie",
    "latitude": 54.367,
    "dead": 38,
    "lastUpdated": "2020-07-14T22:33:01.564Z",
    "recovered": 0,
    "infected": 715,
    "sick": 677,
    "invisible": false
  },
  {
    "name": "Melilla",
    "latitude": 35.2923,
    "dead": 2,
    "lastUpdated": "2020-07-14T22:53:39.681Z",
    "recovered": 125,
    "infected": 139,
    "state": "ML",
    "id": "7UASdZTZ1nPzzBwSTEA9",
    "pop": 84690,
    "country": "ES",
    "longitude": -2.9381,
    "sick": 12,
    "invisible": false
  },
  {
    "recovered": 57,
    "infected": 74,
    "id": "7hVFcEV7nV0MrQr3LHrl",
    "pop": 102012,
    "country": "AG",
    "longitude": -61.7964,
    "name": "Antigua and Barbuda",
    "latitude": 17.0608,
    "dead": 3,
    "lastUpdated": "2020-07-14T22:46:03.323Z",
    "sick": 14,
    "invisible": false
  },
  {
    "recovered": 45871,
    "infected": 49706,
    "state": "BY",
    "id": "7kCrrlOBE3jN6FtOVNUB",
    "pop": 13000000,
    "country": "DE",
    "longitude": 11.4979,
    "name": "Bayern",
    "latitude": 48.7904,
    "dead": 2656,
    "lastUpdated": "2020-07-14T22:30:06.603Z",
    "sick": 1179,
    "invisible": false
  },
  {
    "recovered": 3106,
    "infected": 4258,
    "id": "7rYC2iFB50c55Ihgbs4Q",
    "pop": 9773000,
    "country": "HU",
    "longitude": 19.0402,
    "name": "Hungary",
    "latitude": 47.4979,
    "dead": 595,
    "lastUpdated": "2020-07-14T22:46:03.315Z",
    "sick": 557,
    "invisible": false
  },
  {
    "lastUpdated": "2020-07-14T22:39:43.518Z",
    "recovered": 8671,
    "infected": 19158,
    "id": "7tqLvLyXcBDK808nJv0m",
    "pop": 1206000,
    "country": "CO",
    "longitude": -74.7813,
    "name": "Barranquilla D.E.",
    "latitude": 10.9685,
    "dead": 1136,
    "sick": 9351,
    "invisible": false
  },
  {
    "country": "CM",
    "longitude": 12.3547,
    "name": "Cameroon",
    "latitude": 7.3697,
    "dead": 359,
    "lastUpdated": "2020-07-14T22:46:03.311Z",
    "recovered": 11928,
    "infected": 15173,
    "id": "8C0d7WVCjyUGtnc2gUAR",
    "pop": 24050000,
    "sick": 2886,
    "invisible": false
  },
  {
    "recovered": 2825,
    "infected": 6518,
    "state": "BRU",
    "id": "8DOZWbN6bDdgaLXVlUEu",
    "pop": 1209000,
    "country": "BE",
    "longitude": 4.3517,
    "name": "Brussels",
    "latitude": 50.8503,
    "dead": 1488,
    "lastUpdated": "2020-07-14T22:37:06.311Z",
    "sick": 2205,
    "invisible": false
  },
  {
    "longitude": -63.5887,
    "name": "Bolivia",
    "latitude": -16.2902,
    "dead": 1866,
    "lastUpdated": "2020-07-14T22:46:03.309Z",
    "recovered": 15294,
    "infected": 49250,
    "id": "8RihJrXw4NQXPxaRxr1u",
    "pop": 11050000,
    "country": "BO",
    "sick": 32090,
    "invisible": false
  },
  {
    "recovered": 29,
    "infected": 35,
    "id": "8ZTySQROQejkDAad0qxQ",
    "pop": 109897,
    "country": "VC",
    "longitude": -61.2872,
    "name": "St. Vincent Grenadines",
    "latitude": 12.9843,
    "dead": 0,
    "lastUpdated": "2020-07-14T22:46:03.324Z",
    "sick": 6,
    "invisible": false
  },
  {
    "latitude": 1.352083,
    "dead": 27,
    "lastUpdated": "2020-07-14T22:46:03.309Z",
    "recovered": 42737,
    "infected": 46630,
    "id": "8pA3fM4xC2c2wv1b4TnE",
    "pop": 5621000,
    "country": "SG",
    "longitude": 103.819839,
    "name": "Singapore",
    "sick": 3866,
    "invisible": false
  },
  {
    "recovered": 2118,
    "infected": 4276,
    "id": "98hwAoohgWEOQVa3NlM5",
    "pop": 3787000,
    "country": "FR",
    "longitude": -1.5536,
    "name": "Pays de la Loire",
    "latitude": 47.2184,
    "dead": 470,
    "lastUpdated": "2020-07-14T22:58:03.276Z",
    "sick": 1688,
    "invisible": false
  },
  {
    "lastUpdated": "2020-07-14T22:32:02.076Z",
    "recovered": 0,
    "infected": 3135,
    "id": "9DAvxOObTqIvMOU93nlY",
    "pop": 952300,
    "country": "MX",
    "longitude": -90.19885,
    "name": "Campeche",
    "latitude": 19.30754,
    "dead": 296,
    "sick": 2839,
    "invisible": false
  },
  {
    "longitude": 30.2176,
    "name": "Sudan",
    "latitude": 12.8628,
    "dead": 659,
    "lastUpdated": "2020-07-14T22:46:03.311Z",
    "recovered": 5579,
    "infected": 10417,
    "id": "9DPOkpIqrFy9mR4e9fuv",
    "pop": 40530000,
    "country": "SD",
    "sick": 4179,
    "invisible": false
  },
  {
    "country": "RU",
    "longitude": 43.9541,
    "name": "Kostroma Oblast",
    "latitude": 58.5501,
    "dead": 24,
    "lastUpdated": "2020-07-14T22:30:08.269Z",
    "recovered": 1229,
    "infected": 1863,
    "id": "9JFYfvpcejMIgYlHpngA",
    "pop": 643000,
    "sick": 610,
    "invisible": false
  },
  {
    "recovered": 21803,
    "infected": 33585,
    "id": "9QcETqEcM2fTv9zRvx5T",
    "pop": 19530000,
    "country": "RO",
    "longitude": 24.966761,
    "name": "Romania",
    "latitude": 45.943161,
    "dead": 1931,
    "lastUpdated": "2020-07-14T22:46:03.310Z",
    "sick": 9851,
    "invisible": false
  },
  {
    "latitude": 12.136389,
    "dead": 99,
    "lastUpdated": "2020-07-14T22:46:03.315Z",
    "recovered": 2282,
    "infected": 3147,
    "id": "9Y5wmCqNCC6ZrenM31uA",
    "pop": 6218000,
    "country": "NI",
    "longitude": -86.251389,
    "name": "Nicaragua",
    "sick": 766,
    "invisible": false
  },
  {
    "latitude": 17.5706921,
    "dead": 121,
    "lastUpdated": "2020-07-14T22:46:03.316Z",
    "recovered": 1748,
    "infected": 2423,
    "id": "9dIzxqDSVqPyINkHqwGv",
    "pop": 18540000,
    "country": "ML",
    "longitude": -3.996166,
    "name": "Mali",
    "sick": 554,
    "invisible": false
  },
  {
    "id": "9p6OCdZbUUwBLA60Gk3W",
    "pop": 5513000,
    "country": "FI",
    "longitude": 25.748152,
    "name": "Finland",
    "latitude": 61.92411,
    "dead": 329,
    "lastUpdated": "2020-07-14T22:46:03.314Z",
    "recovered": 6800,
    "infected": 7301,
    "sick": 172,
    "invisible": false
  },
  {
    "name": "Krasnoyarsk Krai",
    "latitude": 64.248,
    "dead": 234,
    "lastUpdated": "2020-07-14T22:30:08.255Z",
    "recovered": 7127,
    "infected": 10756,
    "id": "A6Us0fpQVCc85SoIqzg3",
    "pop": 2876000,
    "country": "RU",
    "longitude": 95.1104,
    "sick": 3395,
    "invisible": false
  },
  {
    "state": "NH",
    "id": "A84CwQ52kA46Hr7pn6Bm",
    "pop": 1356000,
    "country": "US",
    "longitude": -71.590315,
    "name": "New Hampshire",
    "latitude": 43.311643,
    "dead": 391,
    "lastUpdated": "2020-07-14T22:47:02.225Z",
    "recovered": 0,
    "infected": 6068,
    "sick": 5677,
    "invisible": false
  },
  {
    "longitude": -71.412257,
    "name": "Rhode Island",
    "latitude": 41.823261,
    "dead": 985,
    "lastUpdated": "2020-07-14T22:47:02.224Z",
    "recovered": 0,
    "infected": 17588,
    "state": "RI",
    "id": "AEUWUHS65qvjEslew11c",
    "pop": 1057000,
    "country": "US",
    "sick": 16603,
    "invisible": false
  },
  {
    "state": "45",
    "id": "AJ9jQ0iyKsafsmf5yHAR",
    "pop": 4453000,
    "country": "IT",
    "longitude": 11.327591,
    "name": "Emilia-Romagna",
    "latitude": 44.498955,
    "dead": 4271,
    "lastUpdated": "2020-07-14T22:31:02.423Z",
    "recovered": 23511,
    "infected": 28971,
    "sick": 1189,
    "invisible": false
  },
  {
    "state": "SL",
    "id": "AKjFRQGnzuuZQhv5Qwx7",
    "pop": 990509,
    "country": "DE",
    "longitude": 7.023,
    "name": "Saarland",
    "latitude": 49.3964,
    "dead": 178,
    "lastUpdated": "2020-07-14T22:30:06.613Z",
    "recovered": 2619,
    "infected": 2841,
    "sick": 44,
    "invisible": false
  },
  {
    "longitude": 60.8789,
    "name": "Chelyabinsk Oblast",
    "latitude": 54.4319,
    "dead": 88,
    "lastUpdated": "2020-07-14T22:30:08.256Z",
    "recovered": 5112,
    "infected": 9032,
    "id": "AOapJ3gElQApd8Gnt8EL",
    "pop": 3493000,
    "country": "RU",
    "sick": 3832,
    "invisible": false
  },
  {
    "latitude": -35.717,
    "dead": 94,
    "lastUpdated": "2020-07-14T22:51:05.681Z",
    "recovered": 0,
    "infected": 7241,
    "id": "APTPgjAsjFi0nsGyJV7M",
    "pop": 1125002,
    "country": "CL",
    "longitude": -71.167,
    "name": "Maule",
    "sick": 7147,
    "invisible": false
  },
  {
    "id": "APaZzlGCEeuoLBtzTJMe",
    "pop": 56171,
    "country": "GL",
    "longitude": -42.6043,
    "name": "Greenland",
    "latitude": 71.7069,
    "dead": 0,
    "lastUpdated": "2020-07-14T22:46:03.324Z",
    "recovered": 13,
    "infected": 13,
    "sick": 0,
    "invisible": false
  },
  {
    "latitude": 54.8331,
    "dead": 26,
    "lastUpdated": "2020-07-14T22:30:08.267Z",
    "recovered": 2619,
    "infected": 3449,
    "id": "ATxF6ZoDJ2ibdE6ZRYIX",
    "pop": 984000,
    "country": "RU",
    "longitude": 112.4061,
    "name": "Buryatia",
    "sick": 804,
    "invisible": false
  },
  {
    "recovered": 1000,
    "infected": 1066,
    "state": "NS",
    "id": "AVCpxeh0fuH2WrHWNDYH",
    "pop": 971395,
    "country": "CA",
    "longitude": -63.582687,
    "name": "Nova Scotia",
    "latitude": 45.65107,
    "dead": 63,
    "lastUpdated": "2020-07-14T22:37:09.262Z",
    "sick": 3,
    "invisible": false
  },
  {
    "state": "MT",
    "id": "AcULcZBozObOhwuRKMjJ",
    "pop": 1062000,
    "country": "US",
    "longitude": -109.128641,
    "name": "Montana",
    "latitude": 47.012918,
    "dead": 34,
    "lastUpdated": "2020-07-14T22:47:02.226Z",
    "recovered": 0,
    "infected": 1952,
    "sick": 1918,
    "invisible": false
  },
  {
    "latitude": 38.861,
    "dead": 56,
    "lastUpdated": "2020-07-14T22:46:03.314Z",
    "recovered": 5332,
    "infected": 6643,
    "id": "AiIGs3ybYZZhm1ytVopr",
    "pop": 9275000,
    "country": "TJ",
    "longitude": 71.2761,
    "name": "Tajikistan",
    "sick": 1255,
    "invisible": false
  },
  {
    "latitude": 27.285971,
    "dead": 1,
    "lastUpdated": "2020-07-14T22:23:11.359Z",
    "recovered": 931,
    "infected": 932,
    "id": "AmBYm5J6E9Cuez1FQjiN",
    "pop": 45200000,
    "country": "CN",
    "longitude": 116.01609,
    "name": "Jiangxi",
    "sick": 0,
    "invisible": false
  },
  {
    "recovered": 0,
    "infected": 16836,
    "state": "WA",
    "id": "AoLhHdTydeWTfmp9koEX",
    "pop": 3136000,
    "country": "GB",
    "longitude": -3.7837,
    "name": "Wales",
    "latitude": 52.1307,
    "dead": 1543,
    "lastUpdated": "2020-07-14T22:43:19.917Z",
    "sick": 15293,
    "invisible": false
  },
  {
    "country": "RU",
    "longitude": 90.3982,
    "name": "Khakassia",
    "latitude": 53.0452,
    "dead": 19,
    "lastUpdated": "2020-07-14T22:30:08.268Z",
    "recovered": 1796,
    "infected": 2415,
    "id": "Avls64fLKoEsBFH0Ol0b",
    "pop": 537000,
    "sick": 600,
    "invisible": false
  },
  {
    "latitude": 28.033886,
    "dead": 1028,
    "lastUpdated": "2020-07-14T22:46:03.311Z",
    "recovered": 14295,
    "infected": 20216,
    "id": "AwN0CScPDApcLFgz6e3z",
    "pop": 41320000,
    "country": "DZ",
    "longitude": 1.659626,
    "name": "Algeria",
    "sick": 4893,
    "invisible": false
  },
  {
    "recovered": 2558,
    "infected": 3827,
    "id": "B82Ef45M8cDu4q7VsSHF",
    "pop": 4076000,
    "country": "HR",
    "longitude": 15.2,
    "name": "Croatia",
    "latitude": 45.099998,
    "dead": 120,
    "lastUpdated": "2020-07-14T22:46:03.315Z",
    "sick": 1149,
    "invisible": false
  },
  {
    "lastUpdated": "2020-07-14T22:46:03.320Z",
    "recovered": 992,
    "infected": 1099,
    "id": "BENubqQInFUJzhpZTsLT",
    "pop": 23716000,
    "country": "NE",
    "longitude": 8.081666,
    "name": "Niger",
    "latitude": 17.6077881,
    "dead": 68,
    "sick": 39,
    "invisible": false
  },
  {
    "latitude": 39.509109,
    "dead": 3334,
    "lastUpdated": "2020-07-14T22:47:02.219Z",
    "recovered": 0,
    "infected": 74260,
    "state": "MD",
    "id": "BF51mWl51fgEcyBpCSzb",
    "pop": 6043000,
    "country": "US",
    "longitude": -76.98432,
    "name": "Maryland",
    "sick": 70926,
    "invisible": false
  },
  {
    "longitude": 27.953388,
    "name": "Belarus",
    "latitude": 53.709808,
    "dead": 474,
    "lastUpdated": "2020-07-14T22:46:03.308Z",
    "recovered": 55799,
    "infected": 65269,
    "id": "BGg6yVU5VP71B8NXU0oh",
    "pop": 9508000,
    "country": "BY",
    "sick": 8996,
    "invisible": false
  },
  {
    "country": "FR",
    "longitude": 0.1713,
    "name": "Normandie",
    "latitude": 48.8799,
    "dead": 436,
    "lastUpdated": "2020-07-14T22:57:48.902Z",
    "recovered": 1703,
    "infected": 3681,
    "id": "BGtoyzb7y54LVlJ91rbf",
    "pop": 3319000,
    "sick": 1542,
    "invisible": false
  },
  {
    "lastUpdated": "2020-07-14T22:43:19.919Z",
    "recovered": 0,
    "infected": 12879,
    "state": "EN",
    "id": "BQqMOlPFD36ZEDTGd3WC",
    "pop": 5616000,
    "country": "GB",
    "longitude": -3.9995,
    "name": "South West",
    "latitude": 50.7772,
    "dead": 0,
    "sick": 12879,
    "invisible": false
  },
  {
    "recovered": 0,
    "infected": 128097,
    "state": "AZ",
    "id": "BTEESCuD2ZbS1afunR2A",
    "pop": 7172000,
    "country": "US",
    "longitude": -111.093735,
    "name": "Arizona",
    "latitude": 34.048927,
    "dead": 2337,
    "lastUpdated": "2020-07-14T22:47:02.218Z",
    "sick": 125760,
    "invisible": false
  },
  {
    "recovered": 3053,
    "infected": 5155,
    "id": "BUb7oDHcBM4lQ5cufNoG",
    "pop": 949000,
    "country": "RU",
    "longitude": 32.6677,
    "name": "Smolensk Oblast",
    "latitude": 54.9883,
    "dead": 79,
    "lastUpdated": "2020-07-14T22:30:08.263Z",
    "sick": 2023,
    "invisible": false
  },
  {
    "longitude": 50.2097,
    "name": "Kirov Oblast",
    "latitude": 58.4199,
    "dead": 47,
    "lastUpdated": "2020-07-14T22:30:08.267Z",
    "recovered": 3414,
    "infected": 3877,
    "id": "BWojXmuKU3szKlS7CE4k",
    "pop": 1283000,
    "country": "RU",
    "sick": 416,
    "invisible": false
  },
  {
    "latitude": 53.428543,
    "dead": 23,
    "lastUpdated": "2020-07-14T22:33:01.564Z",
    "recovered": 0,
    "infected": 638,
    "id": "BZwZOAlDJ8AIiaRVLyC9",
    "pop": 1676000,
    "country": "PL",
    "longitude": 14.552812,
    "name": "Zachodniopomorskie",
    "sick": 615,
    "invisible": false
  },
  {
    "latitude": -33.4489,
    "dead": 0,
    "lastUpdated": "2020-07-14T22:46:03.305Z",
    "recovered": 289220,
    "infected": 0,
    "id": "BbiuZcm8oURX7cZwaa5U",
    "country": "CL",
    "longitude": -70.6693,
    "invisible": true,
    "name": "Unknown Chile region",
    "sick": 0
  },
  {
    "longitude": 34.3015,
    "name": "Malawi",
    "latitude": -13.2543,
    "dead": 40,
    "lastUpdated": "2020-07-14T22:46:03.315Z",
    "recovered": 795,
    "infected": 2497,
    "id": "BfT8o5DaEixC6JIZ28kY",
    "pop": 18620000,
    "country": "MW",
    "sick": 1662,
    "invisible": false
  },
  {
    "recovered": 207,
    "infected": 269,
    "id": "BnpMamidC5yYzeK8tPUL",
    "pop": 10860000,
    "country": "BI",
    "longitude": 29.9188862,
    "name": "Burundi",
    "latitude": -3.3730559,
    "dead": 1,
    "lastUpdated": "2020-07-14T22:46:03.322Z",
    "sick": 61,
    "invisible": false
  },
  {
    "latitude": 52.257,
    "dead": 353,
    "lastUpdated": "2020-07-14T22:33:01.562Z",
    "recovered": 0,
    "infected": 5477,
    "id": "BrToMzyq8y2xdwXn75kM",
    "pop": 5385000,
    "country": "PL",
    "longitude": 21.002,
    "name": "Mazowieckie",
    "sick": 5124,
    "invisible": false
  },
  {
    "recovered": 2196,
    "infected": 2428,
    "id": "C25xSDm4iYibX5RYML14",
    "pop": 74751,
    "country": "CO",
    "longitude": -71.347573,
    "name": "Amazonas (Colombia)",
    "latitude": -1.333845,
    "dead": 101,
    "lastUpdated": "2020-07-14T22:39:43.521Z",
    "sick": 131,
    "invisible": false
  },
  {
    "latitude": 40.719042,
    "dead": 32461,
    "lastUpdated": "2020-07-14T22:47:02.217Z",
    "recovered": 0,
    "infected": 429265,
    "state": "NY",
    "id": "C3BCUzV80z9GfiuByIcr",
    "pop": 19540000,
    "country": "US",
    "longitude": -73.982597,
    "name": "New York",
    "sick": 396804,
    "invisible": false
  },
  {
    "lastUpdated": "2020-07-14T22:39:43.522Z",
    "recovered": 11,
    "infected": 14,
    "id": "C5YXFiytAc1w9swtVGLz",
    "pop": 42800,
    "country": "CO",
    "longitude": -67.92389,
    "name": "Guainía",
    "latitude": 3.86528,
    "dead": 1,
    "sick": 2,
    "invisible": false
  },
  {
    "recovered": 8441,
    "infected": 13341,
    "id": "C6S76AggdWVU8G22jFHQ",
    "pop": 10650000,
    "country": "CZ",
    "longitude": 15.359413,
    "name": "Czechia",
    "latitude": 49.731626,
    "dead": 355,
    "lastUpdated": "2020-07-14T22:46:03.311Z",
    "sick": 4545,
    "invisible": false
  },
  {
    "name": "Bahrain",
    "latitude": 26.0667,
    "dead": 111,
    "lastUpdated": "2020-07-14T22:46:03.310Z",
    "recovered": 29753,
    "infected": 34078,
    "id": "C7cj4nwRITs13KnaJrQ2",
    "pop": 1493000,
    "country": "BH",
    "longitude": 50.557701,
    "sick": 4214,
    "invisible": false
  },
  {
    "lastUpdated": "2020-07-14T22:39:43.520Z",
    "recovered": 522,
    "infected": 1204,
    "id": "CA9LaAl3bNaeAqBuozn4",
    "pop": 1285400,
    "country": "CO",
    "longitude": -74.4057,
    "name": "Magdalena",
    "latitude": 10.4113,
    "dead": 128,
    "sick": 554,
    "invisible": false
  },
  {
    "recovered": 0,
    "infected": 7338,
    "id": "CCUFp4urvgXPo5unfMGy",
    "pop": 3073500,
    "country": "MX",
    "longitude": -101.430756,
    "name": "Coahuila",
    "latitude": 26.909979,
    "dead": 376,
    "lastUpdated": "2020-07-14T22:32:02.075Z",
    "sick": 6962,
    "invisible": false
  },
  {
    "recovered": 19169,
    "infected": 25571,
    "id": "CKZCZTPlrcq5fbfUPA9k",
    "pop": 68890000,
    "country": "IN",
    "longitude": 74.2179,
    "name": "Rajasthan",
    "latitude": 27.0238,
    "dead": 524,
    "lastUpdated": "2020-07-14T22:41:02.124Z",
    "sick": 5878,
    "invisible": false
  },
  {
    "latitude": 50.6182,
    "dead": 1,
    "lastUpdated": "2020-07-14T22:30:08.271Z",
    "recovered": 613,
    "infected": 1111,
    "id": "CX8z9U1iABNBhc1VK2Dy",
    "pop": 218000,
    "country": "RU",
    "longitude": 86.2199,
    "name": "Altai",
    "sick": 497,
    "invisible": false
  },
  {
    "country": "SV",
    "longitude": -88.9053,
    "name": "El Salvador",
    "latitude": 13.803,
    "dead": 278,
    "lastUpdated": "2020-07-14T22:46:03.312Z",
    "recovered": 5919,
    "infected": 10303,
    "id": "Cgvmtle61ehMvCzRzYx7",
    "pop": 6378000,
    "sick": 4106,
    "invisible": false
  },
  {
    "id": "D4WkbqyUXY1pazbOxfKx",
    "pop": 144000,
    "country": "RU",
    "longitude": 153.915,
    "name": "Magadan Oblast",
    "latitude": 62.6643,
    "dead": 5,
    "lastUpdated": "2020-07-14T22:30:08.272Z",
    "recovered": 625,
    "infected": 1068,
    "sick": 438,
    "invisible": false
  },
  {
    "id": "DAp3PFow4BuCMYWWTo3i",
    "pop": 1078000,
    "country": "RU",
    "longitude": 82.6765,
    "name": "Tomsk Oblast",
    "latitude": 58.897,
    "dead": 24,
    "lastUpdated": "2020-07-14T22:30:08.268Z",
    "recovered": 1739,
    "infected": 3112,
    "sick": 1349,
    "invisible": false
  },
  {
    "longitude": 44.818474,
    "name": "Armenia",
    "latitude": 40.259003,
    "dead": 581,
    "lastUpdated": "2020-07-14T22:46:03.310Z",
    "recovered": 20729,
    "infected": 32490,
    "id": "DCJCtZoBTWQ4mzdDNljD",
    "pop": 2973000,
    "country": "AM",
    "sick": 11180,
    "invisible": false
  },
  {
    "latitude": 5.535,
    "dead": 16,
    "lastUpdated": "2020-07-14T22:39:43.520Z",
    "recovered": 285,
    "infected": 499,
    "id": "DJJraANgQbEqz1wBBtZz",
    "pop": 1278000,
    "country": "CO",
    "longitude": -73.368,
    "name": "Boyacá",
    "sick": 198,
    "invisible": false
  },
  {
    "recovered": 2799,
    "infected": 3901,
    "id": "DKwy7USk22oXUQGEvO42",
    "pop": 834000,
    "country": "RU",
    "longitude": 44.0684,
    "name": "Mordovia",
    "latitude": 54.2369,
    "dead": 29,
    "lastUpdated": "2020-07-14T22:30:08.266Z",
    "sick": 1073,
    "invisible": false
  },
  {
    "state": "EN",
    "id": "DPwBt2aJuwF0O71vwfM9",
    "pop": 7300000,
    "country": "GB",
    "longitude": -2.5945,
    "name": "North West",
    "latitude": 53.6221,
    "dead": 0,
    "lastUpdated": "2020-07-14T22:43:19.918Z",
    "recovered": 0,
    "infected": 43602,
    "sick": 43602,
    "invisible": false
  },
  {
    "lastUpdated": "2020-07-14T22:46:03.323Z",
    "recovered": 137,
    "infected": 150,
    "id": "DZyTD0Mu5WIcK6yTcJ91",
    "pop": 65440,
    "country": "BM",
    "longitude": -64.75737,
    "name": "Bermuda",
    "latitude": 32.3213844,
    "dead": 9,
    "sick": 4,
    "invisible": false
  },
  {
    "lastUpdated": "2020-07-14T22:46:03.323Z",
    "recovered": 11,
    "infected": 72,
    "id": "DaMrRSIGJXIG36nW0Pnc",
    "pop": 35446,
    "country": "TC",
    "longitude": -71.7979,
    "name": "Turks and Caicos",
    "latitude": 21.694,
    "dead": 2,
    "sick": 59,
    "invisible": false
  },
  {
    "latitude": 39.2796,
    "dead": 3030,
    "lastUpdated": "2020-07-14T22:52:01.046Z",
    "recovered": 6392,
    "infected": 27027,
    "state": "CM",
    "id": "Dbng0NBTH41EEwBxhMzE",
    "pop": 2035000,
    "country": "ES",
    "longitude": -3.0977,
    "name": "Castilla La Mancha",
    "sick": 17605,
    "invisible": false
  },
  {
    "latitude": 50.023,
    "dead": 46,
    "lastUpdated": "2020-07-14T22:33:01.563Z",
    "recovered": 0,
    "infected": 2130,
    "id": "DcQ3D0WkacXEbv6iznRB",
    "pop": 3361000,
    "country": "PL",
    "longitude": 20.006,
    "name": "Malopolskie",
    "sick": 2084,
    "invisible": false
  },
  {
    "country": "MO",
    "longitude": 113.551262,
    "name": "Macao",
    "latitude": 22.192039,
    "dead": 0,
    "lastUpdated": "2020-07-14T22:46:03.324Z",
    "recovered": 45,
    "infected": 46,
    "id": "DdBt8qsG6A3g92oOR3ow",
    "pop": 622567,
    "sick": 1,
    "invisible": false
  },
  {
    "name": "Meghalaya",
    "latitude": 25.467,
    "dead": 2,
    "lastUpdated": "2020-07-14T22:41:02.127Z",
    "recovered": 46,
    "infected": 318,
    "id": "Dh0O1vmhrVfmsCsfZCUg",
    "pop": 2651000,
    "country": "IN",
    "longitude": 91.3662,
    "sick": 270,
    "invisible": false
  },
  {
    "longitude": 41.8259,
    "name": "Rostov Oblast",
    "latitude": 47.6853,
    "dead": 167,
    "lastUpdated": "2020-07-14T22:30:08.254Z",
    "recovered": 8291,
    "infected": 10922,
    "id": "DqzAhNFTJFQVm88ma21P",
    "pop": 4220000,
    "country": "RU",
    "sick": 2464,
    "invisible": false
  },
  {
    "latitude": 42.962334,
    "dead": 22,
    "lastUpdated": "2020-07-14T22:47:02.227Z",
    "recovered": 0,
    "infected": 1951,
    "state": "WY",
    "id": "DrGzziUglmBognCGY7R2",
    "pop": 577737,
    "country": "US",
    "longitude": -107.534868,
    "name": "Wyoming",
    "sick": 1929,
    "invisible": false
  },
  {
    "latitude": 37.9838,
    "dead": 193,
    "lastUpdated": "2020-07-14T22:46:03.315Z",
    "recovered": 1374,
    "infected": 3883,
    "id": "Dtr1lap1RpJpXJdXGJiW",
    "pop": 10740000,
    "country": "GR",
    "longitude": 23.7275,
    "name": "Greece",
    "sick": 2316,
    "invisible": false
  },
  {
    "id": "E8vIyXLVNtcY9dxLHICp",
    "pop": 2623000,
    "country": "RU",
    "longitude": 56.5872,
    "name": "Perm Krai",
    "latitude": 58.8232,
    "dead": 97,
    "lastUpdated": "2020-07-14T22:30:08.265Z",
    "recovered": 3487,
    "infected": 4543,
    "sick": 959,
    "invisible": false
  },
  {
    "latitude": 56.9634,
    "dead": 20,
    "lastUpdated": "2020-07-14T22:30:08.266Z",
    "recovered": 2602,
    "infected": 4204,
    "id": "EHKZ6ivhrJUs3XqNDBOw",
    "pop": 3692000,
    "country": "RU",
    "longitude": 66.9483,
    "name": "Tyumen Oblast",
    "sick": 1582,
    "invisible": false
  },
  {
    "latitude": 25.03841,
    "dead": 7,
    "lastUpdated": "2020-07-14T22:46:03.321Z",
    "recovered": 440,
    "infected": 451,
    "id": "EKTfs8e7M6DXzI1HqyyX",
    "pop": 23780000,
    "country": "TW",
    "longitude": 121.563698,
    "name": "Taiwan",
    "sick": 4,
    "invisible": false
  },
  {
    "latitude": 10.327273,
    "dead": 36,
    "lastUpdated": "2020-07-14T22:46:03.313Z",
    "recovered": 2441,
    "infected": 8482,
    "id": "EQzJvzVHKjs8kLmK7BMu",
    "pop": 4906000,
    "country": "CR",
    "longitude": -84.387618,
    "name": "Costa Rica",
    "sick": 6005,
    "invisible": false
  },
  {
    "latitude": 22.2587,
    "dead": 2070,
    "lastUpdated": "2020-07-14T22:41:02.123Z",
    "recovered": 30555,
    "infected": 43723,
    "id": "ERwk9R9en4m9WbdoMbIg",
    "pop": 62700000,
    "country": "IN",
    "longitude": 71.1924,
    "name": "Gujarat",
    "sick": 11098,
    "invisible": false
  },
  {
    "lastUpdated": "2020-07-14T22:30:08.257Z",
    "recovered": 4585,
    "infected": 7251,
    "id": "EVMBsgCJedjHy91mDYEC",
    "pop": 1155000,
    "country": "RU",
    "longitude": 42.5884,
    "name": "Arkhangelsk Oblast",
    "latitude": 63.2853,
    "dead": 108,
    "sick": 2558,
    "invisible": false
  },
  {
    "longitude": 76.7794,
    "name": "Chandigarh",
    "latitude": 30.7333,
    "dead": 10,
    "lastUpdated": "2020-07-14T22:41:02.126Z",
    "recovered": 446,
    "infected": 600,
    "id": "Esl5UlCVB9s8pmGB5Ofr",
    "pop": 1055000,
    "country": "IN",
    "sick": 144,
    "invisible": false
  },
  {
    "id": "Esy1La2CxwH5uB8bGVWZ",
    "pop": 2148000,
    "country": "PL",
    "longitude": 22.653,
    "name": "Lubelskie",
    "latitude": 51.24,
    "dead": 20,
    "lastUpdated": "2020-07-14T22:33:01.564Z",
    "recovered": 0,
    "infected": 834,
    "sick": 814,
    "invisible": false
  },
  {
    "lastUpdated": "2020-07-14T22:47:02.228Z",
    "state": "PR",
    "id": "F4rPrEVGAIMM5rfPEMv4",
    "longitude": -66.664513,
    "name": "Puerto Rico",
    "alwaysShow": true,
    "dead": 169,
    "latitude": 18.200178,
    "infected": 10123,
    "recovered": 0,
    "pop": 3195000,
    "country": "US",
    "sick": 9954,
    "invisible": false
  },
  {
    "lastUpdated": "2020-07-14T22:39:43.518Z",
    "recovered": 2082,
    "infected": 4310,
    "id": "F7MED5VwEhi3JvJu6KjB",
    "pop": 2919000,
    "country": "CO",
    "longitude": -74.058655,
    "name": "Cundinamarca",
    "latitude": 4.862437,
    "dead": 97,
    "sick": 2131,
    "invisible": false
  },
  {
    "name": "Comoros",
    "latitude": -11.6455,
    "dead": 7,
    "lastUpdated": "2020-07-14T22:46:03.322Z",
    "recovered": 296,
    "infected": 317,
    "id": "F8LnLqvuWoWh8awBqiw1",
    "pop": 832322,
    "country": "KM",
    "longitude": 43.3333,
    "sick": 14,
    "invisible": false
  },
  {
    "country": "AF",
    "longitude": 67.709953,
    "name": "Afghanistan",
    "latitude": 33.93911,
    "dead": 1048,
    "lastUpdated": "2020-07-14T22:46:03.310Z",
    "recovered": 21454,
    "infected": 34740,
    "id": "FCDmlmnIIswd8bQiUjfN",
    "pop": 35530000,
    "sick": 12238,
    "invisible": false
  },
  {
    "name": "Chongqing",
    "latitude": 29.431585,
    "dead": 6,
    "lastUpdated": "2020-07-14T22:23:11.359Z",
    "recovered": 575,
    "infected": 582,
    "id": "FErOU1m4Tj7jIkRam3vF",
    "pop": 30480000,
    "country": "CN",
    "longitude": 106.912254,
    "sick": 1,
    "invisible": false
  },
  {
    "recovered": 46161,
    "infected": 56174,
    "id": "FZsUkhxBEgqsPb4eO0PN",
    "pop": 4137000,
    "country": "KW",
    "longitude": 47.481766,
    "name": "Kuwait",
    "latitude": 29.311661,
    "dead": 396,
    "lastUpdated": "2020-07-14T22:46:03.309Z",
    "sick": 9617,
    "invisible": false
  },
  {
    "lastUpdated": "2020-07-14T22:57:01.747Z",
    "recovered": 0,
    "infected": 39167,
    "state": "SE",
    "id": "FboWeolpM62SZCLwdilT",
    "pop": 2278308,
    "country": "BR",
    "longitude": -37.0717,
    "name": "Sergipe",
    "latitude": -10.9111,
    "dead": 1033,
    "sick": 38134,
    "invisible": false
  },
  {
    "lastUpdated": "2020-07-14T22:41:02.123Z",
    "recovered": 97310,
    "infected": 147324,
    "id": "FeS45oMNC27pI17F0xEV",
    "pop": 67860000,
    "country": "IN",
    "longitude": 78.6569,
    "name": "Tamil Nadu",
    "latitude": 11.1271,
    "dead": 2099,
    "sick": 47915,
    "invisible": false
  },
  {
    "recovered": 23134,
    "infected": 46305,
    "id": "FuiVEJvWb0QMCpxJ3563",
    "pop": 10770000,
    "country": "DO",
    "longitude": -70.430399,
    "name": "Dominican Republic",
    "latitude": 18.947829,
    "dead": 910,
    "lastUpdated": "2020-07-14T22:46:03.309Z",
    "sick": 22261,
    "invisible": false
  },
  {
    "country": "IN",
    "longitude": 79.0193,
    "name": "Telengana",
    "latitude": 18.1124,
    "dead": 375,
    "lastUpdated": "2020-07-14T22:41:02.123Z",
    "recovered": 24840,
    "infected": 37745,
    "id": "FyC551oNwmENxbr9Yght",
    "pop": 35190000,
    "sick": 12530,
    "invisible": false
  },
  {
    "lastUpdated": "2020-07-14T22:46:03.319Z",
    "recovered": 1493,
    "infected": 1908,
    "id": "FzIDXoqWnTI3nUfhPyT2",
    "pop": 5450000,
    "country": "SK",
    "longitude": 19.699,
    "name": "Slovakia",
    "latitude": 48.669,
    "dead": 28,
    "sick": 387,
    "invisible": false
  },
  {
    "country": "PK",
    "longitude": 69.345116,
    "name": "Pakistan",
    "latitude": 30.37532,
    "dead": 5320,
    "lastUpdated": "2020-07-14T22:46:03.306Z",
    "recovered": 170656,
    "infected": 253604,
    "id": "GAp7Wb6IMhdgbvEtMza9",
    "pop": 197000000,
    "sick": 77628,
    "invisible": false
  },
  {
    "id": "GGru8cG08mANO8XDDUtZ",
    "pop": 27980000,
    "country": "IN",
    "longitude": 75.3412,
    "name": "Punjab",
    "latitude": 31.1471,
    "dead": 213,
    "lastUpdated": "2020-07-14T22:41:02.124Z",
    "recovered": 5663,
    "infected": 8511,
    "sick": 2635,
    "invisible": false
  },
  {
    "latitude": 23.424076,
    "dead": 335,
    "lastUpdated": "2020-07-14T22:46:03.309Z",
    "recovered": 46025,
    "infected": 55573,
    "id": "GHzBIsHy2GiBc5JV2HMs",
    "pop": 9400000,
    "country": "AE",
    "longitude": 53.847816,
    "name": "United Arab Emirates",
    "sick": 9213,
    "invisible": false
  },
  {
    "id": "GLViSIjDjwvptOphedAu",
    "country": "US",
    "longitude": -95.7129,
    "invisible": true,
    "name": "Grand Princess",
    "latitude": 37.0902,
    "dead": 3,
    "lastUpdated": "2020-07-14T22:47:02.229Z",
    "recovered": 0,
    "infected": 103,
    "sick": 100
  },
  {
    "longitude": -0.1278,
    "name": "London",
    "latitude": 51.5074,
    "dead": 0,
    "lastUpdated": "2020-07-14T22:43:19.918Z",
    "recovered": 0,
    "infected": 34223,
    "state": "EN",
    "id": "GPtoS0Yy2EnNafpmmTqY",
    "pop": 10100000,
    "country": "GB",
    "sick": 34223,
    "invisible": false
  },
  {
    "country": "US",
    "longitude": -119.339046,
    "name": "California",
    "latitude": 36.621981,
    "dead": 7209,
    "lastUpdated": "2020-07-14T22:47:02.217Z",
    "recovered": 0,
    "infected": 344640,
    "state": "CA",
    "id": "Gh46r6vuaY7fbGt3IboN",
    "pop": 39560000,
    "sick": 337431,
    "invisible": false
  },
  {
    "lastUpdated": "2020-07-14T22:41:02.127Z",
    "recovered": 342,
    "infected": 541,
    "id": "GljWeVnun6o9DeW6rlEm",
    "pop": 343709,
    "country": "IN",
    "longitude": 72.8397,
    "name": "Dadra and Nagar Haveli",
    "latitude": 20.4283,
    "dead": 1,
    "sick": 198,
    "invisible": false
  },
  {
    "latitude": 35.87189,
    "dead": 428,
    "lastUpdated": "2020-07-14T22:47:02.224Z",
    "recovered": 0,
    "infected": 21738,
    "state": "OK",
    "id": "GpF8ULuKOQiFDCUHN44h",
    "pop": 3943000,
    "country": "US",
    "longitude": -97.145514,
    "name": "Oklahoma",
    "sick": 21310,
    "invisible": false
  },
  {
    "longitude": -71.557,
    "name": "Arauca",
    "latitude": 6.492,
    "dead": 0,
    "lastUpdated": "2020-07-14T22:39:43.522Z",
    "recovered": 29,
    "infected": 147,
    "id": "Gr09a1wn3BnMqjQbgEun",
    "pop": 256627,
    "country": "CO",
    "sick": 118,
    "invisible": false
  },
  {
    "recovered": 3628,
    "infected": 5629,
    "id": "GsecjBfopdgTOnyRgtCA",
    "pop": 1014000,
    "country": "RU",
    "longitude": 41.483,
    "name": "Ivanovo Oblast",
    "latitude": 57.1057,
    "dead": 59,
    "lastUpdated": "2020-07-14T22:30:08.261Z",
    "sick": 1942,
    "invisible": false
  },
  {
    "latitude": 46.5,
    "dead": 292,
    "lastUpdated": "2020-07-14T22:31:02.424Z",
    "recovered": 2287,
    "infected": 2674,
    "state": "BA",
    "id": "Gzx6GX1qhBm714BkEC6l",
    "pop": 520891,
    "country": "IT",
    "longitude": 11.35,
    "name": "P.A. Bolzano",
    "sick": 95,
    "invisible": false
  },
  {
    "id": "H3JeVigVbo5CSYfZG4WI",
    "pop": 24710000,
    "country": "CN",
    "longitude": 113.750972,
    "name": "Inner Mongolia",
    "latitude": 42.83263,
    "dead": 1,
    "lastUpdated": "2020-07-14T22:23:11.357Z",
    "recovered": 237,
    "infected": 249,
    "sick": 11,
    "invisible": false
  },
  {
    "state": "NV",
    "id": "H3bDg4eV30up4WWrIDAS",
    "pop": 3034000,
    "country": "US",
    "longitude": -116.724977,
    "name": "Nevada",
    "latitude": 39.74536,
    "dead": 612,
    "lastUpdated": "2020-07-14T22:47:02.223Z",
    "recovered": 0,
    "infected": 29619,
    "sick": 29007,
    "invisible": false
  },
  {
    "latitude": -3.731862,
    "dead": 6977,
    "lastUpdated": "2020-07-14T22:57:01.745Z",
    "recovered": 0,
    "infected": 139437,
    "state": "CE",
    "id": "HEMWNnFxeFEoeOCBOLJD",
    "pop": 9075649,
    "country": "BR",
    "longitude": -38.526669,
    "name": "Ceará",
    "sick": 132460,
    "invisible": false
  },
  {
    "latitude": 15.3173,
    "dead": 846,
    "lastUpdated": "2020-07-14T22:41:02.123Z",
    "recovered": 17391,
    "infected": 44077,
    "id": "HN5mGmxlqlSeFSNeu1K5",
    "pop": 64060000,
    "country": "IN",
    "longitude": 75.7139,
    "name": "Karnataka",
    "sick": 25840,
    "invisible": false
  },
  {
    "recovered": 78,
    "infected": 84,
    "id": "HRDpwyxpqW9RN0xLFyNu",
    "pop": 807610,
    "country": "BT",
    "longitude": 90.4336,
    "name": "Bhutan",
    "latitude": 27.5142,
    "dead": 0,
    "lastUpdated": "2020-07-14T22:46:03.323Z",
    "sick": 6,
    "invisible": false
  },
  {
    "latitude": 41.3775,
    "dead": 67,
    "lastUpdated": "2020-07-14T22:46:03.311Z",
    "recovered": 8327,
    "infected": 14085,
    "id": "HRTA10dtrruDEwjJEGMp",
    "pop": 32390000,
    "country": "UZ",
    "longitude": 64.5853,
    "name": "Uzbekistan",
    "sick": 5691,
    "invisible": false
  },
  {
    "latitude": 34.138916,
    "dead": 551,
    "lastUpdated": "2020-07-14T22:47:02.224Z",
    "recovered": 0,
    "infected": 15514,
    "state": "NM",
    "id": "HSSFomRju0doHhWgW8On",
    "pop": 2095000,
    "country": "US",
    "longitude": -105.576255,
    "name": "New Mexico",
    "sick": 14963,
    "invisible": false
  },
  {
    "longitude": -72.3311,
    "name": "Los Ríos",
    "latitude": -40.231,
    "dead": 11,
    "lastUpdated": "2020-07-14T22:51:05.682Z",
    "recovered": 0,
    "infected": 777,
    "id": "HZkACHjW7NlYjg8vEMj2",
    "pop": 412812,
    "country": "CL",
    "sick": 766,
    "invisible": false
  },
  {
    "state": "MV",
    "id": "He1gSS1v50t06i3YrqvB",
    "pop": 1635000,
    "country": "DE",
    "longitude": 12.4296,
    "name": "Mecklenburg-Vorpommern",
    "latitude": 53.6127,
    "dead": 21,
    "lastUpdated": "2020-07-14T22:30:06.608Z",
    "recovered": 782,
    "infected": 809,
    "sick": 6,
    "invisible": false
  },
  {
    "recovered": 2740,
    "infected": 3328,
    "state": "65",
    "id": "I9EqrZfbPnkioNU4wZGz",
    "pop": 1315000,
    "country": "IT",
    "longitude": 13.75,
    "name": "Abruzzo",
    "latitude": 42.25,
    "dead": 467,
    "lastUpdated": "2020-07-14T22:31:02.422Z",
    "sick": 121,
    "invisible": false
  },
  {
    "lastUpdated": "2020-07-14T22:23:11.358Z",
    "recovered": 1635,
    "infected": 1650,
    "id": "IAX0OQLVnUwU7FX0ENF1",
    "pop": 113460000,
    "country": "CN",
    "longitude": 113.373448,
    "name": "Guangdong",
    "latitude": 23.363855,
    "dead": 8,
    "sick": 7,
    "invisible": false
  },
  {
    "lastUpdated": "2020-07-14T22:23:11.359Z",
    "recovered": 1254,
    "infected": 1276,
    "id": "IFuMrMvSjoiX5agYvllh",
    "pop": 94000000,
    "country": "CN",
    "longitude": 113.484016,
    "name": "Henan",
    "latitude": 33.875408,
    "dead": 22,
    "sick": 0,
    "invisible": false
  },
  {
    "lastUpdated": "2020-07-14T22:53:02.487Z",
    "recovered": 0,
    "infected": 725,
    "id": "IHqRHC8K3OZPN8gniM7V",
    "pop": 451000,
    "country": "PT",
    "longitude": -8.16667,
    "name": "Algarve",
    "latitude": 37.2,
    "dead": 15,
    "sick": 710,
    "invisible": false
  },
  {
    "latitude": 3.883,
    "dead": 114,
    "lastUpdated": "2020-07-14T22:39:43.521Z",
    "recovered": 1110,
    "infected": 1721,
    "id": "IKWjRUo0SYgHQKdWjTvq",
    "pop": 333194,
    "country": "CO",
    "longitude": -77.0197,
    "name": "Buenaventura D.E.",
    "sick": 497,
    "invisible": false
  },
  {
    "latitude": 52.87,
    "dead": 0,
    "lastUpdated": "2020-07-14T22:43:19.918Z",
    "recovered": 0,
    "infected": 22071,
    "state": "EN",
    "id": "INyu1R48Ppv8cfW4Nuz4",
    "pop": 4811000,
    "country": "GB",
    "longitude": -0.995,
    "name": "East Midlands",
    "sick": 22071,
    "invisible": false
  },
  {
    "country": "MX",
    "longitude": -102.317,
    "name": "Aguascalientes",
    "latitude": 22.017,
    "dead": 212,
    "lastUpdated": "2020-07-14T22:32:02.167Z",
    "recovered": 0,
    "infected": 3903,
    "id": "ISRKMzEDojyrZ9iyWwex",
    "pop": 1342600,
    "sick": 3691,
    "invisible": false
  },
  {
    "latitude": 25.686613,
    "dead": 654,
    "lastUpdated": "2020-07-14T22:32:02.167Z",
    "recovered": 0,
    "infected": 20722,
    "id": "IdKbgzgKLpjBFh4UPOwu",
    "pop": 5321300,
    "country": "MX",
    "longitude": -100.316116,
    "name": "Nuevo León",
    "sick": 20068,
    "invisible": false
  },
  {
    "latitude": 28.632996,
    "dead": 749,
    "lastUpdated": "2020-07-14T22:32:02.074Z",
    "recovered": 0,
    "infected": 5798,
    "id": "IhhiYI6T0TX4CYVPcnmH",
    "pop": 3826900,
    "country": "MX",
    "longitude": -106.069099,
    "name": "Chihuahua",
    "sick": 5049,
    "invisible": false
  },
  {
    "id": "ImnOiVx9Cb8Nw7cbRcQ7",
    "pop": 480600,
    "country": "CL",
    "longitude": -72.57,
    "name": "Ñuble",
    "latitude": -36.7,
    "dead": 40,
    "lastUpdated": "2020-07-14T22:51:05.682Z",
    "recovered": 0,
    "infected": 3013,
    "sick": 2973,
    "invisible": false
  },
  {
    "country": "HT",
    "longitude": -73.0513,
    "name": "Haiti",
    "latitude": 19.0558,
    "dead": 141,
    "lastUpdated": "2020-07-14T22:46:03.314Z",
    "recovered": 3022,
    "infected": 6727,
    "id": "InZ38sIqyK7FN7XAOZoX",
    "pop": 10980000,
    "sick": 3564,
    "invisible": false
  },
  {
    "longitude": -83.280125,
    "name": "Georgia (US)",
    "latitude": 32.528564,
    "dead": 3054,
    "lastUpdated": "2020-07-14T22:47:02.218Z",
    "recovered": 0,
    "infected": 123963,
    "state": "GA",
    "id": "IvQkDJkTAsoIqPRAU25n",
    "pop": 10520000,
    "country": "US",
    "sick": 120909,
    "invisible": false
  },
  {
    "country": "NZ",
    "longitude": 172.488081,
    "name": "New Zealand",
    "latitude": -42.8285,
    "dead": 22,
    "lastUpdated": "2020-07-14T22:46:03.320Z",
    "recovered": 1498,
    "infected": 1545,
    "id": "IvVhpOoGpH6JVkGyUhXN",
    "pop": 4794000,
    "sick": 25,
    "invisible": false
  },
  {
    "lastUpdated": "2020-07-14T22:41:02.127Z",
    "recovered": 145,
    "infected": 387,
    "id": "IwYKiIVY18NGwdGQFGWW",
    "pop": 1255000,
    "country": "IN",
    "longitude": 94.7278,
    "name": "Arunachal Pradesh",
    "latitude": 28.218,
    "dead": 3,
    "sick": 239,
    "invisible": false
  },
  {
    "longitude": -66.5897,
    "name": "Venezuela",
    "latitude": 6.4238,
    "dead": 93,
    "lastUpdated": "2020-07-14T22:46:03.313Z",
    "recovered": 2671,
    "infected": 9707,
    "id": "J3mZXlfEnnJx4CDZLvRG",
    "pop": 28870000,
    "country": "VE",
    "sick": 6943,
    "invisible": false
  },
  {
    "country": "CO",
    "longitude": -72.633,
    "name": "Guaviare",
    "latitude": 2.567,
    "dead": 0,
    "lastUpdated": "2020-07-14T22:39:43.522Z",
    "recovered": 36,
    "infected": 42,
    "id": "JEMCwkwXK39jd1lZ7VgJ",
    "pop": 107932,
    "sick": 6,
    "invisible": false
  },
  {
    "id": "JOJVBvOnsLDJPVeYJaI2",
    "pop": 453000,
    "country": "RU",
    "longitude": 40.1754,
    "name": "Adygea",
    "latitude": 44.8229,
    "dead": 14,
    "lastUpdated": "2020-07-14T22:30:08.269Z",
    "recovered": 1785,
    "infected": 2275,
    "sick": 476,
    "invisible": false
  },
  {
    "latitude": 35.1264,
    "dead": 19,
    "lastUpdated": "2020-07-14T22:46:03.320Z",
    "recovered": 839,
    "infected": 1023,
    "id": "JQByE4l2OA6sGOqIcWrM",
    "pop": 1170000,
    "country": "CY",
    "longitude": 33.4299,
    "name": "Cyprus",
    "sick": 165,
    "invisible": false
  },
  {
    "recovered": 13019,
    "infected": 18853,
    "id": "JR7hOGked7CZtIs2nCV5",
    "pop": 99020000,
    "country": "IN",
    "longitude": 85.3131,
    "name": "Bihar",
    "latitude": 25.0961,
    "dead": 143,
    "lastUpdated": "2020-07-14T22:41:02.124Z",
    "sick": 5691,
    "invisible": false
  },
  {
    "longitude": -90.522713,
    "name": "Guatemala",
    "latitude": 14.628434,
    "dead": 1302,
    "lastUpdated": "2020-07-14T22:46:03.310Z",
    "recovered": 4453,
    "infected": 30872,
    "id": "JUWE6bG3b5oL7fKQMSvv",
    "pop": 17250000,
    "country": "GT",
    "sick": 25117,
    "invisible": false
  },
  {
    "country": "LU",
    "longitude": 6.1296,
    "name": "Luxembourg",
    "latitude": 49.8153,
    "dead": 111,
    "lastUpdated": "2020-07-14T22:46:03.314Z",
    "recovered": 4195,
    "infected": 5056,
    "id": "JcFsHSn2WvZ5LJW42ovG",
    "pop": 602005,
    "sick": 750,
    "invisible": false
  },
  {
    "latitude": 8.8,
    "dead": 64,
    "lastUpdated": "2020-07-14T22:39:43.520Z",
    "recovered": 631,
    "infected": 1366,
    "id": "JmOyaFe25yZCIV64JbZj",
    "pop": 2049000,
    "country": "CO",
    "longitude": -74.167,
    "name": "Bolívar",
    "sick": 671,
    "invisible": false
  },
  {
    "name": "Baja California",
    "latitude": 31.4,
    "dead": 2214,
    "lastUpdated": "2020-07-14T22:32:02.073Z",
    "recovered": 0,
    "infected": 10903,
    "id": "Jp9ePErcc8i1aOozEAMf",
    "pop": 3648100,
    "country": "MX",
    "longitude": -115.783,
    "sick": 8689,
    "invisible": false
  },
  {
    "longitude": -75.8814316,
    "name": "Córdoba",
    "latitude": 8.7479801,
    "dead": 187,
    "lastUpdated": "2020-07-14T22:39:43.520Z",
    "recovered": 379,
    "infected": 1657,
    "id": "Jr8syCB0lydmPDXw8Q6N",
    "pop": 1786500,
    "country": "CO",
    "sick": 1091,
    "invisible": false
  },
  {
    "latitude": 8.6195,
    "dead": 15,
    "lastUpdated": "2020-07-14T22:46:03.321Z",
    "recovered": 528,
    "infected": 731,
    "id": "JrBbirlBKGdWSdcDt7PF",
    "pop": 7798000,
    "country": "TG",
    "longitude": 0.8248,
    "name": "Togo",
    "sick": 188,
    "invisible": false
  },
  {
    "longitude": 25.4858,
    "name": "Bulgaria",
    "latitude": 42.7339,
    "dead": 283,
    "lastUpdated": "2020-07-14T22:46:03.314Z",
    "recovered": 3663,
    "infected": 7645,
    "id": "JzZ8sbqzjutThVjkPKPL",
    "pop": 7050000,
    "country": "BG",
    "sick": 3699,
    "invisible": false
  },
  {
    "name": "Świętokrzyskie",
    "latitude": 50.823,
    "dead": 42,
    "lastUpdated": "2020-07-14T22:33:01.564Z",
    "recovered": 0,
    "infected": 863,
    "id": "KGrK7gafkeWjmU6sHQd2",
    "pop": 1263000,
    "country": "PL",
    "longitude": 20.709,
    "sick": 821,
    "invisible": false
  },
  {
    "longitude": 61.9316,
    "name": "Sverdlovsk Oblast",
    "latitude": 59.0077,
    "dead": 172,
    "lastUpdated": "2020-07-14T22:30:08.254Z",
    "recovered": 10323,
    "infected": 16372,
    "id": "KLBR5QHW6DePaGcFxlqH",
    "pop": 4325000,
    "country": "RU",
    "sick": 5877,
    "invisible": false
  },
  {
    "state": "42",
    "id": "KLXicxFogWnu0dLp4bNK",
    "pop": 1557000,
    "country": "IT",
    "longitude": 8.833,
    "name": "Liguria",
    "latitude": 44.5,
    "dead": 1561,
    "lastUpdated": "2020-07-14T22:31:02.423Z",
    "recovered": 8283,
    "infected": 10038,
    "sick": 194,
    "invisible": false
  },
  {
    "name": "Mari El Republic",
    "latitude": 56.4385,
    "dead": 29,
    "lastUpdated": "2020-07-14T22:30:08.267Z",
    "recovered": 2904,
    "infected": 3353,
    "id": "KUnAVGJH6fLwFetE8A2x",
    "pop": 682000,
    "country": "RU",
    "longitude": 47.9608,
    "sick": 420,
    "invisible": false
  },
  {
    "latitude": 10.4631,
    "dead": 35,
    "lastUpdated": "2020-07-14T22:39:43.519Z",
    "recovered": 872,
    "infected": 1557,
    "id": "KpOz3WmiZkrXUMlUJNlV",
    "pop": 1201000,
    "country": "CO",
    "longitude": -73.2532,
    "name": "Cesar",
    "sick": 650,
    "invisible": false
  },
  {
    "state": "52",
    "id": "KrLrJbpDqqiXgUPGCCW9",
    "pop": 3737000,
    "country": "IT",
    "longitude": 11,
    "name": "Toscana",
    "latitude": 43.4167,
    "dead": 1125,
    "lastUpdated": "2020-07-14T22:31:02.425Z",
    "recovered": 8894,
    "infected": 10330,
    "sick": 311,
    "invisible": false
  },
  {
    "name": "Sri Lanka",
    "latitude": 7.873054,
    "dead": 11,
    "lastUpdated": "2020-07-14T22:46:03.315Z",
    "recovered": 1988,
    "infected": 2665,
    "id": "KsWzJO06cf0d6LJ4ZNh9",
    "pop": 21440000,
    "country": "LK",
    "longitude": 80.771797,
    "sick": 666,
    "invisible": false
  },
  {
    "country": "IN",
    "longitude": 79.74,
    "name": "Andhra Pradesh",
    "latitude": 15.9129,
    "dead": 408,
    "lastUpdated": "2020-07-14T22:41:02.124Z",
    "recovered": 17467,
    "infected": 33019,
    "id": "KtQIo2DoqjELtPAlyDVO",
    "pop": 49670000,
    "sick": 15144,
    "invisible": false
  },
  {
    "id": "LBUtrLDKJiupXjlUNTUe",
    "pop": 32125,
    "country": "FR",
    "longitude": -63.0501,
    "name": "Saint-Martin",
    "alwaysShow": true,
    "latitude": 18.0708,
    "dead": 3,
    "lastUpdated": "2020-07-14T22:46:03.324Z",
    "recovered": 37,
    "infected": 43,
    "sick": 3,
    "invisible": false
  },
  {
    "latitude": 52.7856,
    "dead": 75,
    "lastUpdated": "2020-07-14T22:30:08.264Z",
    "recovered": 3678,
    "infected": 5113,
    "id": "LD8TNScpLrLRvgpQAn9T",
    "pop": 747000,
    "country": "RU",
    "longitude": 36.9242,
    "name": "Oryol Oblast",
    "sick": 1360,
    "invisible": false
  },
  {
    "id": "LTGEU2E9MFkrCcFhZYVk",
    "pop": 38557,
    "country": "LI",
    "longitude": 9.5554,
    "name": "Liechtenstein",
    "latitude": 47.166,
    "dead": 1,
    "lastUpdated": "2020-07-14T22:46:03.323Z",
    "recovered": 81,
    "infected": 84,
    "sick": 2,
    "invisible": false
  },
  {
    "lastUpdated": "2020-07-14T22:46:03.314Z",
    "recovered": 4951,
    "infected": 6200,
    "id": "LU2QWt5ao8IJa8evNYVV",
    "pop": 12720000,
    "country": "GN",
    "longitude": -9.6966,
    "name": "Guinea",
    "latitude": 9.9456,
    "dead": 38,
    "sick": 1211,
    "invisible": false
  },
  {
    "latitude": 29.6667,
    "dead": 1287,
    "lastUpdated": "2020-07-14T22:32:02.075Z",
    "recovered": 0,
    "infected": 12850,
    "id": "LYCBHrA9ms6GcxpLGPCT",
    "pop": 3062000,
    "country": "MX",
    "longitude": -110.5,
    "name": "Sonora",
    "sick": 11563,
    "invisible": false
  },
  {
    "country": "SR",
    "longitude": -56.0277824,
    "name": "Suriname",
    "latitude": 3.9193051,
    "dead": 18,
    "lastUpdated": "2020-07-14T22:46:03.321Z",
    "recovered": 543,
    "infected": 801,
    "id": "LglKINHyQpYpFxjckbQ6",
    "pop": 563402,
    "sick": 240,
    "invisible": false
  },
  {
    "latitude": 52.9399,
    "dead": 15,
    "lastUpdated": "2020-07-14T22:37:09.261Z",
    "recovered": 766,
    "infected": 871,
    "state": "SK",
    "id": "LkIDKY0CMAqzbwBHyYCP",
    "pop": 1174000,
    "country": "CA",
    "longitude": -106.4509,
    "name": "Saskatchewan",
    "sick": 90,
    "invisible": false
  },
  {
    "name": "Western Sahara",
    "latitude": 24.2155,
    "dead": 1,
    "lastUpdated": "2020-07-14T22:46:03.325Z",
    "recovered": 8,
    "infected": 10,
    "id": "LooNn6RuMiDhQnwa9svw",
    "pop": 636442,
    "country": "EH",
    "longitude": -12.8858,
    "sick": 1,
    "invisible": false
  },
  {
    "latitude": 43.363129,
    "dead": 334,
    "lastUpdated": "2020-07-14T22:54:05.261Z",
    "recovered": 1063,
    "infected": 3427,
    "state": "AS",
    "id": "Lsga7AvYNnY0qQ5gEfV8",
    "pop": 1022000,
    "country": "ES",
    "longitude": -5.951843,
    "name": "Principado de Asturias",
    "sick": 2030,
    "invisible": false
  },
  {
    "lastUpdated": "2020-07-14T22:53:05.930Z",
    "recovered": 2652,
    "infected": 4203,
    "state": "EX",
    "id": "LuEErlF7dVKI0eJsRjFm",
    "pop": 1065000,
    "country": "ES",
    "longitude": -6.0679,
    "name": "Extremadura",
    "latitude": 39.4937,
    "dead": 519,
    "sick": 1032,
    "invisible": false
  },
  {
    "recovered": 0,
    "infected": 14274,
    "id": "M3wdiueFtwrUHiQ2rOXA",
    "pop": 5965000,
    "country": "MX",
    "longitude": -101.2591,
    "name": "Guanajuato",
    "latitude": 21.0186,
    "dead": 809,
    "lastUpdated": "2020-07-14T22:32:02.075Z",
    "sick": 13465,
    "invisible": false
  },
  {
    "name": "Kentucky",
    "latitude": 37.8393,
    "dead": 635,
    "lastUpdated": "2020-07-14T22:47:02.224Z",
    "recovered": 0,
    "infected": 20223,
    "state": "KY",
    "id": "MC8MXFw9iXYybnF8v7e6",
    "pop": 4468000,
    "country": "US",
    "longitude": -84.27,
    "sick": 19588,
    "invisible": false
  },
  {
    "latitude": 55.3781,
    "dead": 40379,
    "lastUpdated": "2020-07-14T22:43:19.919Z",
    "recovered": 0,
    "infected": 8277,
    "id": "MEjlm8VYdGA28TTTnQmf",
    "country": "GB",
    "longitude": -3.436,
    "invisible": true,
    "name": "Unknown UK region or state",
    "sick": 0
  },
  {
    "name": "Norte",
    "latitude": 41.3006,
    "dead": 823,
    "lastUpdated": "2020-07-14T22:53:02.486Z",
    "recovered": 0,
    "infected": 18184,
    "id": "MG4e9tulLJ010SZJvbYN",
    "pop": 3689000,
    "country": "PT",
    "longitude": -7.7441,
    "sick": 17361,
    "invisible": false
  },
  {
    "longitude": -4.2026,
    "name": "Scotland",
    "latitude": 56.4907,
    "dead": 2490,
    "lastUpdated": "2020-07-14T22:43:19.918Z",
    "recovered": 0,
    "infected": 18368,
    "state": "SC",
    "id": "MObRYyIriHG337L8FyFC",
    "pop": 5450000,
    "country": "GB",
    "sick": 15878,
    "invisible": false
  },
  {
    "latitude": 40.2672,
    "dead": 2775,
    "lastUpdated": "2020-07-14T22:47:02.221Z",
    "recovered": 0,
    "infected": 52685,
    "state": "IN",
    "id": "MOxDkmQ4wBi1CuAdVxDE",
    "pop": 6692000,
    "country": "US",
    "longitude": -86.1349,
    "name": "Indiana",
    "sick": 49910,
    "invisible": false
  },
  {
    "latitude": 7.54,
    "dead": 87,
    "lastUpdated": "2020-07-14T22:46:03.311Z",
    "recovered": 6908,
    "infected": 13037,
    "id": "MdQOfc1gNh2DOqwSP6UV",
    "pop": 24290000,
    "country": "CI",
    "longitude": -5.5471,
    "name": "Ivory Coast",
    "sick": 6042,
    "invisible": false
  },
  {
    "latitude": 51.4332,
    "dead": 1722,
    "lastUpdated": "2020-07-14T22:30:06.612Z",
    "recovered": 41540,
    "infected": 45210,
    "state": "NW",
    "id": "MjpYq3zQyAvSQlVVYjD2",
    "pop": 17910000,
    "country": "DE",
    "longitude": 7.6616,
    "name": "Nordrhein-Westfalen",
    "sick": 1948,
    "invisible": false
  },
  {
    "latitude": 37.330509,
    "dead": 0,
    "lastUpdated": "2020-07-14T22:23:11.360Z",
    "recovered": 75,
    "infected": 75,
    "id": "MntmjjuHljarCdt6aIeE",
    "pop": 6301000,
    "country": "CN",
    "longitude": 105.977203,
    "name": "Ningxia",
    "sick": 0,
    "invisible": false
  },
  {
    "lastUpdated": "2020-07-14T22:57:01.745Z",
    "recovered": 0,
    "infected": 128570,
    "state": "PA",
    "id": "MuEB2UgkId5crsxi9zQT",
    "pop": 8513497,
    "country": "BR",
    "longitude": -52.203499186,
    "name": "Pará",
    "latitude": -3.20166586,
    "dead": 5318,
    "sick": 123252,
    "invisible": false
  },
  {
    "name": "Lipetsk Oblast",
    "latitude": 52.5265,
    "dead": 19,
    "lastUpdated": "2020-07-14T22:30:08.266Z",
    "recovered": 2955,
    "infected": 4255,
    "id": "N0KGfqgROVOjAxWcd8wi",
    "pop": 1150000,
    "country": "RU",
    "longitude": 39.2032,
    "sick": 1281,
    "invisible": false
  },
  {
    "longitude": 9.3501,
    "name": "Baden-Württemberg",
    "latitude": 48.6616,
    "dead": 1893,
    "lastUpdated": "2020-07-14T22:30:06.602Z",
    "recovered": 33770,
    "infected": 36557,
    "state": "BW",
    "id": "N3XsRBwJSsNclkEf7Zz5",
    "pop": 11020000,
    "country": "DE",
    "sick": 894,
    "invisible": false
  },
  {
    "latitude": 44.696652,
    "dead": 226,
    "lastUpdated": "2020-07-14T22:46:03.314Z",
    "recovered": 3179,
    "infected": 6981,
    "id": "N7c13sCQF0G789XAVazJ",
    "pop": 3507000,
    "country": "BA",
    "longitude": 17.824332,
    "name": "Bosnia and Herzegovina",
    "sick": 3576,
    "invisible": false
  },
  {
    "id": "NBRIGIRrJB1Ry8prDNAC",
    "pop": 36500000,
    "country": "CN",
    "longitude": 111.856857,
    "name": "Shanxi",
    "latitude": 37.242565,
    "dead": 0,
    "lastUpdated": "2020-07-14T22:23:11.358Z",
    "recovered": 198,
    "infected": 200,
    "sick": 2,
    "invisible": false
  },
  {
    "lastUpdated": "2020-07-14T22:47:02.219Z",
    "recovered": 0,
    "infected": 89643,
    "state": "NC",
    "id": "NC64Qp5kTqAfiTuR27k8",
    "pop": 10380000,
    "country": "US",
    "longitude": -79.0193,
    "name": "North Carolina",
    "latitude": 35.7596,
    "dead": 1586,
    "sick": 88057,
    "invisible": false
  },
  {
    "latitude": 52.4125,
    "dead": 177,
    "lastUpdated": "2020-07-14T22:30:06.604Z",
    "recovered": 3248,
    "infected": 3521,
    "state": "BB",
    "id": "NJjo2gfBvnbK4xatrsUz",
    "pop": 2504000,
    "country": "DE",
    "longitude": 12.5316,
    "name": "Brandenburg",
    "sick": 96,
    "invisible": false
  },
  {
    "alwaysShow": true,
    "dead": 2,
    "latitude": 15.0979,
    "infected": 33,
    "recovered": 0,
    "pop": 55144,
    "country": "US",
    "lastUpdated": "2020-07-14T22:47:02.228Z",
    "state": "MP",
    "id": "NLLL6pJhJSw0lrDMD4uP",
    "longitude": 145.6739,
    "name": "Northern Mariana Islands",
    "sick": 31,
    "invisible": false
  },
  {
    "lastUpdated": "2020-07-14T22:41:02.125Z",
    "recovered": 2867,
    "infected": 3686,
    "id": "NMeZEcGToxXfpi16PfFV",
    "pop": 10080000,
    "country": "IN",
    "longitude": 79.0193,
    "name": "Uttarakhand",
    "latitude": 30.0668,
    "dead": 50,
    "sick": 769,
    "invisible": false
  },
  {
    "latitude": 50.6521,
    "dead": 521,
    "lastUpdated": "2020-07-14T22:30:06.608Z",
    "recovered": 10321,
    "infected": 11249,
    "state": "HE",
    "id": "Nk5vPgUIXsWVfbWZf15O",
    "pop": 6243000,
    "country": "DE",
    "longitude": 9.1624,
    "name": "Hessen",
    "sick": 407,
    "invisible": false
  },
  {
    "country": "LV",
    "longitude": 25.837107,
    "name": "Latvia",
    "latitude": 56.96776,
    "dead": 31,
    "lastUpdated": "2020-07-14T22:46:03.320Z",
    "recovered": 1022,
    "infected": 1174,
    "id": "NmmMKy0YqA8StHdGzB5N",
    "pop": 1920000,
    "sick": 121,
    "invisible": false
  },
  {
    "latitude": -8.472372,
    "dead": 5715,
    "lastUpdated": "2020-07-14T22:57:01.746Z",
    "recovered": 0,
    "infected": 73576,
    "state": "PE",
    "id": "NyGlFL1gATK1Omv9qtcC",
    "pop": 9496294,
    "country": "BR",
    "longitude": -37.946777,
    "name": "Pernambuco",
    "sick": 67861,
    "invisible": false
  },
  {
    "lastUpdated": "2020-07-14T22:46:03.320Z",
    "recovered": 439,
    "infected": 1024,
    "id": "O4g88K49HKEZLFXm5gxb",
    "pop": 4732000,
    "country": "LR",
    "longitude": -9.4295,
    "name": "Liberia",
    "latitude": 6.4281,
    "dead": 51,
    "sick": 534,
    "invisible": false
  },
  {
    "recovered": 4026,
    "infected": 6294,
    "id": "O5fNOGWKosps6JTrzkpn",
    "pop": 2350000,
    "country": "RU",
    "longitude": 82.6759,
    "name": "Altai Krai",
    "latitude": 51.7936,
    "dead": 52,
    "lastUpdated": "2020-07-14T22:30:08.258Z",
    "sick": 2216,
    "invisible": false
  },
  {
    "lastUpdated": "2020-07-14T22:30:08.267Z",
    "recovered": 2845,
    "infected": 3728,
    "id": "O6PDzAxKENYbLsLjPx2K",
    "pop": 1072000,
    "country": "RU",
    "longitude": 116.9677,
    "name": "Zabaykalsky Krai",
    "latitude": 53.0929,
    "dead": 46,
    "sick": 837,
    "invisible": false
  },
  {
    "recovered": 0,
    "infected": 60389,
    "state": "SC",
    "id": "ONU4CK8QjViFHKg2w5if",
    "pop": 5084000,
    "country": "US",
    "longitude": -80.525613,
    "name": "South Carolina",
    "latitude": 34.003307,
    "dead": 993,
    "lastUpdated": "2020-07-14T22:47:02.220Z",
    "sick": 59396,
    "invisible": false
  },
  {
    "name": "Mississippi",
    "latitude": 33.51822,
    "dead": 1272,
    "lastUpdated": "2020-07-14T22:47:02.222Z",
    "recovered": 0,
    "infected": 37542,
    "state": "MS",
    "id": "OYa0jFzdbAgo8zUsRv6q",
    "pop": 2987000,
    "country": "US",
    "longitude": -89.582775,
    "sick": 36270,
    "invisible": false
  },
  {
    "recovered": 0,
    "infected": 3566,
    "state": "ME",
    "id": "OcXNp9kNVSwrRlG3bNVN",
    "pop": 1338000,
    "country": "US",
    "longitude": -69.4455,
    "name": "Maine",
    "latitude": 45.2538,
    "dead": 114,
    "lastUpdated": "2020-07-14T22:47:02.226Z",
    "sick": 3452,
    "invisible": false
  },
  {
    "recovered": 2529,
    "infected": 3328,
    "id": "OlKS5SPydHY2TedStFuf",
    "pop": 488000,
    "country": "RU",
    "longitude": 44.8203,
    "name": "Ingushetia",
    "latitude": 43.4052,
    "dead": 71,
    "lastUpdated": "2020-07-14T22:30:08.267Z",
    "sick": 728,
    "invisible": false
  },
  {
    "state": "TAS",
    "id": "OnOseaqWdnuP18oruABW",
    "pop": 515000,
    "country": "AU",
    "longitude": 146.725256,
    "name": "Tasmania",
    "latitude": -41.915264,
    "dead": 13,
    "lastUpdated": "2020-07-14T22:28:20.684Z",
    "recovered": 215,
    "infected": 228,
    "sick": 0,
    "invisible": false
  },
  {
    "country": "BR",
    "longitude": -56.666668,
    "name": "Mato Grosso",
    "latitude": -16.35,
    "dead": 1105,
    "lastUpdated": "2020-07-14T22:57:01.747Z",
    "recovered": 0,
    "infected": 29279,
    "state": "MT",
    "id": "P0GHFGUt1pkKTk5PM8uz",
    "pop": 3441998,
    "sick": 28174,
    "invisible": false
  },
  {
    "latitude": 56.1553,
    "dead": 94,
    "lastUpdated": "2020-07-14T22:30:08.264Z",
    "recovered": 3965,
    "infected": 5006,
    "id": "P2I90oqdFSoVk03AaGo4",
    "pop": 1378000,
    "country": "RU",
    "longitude": 40.5927,
    "name": "Vladimir Oblast",
    "sick": 947,
    "invisible": false
  },
  {
    "latitude": 19.3133,
    "dead": 1,
    "lastUpdated": "2020-07-14T22:46:03.322Z",
    "recovered": 200,
    "infected": 203,
    "id": "P4mwRFLbrvT0t75uD8Wo",
    "pop": 61559,
    "country": "KY",
    "longitude": -81.2546,
    "name": "Cayman Islands",
    "sick": 2,
    "invisible": false
  },
  {
    "latitude": 16.7424984,
    "dead": 1,
    "lastUpdated": "2020-07-14T22:46:03.324Z",
    "recovered": 10,
    "infected": 12,
    "id": "PEDkeFMTOZpvHiSVxBk7",
    "pop": 5900,
    "country": "MS",
    "longitude": -62.1873665,
    "name": "Montserrat",
    "sick": 1,
    "invisible": false
  },
  {
    "longitude": 29.8739,
    "name": "Rwanda",
    "latitude": -1.9403,
    "dead": 4,
    "lastUpdated": "2020-07-14T22:46:03.320Z",
    "recovered": 737,
    "infected": 1416,
    "id": "PEcgZGEkyhABztt1Ufgc",
    "pop": 12210000,
    "country": "RW",
    "sick": 675,
    "invisible": false
  },
  {
    "longitude": 56.1645,
    "name": "Bashkortostan",
    "latitude": 54.2312,
    "dead": 19,
    "lastUpdated": "2020-07-14T22:30:08.258Z",
    "recovered": 4176,
    "infected": 6014,
    "id": "PHlHdeqYd6KgxsJGfEz0",
    "pop": 4063000,
    "country": "RU",
    "sick": 1819,
    "invisible": false
  },
  {
    "lastUpdated": "2020-07-14T22:47:02.221Z",
    "recovered": 0,
    "infected": 43170,
    "state": "MN",
    "id": "PJvVYosLIhbcRZYnKX1R",
    "pop": 5611000,
    "country": "US",
    "longitude": -94.6859,
    "name": "Minnesota",
    "latitude": 46.7296,
    "dead": 1548,
    "sick": 41622,
    "invisible": false
  },
  {
    "latitude": 40.6331,
    "dead": 7419,
    "lastUpdated": "2020-07-14T22:47:02.218Z",
    "recovered": 0,
    "infected": 156638,
    "state": "IL",
    "id": "PTwQr9ijo0TBBsPH2sdJ",
    "pop": 12740000,
    "country": "US",
    "longitude": -89.3985,
    "name": "Illinois",
    "sick": 149219,
    "invisible": false
  },
  {
    "latitude": 13.909444,
    "dead": 0,
    "lastUpdated": "2020-07-14T22:46:03.324Z",
    "recovered": 19,
    "infected": 22,
    "id": "PjLqCeFdyzdZNcZxMkK1",
    "pop": 178844,
    "country": "LC",
    "longitude": -60.978893,
    "name": "Saint Lucia",
    "sick": 3,
    "invisible": false
  },
  {
    "latitude": 42.6954,
    "dead": 528,
    "lastUpdated": "2020-07-14T22:52:45.155Z",
    "recovered": 3905,
    "infected": 8763,
    "state": "NC",
    "id": "PmUlsNx2uFLU797wwU39",
    "pop": 649900,
    "country": "ES",
    "longitude": -1.6761,
    "name": "Comunidad Foral de Navarra",
    "sick": 4330,
    "invisible": false
  },
  {
    "recovered": 1087,
    "infected": 1306,
    "id": "Pr76V4raf108uSRoEXac",
    "pop": 11530000,
    "country": "TN",
    "longitude": 9.460554,
    "name": "Tunisia",
    "latitude": 34.201507,
    "dead": 50,
    "lastUpdated": "2020-07-14T22:46:03.320Z",
    "sick": 169,
    "invisible": false
  },
  {
    "longitude": 31.4659,
    "name": "Eswatini",
    "latitude": -26.5225,
    "dead": 20,
    "lastUpdated": "2020-07-14T22:46:03.320Z",
    "recovered": 695,
    "infected": 1434,
    "id": "PuQgOd9KWiMzGZXm11sR",
    "pop": 1367000,
    "country": "SZ",
    "sick": 719,
    "invisible": false
  },
  {
    "state": "VIC",
    "id": "Q18mrGvFWTLX2BU9SqhQ",
    "pop": 6359000,
    "country": "AU",
    "longitude": 143.94853,
    "name": "Victoria",
    "latitude": -37.009609,
    "dead": 24,
    "lastUpdated": "2020-07-14T22:28:20.684Z",
    "recovered": 2395,
    "infected": 4224,
    "sick": 1805,
    "invisible": false
  },
  {
    "longitude": 9.6961,
    "name": "Schleswig-Holstein",
    "latitude": 54.2194,
    "dead": 159,
    "lastUpdated": "2020-07-14T22:30:06.614Z",
    "recovered": 3026,
    "infected": 3228,
    "state": "SH",
    "id": "Q39XkabIYxt15mHINzTa",
    "pop": 2890000,
    "country": "DE",
    "sick": 43,
    "invisible": false
  },
  {
    "lastUpdated": "2020-07-14T22:57:01.746Z",
    "recovered": 0,
    "infected": 40993,
    "state": "RS",
    "id": "QGpQNhuoVTUPHXvS7qcu",
    "pop": 11329605,
    "country": "BR",
    "longitude": -52.031696,
    "name": "Rio Grande do Sul",
    "latitude": -27.953491,
    "dead": 1060,
    "sick": 39933,
    "invisible": false
  },
  {
    "latitude": 55.5596,
    "dead": 47,
    "lastUpdated": "2020-07-14T22:30:08.259Z",
    "recovered": 3228,
    "infected": 5940,
    "id": "QGyuno7Bc4kwuvGFgMiO",
    "pop": 1231000,
    "country": "RU",
    "longitude": 46.9284,
    "name": "Chuvashia",
    "sick": 2665,
    "invisible": false
  },
  {
    "longitude": 25.013607,
    "name": "Estonia",
    "latitude": 58.595272,
    "dead": 69,
    "lastUpdated": "2020-07-14T22:46:03.318Z",
    "recovered": 1897,
    "infected": 2015,
    "id": "QR9go2hQKXjty7JHUYe4",
    "pop": 1328000,
    "country": "EE",
    "sick": 49,
    "invisible": false
  },
  {
    "id": "QTafh5fpbS8abcuyEjaL",
    "pop": 840000,
    "country": "RU",
    "longitude": 54.8313,
    "name": "Komi Republic",
    "latitude": 63.8631,
    "dead": 38,
    "lastUpdated": "2020-07-14T22:30:08.265Z",
    "recovered": 2352,
    "infected": 4366,
    "sick": 1976,
    "invisible": false
  },
  {
    "recovered": 0,
    "infected": 65213,
    "state": "ES",
    "id": "QaWDLKH8SuwD0Qxq6c38",
    "pop": 3972388,
    "country": "BR",
    "longitude": -40.336,
    "name": "Espírito Santo",
    "latitude": -20.318,
    "dead": 2082,
    "lastUpdated": "2020-07-14T22:57:01.746Z",
    "sick": 63131,
    "invisible": false
  },
  {
    "longitude": 35.0884,
    "name": "Murmansk Oblast",
    "latitude": 67.8443,
    "dead": 35,
    "lastUpdated": "2020-07-14T22:30:08.257Z",
    "recovered": 4061,
    "infected": 7410,
    "id": "Qh73PKA4KWeuPoqZfWXz",
    "pop": 795000,
    "country": "RU",
    "sick": 3314,
    "invisible": false
  },
  {
    "longitude": -103.6667,
    "name": "Jalisco",
    "latitude": 20.3333,
    "dead": 1045,
    "lastUpdated": "2020-07-14T22:32:02.167Z",
    "recovered": 0,
    "infected": 19310,
    "id": "Qkho455pBwx88Gohs3hL",
    "pop": 8222700,
    "country": "MX",
    "sick": 18265,
    "invisible": false
  },
  {
    "latitude": -6.315,
    "dead": 0,
    "lastUpdated": "2020-07-14T22:46:03.325Z",
    "recovered": 8,
    "infected": 11,
    "id": "QlZrE4nosm5WfdA2aCDg",
    "pop": 8251000,
    "country": "PG",
    "longitude": 143.9555,
    "name": "Papua New Guinea",
    "sick": 3,
    "invisible": false
  },
  {
    "lastUpdated": "2020-07-14T22:47:02.228Z",
    "state": "VI",
    "id": "QqhD3YDMKXojvQY3Yu41",
    "longitude": -64.8963,
    "name": "U.S. Virgin Islands",
    "alwaysShow": true,
    "dead": 6,
    "latitude": 18.3358,
    "infected": 206,
    "recovered": 0,
    "pop": 107268,
    "country": "US",
    "sick": 200,
    "invisible": false
  },
  {
    "latitude": 15.414999,
    "dead": 0,
    "lastUpdated": "2020-07-14T22:46:03.324Z",
    "recovered": 18,
    "infected": 18,
    "id": "Qy2qW2ep5wltnYjPJBxh",
    "pop": 71937,
    "country": "DM",
    "longitude": -61.3709755,
    "name": "Dominica",
    "sick": 0,
    "invisible": false
  },
  {
    "latitude": 5.167,
    "dead": 1,
    "lastUpdated": "2020-07-14T22:39:43.519Z",
    "recovered": 59,
    "infected": 122,
    "id": "R3IHMWqIUhOJJTlrmbUZ",
    "pop": 344027,
    "country": "CO",
    "longitude": -72.167,
    "name": "Casanare",
    "sick": 62,
    "invisible": false
  },
  {
    "recovered": 23919,
    "infected": 47173,
    "id": "R8YCgephnxTufvcPWMgx",
    "pop": 4099000,
    "country": "PA",
    "longitude": -80.7821,
    "name": "Panama",
    "latitude": 8.538,
    "dead": 932,
    "lastUpdated": "2020-07-14T22:46:03.309Z",
    "sick": 22322,
    "invisible": false
  },
  {
    "longitude": -86.2419,
    "name": "Honduras",
    "latitude": 15.2,
    "dead": 789,
    "lastUpdated": "2020-07-14T22:46:03.310Z",
    "recovered": 3123,
    "infected": 28579,
    "id": "RA2SE0p2bVhqo0P2hzGY",
    "pop": 9265000,
    "country": "HN",
    "sick": 24667,
    "invisible": false
  },
  {
    "recovered": 0,
    "infected": 2638,
    "id": "RBt9RiwP7WUbMnJfD0lo",
    "pop": 224500,
    "country": "CL",
    "longitude": -70.2979202,
    "name": "Arica y Parinacota",
    "latitude": -18.4745998,
    "dead": 28,
    "lastUpdated": "2020-07-14T22:51:05.678Z",
    "sick": 2610,
    "invisible": false
  },
  {
    "country": "IT",
    "longitude": 13.8,
    "name": "Friuli Venezia Giulia",
    "latitude": 45.633331,
    "dead": 345,
    "lastUpdated": "2020-07-14T22:38:03.895Z",
    "recovered": 2907,
    "infected": 3338,
    "state": "36",
    "id": "RCrDBCdBNYzgLNr0aB2H",
    "pop": 1216000,
    "sick": 86,
    "invisible": false
  },
  {
    "longitude": -93.0977,
    "name": "Iowa",
    "latitude": 41.878,
    "dead": 757,
    "lastUpdated": "2020-07-14T22:47:02.222Z",
    "recovered": 0,
    "infected": 35850,
    "state": "IA",
    "id": "RX0KDu1AFrlCsrRso0nb",
    "pop": 3156000,
    "country": "US",
    "sick": 35093,
    "invisible": false
  },
  {
    "latitude": 4.624335,
    "dead": 1169,
    "lastUpdated": "2020-07-14T22:39:43.508Z",
    "recovered": 18421,
    "infected": 51281,
    "id": "RZ6PCe5TZsO15JjDObwO",
    "pop": 7413000,
    "country": "CO",
    "longitude": -74.063644,
    "name": "Bogotá D.C.",
    "sick": 31691,
    "invisible": false
  },
  {
    "lastUpdated": "2020-07-14T22:46:03.320Z",
    "recovered": 367,
    "infected": 1512,
    "id": "RaJxbzlnRFTuj4B8IbpC",
    "pop": 6846000,
    "country": "LY",
    "longitude": 17.2283306,
    "name": "Libya",
    "latitude": 26.3351002,
    "dead": 40,
    "sick": 1105,
    "invisible": false
  },
  {
    "lastUpdated": "2020-07-14T22:47:02.224Z",
    "recovered": 0,
    "infected": 20241,
    "state": "KS",
    "id": "Rf4uvBfP3GRDSHdZElRd",
    "pop": 2912000,
    "country": "US",
    "longitude": -98.4842,
    "name": "Kansas",
    "latitude": 39.0119,
    "dead": 298,
    "sick": 19943,
    "invisible": false
  },
  {
    "country": "FR",
    "longitude": 6.1878,
    "name": "Grand Est",
    "latitude": 48.6998,
    "dead": 3587,
    "lastUpdated": "2020-07-14T22:57:30.232Z",
    "recovered": 12418,
    "infected": 26528,
    "id": "RmEgf1xeclWt7XCF9oiR",
    "pop": 5518000,
    "sick": 10523,
    "invisible": false
  },
  {
    "latitude": 50.4176,
    "dead": 3392,
    "lastUpdated": "2020-07-14T22:37:06.312Z",
    "recovered": 4933,
    "infected": 19525,
    "state": "WAL",
    "id": "RryHraSohKQLAsdr1dHO",
    "pop": 3644000,
    "country": "BE",
    "longitude": 4.451,
    "name": "Wallonia",
    "sick": 11200,
    "invisible": false
  },
  {
    "latitude": 51.2538,
    "dead": 2722,
    "lastUpdated": "2020-07-14T22:37:09.255Z",
    "recovered": 32663,
    "infected": 36839,
    "state": "ON",
    "id": "Rx4TuyMpfGb3S8wYJX0x",
    "pop": 14570000,
    "country": "CA",
    "longitude": -85.3232,
    "name": "Ontario",
    "sick": 1454,
    "invisible": false
  },
  {
    "lastUpdated": "2020-07-14T22:52:12.007Z",
    "recovered": 8716,
    "infected": 26117,
    "state": "CL",
    "id": "S8ewN4zaYp8mjtuqqOTw",
    "pop": 2408000,
    "country": "ES",
    "longitude": -4.723611,
    "name": "Castilla y León",
    "latitude": 41.652779,
    "dead": 2793,
    "sick": 14608,
    "invisible": false
  },
  {
    "id": "SDdefnq1bc3ZNr7SpEsW",
    "pop": 376480,
    "country": "FR",
    "longitude": -61.011715,
    "name": "Martinique",
    "alwaysShow": true,
    "latitude": 14.652027,
    "dead": 15,
    "lastUpdated": "2020-07-14T22:46:03.322Z",
    "recovered": 98,
    "infected": 255,
    "sick": 142,
    "invisible": false
  },
  {
    "latitude": 7.9465,
    "dead": 139,
    "lastUpdated": "2020-07-14T22:46:03.310Z",
    "recovered": 21067,
    "infected": 24988,
    "id": "SG9VWLOV3x2JsTkXmVSz",
    "pop": 28830000,
    "country": "GH",
    "longitude": -1.0232,
    "name": "Ghana",
    "sick": 3782,
    "invisible": false
  },
  {
    "longitude": 8.227512,
    "name": "Switzerland",
    "latitude": 46.818188,
    "dead": 1968,
    "lastUpdated": "2020-07-14T22:46:03.310Z",
    "recovered": 29800,
    "infected": 33016,
    "id": "SGe9sCPayMqh6RsGFaBA",
    "pop": 8570000,
    "country": "CH",
    "sick": 1248,
    "invisible": false
  },
  {
    "recovered": 4320,
    "infected": 4904,
    "id": "SGhKBmmh5hss7hrNR8hK",
    "pop": 964000,
    "country": "RU",
    "longitude": 124.1238,
    "name": "Yakutia",
    "latitude": 66.7613,
    "dead": 35,
    "lastUpdated": "2020-07-14T22:30:08.265Z",
    "sick": 549,
    "invisible": false
  },
  {
    "recovered": 25911,
    "infected": 56621,
    "state": "QC",
    "id": "SHoOE3NiJgWAlDVBzwYH",
    "pop": 8485000,
    "country": "CA",
    "longitude": -71.208,
    "name": "Quebec",
    "latitude": 46.8139,
    "dead": 5628,
    "lastUpdated": "2020-07-14T22:37:09.261Z",
    "sick": 25082,
    "invisible": false
  },
  {
    "recovered": 2370,
    "infected": 5118,
    "id": "SMWvuMMuKp2QK7O2tNia",
    "pop": 1831000,
    "country": "XK",
    "longitude": 20.903,
    "name": "Kosovo",
    "latitude": 42.6026,
    "dead": 108,
    "lastUpdated": "2020-07-14T22:40:02.187Z",
    "sick": 2640,
    "invisible": false
  },
  {
    "latitude": 45.0526,
    "dead": 59,
    "lastUpdated": "2020-07-14T22:30:08.263Z",
    "recovered": 3840,
    "infected": 5174,
    "id": "SNWCQwRwqYfxX8HZndTA",
    "pop": 1913000,
    "country": "RU",
    "longitude": 135,
    "name": "Primorsky Krai",
    "sick": 1275,
    "invisible": false
  },
  {
    "country": "IN",
    "longitude": 74.124,
    "name": "Goa",
    "latitude": 15.2993,
    "dead": 18,
    "lastUpdated": "2020-07-14T22:41:02.125Z",
    "recovered": 1607,
    "infected": 2753,
    "id": "SPcujsH2YlUaoAr8AiWF",
    "pop": 1817000,
    "sick": 1128,
    "invisible": false
  },
  {
    "latitude": -16.328547,
    "dead": 880,
    "lastUpdated": "2020-07-14T22:57:01.747Z",
    "recovered": 0,
    "infected": 37832,
    "state": "GO",
    "id": "SV5AMF59J61Vt4cXWLgy",
    "pop": 6921161,
    "country": "BR",
    "longitude": -48.953403,
    "name": "Goiás",
    "sick": 36952,
    "invisible": false
  },
  {
    "latitude": 6.181,
    "dead": 0,
    "lastUpdated": "2020-07-14T22:39:43.522Z",
    "recovered": 1,
    "infected": 1,
    "id": "SYFarIS62W0EW9bOaJmN",
    "pop": 75500,
    "country": "CO",
    "longitude": -68.436,
    "name": "Vichada",
    "sick": 0,
    "invisible": false
  },
  {
    "latitude": 39,
    "dead": 97,
    "lastUpdated": "2020-07-14T22:31:02.422Z",
    "recovered": 1062,
    "infected": 1216,
    "state": "78",
    "id": "SZdF624x0v1LlyzZjKFu",
    "pop": 1957000,
    "country": "IT",
    "longitude": 16.5,
    "name": "Calabria",
    "sick": 57,
    "invisible": false
  },
  {
    "latitude": 41.4925,
    "dead": 288,
    "lastUpdated": "2020-07-14T22:47:02.224Z",
    "recovered": 0,
    "infected": 21399,
    "state": "NE",
    "id": "SakhKQzKu1LRI8laqdQq",
    "pop": 1929000,
    "country": "US",
    "longitude": -99.9018,
    "name": "Nebraska",
    "sick": 21111,
    "invisible": false
  },
  {
    "id": "SgHzWAAYK1j2sipovxM6",
    "pop": 859959,
    "country": "FR",
    "longitude": 55.5364,
    "name": "La Réunion",
    "alwaysShow": true,
    "latitude": -21.1151,
    "dead": 3,
    "lastUpdated": "2020-07-14T22:46:03.321Z",
    "recovered": 472,
    "infected": 599,
    "sick": 124,
    "invisible": false
  },
  {
    "lastUpdated": "2020-07-14T22:46:03.323Z",
    "recovered": 133,
    "infected": 165,
    "id": "SioMALgUbo7peXmbco2f",
    "pop": 16010000,
    "country": "KH",
    "longitude": 104.990967,
    "name": "Cambodia",
    "latitude": 12.565679,
    "dead": 0,
    "sick": 32,
    "invisible": false
  },
  {
    "longitude": 144.7937,
    "name": "Guam",
    "alwaysShow": true,
    "dead": 5,
    "latitude": 13.4443,
    "infected": 312,
    "recovered": 0,
    "pop": 164229,
    "country": "US",
    "lastUpdated": "2020-07-14T22:47:02.228Z",
    "state": "GU",
    "id": "SsWhuEElU7dCTTuH5fdQ",
    "sick": 307,
    "invisible": false
  },
  {
    "country": "PL",
    "longitude": 19.1344,
    "invisible": true,
    "name": "Unknown Poland region",
    "latitude": 51.9189,
    "dead": 0,
    "lastUpdated": "2020-07-14T22:46:03.310Z",
    "recovered": 27756,
    "infected": 0,
    "id": "SuCr5emUaJ9RHTll1P1p",
    "sick": 0
  },
  {
    "name": "Udmurtia",
    "latitude": 57.067,
    "dead": 19,
    "lastUpdated": "2020-07-14T22:30:08.270Z",
    "recovered": 1380,
    "infected": 1834,
    "id": "Sx03z01BJCAbrYkWhEaD",
    "pop": 1513000,
    "country": "RU",
    "longitude": 53.0278,
    "sick": 435,
    "invisible": false
  },
  {
    "id": "T3iRf8mTUTAzbKrORTap",
    "pop": 84070000,
    "country": "CD",
    "longitude": 21.7587,
    "name": "DR Congo",
    "latitude": -4.0383,
    "dead": 190,
    "lastUpdated": "2020-07-14T22:46:03.313Z",
    "recovered": 3948,
    "infected": 8135,
    "sick": 3997,
    "invisible": false
  },
  {
    "name": "Saudi Arabia",
    "latitude": 23.635796,
    "dead": 2283,
    "lastUpdated": "2020-07-14T22:46:03.306Z",
    "recovered": 177560,
    "infected": 237803,
    "id": "T7NffoeCgTUpAbOHvYwP",
    "pop": 32940000,
    "country": "SA",
    "longitude": 44.344334,
    "sick": 57960,
    "invisible": false
  },
  {
    "longitude": -2.5396,
    "name": "La Rioja",
    "latitude": 42.2871,
    "dead": 366,
    "lastUpdated": "2020-07-14T22:53:33.180Z",
    "recovered": 3107,
    "infected": 5499,
    "state": "RI",
    "id": "TNDTapyb0k3l7Mds9q9R",
    "pop": 315700,
    "country": "ES",
    "sick": 2026,
    "invisible": false
  },
  {
    "lastUpdated": "2020-07-14T22:32:02.075Z",
    "recovered": 0,
    "infected": 6385,
    "id": "TQCWbhIpJQBQxBjhCGVJ",
    "pop": 2207200,
    "country": "MX",
    "longitude": -89.134857,
    "name": "Yucatán",
    "latitude": 20.400417,
    "dead": 657,
    "sick": 5728,
    "invisible": false
  },
  {
    "longitude": 114.650692,
    "name": "Brunei",
    "latitude": 4.506106,
    "dead": 3,
    "lastUpdated": "2020-07-14T22:46:03.323Z",
    "recovered": 138,
    "infected": 141,
    "id": "TQZmzsLhJqjtCSExAkCP",
    "pop": 428697,
    "country": "BN",
    "sick": 0,
    "invisible": false
  },
  {
    "country": "FR",
    "longitude": 4.3853,
    "name": "Auvergne-Rhône-Alpes",
    "latitude": 45.4471,
    "dead": 1747,
    "lastUpdated": "2020-07-14T22:57:02.919Z",
    "recovered": 7817,
    "infected": 15714,
    "state": "",
    "id": "TT0MKODSjrxHvG19xZCa",
    "pop": 8027000,
    "sick": 6150,
    "invisible": false
  },
  {
    "id": "TeoNTu4aw5riC04sTd73",
    "pop": 758700,
    "country": "PT",
    "longitude": -7.9,
    "name": "Alentejo",
    "latitude": 38.5667,
    "dead": 18,
    "lastUpdated": "2020-07-14T22:53:02.487Z",
    "recovered": 0,
    "infected": 586,
    "sick": 568,
    "invisible": false
  },