[
  {
    "latitude": 12.5847,
    "pop": 72600,
    "longitude": -81.7006,
    "name": "San Andrés",
    "country": "CO",
    "lastUpdated": "2020-04-28T17:09:08.252Z",
    "dead": 0,
    "id": "01b09TY4vmuZwzVuiRFK",
    "infected": 6,
    "recovered": 2,
    "sick": 4,
    "invisible": false
  },
  {
    "infected": 247,
    "recovered": 191,
    "latitude": 49.4482,
    "pop": 67052,
    "longitude": -2.5895,
    "name": "Guernsey",
    "country": "GG",
    "lastUpdated": "2020-04-28T16:47:09.449Z",
    "dead": 13,
    "id": "0FOJefeLxQYXQ1CnJm9o",
    "sick": 43,
    "invisible": false
  },
  {
    "recovered": 1220,
    "latitude": 41.066666,
    "pop": 5827000,
    "longitude": 14.333333,
    "name": "Campania",
    "country": "IT",
    "lastUpdated": "2020-04-28T17:01:01.748Z",
    "dead": 358,
    "id": "0GJcws44NSPsDHAuxJhW",
    "infected": 4380,
    "sick": 2802,
    "invisible": false
  },
  {
    "latitude": -20.2167,
    "pop": 383870,
    "longitude": -70.14222,
    "name": "Tarapacá",
    "country": "CL",
    "lastUpdated": "2020-04-28T17:07:12.892Z",
    "dead": 1,
    "id": "0HDQbiHe462xMCUV5HiI",
    "infected": 169,
    "recovered": 0,
    "sick": 168,
    "invisible": false
  },
  {
    "lastUpdated": "2020-04-28T17:11:05.680Z",
    "dead": 1,
    "id": "0VG7S6aaK4eSo59fL9JO",
    "infected": 118,
    "recovered": 38,
    "latitude": 20.9517,
    "pop": 45990000,
    "longitude": 85.0985,
    "name": "Odisha",
    "country": "IN",
    "sick": 79,
    "invisible": false
  },
  {
    "id": "0XmCRqiK2ZaehoEJvfer",
    "infected": 190,
    "recovered": 0,
    "latitude": 20.4737,
    "pop": 2990300,
    "longitude": -98.8582,
    "name": "Hidalgo",
    "country": "MX",
    "lastUpdated": "2020-04-28T17:08:17.013Z",
    "dead": 21,
    "sick": 169,
    "invisible": false
  },
  {
    "infected": 33,
    "recovered": 15,
    "latitude": 11.7401,
    "pop": 427246,
    "longitude": 92.6586,
    "name": "Andaman and Nicobar Islands",
    "country": "IN",
    "lastUpdated": "2020-04-28T17:11:05.681Z",
    "dead": 0,
    "id": "0jStOpTUNRaQYJqgmRoK",
    "sick": 18,
    "invisible": false
  },
  {
    "infected": 11921,
    "recovered": 1134,
    "latitude": 25.315058,
    "pop": 2639000,
    "longitude": 51.145517,
    "name": "Qatar",
    "country": "QA",
    "lastUpdated": "2020-04-28T17:10:03.083Z",
    "dead": 10,
    "id": "0m4aECS0Z2DGFEr8ldgI",
    "sick": 10777,
    "invisible": false
  },
  {
    "recovered": 109,
    "latitude": 22.9868,
    "pop": 90320000,
    "longitude": 87.855,
    "name": "West Bengal",
    "country": "IN",
    "lastUpdated": "2020-04-28T17:11:05.680Z",
    "dead": 22,
    "id": "0n54EMSDJcRoT1QEvw80",
    "infected": 697,
    "sick": 566,
    "invisible": false
  },
  {
    "infected": 2387,
    "recovered": 373,
    "latitude": 22.9734,
    "pop": 73340000,
    "longitude": 78.6569,
    "name": "Madhya Pradesh",
    "country": "IN",
    "lastUpdated": "2020-04-28T17:11:05.679Z",
    "dead": 120,
    "id": "0s18o5DrDAHjbu5MFcrj",
    "sick": 1894,
    "invisible": false
  },
  {
    "latitude": 37.0902,
    "longitude": -95.7129,
    "name": "Unknown US state",
    "country": "US",
    "lastUpdated": "2020-04-28T17:10:03.079Z",
    "dead": 0,
    "id": "0tFoopNTs6e4tOoaltu2",
    "invisible": true,
    "infected": 0,
    "recovered": 139927,
    "sick": 0
  },
  {
    "id": "0x2HLhr5z5xAtEdO4iZm",
    "infected": 306,
    "recovered": 253,
    "latitude": 35.64249,
    "pop": 37330000,
    "longitude": 108.472214,
    "name": "Shaanxi",
    "country": "CN",
    "lastUpdated": "2020-04-28T17:08:14.914Z",
    "dead": 3,
    "sick": 50,
    "invisible": false
  },
  {
    "infected": 1421,
    "recovered": 589,
    "latitude": 41.643351,
    "pop": 2077000,
    "longitude": 21.668393,
    "name": "North Macedonia",
    "country": "MK",
    "lastUpdated": "2020-04-28T17:10:03.092Z",
    "dead": 71,
    "id": "19MvIhipqTyYv1H37Upw",
    "sick": 761,
    "invisible": false
  },
  {
    "infected": 258,
    "recovered": 0,
    "latitude": 53.1355,
    "pop": 521542,
    "longitude": -57.6604,
    "name": "Newfoundland and Labrador",
    "country": "CA",
    "lastUpdated": "2020-04-28T17:06:09.132Z",
    "dead": 3,
    "id": "1DOMOmCWDtva46OVSZLv",
    "sick": 255,
    "invisible": false
  },
  {
    "infected": 18,
    "recovered": 18,
    "latitude": 35.801933,
    "pop": 5627000,
    "longitude": 96.779286,
    "name": "Qinghai",
    "country": "CN",
    "lastUpdated": "2020-04-28T17:08:14.922Z",
    "dead": 0,
    "id": "1Fap7rZu9SIRqf5TG9Dg",
    "sick": 0,
    "invisible": false
  },
  {
    "infected": 0,
    "recovered": 9086,
    "latitude": 23.6345,
    "pop": 126200000,
    "longitude": -102.5528,
    "name": "Unknown Mexico state",
    "country": "MX",
    "lastUpdated": "2020-04-28T17:10:03.083Z",
    "dead": 0,
    "id": "1YXQMlVL3fUeDZmcVfJw",
    "invisible": true,
    "sick": 0
  },
  {
    "recovered": 7008,
    "latitude": 44.9,
    "pop": 4376000,
    "longitude": 8.206944,
    "name": "Piemonte",
    "country": "IT",
    "lastUpdated": "2020-04-28T17:01:01.750Z",
    "dead": 2936,
    "id": "1eTSQyfp8RoDPeFrIwun",
    "infected": 25450,
    "sick": 15506,
    "invisible": false
  },
  {
    "latitude": 51.993,
    "pop": 1003000,
    "longitude": 15.461,
    "name": "Lubuskie",
    "country": "PL",
    "lastUpdated": "2020-04-28T17:03:01.161Z",
    "dead": 0,
    "id": "1j1OurxLTpZYuWIWwQ9F",
    "infected": 87,
    "recovered": 0,
    "sick": 87,
    "invisible": false
  },
  {
    "infected": 3638,
    "recovered": 975,
    "latitude": 47.4116,
    "pop": 3550000,
    "longitude": 28.3699,
    "name": "Moldova",
    "country": "MD",
    "lastUpdated": "2020-04-28T17:10:03.085Z",
    "dead": 103,
    "id": "1qTPB8X3tyLyIdsb5TN3",
    "sick": 2560,
    "invisible": false
  },
  {
    "longitude": -95.7129,
    "name": "Federal Bureau of Prisons",
    "country": "US",
    "lastUpdated": "2020-04-28T17:09:12.295Z",
    "dead": 28,
    "id": "22PJOAThcDFKgSbyQIkD",
    "invisible": true,
    "infected": 1376,
    "recovered": 0,
    "latitude": 37.0902,
    "sick": 1348
  },
  {
    "infected": 1,
    "recovered": 1,
    "latitude": 30.15336,
    "pop": 3180000,
    "longitude": 88.787865,
    "name": "Tibet",
    "country": "CN",
    "lastUpdated": "2020-04-28T17:08:14.922Z",
    "dead": 0,
    "id": "25qIBtsW2nfQj3pwBKg9",
    "sick": 0,
    "invisible": false
  },
  {
    "lastUpdated": "2020-04-28T17:10:03.084Z",
    "dead": 773,
    "id": "2KHYUb5t3lwzVVmDjwNX",
    "infected": 9511,
    "recovered": 1254,
    "latitude": -1.572184,
    "pop": 264000000,
    "longitude": 115.66779,
    "name": "Indonesia",
    "country": "ID",
    "sick": 7484,
    "invisible": false
  },
  {
    "longitude": -120.585594,
    "name": "Oregon",
    "country": "US",
    "lastUpdated": "2020-04-28T17:09:12.291Z",
    "dead": 92,
    "id": "2OrsssmGUs4XCzaZzvTv",
    "infected": 2354,
    "recovered": 0,
    "latitude": 43.807191,
    "pop": 4191000,
    "sick": 2262,
    "invisible": false
  },
  {
    "lastUpdated": "2020-04-28T17:07:12.892Z",
    "dead": 4,
    "id": "2c5HBZ1ffkCVXnMYUWnY",
    "infected": 481,
    "recovered": 0,
    "latitude": -23.65,
    "pop": 425000,
    "longitude": -70.400002,
    "name": "Antofagasta",
    "country": "CL",
    "sick": 477,
    "invisible": false
  },
  {
    "id": "2dzhyWsBSPpENWlNew0b",
    "infected": 842,
    "recovered": 0,
    "latitude": 0.035574,
    "pop": 9029000,
    "longitude": -51.070534,
    "name": "Amapá",
    "country": "BR",
    "lastUpdated": "2020-04-28T17:11:09.031Z",
    "dead": 26,
    "sick": 816,
    "invisible": false
  },
  {
    "id": "2jxHvSsxdnom0nPNvOT8",
    "infected": 110,
    "recovered": 99,
    "latitude": 43.851921,
    "pop": 27460000,
    "longitude": 126.548103,
    "name": "Jilin",
    "country": "CN",
    "lastUpdated": "2020-04-28T17:08:14.915Z",
    "dead": 1,
    "sick": 10,
    "invisible": false
  },
  {
    "recovered": 131,
    "latitude": 36.1408,
    "pop": 34571,
    "longitude": -5.3536,
    "name": "Gibraltar",
    "country": "GI",
    "lastUpdated": "2020-04-28T17:10:03.100Z",
    "dead": 0,
    "id": "2p11BjSAs3wVyymgqBOe",
    "infected": 141,
    "sick": 10,
    "invisible": false
  },
  {
    "longitude": 1.6751,
    "name": "Centre-Val de Loire",
    "country": "FR",
    "lastUpdated": "2020-04-28T02:06:26.482Z",
    "dead": 367,
    "id": "2sLNkkHpyaHx7dD3aMDO",
    "infected": 3529,
    "recovered": 1086,
    "latitude": 47.7516,
    "pop": 2567000,
    "sick": 2076,
    "invisible": false
  },
  {
    "infected": 1379,
    "recovered": 1039,
    "latitude": 42.565044,
    "pop": 884640,
    "longitude": 12.643751,
    "name": "Umbria",
    "country": "IT",
    "lastUpdated": "2020-04-28T17:01:01.751Z",
    "dead": 65,
    "id": "319tiZOMczx1y0DfvOib",
    "sick": 275,
    "invisible": false
  },
  {
    "longitude": -76.6131592,
    "name": "Cauca",
    "country": "CO",
    "lastUpdated": "2020-04-28T17:09:08.252Z",
    "dead": 4,
    "id": "38T96Q3XNjt5FSJygPed",
    "infected": 31,
    "recovered": 10,
    "latitude": 2.43823,
    "pop": 1355000,
    "sick": 17,
    "invisible": false
  },
  {
    "latitude": -13.133896,
    "pop": 17090000,
    "longitude": 27.849332,
    "name": "Zambia",
    "country": "ZM",
    "lastUpdated": "2020-04-28T17:10:03.102Z",
    "dead": 3,
    "id": "3IlPjAbP5qVMn1nlgLTJ",
    "infected": 95,
    "recovered": 42,
    "sick": 50,
    "invisible": false
  },
  {
    "lastUpdated": "2020-04-28T17:10:03.096Z",
    "dead": 7,
    "id": "3LstMSN5XMYBkxbe5HN7",
    "infected": 321,
    "recovered": 199,
    "latitude": 42.7044,
    "pop": 631219,
    "longitude": 19.3958,
    "name": "Montenegro",
    "country": "ME",
    "sick": 115,
    "invisible": false
  },
  {
    "id": "3OZoQsKrzxZ18EKyfGE6",
    "infected": 106,
    "recovered": 100,
    "latitude": -35.4735,
    "pop": 418440,
    "longitude": 149.0124,
    "name": "Australian Capital Territory",
    "country": "AU",
    "lastUpdated": "2020-04-28T17:11:10.056Z",
    "dead": 3,
    "sick": 3,
    "invisible": false
  },
  {
    "latitude": 26.2006,
    "pop": 30940000,
    "longitude": 92.9376,
    "name": "Assam",
    "country": "IN",
    "lastUpdated": "2020-04-28T17:11:05.681Z",
    "dead": 1,
    "id": "3cCbnJCsK7mKlTO08K1o",
    "infected": 38,
    "recovered": 27,
    "sick": 10,
    "invisible": false
  },
  {
    "latitude": 40.4173,
    "pop": 11690000,
    "longitude": -82.9071,
    "name": "Ohio",
    "country": "US",
    "lastUpdated": "2020-04-28T17:09:12.284Z",
    "dead": 753,
    "id": "3fC3bAyIRUquOQOEnQNe",
    "infected": 16325,
    "recovered": 0,
    "sick": 15572,
    "invisible": false
  },
  {
    "recovered": 0,
    "latitude": 25,
    "pop": 3066400,
    "longitude": -107.5,
    "name": "Sinaloa",
    "country": "MX",
    "lastUpdated": "2020-04-28T17:08:17.010Z",
    "dead": 124,
    "id": "3kFCzJguabtBvXaHxgiu",
    "infected": 801,
    "sick": 677,
    "invisible": false
  },
  {
    "lastUpdated": "2020-04-28T17:09:08.250Z",
    "dead": 47,
    "id": "3mC2LveOpXV8P1PmQGUj",
    "infected": 823,
    "recovered": 151,
    "latitude": 3.420556,
    "pop": 4708300,
    "longitude": -76.522224,
    "name": "Valle del Cauca",
    "country": "CO",
    "sick": 625,
    "invisible": false
  },
  {
    "longitude": -10.9408,
    "name": "Mauritania",
    "country": "MR",
    "lastUpdated": "2020-04-28T17:10:03.108Z",
    "dead": 1,
    "id": "4NnFMekRK2m14IlnZZoj",
    "infected": 7,
    "recovered": 6,
    "latitude": 21.0079,
    "pop": 4420000,
    "sick": 0,
    "invisible": false
  },
  {
    "infected": 1998,
    "recovered": 0,
    "latitude": 53.7267,
    "pop": 5071000,
    "longitude": -127.6476,
    "name": "British Columbia",
    "country": "CA",
    "lastUpdated": "2020-04-28T17:06:09.131Z",
    "dead": 104,
    "id": "4hfZRUoUgI4a3vrG0GBk",
    "sick": 1894,
    "invisible": false
  },
  {
    "recovered": 0,
    "latitude": -22.908333,
    "pop": 17159960,
    "longitude": -43.196388,
    "name": "Rio de Janeiro",
    "country": "BR",
    "lastUpdated": "2020-04-28T17:11:09.033Z",
    "dead": 677,
    "id": "4kq0z3kh5zt3YAUWxvtE",
    "infected": 7944,
    "sick": 7267,
    "invisible": false
  },
  {
    "recovered": 0,
    "latitude": -11.409874,
    "pop": 14812617,
    "longitude": -41.280857,
    "name": "Bahia",
    "country": "BR",
    "lastUpdated": "2020-04-28T17:11:09.031Z",
    "dead": 76,
    "id": "4yDbkEyqsNzZJjfrciYV",
    "infected": 2354,
    "sick": 2278,
    "invisible": false
  },
  {
    "latitude": 40.3426,
    "pop": 9898000,
    "longitude": 47.93802,
    "name": "Azerbaijan",
    "country": "AZ",
    "lastUpdated": "2020-04-28T17:10:03.088Z",
    "dead": 22,
    "id": "4zqzRm2xHn0CDVOUQJ8p",
    "infected": 1717,
    "recovered": 1221,
    "sick": 474,
    "invisible": false
  },
  {
    "longitude": -97.861099,
    "name": "Tamaulipas",
    "country": "MX",
    "lastUpdated": "2020-04-28T17:08:17.012Z",
    "dead": 18,
    "id": "54cfsdsRF76XVHWtZs19",
    "infected": 429,
    "recovered": 0,
    "latitude": 22.233105,
    "pop": 3672300,
    "sick": 411,
    "invisible": false
  },
  {
    "infected": 26033,
    "recovered": 6146,
    "latitude": 51.0109,
    "pop": 6596000,
    "longitude": 3.7265,
    "name": "Flanders",
    "country": "BE",
    "lastUpdated": "2020-04-28T16:56:11.464Z",
    "dead": 3608,
    "id": "57ydD48mLRD2YoyteJZj",
    "sick": 16279,
    "invisible": false
  },
  {
    "latitude": 25.025885,
    "pop": 395361,
    "longitude": -78.035889,
    "name": "Bahamas",
    "country": "BS",
    "lastUpdated": "2020-04-28T17:10:03.102Z",
    "dead": 11,
    "id": "5MHegCUO9L3LiAU7DDey",
    "infected": 80,
    "recovered": 22,
    "sick": 47,
    "invisible": false
  },
  {
    "infected": 3009,
    "recovered": 2227,
    "latitude": -31.253218,
    "pop": 7544000,
    "longitude": 146.921097,
    "name": "New South Wales",
    "country": "AU",
    "lastUpdated": "2020-04-28T17:11:10.062Z",
    "dead": 34,
    "id": "5N16a2OXXRpsEFanw0TC",
    "sick": 748,
    "invisible": false
  },
  {
    "longitude": 31.3069782,
    "name": "South Sudan",
    "country": "SS",
    "lastUpdated": "2020-04-28T17:10:03.108Z",
    "dead": 0,
    "id": "5N4PRxsCDzzwk7R200V1",
    "infected": 6,
    "recovered": 0,
    "latitude": 6.8769908,
    "pop": 12580000,
    "sick": 6,
    "invisible": false
  },
  {
    "id": "5Va9A7CXR8AXdUz4HTJj",
    "infected": 11658,
    "recovered": 6423,
    "latitude": 39.484,
    "pop": 4975000,
    "longitude": -0.7533,
    "name": "C. Valenciana",
    "country": "ES",
    "lastUpdated": "2020-04-28T17:09:03.940Z",
    "dead": 1200,
    "sick": 4035,
    "invisible": false
  },
  {
    "recovered": 17,
    "latitude": -20.9043045,
    "pop": 280460,
    "longitude": 165.618042,
    "name": "New Caledonia",
    "country": "NC",
    "lastUpdated": "2020-04-28T17:10:03.105Z",
    "dead": 0,
    "id": "5fg04eyDwFw3kEXnrxez",
    "infected": 18,
    "sick": 1,
    "invisible": false
  },
  {
    "lastUpdated": "2020-04-28T17:10:03.103Z",
    "dead": 0,
    "id": "5gXZIjRgAvd6xWN1LOv8",
    "infected": 54,
    "recovered": 16,
    "latitude": 28.394857,
    "pop": 29300000,
    "longitude": 84.124008,
    "name": "Nepal",
    "country": "NP",
    "sick": 38,
    "invisible": false
  },
  {
    "latitude": 12.879721,
    "pop": 104900000,
    "longitude": 121.774017,
    "name": "Philippines",
    "country": "PH",
    "lastUpdated": "2020-04-28T17:10:03.084Z",
    "dead": 530,
    "id": "5pwmh7aSdGRKqRbnuyc0",
    "infected": 7958,
    "recovered": 975,
    "sick": 6453,
    "invisible": false
  },
  {
    "longitude": 31.053028,
    "name": "Zimbabwe",
    "country": "ZW",
    "lastUpdated": "2020-04-28T17:10:03.104Z",
    "dead": 4,
    "id": "5qtR9nx4BLwu1ODTniaY",
    "infected": 32,
    "recovered": 5,
    "latitude": -17.824858,
    "pop": 14802190,
    "sick": 23,
    "invisible": false
  },
  {
    "invisible": true,
    "infected": 1716,
    "recovered": 0,
    "latitude": 36.0672,
    "pop": 356890,
    "longitude": -109.188,
    "name": "Navajo Nation",
    "country": "US",
    "lastUpdated": "2020-04-28T17:09:12.295Z",
    "dead": 59,
    "id": "5vkKgxTaKq1IH0Go357L",
    "sick": 1657
  },
  {
    "infected": 4152,
    "recovered": 0,
    "latitude": 19.432241,
    "pop": 8781300,
    "longitude": -99.177254,
    "name": "Ciudad de México",
    "country": "MX",
    "lastUpdated": "2020-04-28T17:08:17.011Z",
    "dead": 328,
    "id": "61E7TGjUwAo9xu6Y6gAH",
    "sick": 3824,
    "invisible": false
  },
  {
    "lastUpdated": "2020-04-28T13:48:25.669Z",
    "dead": 44,
    "id": "694ON7d0mRJDeM1gHBTR",
    "infected": 1449,
    "recovered": 536,
    "latitude": 55.621011,
    "pop": 2794000,
    "longitude": 23.804991,
    "name": "Lithuania",
    "country": "LT",
    "sick": 869,
    "invisible": false
  },
  {
    "infected": 16128,
    "recovered": 0,
    "latitude": 51.1781,
    "pop": 9175000,
    "longitude": -0.5596,
    "name": "South East",
    "country": "GB",
    "lastUpdated": "2020-04-28T17:10:19.809Z",
    "dead": 0,
    "id": "6IQAsvrmBv0HPdeTnh4x",
    "sick": 16128,
    "invisible": false
  },
  {
    "longitude": 114.109497,
    "name": "Hong Kong",
    "country": "HK",
    "lastUpdated": "2020-04-28T17:10:03.093Z",
    "dead": 4,
    "id": "6IcHIIH0zXpY0POmBZTv",
    "infected": 1038,
    "recovered": 811,
    "latitude": 22.396427,
    "pop": 7392000,
    "sick": 223,
    "invisible": false
  },
  {
    "id": "6LQesrx5bHJsVUi1TXBp",
    "infected": 279,
    "recovered": 0,
    "latitude": -8.65,
    "pop": 869265,
    "longitude": -72.4,
    "name": "Acre",
    "country": "BR",
    "lastUpdated": "2020-04-28T17:11:09.026Z",
    "dead": 14,
    "sick": 265,
    "invisible": false
  },
  {
    "infected": 64,
    "recovered": 33,
    "latitude": 9.3077,
    "pop": 11180000,
    "longitude": 2.3158,
    "name": "Benin",
    "country": "BJ",
    "lastUpdated": "2020-04-28T17:10:03.103Z",
    "dead": 1,
    "id": "6SlpghTyB6lpMFvx3g9U",
    "sick": 30,
    "invisible": false
  },
  {
    "latitude": 45.6667,
    "pop": 10040000,
    "longitude": 9.5,
    "name": "Lombardia",
    "country": "IT",
    "lastUpdated": "2020-04-28T17:01:01.749Z",
    "dead": 13575,
    "id": "6ZHcvMIzVWIaRnc4R3Qp",
    "infected": 74348,
    "recovered": 25029,
    "sick": 35744,
    "invisible": false
  },
  {
    "infected": 1408,
    "recovered": 223,
    "latitude": 46.0569,
    "pop": 2067000,
    "longitude": 14.5058,
    "name": "Slovenia",
    "country": "SI",
    "lastUpdated": "2020-04-28T17:10:03.092Z",
    "dead": 86,
    "id": "6ahNiyKDSDAftCctgLH3",
    "sick": 1099,
    "invisible": false
  },
  {
    "lastUpdated": "2020-04-28T17:07:12.893Z",
    "dead": 0,
    "id": "6nyns7UGGgkU7pxrHf8i",
    "infected": 35,
    "recovered": 0,
    "latitude": -27.3667908,
    "pop": 300000,
    "longitude": -70.331398,
    "name": "Atacama",
    "country": "CL",
    "sick": 35,
    "invisible": false
  },
  {
    "infected": 211,
    "recovered": 43,
    "latitude": -0.8037,
    "pop": 2025000,
    "longitude": 11.6094,
    "name": "Gabon",
    "country": "GA",
    "lastUpdated": "2020-04-28T17:10:03.099Z",
    "dead": 3,
    "id": "6pBi38TUgYfFm0bry2uh",
    "sick": 165,
    "invisible": false
  },
  {
    "latitude": 22.1498,
    "pop": 2831900,
    "longitude": -100.9792,
    "name": "San Luis Potosí",
    "country": "MX",
    "lastUpdated": "2020-04-28T17:08:17.012Z",
    "dead": 8,
    "id": "6vjIVg1gSANFZghV7xtS",
    "infected": 93,
    "recovered": 0,
    "sick": 85,
    "invisible": false
  },
  {
    "recovered": 6,
    "latitude": 17.901672,
    "pop": 9131,
    "longitude": -62.818544,
    "name": "Saint-Barthélémy",
    "country": "FR",
    "lastUpdated": "2020-04-28T17:10:03.108Z",
    "dead": 0,
    "id": "78Ox26bNHDA2Pk2b3Uwn",
    "infected": 6,
    "sick": 0,
    "invisible": false
  },
  {
    "infected": 394,
    "recovered": 0,
    "latitude": 54.367,
    "pop": 2305000,
    "longitude": 18.633,
    "name": "Pomorskie",
    "country": "PL",
    "lastUpdated": "2020-04-28T17:03:01.159Z",
    "dead": 8,
    "id": "7JDx6UJiwGSJyL1fChaJ",
    "sick": 386,
    "invisible": false
  },
  {
    "infected": 125,
    "recovered": 92,
    "latitude": 35.2923,
    "pop": 84690,
    "longitude": -2.9381,
    "name": "Melilla",
    "country": "ES",
    "lastUpdated": "2020-04-28T17:09:03.941Z",
    "dead": 2,
    "id": "7UASdZTZ1nPzzBwSTEA9",
    "sick": 31,
    "invisible": false
  },
  {
    "recovered": 11,
    "latitude": 17.0608,
    "pop": 102012,
    "longitude": -61.7964,
    "name": "Antigua and Barbuda",
    "country": "AG",
    "lastUpdated": "2020-04-28T17:10:03.104Z",
    "dead": 3,
    "id": "7hVFcEV7nV0MrQr3LHrl",
    "infected": 24,
    "sick": 10,
    "invisible": false
  },
  {
    "lastUpdated": "2020-04-28T15:00:02.682Z",
    "dead": 1826,
    "id": "7kCrrlOBE3jN6FtOVNUB",
    "infected": 42007,
    "recovered": 29580,
    "latitude": 48.7904,
    "pop": 13000000,
    "longitude": 11.4979,
    "name": "Bayern",
    "country": "DE",
    "sick": 10601,
    "invisible": false
  },
  {
    "longitude": 19.0402,
    "name": "Hungary",
    "country": "HU",
    "lastUpdated": "2020-04-28T17:10:03.085Z",
    "dead": 291,
    "id": "7rYC2iFB50c55Ihgbs4Q",
    "infected": 2649,
    "recovered": 516,
    "latitude": 47.4979,
    "pop": 9773000,
    "sick": 1842,
    "invisible": false
  },
  {
    "latitude": 10.9685,
    "pop": 2400000,
    "longitude": -74.7813,
    "name": "Barranquilla D.E.",
    "country": "CO",
    "lastUpdated": "2020-04-28T17:09:08.251Z",
    "dead": 6,
    "id": "7tqLvLyXcBDK808nJv0m",
    "infected": 130,
    "recovered": 35,
    "sick": 89,
    "invisible": false
  },
  {
    "lastUpdated": "2020-04-28T17:10:03.091Z",
    "dead": 58,
    "id": "8C0d7WVCjyUGtnc2gUAR",
    "infected": 1705,
    "recovered": 805,
    "latitude": 7.3697,
    "pop": 24050000,
    "longitude": 12.3547,
    "name": "Cameroon",
    "country": "CM",
    "sick": 842,
    "invisible": false
  },
  {
    "latitude": 50.8503,
    "pop": 1209000,
    "longitude": 4.3517,
    "name": "Brussels",
    "country": "BE",
    "lastUpdated": "2020-04-28T16:56:11.457Z",
    "dead": 1137,
    "id": "8DOZWbN6bDdgaLXVlUEu",
    "infected": 4832,
    "recovered": 1764,
    "sick": 1931,
    "invisible": false
  },
  {
    "infected": 1014,
    "recovered": 98,
    "latitude": -16.2902,
    "pop": 11050000,
    "longitude": -63.5887,
    "name": "Bolivia",
    "country": "BO",
    "lastUpdated": "2020-04-28T17:10:03.093Z",
    "dead": 53,
    "id": "8RihJrXw4NQXPxaRxr1u",
    "sick": 863,
    "invisible": false
  },
  {
    "infected": 15,
    "recovered": 8,
    "latitude": 12.9843,
    "pop": 109897,
    "longitude": -61.2872,
    "name": "St. Vincent Grenadines",
    "country": "VC",
    "lastUpdated": "2020-04-28T17:10:03.105Z",
    "dead": 0,
    "id": "8ZTySQROQejkDAad0qxQ",
    "sick": 7,
    "invisible": false
  },
  {
    "latitude": 1.352083,
    "pop": 5621000,
    "longitude": 103.819839,
    "name": "Singapore",
    "country": "SG",
    "lastUpdated": "2020-04-28T17:10:03.083Z",
    "dead": 14,
    "id": "8pA3fM4xC2c2wv1b4TnE",
    "infected": 14951,
    "recovered": 1128,
    "sick": 13809,
    "invisible": false
  },
  {
    "longitude": -1.5536,
    "name": "Pays de la Loire",
    "country": "FR",
    "lastUpdated": "2020-04-28T02:06:18.403Z",
    "dead": 323,
    "id": "98hwAoohgWEOQVa3NlM5",
    "infected": 3165,
    "recovered": 1152,
    "latitude": 47.2184,
    "pop": 3787000,
    "sick": 1690,
    "invisible": false
  },
  {
    "latitude": 19.30754,
    "pop": 952300,
    "longitude": -90.19885,
    "name": "Campeche",
    "country": "MX",
    "lastUpdated": "2020-04-28T17:08:17.012Z",
    "dead": 15,
    "id": "9DAvxOObTqIvMOU93nlY",
    "infected": 103,
    "recovered": 0,
    "sick": 88,
    "invisible": false
  },
  {
    "latitude": 12.8628,
    "pop": 40530000,
    "longitude": 30.2176,
    "name": "Sudan",
    "country": "SD",
    "lastUpdated": "2020-04-28T17:10:03.097Z",
    "dead": 25,
    "id": "9DPOkpIqrFy9mR4e9fuv",
    "infected": 318,
    "recovered": 31,
    "sick": 262,
    "invisible": false
  },
  {
    "id": "9QcETqEcM2fTv9zRvx5T",
    "infected": 11616,
    "recovered": 3404,
    "latitude": 45.943161,
    "pop": 19530000,
    "longitude": 24.966761,
    "name": "Romania",
    "country": "RO",
    "lastUpdated": "2020-04-28T17:10:03.083Z",
    "dead": 663,
    "sick": 7549,
    "invisible": false
  },
  {
    "longitude": -86.251389,
    "name": "Nicaragua",
    "country": "NI",
    "lastUpdated": "2020-04-28T17:10:03.105Z",
    "dead": 3,
    "id": "9Y5wmCqNCC6ZrenM31uA",
    "infected": 13,
    "recovered": 7,
    "latitude": 12.136389,
    "pop": 6218000,
    "sick": 3,
    "invisible": false
  },
  {
    "infected": 424,
    "recovered": 122,
    "latitude": 17.5706921,
    "pop": 18540000,
    "longitude": -3.996166,
    "name": "Mali",
    "country": "ML",
    "lastUpdated": "2020-04-28T17:10:03.095Z",
    "dead": 24,
    "id": "9dIzxqDSVqPyINkHqwGv",
    "sick": 278,
    "invisible": false
  },
  {
    "longitude": 25.748152,
    "name": "Finland",
    "country": "FI",
    "lastUpdated": "2020-04-28T17:10:03.085Z",
    "dead": 199,
    "id": "9p6OCdZbUUwBLA60Gk3W",
    "infected": 4740,
    "recovered": 2800,
    "latitude": 61.92411,
    "pop": 5513000,
    "sick": 1741,
    "invisible": false
  },
  {
    "lastUpdated": "2020-04-28T17:09:12.291Z",
    "dead": 60,
    "id": "A84CwQ52kA46Hr7pn6Bm",
    "infected": 1938,
    "recovered": 0,
    "latitude": 43.311643,
    "pop": 1356000,
    "longitude": -71.590315,
    "name": "New Hampshire",
    "country": "US",
    "sick": 1878,
    "invisible": false
  },
  {
    "latitude": 41.823261,
    "pop": 1057000,
    "longitude": -71.412257,
    "name": "Rhode Island",
    "country": "US",
    "lastUpdated": "2020-04-28T17:09:12.288Z",
    "dead": 239,
    "id": "AEUWUHS65qvjEslew11c",
    "infected": 7926,
    "recovered": 0,
    "sick": 7687,
    "invisible": false
  },
  {
    "latitude": 44.498955,
    "pop": 4453000,
    "longitude": 11.327591,
    "name": "Emilia-Romagna",
    "country": "IT",
    "lastUpdated": "2020-04-28T17:01:01.749Z",
    "dead": 3472,
    "id": "AJ9jQ0iyKsafsmf5yHAR",
    "infected": 24914,
    "recovered": 9439,
    "sick": 12003,
    "invisible": false
  },
  {
    "latitude": 49.3964,
    "pop": 990509,
    "longitude": 7.023,
    "name": "Saarland",
    "country": "DE",
    "lastUpdated": "2020-04-28T17:00:03.126Z",
    "dead": 124,
    "id": "AKjFRQGnzuuZQhv5Qwx7",
    "infected": 2518,
    "recovered": 1546,
    "sick": 848,
    "invisible": false
  },
  {
    "recovered": 0,
    "latitude": -35.717,
    "pop": 1125002,
    "longitude": -71.167,
    "name": "Maule",
    "country": "CL",
    "lastUpdated": "2020-04-28T17:07:12.893Z",
    "dead": 12,
    "id": "APTPgjAsjFi0nsGyJV7M",
    "infected": 384,
    "sick": 372,
    "invisible": false
  },
  {
    "recovered": 11,
    "latitude": 71.7069,
    "pop": 56171,
    "longitude": -42.6043,
    "name": "Greenland",
    "country": "GL",
    "lastUpdated": "2020-04-28T17:10:03.105Z",
    "dead": 0,
    "id": "APaZzlGCEeuoLBtzTJMe",
    "infected": 11,
    "sick": 0,
    "invisible": false
  },
  {
    "latitude": 45.65107,
    "pop": 971395,
    "longitude": -63.582687,
    "name": "Nova Scotia",
    "country": "CA",
    "lastUpdated": "2020-04-28T17:06:09.132Z",
    "dead": 27,
    "id": "AVCpxeh0fuH2WrHWNDYH",
    "infected": 915,
    "recovered": 0,
    "sick": 888,
    "invisible": false
  },
  {
    "infected": 451,
    "recovered": 0,
    "latitude": 47.012918,
    "pop": 1062000,
    "longitude": -109.128641,
    "name": "Montana",
    "country": "US",
    "lastUpdated": "2020-04-28T17:09:12.293Z",
    "dead": 15,
    "id": "AcULcZBozObOhwuRKMjJ",
    "sick": 436,
    "invisible": false
  },
  {
    "lastUpdated": "2020-04-28T17:08:14.921Z",
    "dead": 1,
    "id": "AmBYm5J6E9Cuez1FQjiN",
    "infected": 937,
    "recovered": 936,
    "latitude": 27.285971,
    "pop": 45200000,
    "longitude": 116.01609,
    "name": "Jiangxi",
    "country": "CN",
    "sick": 0,
    "invisible": false
  },
  {
    "lastUpdated": "2020-04-28T17:10:19.808Z",
    "dead": 796,
    "id": "AoLhHdTydeWTfmp9koEX",
    "infected": 9280,
    "recovered": 0,
    "latitude": 52.1307,
    "pop": 3136000,
    "longitude": -3.7837,
    "name": "Wales",
    "country": "GB",
    "sick": 8484,
    "invisible": false
  },
  {
    "infected": 3649,
    "recovered": 1651,
    "latitude": 28.033886,
    "pop": 41320000,
    "longitude": 1.659626,
    "name": "Algeria",
    "country": "DZ",
    "lastUpdated": "2020-04-28T17:10:03.085Z",
    "dead": 437,
    "id": "AwN0CScPDApcLFgz6e3z",
    "sick": 1561,
    "invisible": false
  },
  {
    "recovered": 1232,
    "latitude": 45.099998,
    "pop": 4076000,
    "longitude": 15.2,
    "name": "Croatia",
    "country": "HR",
    "lastUpdated": "2020-04-28T17:10:03.086Z",
    "dead": 63,
    "id": "B82Ef45M8cDu4q7VsSHF",
    "infected": 2047,
    "sick": 752,
    "invisible": false
  },
  {
    "longitude": 8.081666,
    "name": "Niger",
    "country": "NE",
    "lastUpdated": "2020-04-28T17:10:03.094Z",
    "dead": 29,
    "id": "BENubqQInFUJzhpZTsLT",
    "infected": 701,
    "recovered": 385,
    "latitude": 17.6077881,
    "pop": 23716000,
    "sick": 287,
    "invisible": false
  },
  {
    "recovered": 0,
    "latitude": 39.509109,
    "pop": 6043000,
    "longitude": -76.98432,
    "name": "Maryland",
    "country": "US",
    "lastUpdated": "2020-04-28T17:09:12.282Z",
    "dead": 1016,
    "id": "BF51mWl51fgEcyBpCSzb",
    "infected": 20113,
    "sick": 19097,
    "invisible": false
  },
  {
    "infected": 12208,
    "recovered": 1993,
    "latitude": 53.709808,
    "pop": 9508000,
    "longitude": 27.953388,
    "name": "Belarus",
    "country": "BY",
    "lastUpdated": "2020-04-28T17:10:03.083Z",
    "dead": 79,
    "id": "BGg6yVU5VP71B8NXU0oh",
    "sick": 10136,
    "invisible": false
  },
  {
    "longitude": 0.1713,
    "name": "Normandie",
    "country": "FR",
    "lastUpdated": "2020-04-28T02:06:22.478Z",
    "dead": 324,
    "id": "BGtoyzb7y54LVlJ91rbf",
    "infected": 2784,
    "recovered": 993,
    "latitude": 48.8799,
    "pop": 3319000,
    "sick": 1467,
    "invisible": false
  },
  {
    "recovered": 0,
    "latitude": 50.7772,
    "pop": 5616000,
    "longitude": -3.9995,
    "name": "South West",
    "country": "GB",
    "lastUpdated": "2020-04-28T17:10:19.810Z",
    "dead": 0,
    "id": "BQqMOlPFD36ZEDTGd3WC",
    "infected": 5902,
    "sick": 5902,
    "invisible": false
  },
  {
    "longitude": -111.093735,
    "name": "Arizona",
    "country": "US",
    "lastUpdated": "2020-04-28T17:09:12.288Z",
    "dead": 275,
    "id": "BTEESCuD2ZbS1afunR2A",
    "infected": 6716,
    "recovered": 0,
    "latitude": 34.048927,
    "pop": 7172000,
    "sick": 6441,
    "invisible": false
  },
  {
    "infected": 376,
    "recovered": 0,
    "latitude": 53.428543,
    "pop": 1676000,
    "longitude": 14.552812,
    "name": "Zachodniopomorskie",
    "country": "PL",
    "lastUpdated": "2020-04-28T17:03:01.160Z",
    "dead": 9,
    "id": "BZwZOAlDJ8AIiaRVLyC9",
    "sick": 367,
    "invisible": false
  },
  {
    "infected": 0,
    "recovered": 7710,
    "latitude": -33.4489,
    "longitude": -70.6693,
    "name": "Unknown Chile region",
    "country": "CL",
    "lastUpdated": "2020-04-28T17:07:12.894Z",
    "dead": 0,
    "id": "BbiuZcm8oURX7cZwaa5U",
    "invisible": true,
    "sick": 0
  },
  {
    "infected": 36,
    "recovered": 4,
    "latitude": -13.2543,
    "pop": 18620000,
    "longitude": 34.3015,
    "name": "Malawi",
    "country": "MW",
    "lastUpdated": "2020-04-28T17:10:03.104Z",
    "dead": 3,
    "id": "BfT8o5DaEixC6JIZ28kY",
    "sick": 29,
    "invisible": false
  },
  {
    "latitude": -3.3730559,
    "pop": 10860000,
    "longitude": 29.9188862,
    "name": "Burundi",
    "country": "BI",
    "lastUpdated": "2020-04-28T17:10:03.105Z",
    "dead": 1,
    "id": "BnpMamidC5yYzeK8tPUL",
    "infected": 11,
    "recovered": 4,
    "sick": 6,
    "invisible": false
  },
  {
    "id": "BrToMzyq8y2xdwXn75kM",
    "infected": 2391,
    "recovered": 0,
    "latitude": 52.257,
    "pop": 5385000,
    "longitude": 21.002,
    "name": "Mazowieckie",
    "country": "PL",
    "lastUpdated": "2020-04-28T17:03:01.157Z",
    "dead": 198,
    "sick": 2193,
    "invisible": false
  },
  {
    "longitude": -71.347573,
    "name": "Amazonas (Colombia)",
    "country": "CO",
    "lastUpdated": "2020-04-28T17:09:08.253Z",
    "dead": 2,
    "id": "C25xSDm4iYibX5RYML14",
    "infected": 40,
    "recovered": 0,
    "latitude": -1.333845,
    "pop": 74751,
    "sick": 38,
    "invisible": false
  },
  {
    "id": "C3BCUzV80z9GfiuByIcr",
    "infected": 298004,
    "recovered": 0,
    "latitude": 40.719042,
    "pop": 19540000,
    "longitude": -73.982597,
    "name": "New York",
    "country": "US",
    "lastUpdated": "2020-04-28T17:09:12.279Z",
    "dead": 22623,
    "sick": 275381,
    "invisible": false
  },
  {
    "latitude": 49.731626,
    "pop": 10650000,
    "longitude": 15.359413,
    "name": "Czechia",
    "country": "CZ",
    "lastUpdated": "2020-04-28T17:10:03.084Z",
    "dead": 225,
    "id": "C6S76AggdWVU8G22jFHQ",
    "infected": 7486,
    "recovered": 2942,
    "sick": 4319,
    "invisible": false
  },
  {
    "latitude": 26.0667,
    "pop": 1493000,
    "longitude": 50.557701,
    "name": "Bahrain",
    "country": "BH",
    "lastUpdated": "2020-04-28T17:10:03.085Z",
    "dead": 8,
    "id": "C7cj4nwRITs13KnaJrQ2",
    "infected": 2810,
    "recovered": 1246,
    "sick": 1556,
    "invisible": false
  },
  {
    "latitude": 10.4113,
    "pop": 1285400,
    "longitude": -74.4057,
    "name": "Magdalena",
    "country": "CO",
    "lastUpdated": "2020-04-28T17:09:08.252Z",
    "dead": 2,
    "id": "CA9LaAl3bNaeAqBuozn4",
    "infected": 28,
    "recovered": 1,
    "sick": 25,
    "invisible": false
  },
  {
    "infected": 388,
    "recovered": 0,
    "latitude": 26.909979,
    "pop": 3073500,
    "longitude": -101.430756,
    "name": "Coahuila",
    "country": "MX",
    "lastUpdated": "2020-04-28T17:08:17.011Z",
    "dead": 37,
    "id": "CCUFp4urvgXPo5unfMGy",
    "sick": 351,
    "invisible": false
  },
  {
    "infected": 2364,
    "recovered": 744,
    "latitude": 27.0238,
    "pop": 68890000,
    "longitude": 74.2179,
    "name": "Rajasthan",
    "country": "IN",
    "lastUpdated": "2020-04-28T17:11:05.679Z",
    "dead": 52,
    "id": "CKZCZTPlrcq5fbfUPA9k",
    "sick": 1568,
    "invisible": false
  },
  {
    "id": "Cgvmtle61ehMvCzRzYx7",
    "infected": 345,
    "recovered": 97,
    "latitude": 13.803,
    "pop": 6378000,
    "longitude": -88.9053,
    "name": "El Salvador",
    "country": "SV",
    "lastUpdated": "2020-04-28T17:10:03.095Z",
    "dead": 8,
    "sick": 240,
    "invisible": false
  },
  {
    "latitude": 40.259003,
    "pop": 2973000,
    "longitude": 44.818474,
    "name": "Armenia",
    "country": "AM",
    "lastUpdated": "2020-04-28T17:10:03.087Z",
    "dead": 30,
    "id": "DCJCtZoBTWQ4mzdDNljD",
    "infected": 1867,
    "recovered": 866,
    "sick": 971,
    "invisible": false
  },
  {
    "latitude": 5.535,
    "pop": 1278000,
    "longitude": -73.368,
    "name": "Boyacá",
    "country": "CO",
    "lastUpdated": "2020-04-28T17:09:08.252Z",
    "dead": 1,
    "id": "DJJraANgQbEqz1wBBtZz",
    "infected": 35,
    "recovered": 8,
    "sick": 26,
    "invisible": false
  },
  {
    "infected": 17483,
    "recovered": 0,
    "latitude": 53.6221,
    "pop": 7300000,
    "longitude": -2.5945,
    "name": "North West",
    "country": "GB",
    "lastUpdated": "2020-04-28T17:10:19.809Z",
    "dead": 0,
    "id": "DPwBt2aJuwF0O71vwfM9",
    "sick": 17483,
    "invisible": false
  },
  {
    "recovered": 44,
    "latitude": 32.3213844,
    "pop": 65440,
    "longitude": -64.75737,
    "name": "Bermuda",
    "country": "BM",
    "lastUpdated": "2020-04-28T17:10:03.102Z",
    "dead": 6,
    "id": "DZyTD0Mu5WIcK6yTcJ91",
    "infected": 110,
    "sick": 60,
    "invisible": false
  },
  {
    "id": "DaMrRSIGJXIG36nW0Pnc",
    "infected": 12,
    "recovered": 5,
    "latitude": 21.694,
    "pop": 35446,
    "longitude": -71.7979,
    "name": "Turks and Caicos",
    "country": "TC",
    "lastUpdated": "2020-04-28T17:10:03.105Z",
    "dead": 1,
    "sick": 6,
    "invisible": false
  },
  {
    "id": "Dbng0NBTH41EEwBxhMzE",
    "infected": 19518,
    "recovered": 5306,
    "latitude": 39.2796,
    "pop": 2035000,
    "longitude": -3.0977,
    "name": "Castilla La Mancha",
    "country": "ES",
    "lastUpdated": "2020-04-28T17:09:03.940Z",
    "dead": 2396,
    "sick": 11816,
    "invisible": false
  },
  {
    "lastUpdated": "2020-04-28T17:03:01.159Z",
    "dead": 29,
    "id": "DcQ3D0WkacXEbv6iznRB",
    "infected": 852,
    "recovered": 0,
    "latitude": 50.023,
    "pop": 3361000,
    "longitude": 20.006,
    "name": "Malopolskie",
    "country": "PL",
    "sick": 823,
    "invisible": false
  },
  {
    "latitude": 22.192039,
    "pop": 622567,
    "longitude": 113.551262,
    "name": "Macao",
    "country": "MO",
    "lastUpdated": "2020-04-28T17:10:03.104Z",
    "dead": 0,
    "id": "DdBt8qsG6A3g92oOR3ow",
    "infected": 45,
    "recovered": 32,
    "sick": 13,
    "invisible": false
  },
  {
    "recovered": 0,
    "latitude": 25.467,
    "pop": 2651000,
    "longitude": 91.3662,
    "name": "Meghalaya",
    "country": "IN",
    "lastUpdated": "2020-04-28T17:11:05.681Z",
    "dead": 1,
    "id": "Dh0O1vmhrVfmsCsfZCUg",
    "infected": 12,
    "sick": 11,
    "invisible": false
  },
  {
    "latitude": 42.962334,
    "pop": 577737,
    "longitude": -107.534868,
    "name": "Wyoming",
    "country": "US",
    "lastUpdated": "2020-04-28T17:09:12.292Z",
    "dead": 7,
    "id": "DrGzziUglmBognCGY7R2",
    "infected": 520,
    "recovered": 0,
    "sick": 513,
    "invisible": false
  },
  {
    "longitude": 23.7275,
    "name": "Greece",
    "country": "GR",
    "lastUpdated": "2020-04-28T17:10:03.086Z",
    "dead": 138,
    "id": "Dtr1lap1RpJpXJdXGJiW",
    "infected": 2566,
    "recovered": 577,
    "latitude": 37.9838,
    "pop": 10740000,
    "sick": 1851,
    "invisible": false
  },
  {
    "longitude": 121.563698,
    "name": "Taiwan",
    "country": "TW",
    "lastUpdated": "2020-04-28T17:10:03.095Z",
    "dead": 6,
    "id": "EKTfs8e7M6DXzI1HqyyX",
    "infected": 429,
    "recovered": 307,
    "latitude": 25.03841,
    "pop": 23780000,
    "sick": 116,
    "invisible": false
  },
  {
    "infected": 697,
    "recovered": 287,
    "latitude": 10.327273,
    "pop": 4906000,
    "longitude": -84.387618,
    "name": "Costa Rica",
    "country": "CR",
    "lastUpdated": "2020-04-28T17:10:03.094Z",
    "dead": 6,
    "id": "EQzJvzVHKjs8kLmK7BMu",
    "sick": 404,
    "invisible": false
  },
  {
    "infected": 3774,
    "recovered": 434,
    "latitude": 22.2587,
    "pop": 62700000,
    "longitude": 71.1924,
    "name": "Gujarat",
    "country": "IN",
    "lastUpdated": "2020-04-28T17:11:05.677Z",
    "dead": 181,
    "id": "ERwk9R9en4m9WbdoMbIg",
    "sick": 3159,
    "invisible": false
  },
  {
    "infected": 56,
    "recovered": 17,
    "latitude": 30.7333,
    "pop": 1055000,
    "longitude": 76.7794,
    "name": "Chandigarh",
    "country": "IN",
    "lastUpdated": "2020-04-28T17:11:05.681Z",
    "dead": 0,
    "id": "Esl5UlCVB9s8pmGB5Ofr",
    "sick": 39,
    "invisible": false
  },
  {
    "latitude": 51.24,
    "pop": 2148000,
    "longitude": 22.653,
    "name": "Lubelskie",
    "country": "PL",
    "lastUpdated": "2020-04-28T17:03:01.160Z",
    "dead": 13,
    "id": "Esy1La2CxwH5uB8bGVWZ",
    "infected": 356,
    "recovered": 0,
    "sick": 343,
    "invisible": false
  },
  {
    "id": "F4rPrEVGAIMM5rfPEMv4",
    "infected": 1400,
    "recovered": 0,
    "latitude": 18.200178,
    "pop": 3195000,
    "longitude": -66.664513,
    "name": "Puerto Rico",
    "country": "PR",
    "lastUpdated": "2020-04-28T17:09:12.294Z",
    "dead": 86,
    "sick": 1314,
    "invisible": false
  },
  {
    "infected": 213,
    "recovered": 73,
    "latitude": 4.862437,
    "pop": 2919000,
    "longitude": -74.058655,
    "name": "Cundinamarca",
    "country": "CO",
    "lastUpdated": "2020-04-28T17:09:08.251Z",
    "dead": 11,
    "id": "F7MED5VwEhi3JvJu6KjB",
    "sick": 129,
    "invisible": false
  },
  {
    "longitude": 67.709953,
    "name": "Afghanistan",
    "country": "AF",
    "lastUpdated": "2020-04-28T17:10:03.087Z",
    "dead": 58,
    "id": "FCDmlmnIIswd8bQiUjfN",
    "infected": 1828,
    "recovered": 228,
    "latitude": 33.93911,
    "pop": 35530000,
    "sick": 1542,
    "invisible": false
  },
  {
    "latitude": 29.431585,
    "pop": 30480000,
    "longitude": 106.912254,
    "name": "Chongqing",
    "country": "CN",
    "lastUpdated": "2020-04-28T17:08:14.921Z",
    "dead": 6,
    "id": "FErOU1m4Tj7jIkRam3vF",
    "infected": 579,
    "recovered": 573,
    "sick": 0,
    "invisible": false
  },
  {
    "infected": 3440,
    "recovered": 1176,
    "latitude": 29.311661,
    "pop": 4137000,
    "longitude": 47.481766,
    "name": "Kuwait",
    "country": "KW",
    "lastUpdated": "2020-04-28T17:10:03.085Z",
    "dead": 23,
    "id": "FZsUkhxBEgqsPb4eO0PN",
    "sick": 2241,
    "invisible": false
  },
  {
    "infected": 197,
    "recovered": 0,
    "latitude": -10.9111,
    "pop": 2278308,
    "longitude": -37.0717,
    "name": "Sergipe",
    "country": "BR",
    "lastUpdated": "2020-04-28T17:11:09.034Z",
    "dead": 10,
    "id": "FboWeolpM62SZCLwdilT",
    "sick": 187,
    "invisible": false
  },
  {
    "recovered": 1128,
    "latitude": 11.1271,
    "pop": 67860000,
    "longitude": 78.6569,
    "name": "Tamil Nadu",
    "country": "IN",
    "lastUpdated": "2020-04-28T17:11:05.679Z",
    "dead": 25,
    "id": "FeS45oMNC27pI17F0xEV",
    "infected": 2058,
    "sick": 905,
    "invisible": false
  },
  {
    "lastUpdated": "2020-04-28T17:10:03.084Z",
    "dead": 286,
    "id": "FuiVEJvWb0QMCpxJ3563",
    "infected": 6416,
    "recovered": 1165,
    "latitude": 18.947829,
    "pop": 10770000,
    "longitude": -70.430399,
    "name": "Dominican Republic",
    "country": "DO",
    "sick": 4965,
    "invisible": false
  },
  {
    "lastUpdated": "2020-04-28T17:11:05.680Z",
    "dead": 25,
    "id": "FyC551oNwmENxbr9Yght",
    "infected": 1009,
    "recovered": 374,
    "latitude": 18.1124,
    "pop": 35190000,
    "longitude": 79.0193,
    "name": "Telengana",
    "country": "IN",
    "sick": 610,
    "invisible": false
  },
  {
    "longitude": 19.699,
    "name": "Slovakia",
    "country": "SK",
    "lastUpdated": "2020-04-28T17:10:03.092Z",
    "dead": 20,
    "id": "FzIDXoqWnTI3nUfhPyT2",
    "infected": 1384,
    "recovered": 423,
    "latitude": 48.669,
    "pop": 5450000,
    "sick": 941,
    "invisible": false
  },
  {
    "infected": 14514,
    "recovered": 3233,
    "latitude": 30.37532,
    "pop": 197000000,
    "longitude": 69.345116,
    "name": "Pakistan",
    "country": "PK",
    "lastUpdated": "2020-04-28T17:10:03.083Z",
    "dead": 312,
    "id": "GAp7Wb6IMhdgbvEtMza9",
    "sick": 10969,
    "invisible": false
  },
  {
    "infected": 342,
    "recovered": 101,
    "latitude": 31.1471,
    "pop": 27980000,
    "longitude": 75.3412,
    "name": "Punjab",
    "country": "IN",
    "lastUpdated": "2020-04-28T17:11:05.680Z",
    "dead": 19,
    "id": "GGru8cG08mANO8XDDUtZ",
    "sick": 222,
    "invisible": false
  },
  {
    "infected": 11380,
    "recovered": 2181,
    "latitude": 23.424076,
    "pop": 9400000,
    "longitude": 53.847816,
    "name": "United Arab Emirates",
    "country": "AE",
    "lastUpdated": "2020-04-28T17:10:03.083Z",
    "dead": 89,
    "id": "GHzBIsHy2GiBc5JV2HMs",
    "sick": 9110,
    "invisible": false
  },
  {
    "infected": 103,
    "recovered": 0,
    "latitude": 37.0902,
    "longitude": -95.7129,
    "name": "Grand Princess",
    "country": "US",
    "lastUpdated": "2020-04-28T17:09:12.295Z",
    "dead": 3,
    "id": "GLViSIjDjwvptOphedAu",
    "invisible": true,
    "sick": 100
  },
  {
    "lastUpdated": "2020-04-28T17:10:19.809Z",
    "dead": 0,
    "id": "GPtoS0Yy2EnNafpmmTqY",
    "infected": 23833,
    "recovered": 0,
    "latitude": 51.5074,
    "pop": 10100000,
    "longitude": -0.1278,
    "name": "London",
    "country": "GB",
    "sick": 23833,
    "invisible": false
  },
  {
    "infected": 45218,
    "recovered": 0,
    "latitude": 36.621981,
    "pop": 39560000,
    "longitude": -119.339046,
    "name": "California",
    "country": "US",
    "lastUpdated": "2020-04-28T17:09:12.281Z",
    "dead": 1793,
    "id": "Gh46r6vuaY7fbGt3IboN",
    "sick": 43425,
    "invisible": false
  },
  {
    "infected": 3410,
    "recovered": 0,
    "latitude": 35.87189,
    "pop": 3943000,
    "longitude": -97.145514,
    "name": "Oklahoma",
    "country": "US",
    "lastUpdated": "2020-04-28T17:09:12.290Z",
    "dead": 207,
    "id": "GpF8ULuKOQiFDCUHN44h",
    "sick": 3203,
    "invisible": false
  },
  {
    "id": "Gzx6GX1qhBm714BkEC6l",
    "infected": 2498,
    "recovered": 1316,
    "latitude": 46.5,
    "pop": 520891,
    "longitude": 11.35,
    "name": "P.A. Bolzano",
    "country": "IT",
    "lastUpdated": "2020-04-28T17:01:01.747Z",
    "dead": 272,
    "sick": 910,
    "invisible": false
  },
  {
    "infected": 199,
    "recovered": 145,
    "latitude": 42.83263,
    "pop": 24710000,
    "longitude": 113.750972,
    "name": "Inner Mongolia",
    "country": "CN",
    "lastUpdated": "2020-04-28T17:08:14.914Z",
    "dead": 1,
    "id": "H3JeVigVbo5CSYfZG4WI",
    "sick": 53,
    "invisible": false
  },
  {
    "id": "H3bDg4eV30up4WWrIDAS",
    "infected": 4805,
    "recovered": 0,
    "latitude": 39.74536,
    "pop": 3034000,
    "longitude": -116.724977,
    "name": "Nevada",
    "country": "US",
    "lastUpdated": "2020-04-28T17:09:12.289Z",
    "dead": 219,
    "sick": 4586,
    "invisible": false
  },
  {
    "id": "HEMWNnFxeFEoeOCBOLJD",
    "infected": 6726,
    "recovered": 0,
    "latitude": -3.731862,
    "pop": 9075649,
    "longitude": -38.526669,
    "name": "Ceará",
    "country": "BR",
    "lastUpdated": "2020-04-28T17:11:09.032Z",
    "dead": 390,
    "sick": 6336,
    "invisible": false
  },
  {
    "latitude": 15.3173,
    "pop": 64060000,
    "longitude": 75.7139,
    "name": "Karnataka",
    "country": "IN",
    "lastUpdated": "2020-04-28T17:11:05.680Z",
    "dead": 20,
    "id": "HN5mGmxlqlSeFSNeu1K5",
    "infected": 523,
    "recovered": 207,
    "sick": 296,
    "invisible": false
  },
  {
    "latitude": 27.5142,
    "pop": 807610,
    "longitude": 90.4336,
    "name": "Bhutan",
    "country": "BT",
    "lastUpdated": "2020-04-28T17:10:03.108Z",
    "dead": 0,
    "id": "HRDpwyxpqW9RN0xLFyNu",
    "infected": 7,
    "recovered": 5,
    "sick": 2,
    "invisible": false
  },
  {
    "lastUpdated": "2020-04-28T17:10:03.086Z",
    "dead": 8,
    "id": "HRTA10dtrruDEwjJEGMp",
    "infected": 1939,
    "recovered": 958,
    "latitude": 41.3775,
    "pop": 32390000,
    "longitude": 64.5853,
    "name": "Uzbekistan",
    "country": "UZ",
    "sick": 973,
    "invisible": false
  },
  {
    "infected": 2823,
    "recovered": 0,
    "latitude": 34.138916,
    "pop": 2095000,
    "longitude": -105.576255,
    "name": "New Mexico",
    "country": "US",
    "lastUpdated": "2020-04-28T17:09:12.291Z",
    "dead": 104,
    "id": "HSSFomRju0doHhWgW8On",
    "sick": 2719,
    "invisible": false
  },
  {
    "longitude": -72.3311,
    "name": "Los Ríos",
    "country": "CL",
    "lastUpdated": "2020-04-28T17:07:12.894Z",
    "dead": 4,
    "id": "HZkACHjW7NlYjg8vEMj2",
    "infected": 180,
    "recovered": 0,
    "latitude": -40.231,
    "pop": 412812,
    "sick": 176,
    "invisible": false
  },
  {
    "recovered": 547,
    "latitude": 53.6127,
    "pop": 1635000,
    "longitude": 12.4296,
    "name": "Mecklenburg-Vorpommern",
    "country": "DE",
    "lastUpdated": "2020-04-28T17:00:03.126Z",
    "dead": 18,
    "id": "He1gSS1v50t06i3YrqvB",
    "infected": 676,
    "sick": 111,
    "invisible": false
  },
  {
    "infected": 2899,
    "recovered": 599,
    "latitude": 42.25,
    "pop": 1315000,
    "longitude": 13.75,
    "name": "Abruzzo",
    "country": "IT",
    "lastUpdated": "2020-04-28T17:01:01.745Z",
    "dead": 310,
    "id": "I9EqrZfbPnkioNU4wZGz",
    "sick": 1990,
    "invisible": false
  },
  {
    "latitude": 23.363855,
    "pop": 113460000,
    "longitude": 113.373448,
    "name": "Guangdong",
    "country": "CN",
    "lastUpdated": "2020-04-28T17:08:14.915Z",
    "dead": 8,
    "id": "IAX0OQLVnUwU7FX0ENF1",
    "infected": 1587,
    "recovered": 1547,
    "sick": 32,
    "invisible": false
  },
  {
    "infected": 1276,
    "recovered": 1254,
    "latitude": 33.875408,
    "pop": 94000000,
    "longitude": 113.484016,
    "name": "Henan",
    "country": "CN",
    "lastUpdated": "2020-04-28T17:08:14.920Z",
    "dead": 22,
    "id": "IFuMrMvSjoiX5agYvllh",
    "sick": 0,
    "invisible": false
  },
  {
    "latitude": 37.2,
    "pop": 451000,
    "longitude": -8.16667,
    "name": "Algarve",
    "country": "PT",
    "lastUpdated": "2020-04-28T17:04:02.529Z",
    "dead": 12,
    "id": "IHqRHC8K3OZPN8gniM7V",
    "infected": 330,
    "recovered": 0,
    "sick": 318,
    "invisible": false
  },
  {
    "infected": 24,
    "recovered": 1,
    "latitude": 3.883,
    "pop": 333194,
    "longitude": -77.0197,
    "name": "Buenaventura D.E.",
    "country": "CO",
    "lastUpdated": "2020-04-28T17:09:08.253Z",
    "dead": 1,
    "id": "IKWjRUo0SYgHQKdWjTvq",
    "sick": 22,
    "invisible": false
  },
  {
    "infected": 6307,
    "recovered": 0,
    "latitude": 52.87,
    "pop": 4811000,
    "longitude": -0.995,
    "name": "East Midlands",
    "country": "GB",
    "lastUpdated": "2020-04-28T17:10:19.809Z",
    "dead": 0,
    "id": "INyu1R48Ppv8cfW4Nuz4",
    "sick": 6307,
    "invisible": false
  },
  {
    "recovered": 0,
    "latitude": 22.017,
    "pop": 1342600,
    "longitude": -102.317,
    "name": "Aguascalientes",
    "country": "MX",
    "lastUpdated": "2020-04-28T17:08:17.013Z",
    "dead": 6,
    "id": "ISRKMzEDojyrZ9iyWwex",
    "infected": 198,
    "sick": 192,
    "invisible": false
  },
  {
    "longitude": -100.316116,
    "name": "Nuevo León",
    "country": "MX",
    "lastUpdated": "2020-04-28T17:08:17.013Z",
    "dead": 12,
    "id": "IdKbgzgKLpjBFh4UPOwu",
    "infected": 636,
    "recovered": 0,
    "latitude": 25.686613,
    "pop": 5321300,
    "sick": 624,
    "invisible": false
  },
  {
    "latitude": 28.632996,
    "pop": 3826900,
    "longitude": -106.069099,
    "name": "Chihuahua",
    "country": "MX",
    "lastUpdated": "2020-04-28T17:08:17.010Z",
    "dead": 73,
    "id": "IhhiYI6T0TX4CYVPcnmH",
    "infected": 381,
    "recovered": 0,
    "sick": 308,
    "invisible": false
  },
  {
    "lastUpdated": "2020-04-28T17:07:12.893Z",
    "dead": 14,
    "id": "ImnOiVx9Cb8Nw7cbRcQ7",
    "infected": 747,
    "recovered": 0,
    "latitude": -36.7,
    "pop": 480600,
    "longitude": -72.57,
    "name": "Ñuble",
    "country": "CL",
    "sick": 733,
    "invisible": false
  },
  {
    "lastUpdated": "2020-04-28T17:10:03.103Z",
    "dead": 6,
    "id": "InZ38sIqyK7FN7XAOZoX",
    "infected": 76,
    "recovered": 8,
    "latitude": 19.0558,
    "pop": 10980000,
    "longitude": -73.0513,
    "name": "Haiti",
    "country": "HT",
    "sick": 62,
    "invisible": false
  },
  {
    "longitude": -83.280125,
    "name": "Georgia (US)",
    "country": "US",
    "lastUpdated": "2020-04-28T17:09:12.282Z",
    "dead": 1025,
    "id": "IvQkDJkTAsoIqPRAU25n",
    "infected": 24606,
    "recovered": 0,
    "latitude": 32.528564,
    "pop": 10520000,
    "sick": 23581,
    "invisible": false
  },
  {
    "id": "IvVhpOoGpH6JVkGyUhXN",
    "infected": 1472,
    "recovered": 1214,
    "latitude": -42.8285,
    "pop": 4794000,
    "longitude": 172.488081,
    "name": "New Zealand",
    "country": "NZ",
    "lastUpdated": "2020-04-28T17:10:03.092Z",
    "dead": 19,
    "sick": 239,
    "invisible": false
  },
  {
    "recovered": 1,
    "latitude": 28.218,
    "pop": 1255000,
    "longitude": 94.7278,
    "name": "Arunachal Pradesh",
    "country": "IN",
    "lastUpdated": "2020-04-28T17:11:05.682Z",
    "dead": 0,
    "id": "IwYKiIVY18NGwdGQFGWW",
    "infected": 1,
    "sick": 0,
    "invisible": false
  },
  {
    "recovered": 142,
    "latitude": 6.4238,
    "pop": 31980000,
    "longitude": -66.5897,
    "name": "Venezuela",
    "country": "VE",
    "lastUpdated": "2020-04-28T17:10:03.095Z",
    "dead": 10,
    "id": "J3mZXlfEnnJx4CDZLvRG",
    "infected": 329,
    "sick": 177,
    "invisible": false
  },
  {
    "longitude": 33.4299,
    "name": "Cyprus",
    "country": "CY",
    "lastUpdated": "2020-04-28T17:10:03.093Z",
    "dead": 15,
    "id": "JQByE4l2OA6sGOqIcWrM",
    "infected": 837,
    "recovered": 148,
    "latitude": 35.1264,
    "pop": 1170000,
    "sick": 674,
    "invisible": false
  },
  {
    "id": "JR7hOGked7CZtIs2nCV5",
    "infected": 366,
    "recovered": 64,
    "latitude": 25.0961,
    "pop": 99020000,
    "longitude": 85.3131,
    "name": "Bihar",
    "country": "IN",
    "lastUpdated": "2020-04-28T17:11:05.680Z",
    "dead": 2,
    "sick": 300,
    "invisible": false
  },
  {
    "lastUpdated": "2020-04-28T17:10:03.094Z",
    "dead": 15,
    "id": "JUWE6bG3b5oL7fKQMSvv",
    "infected": 530,
    "recovered": 49,
    "latitude": 14.628434,
    "pop": 17250000,
    "longitude": -90.522713,
    "name": "Guatemala",
    "country": "GT",
    "sick": 466,
    "invisible": false
  },
  {
    "recovered": 3123,
    "latitude": 49.8153,
    "pop": 602005,
    "longitude": 6.1296,
    "name": "Luxembourg",
    "country": "LU",
    "lastUpdated": "2020-04-28T17:10:03.085Z",
    "dead": 89,
    "id": "JcFsHSn2WvZ5LJW42ovG",
    "infected": 3741,
    "sick": 529,
    "invisible": false
  },
  {
    "infected": 22,
    "recovered": 3,
    "latitude": 8.8,
    "pop": 2049000,
    "longitude": -74.167,
    "name": "Bolívar",
    "country": "CO",
    "lastUpdated": "2020-04-28T17:09:08.252Z",
    "dead": 3,
    "id": "JmOyaFe25yZCIV64JbZj",
    "sick": 16,
    "invisible": false
  },
  {
    "id": "Jp9ePErcc8i1aOozEAMf",
    "infected": 1345,
    "recovered": 0,
    "latitude": 31.4,
    "pop": 3648100,
    "longitude": -115.783,
    "name": "Baja California",
    "country": "MX",
    "lastUpdated": "2020-04-28T17:08:17.009Z",
    "dead": 177,
    "sick": 1168,
    "invisible": false
  },
  {
    "latitude": 8.7479801,
    "pop": 1786500,
    "longitude": -75.8814316,
    "name": "Córdoba",
    "country": "CO",
    "lastUpdated": "2020-04-28T17:09:08.252Z",
    "dead": 3,
    "id": "Jr8syCB0lydmPDXw8Q6N",
    "infected": 23,
    "recovered": 6,
    "sick": 14,
    "invisible": false
  },
  {
    "infected": 99,
    "recovered": 62,
    "latitude": 8.6195,
    "pop": 7798000,
    "longitude": 0.8248,
    "name": "Togo",
    "country": "TG",
    "lastUpdated": "2020-04-28T17:10:03.102Z",
    "dead": 6,
    "id": "JrBbirlBKGdWSdcDt7PF",
    "sick": 31,
    "invisible": false
  },
  {
    "infected": 1399,
    "recovered": 222,
    "latitude": 42.7339,
    "pop": 7050000,
    "longitude": 25.4858,
    "name": "Bulgaria",
    "country": "BG",
    "lastUpdated": "2020-04-28T17:10:03.092Z",
    "dead": 58,
    "id": "JzZ8sbqzjutThVjkPKPL",
    "sick": 1119,
    "invisible": false
  },
  {
    "longitude": 20.709,
    "name": "Świętokrzyskie",
    "country": "PL",
    "lastUpdated": "2020-04-28T17:03:01.161Z",
    "dead": 8,
    "id": "KGrK7gafkeWjmU6sHQd2",
    "infected": 264,
    "recovered": 0,
    "latitude": 50.823,
    "pop": 1263000,
    "sick": 256,
    "invisible": false
  },
  {
    "longitude": 8.833,
    "name": "Liguria",
    "country": "IT",
    "lastUpdated": "2020-04-28T17:01:01.749Z",
    "dead": 1141,
    "id": "KLXicxFogWnu0dLp4bNK",
    "infected": 7772,
    "recovered": 3060,
    "latitude": 44.5,
    "pop": 1557000,
    "sick": 3571,
    "invisible": false
  },
  {
    "longitude": -73.2532,
    "name": "Cesar",
    "country": "CO",
    "lastUpdated": "2020-04-28T17:09:08.252Z",
    "dead": 5,
    "id": "KpOz3WmiZkrXUMlUJNlV",
    "infected": 53,
    "recovered": 29,
    "latitude": 10.4631,
    "pop": 1201000,
    "sick": 19,
    "invisible": false
  },
  {
    "latitude": 43.4167,
    "pop": 3737000,
    "longitude": 11,
    "name": "Toscana",
    "country": "IT",
    "lastUpdated": "2020-04-28T17:01:01.751Z",
    "dead": 811,
    "id": "KrLrJbpDqqiXgUPGCCW9",
    "infected": 9231,
    "recovered": 2524,
    "sick": 5896,
    "invisible": false
  },
  {
    "latitude": 7.873054,
    "pop": 21440000,
    "longitude": 80.771797,
    "name": "Sri Lanka",
    "country": "LK",
    "lastUpdated": "2020-04-28T17:10:03.094Z",
    "dead": 7,
    "id": "KsWzJO06cf0d6LJ4ZNh9",
    "infected": 611,
    "recovered": 134,
    "sick": 470,
    "invisible": false
  },
  {
    "latitude": 15.9129,
    "pop": 49670000,
    "longitude": 79.74,
    "name": "Andhra Pradesh",
    "country": "IN",
    "lastUpdated": "2020-04-28T17:11:05.680Z",
    "dead": 31,
    "id": "KtQIo2DoqjELtPAlyDVO",
    "infected": 1259,
    "recovered": 258,
    "sick": 970,
    "invisible": false
  },
  {
    "longitude": 105.318756,
    "name": "Russia",
    "country": "RU",
    "lastUpdated": "2020-04-28T17:10:03.081Z",
    "dead": 867,
    "id": "KwOuGBKSMRlmwftxAvLX",
    "infected": 93558,
    "recovered": 8456,
    "latitude": 61.52401,
    "pop": 144500000,
    "sick": 84235,
    "invisible": false
  },
  {
    "id": "LBUtrLDKJiupXjlUNTUe",
    "infected": 38,
    "recovered": 24,
    "latitude": 18.0708,
    "pop": 32125,
    "longitude": -63.0501,
    "name": "Saint-Martin",
    "country": "FR",
    "lastUpdated": "2020-04-28T17:10:03.104Z",
    "dead": 3,
    "sick": 11,
    "invisible": false
  },
  {
    "recovered": 55,
    "latitude": 47.166,
    "pop": 38557,
    "longitude": 9.5554,
    "name": "Liechtenstein",
    "country": "LI",
    "lastUpdated": "2020-04-28T17:10:03.102Z",
    "dead": 1,
    "id": "LTGEU2E9MFkrCcFhZYVk",
    "infected": 82,
    "sick": 26,
    "invisible": false
  },
  {
    "id": "LU2QWt5ao8IJa8evNYVV",
    "infected": 1163,
    "recovered": 246,
    "latitude": 9.9456,
    "pop": 12720000,
    "longitude": -9.6966,
    "name": "Guinea",
    "country": "GN",
    "lastUpdated": "2020-04-28T17:10:03.093Z",
    "dead": 7,
    "sick": 910,
    "invisible": false
  },
  {
    "recovered": 0,
    "latitude": 29.6667,
    "pop": 3062000,
    "longitude": -110.5,
    "name": "Sonora",
    "country": "MX",
    "lastUpdated": "2020-04-28T17:08:17.010Z",
    "dead": 30,
    "id": "LYCBHrA9ms6GcxpLGPCT",
    "infected": 260,
    "sick": 230,
    "invisible": false
  },
  {
    "id": "LglKINHyQpYpFxjckbQ6",
    "infected": 10,
    "recovered": 7,
    "latitude": 3.9193051,
    "pop": 563402,
    "longitude": -56.0277824,
    "name": "Suriname",
    "country": "SR",
    "lastUpdated": "2020-04-28T17:10:03.106Z",
    "dead": 1,
    "sick": 2,
    "invisible": false
  },
  {
    "infected": 365,
    "recovered": 0,
    "latitude": 52.9399,
    "pop": 1174000,
    "longitude": -106.4509,
    "name": "Saskatchewan",
    "country": "CA",
    "lastUpdated": "2020-04-28T17:06:09.132Z",
    "dead": 5,
    "id": "LkIDKY0CMAqzbwBHyYCP",
    "sick": 360,
    "invisible": false
  },
  {
    "lastUpdated": "2020-04-28T17:10:03.109Z",
    "dead": 0,
    "id": "LooNn6RuMiDhQnwa9svw",
    "infected": 6,
    "recovered": 5,
    "latitude": 24.2155,
    "pop": 636442,
    "longitude": -12.8858,
    "name": "Western Sahara",
    "country": "EH",
    "sick": 1,
    "invisible": false
  },
  {
    "recovered": 780,
    "latitude": 43.363129,
    "pop": 1022000,
    "longitude": -5.951843,
    "name": "Principado de Asturias",
    "country": "ES",
    "lastUpdated": "2020-04-28T17:09:03.940Z",
    "dead": 261,
    "id": "Lsga7AvYNnY0qQ5gEfV8",
    "infected": 2688,
    "sick": 1647,
    "invisible": false
  },
  {
    "longitude": -6.0679,
    "name": "Extremadura",
    "country": "ES",
    "lastUpdated": "2020-04-28T17:09:03.940Z",
    "dead": 433,
    "id": "LuEErlF7dVKI0eJsRjFm",
    "infected": 3487,
    "recovered": 1733,
    "latitude": 39.4937,
    "pop": 1065000,
    "sick": 1321,
    "invisible": false
  },
  {
    "latitude": 21.0186,
    "pop": 5965000,
    "longitude": -101.2591,
    "name": "Guanajuato",
    "country": "MX",
    "lastUpdated": "2020-04-28T17:08:17.011Z",
    "dead": 22,
    "id": "M3wdiueFtwrUHiQ2rOXA",
    "infected": 271,
    "recovered": 0,
    "sick": 249,
    "invisible": false
  },
  {
    "id": "MC8MXFw9iXYybnF8v7e6",
    "infected": 4146,
    "recovered": 0,
    "latitude": 37.8393,
    "pop": 4468000,
    "longitude": -84.27,
    "name": "Kentucky",
    "country": "US",
    "lastUpdated": "2020-04-28T17:09:12.290Z",
    "dead": 213,
    "sick": 3933,
    "invisible": false
  },
  {
    "recovered": 0,
    "latitude": 55.3781,
    "longitude": -3.436,
    "name": "Unknown UK region or state",
    "country": "GB",
    "lastUpdated": "2020-04-28T17:10:19.810Z",
    "dead": 18748,
    "id": "MEjlm8VYdGA28TTTnQmf",
    "invisible": true,
    "infected": 26408,
    "sick": 7660
  },
  {
    "latitude": 41.3006,
    "pop": 3689000,
    "longitude": -7.7441,
    "name": "Norte",
    "country": "PT",
    "lastUpdated": "2020-04-28T17:04:02.528Z",
    "dead": 546,
    "id": "MG4e9tulLJ010SZJvbYN",
    "infected": 14702,
    "recovered": 0,
    "sick": 14156,
    "invisible": false
  },
  {
    "id": "MObRYyIriHG337L8FyFC",
    "infected": 10521,
    "recovered": 0,
    "latitude": 56.4907,
    "pop": 5450000,
    "longitude": -4.2026,
    "name": "Scotland",
    "country": "GB",
    "lastUpdated": "2020-04-28T17:10:19.808Z",
    "dead": 1249,
    "sick": 9272,
    "invisible": false
  },
  {
    "recovered": 0,
    "latitude": 40.2672,
    "pop": 6692000,
    "longitude": -86.1349,
    "name": "Indiana",
    "country": "US",
    "lastUpdated": "2020-04-28T17:09:12.282Z",
    "dead": 932,
    "id": "MOxDkmQ4wBi1CuAdVxDE",
    "infected": 16588,
    "sick": 15656,
    "invisible": false
  },
  {
    "lastUpdated": "2020-04-28T17:10:03.093Z",
    "dead": 14,
    "id": "MdQOfc1gNh2DOqwSP6UV",
    "infected": 1164,
    "recovered": 499,
    "latitude": 7.54,
    "pop": 24290000,
    "longitude": -5.5471,
    "name": "Ivory Coast",
    "country": "CI",
    "sick": 651,
    "invisible": false
  },
  {
    "infected": 32536,
    "recovered": 22351,
    "latitude": 51.4332,
    "pop": 17910000,
    "longitude": 7.6616,
    "name": "Nordrhein-Westfalen",
    "country": "DE",
    "lastUpdated": "2020-04-28T17:00:03.126Z",
    "dead": 1196,
    "id": "MjpYq3zQyAvSQlVVYjD2",
    "sick": 8989,
    "invisible": false
  },
  {
    "latitude": 37.330509,
    "pop": 6301000,
    "longitude": 105.977203,
    "name": "Ningxia",
    "country": "CN",
    "lastUpdated": "2020-04-28T17:08:14.922Z",
    "dead": 0,
    "id": "MntmjjuHljarCdt6aIeE",
    "infected": 75,
    "recovered": 75,
    "sick": 0,
    "invisible": false
  },
  {
    "id": "MuEB2UgkId5crsxi9zQT",
    "infected": 2128,
    "recovered": 0,
    "latitude": -3.20166586,
    "pop": 8513497,
    "longitude": -52.203499186,
    "name": "Pará",
    "country": "BR",
    "lastUpdated": "2020-04-28T17:11:09.033Z",
    "dead": 114,
    "sick": 2014,
    "invisible": false
  },
  {
    "recovered": 21126,
    "latitude": 48.6616,
    "pop": 11020000,
    "longitude": 9.3501,
    "name": "Baden-Württemberg",
    "country": "DE",
    "lastUpdated": "2020-04-28T17:00:03.124Z",
    "dead": 1330,
    "id": "N3XsRBwJSsNclkEf7Zz5",
    "infected": 32325,
    "sick": 9869,
    "invisible": false
  },
  {
    "infected": 1585,
    "recovered": 682,
    "latitude": 44.696652,
    "pop": 3507000,
    "longitude": 17.824332,
    "name": "Bosnia and Herzegovina",
    "country": "BA",
    "lastUpdated": "2020-04-28T17:10:03.092Z",
    "dead": 63,
    "id": "N7c13sCQF0G789XAVazJ",
    "sick": 840,
    "invisible": false
  },
  {
    "id": "NBRIGIRrJB1Ry8prDNAC",
    "infected": 197,
    "recovered": 160,
    "latitude": 37.242565,
    "pop": 36500000,
    "longitude": 111.856857,
    "name": "Shanxi",
    "country": "CN",
    "lastUpdated": "2020-04-28T17:08:14.914Z",
    "dead": 0,
    "sick": 37,
    "invisible": false
  },
  {
    "id": "NC64Qp5kTqAfiTuR27k8",
    "infected": 9568,
    "recovered": 0,
    "latitude": 35.7596,
    "pop": 10380000,
    "longitude": -79.0193,
    "name": "North Carolina",
    "country": "US",
    "lastUpdated": "2020-04-28T17:09:12.288Z",
    "dead": 342,
    "sick": 9226,
    "invisible": false
  },
  {
    "infected": 2820,
    "recovered": 1930,
    "latitude": 52.4125,
    "pop": 2504000,
    "longitude": 12.5316,
    "name": "Brandenburg",
    "country": "DE",
    "lastUpdated": "2020-04-28T17:00:03.125Z",
    "dead": 137,
    "id": "NJjo2gfBvnbK4xatrsUz",
    "sick": 753,
    "invisible": false
  },
  {
    "lastUpdated": "2020-04-28T17:09:12.294Z",
    "dead": 2,
    "id": "NLLL6pJhJSw0lrDMD4uP",
    "infected": 14,
    "recovered": 0,
    "latitude": 15.0979,
    "pop": 55144,
    "longitude": -145.6739,
    "name": "Northern Mariana Islands",
    "country": "MP",
    "sick": 12,
    "invisible": false
  },
  {
    "infected": 54,
    "recovered": 34,
    "latitude": 30.0668,
    "pop": 10080000,
    "longitude": 79.0193,
    "name": "Uttarakhand",
    "country": "IN",
    "lastUpdated": "2020-04-28T17:11:05.681Z",
    "dead": 0,
    "id": "NMeZEcGToxXfpi16PfFV",
    "sick": 20,
    "invisible": false
  },
  {
    "latitude": 50.6521,
    "pop": 6243000,
    "longitude": 9.1624,
    "name": "Hessen",
    "country": "DE",
    "lastUpdated": "2020-04-28T17:00:03.126Z",
    "dead": 341,
    "id": "Nk5vPgUIXsWVfbWZf15O",
    "infected": 8097,
    "recovered": 4043,
    "sick": 3713,
    "invisible": false
  },
  {
    "lastUpdated": "2020-04-28T17:10:03.093Z",
    "dead": 13,
    "id": "NmmMKy0YqA8StHdGzB5N",
    "infected": 836,
    "recovered": 267,
    "latitude": 56.96776,
    "pop": 1920000,
    "longitude": 25.837107,
    "name": "Latvia",
    "country": "LV",
    "sick": 556,
    "invisible": false
  },
  {
    "infected": 5358,
    "recovered": 0,
    "latitude": -8.472372,
    "pop": 9496294,
    "longitude": -37.946777,
    "name": "Pernambuco",
    "country": "BR",
    "lastUpdated": "2020-04-28T17:11:09.033Z",
    "dead": 450,
    "id": "NyGlFL1gATK1Omv9qtcC",
    "sick": 4908,
    "invisible": false
  },
  {
    "latitude": 6.4281,
    "pop": 4732000,
    "longitude": -9.4295,
    "name": "Liberia",
    "country": "LR",
    "lastUpdated": "2020-04-28T17:10:03.100Z",
    "dead": 16,
    "id": "O4g88K49HKEZLFXm5gxb",
    "infected": 141,
    "recovered": 45,
    "sick": 80,
    "invisible": false
  },
  {
    "infected": 5613,
    "recovered": 0,
    "latitude": 34.003307,
    "pop": 5084000,
    "longitude": -80.525613,
    "name": "South Carolina",
    "country": "US",
    "lastUpdated": "2020-04-28T17:09:12.289Z",
    "dead": 177,
    "id": "ONU4CK8QjViFHKg2w5if",
    "sick": 5436,
    "invisible": false
  },
  {
    "id": "OYa0jFzdbAgo8zUsRv6q",
    "infected": 6342,
    "recovered": 0,
    "latitude": 33.51822,
    "pop": 2987000,
    "longitude": -89.582775,
    "name": "Mississippi",
    "country": "US",
    "lastUpdated": "2020-04-28T17:09:12.289Z",
    "dead": 239,
    "sick": 6103,
    "invisible": false
  },
  {
    "infected": 1040,
    "recovered": 0,
    "latitude": 45.2538,
    "pop": 1338000,
    "longitude": -69.4455,
    "name": "Maine",
    "country": "US",
    "lastUpdated": "2020-04-28T17:09:12.292Z",
    "dead": 51,
    "id": "OcXNp9kNVSwrRlG3bNVN",
    "sick": 989,
    "invisible": false
  },
  {
    "recovered": 132,
    "latitude": -41.915264,
    "pop": 515000,
    "longitude": 146.725256,
    "name": "Tasmania",
    "country": "AU",
    "lastUpdated": "2020-04-28T17:11:10.063Z",
    "dead": 11,
    "id": "OnOseaqWdnuP18oruABW",
    "infected": 217,
    "sick": 74,
    "invisible": false
  },
  {
    "infected": 257,
    "recovered": 0,
    "latitude": -16.35,
    "pop": 3441998,
    "longitude": -56.666668,
    "name": "Mato Grosso",
    "country": "BR",
    "lastUpdated": "2020-04-28T17:11:09.032Z",
    "dead": 10,
    "id": "P0GHFGUt1pkKTk5PM8uz",
    "sick": 247,
    "invisible": false
  },
  {
    "id": "P4mwRFLbrvT0t75uD8Wo",
    "infected": 70,
    "recovered": 10,
    "latitude": 19.3133,
    "pop": 61559,
    "longitude": -81.2546,
    "name": "Cayman Islands",
    "country": "KY",
    "lastUpdated": "2020-04-28T17:10:03.103Z",
    "dead": 1,
    "sick": 59,
    "invisible": false
  },
  {
    "latitude": 16.7424984,
    "pop": 5900,
    "longitude": -62.1873665,
    "name": "Montserrat",
    "country": "MS",
    "lastUpdated": "2020-04-28T17:10:03.105Z",
    "dead": 1,
    "id": "PEDkeFMTOZpvHiSVxBk7",
    "infected": 11,
    "recovered": 2,
    "sick": 8,
    "invisible": false
  },
  {
    "lastUpdated": "2020-04-28T17:10:03.099Z",
    "dead": 0,
    "id": "PEcgZGEkyhABztt1Ufgc",
    "infected": 207,
    "recovered": 93,
    "latitude": -1.9403,
    "pop": 12210000,
    "longitude": 29.8739,
    "name": "Rwanda",
    "country": "RW",
    "sick": 114,
    "invisible": false
  },
  {
    "lastUpdated": "2020-04-28T17:09:12.290Z",
    "dead": 301,
    "id": "PJvVYosLIhbcRZYnKX1R",
    "infected": 4181,
    "recovered": 0,
    "latitude": 46.7296,
    "pop": 5611000,
    "longitude": -94.6859,
    "name": "Minnesota",
    "country": "US",
    "sick": 3880,
    "invisible": false
  },
  {
    "infected": 45883,
    "recovered": 0,
    "latitude": 40.6331,
    "pop": 12740000,
    "longitude": -89.3985,
    "name": "Illinois",
    "country": "US",
    "lastUpdated": "2020-04-28T17:09:12.280Z",
    "dead": 1983,
    "id": "PTwQr9ijo0TBBsPH2sdJ",
    "sick": 43900,
    "invisible": false
  },
  {
    "id": "PjLqCeFdyzdZNcZxMkK1",
    "infected": 15,
    "recovered": 15,
    "latitude": 13.909444,
    "pop": 178844,
    "longitude": -60.978893,
    "name": "Saint Lucia",
    "country": "LC",
    "lastUpdated": "2020-04-28T17:10:03.105Z",
    "dead": 0,
    "sick": 0,
    "invisible": false
  },
  {
    "latitude": 42.6954,
    "pop": 649900,
    "longitude": -1.6761,
    "name": "Comunidad Foral de Navarra",
    "country": "ES",
    "lastUpdated": "2020-04-28T17:09:03.941Z",
    "dead": 432,
    "id": "PmUlsNx2uFLU797wwU39",
    "infected": 5630,
    "recovered": 1978,
    "sick": 3220,
    "invisible": false
  },
  {
    "infected": 967,
    "recovered": 279,
    "latitude": 34.201507,
    "pop": 11530000,
    "longitude": 9.460554,
    "name": "Tunisia",
    "country": "TN",
    "lastUpdated": "2020-04-28T17:10:03.093Z",
    "dead": 39,
    "id": "Pr76V4raf108uSRoEXac",
    "sick": 649,
    "invisible": false
  },
  {
    "latitude": -26.5225,
    "pop": 1367000,
    "longitude": 31.4659,
    "name": "Eswatini",
    "country": "SZ",
    "lastUpdated": "2020-04-28T17:10:03.103Z",
    "dead": 1,
    "id": "PuQgOd9KWiMzGZXm11sR",
    "infected": 71,
    "recovered": 10,
    "sick": 60,
    "invisible": false
  },
  {
    "id": "Q18mrGvFWTLX2BU9SqhQ",
    "infected": 1351,
    "recovered": 1280,
    "latitude": -37.009609,
    "pop": 6359000,
    "longitude": 143.94853,
    "name": "Victoria",
    "country": "AU",
    "lastUpdated": "2020-04-28T17:11:10.063Z",
    "dead": 17,
    "sick": 54,
    "invisible": false
  },
  {
    "recovered": 2000,
    "latitude": 54.2194,
    "pop": 2890000,
    "longitude": 9.6961,
    "name": "Schleswig-Holstein",
    "country": "DE",
    "lastUpdated": "2020-04-28T17:00:03.127Z",
    "dead": 112,
    "id": "Q39XkabIYxt15mHINzTa",
    "infected": 2635,
    "sick": 523,
    "invisible": false
  },
  {
    "latitude": -27.953491,
    "pop": 11329605,
    "longitude": -52.031696,
    "name": "Rio Grande do Sul",
    "country": "BR",
    "lastUpdated": "2020-04-28T17:11:09.033Z",
    "dead": 42,
    "id": "QGpQNhuoVTUPHXvS7qcu",
    "infected": 1228,
    "recovered": 0,
    "sick": 1186,
    "invisible": false
  },
  {
    "latitude": 58.595272,
    "pop": 1328000,
    "longitude": 25.013607,
    "name": "Estonia",
    "country": "EE",
    "lastUpdated": "2020-04-28T17:10:03.092Z",
    "dead": 50,
    "id": "QR9go2hQKXjty7JHUYe4",
    "infected": 1660,
    "recovered": 240,
    "sick": 1370,
    "invisible": false
  },
  {
    "latitude": -20.318,
    "pop": 3972388,
    "longitude": -40.336,
    "name": "Espírito Santo",
    "country": "BR",
    "lastUpdated": "2020-04-28T17:11:09.032Z",
    "dead": 57,
    "id": "QaWDLKH8SuwD0Qxq6c38",
    "infected": 1796,
    "recovered": 0,
    "sick": 1739,
    "invisible": false
  },
  {
    "latitude": 20.3333,
    "pop": 8222700,
    "longitude": -103.6667,
    "name": "Jalisco",
    "country": "MX",
    "lastUpdated": "2020-04-28T17:08:17.013Z",
    "dead": 25,
    "id": "Qkho455pBwx88Gohs3hL",
    "infected": 371,
    "recovered": 0,
    "sick": 346,
    "invisible": false
  },
  {
    "infected": 8,
    "recovered": 0,
    "latitude": -6.315,
    "pop": 8251000,
    "longitude": 143.9555,
    "name": "Papua New Guinea",
    "country": "PG",
    "lastUpdated": "2020-04-28T17:10:03.106Z",
    "dead": 0,
    "id": "QlZrE4nosm5WfdA2aCDg",
    "sick": 8,
    "invisible": false
  },
  {
    "infected": 59,
    "recovered": 0,
    "latitude": 18.3358,
    "pop": 107268,
    "longitude": -64.8963,
    "name": "U.S. Virgin Islands",
    "country": "US",
    "lastUpdated": "2020-04-28T17:09:12.294Z",
    "dead": 4,
    "id": "QqhD3YDMKXojvQY3Yu41",
    "sick": 55,
    "invisible": false
  },
  {
    "latitude": 15.414999,
    "pop": 71937,
    "longitude": -61.3709755,
    "name": "Dominica",
    "country": "DM",
    "lastUpdated": "2020-04-28T17:10:03.105Z",
    "dead": 0,
    "id": "Qy2qW2ep5wltnYjPJBxh",
    "infected": 16,
    "recovered": 13,
    "sick": 3,
    "invisible": false
  },
  {
    "infected": 10,
    "recovered": 6,
    "latitude": 5.167,
    "pop": 344027,
    "longitude": -72.167,
    "name": "Casanare",
    "country": "CO",
    "lastUpdated": "2020-04-28T17:09:08.252Z",
    "dead": 0,
    "id": "R3IHMWqIUhOJJTlrmbUZ",
    "sick": 4,
    "invisible": false
  },
  {
    "infected": 6021,
    "recovered": 455,
    "latitude": 8.538,
    "pop": 4099000,
    "longitude": -80.7821,
    "name": "Panama",
    "country": "PA",
    "lastUpdated": "2020-04-28T17:10:03.084Z",
    "dead": 167,
    "id": "R8YCgephnxTufvcPWMgx",
    "sick": 5399,
    "invisible": false
  },
  {
    "recovered": 79,
    "latitude": 15.2,
    "pop": 9265000,
    "longitude": -86.2419,
    "name": "Honduras",
    "country": "HN",
    "lastUpdated": "2020-04-28T17:10:03.094Z",
    "dead": 64,
    "id": "RA2SE0p2bVhqo0P2hzGY",
    "infected": 702,
    "sick": 559,
    "invisible": false
  },
  {
    "recovered": 0,
    "latitude": -18.4745998,
    "pop": 224500,
    "longitude": -70.2979202,
    "name": "Arica y Parinacota",
    "country": "CL",
    "lastUpdated": "2020-04-28T17:07:12.886Z",
    "dead": 3,
    "id": "RBt9RiwP7WUbMnJfD0lo",
    "infected": 268,
    "sick": 265,
    "invisible": false
  },
  {
    "infected": 2995,
    "recovered": 1478,
    "latitude": 45.633331,
    "pop": 1216000,
    "longitude": 13.8,
    "name": "Friuli Venezia Giulia",
    "country": "IT",
    "lastUpdated": "2020-04-28T17:01:01.749Z",
    "dead": 278,
    "id": "RCrDBCdBNYzgLNr0aB2H",
    "sick": 1239,
    "invisible": false
  },
  {
    "infected": 6376,
    "recovered": 0,
    "latitude": 41.878,
    "pop": 3156000,
    "longitude": -93.0977,
    "name": "Iowa",
    "country": "US",
    "lastUpdated": "2020-04-28T17:09:12.289Z",
    "dead": 136,
    "id": "RX0KDu1AFrlCsrRso0nb",
    "sick": 6240,
    "invisible": false
  },
  {
    "infected": 2345,
    "recovered": 432,
    "latitude": 4.624335,
    "pop": 7413000,
    "longitude": -74.063644,
    "name": "Bogotá D.C.",
    "country": "CO",
    "lastUpdated": "2020-04-28T17:09:08.245Z",
    "dead": 89,
    "id": "RZ6PCe5TZsO15JjDObwO",
    "sick": 1824,
    "invisible": false
  },
  {
    "id": "RaJxbzlnRFTuj4B8IbpC",
    "infected": 61,
    "recovered": 18,
    "latitude": 26.3351002,
    "pop": 6846000,
    "longitude": 17.2283306,
    "name": "Libya",
    "country": "LY",
    "lastUpdated": "2020-04-28T17:10:03.103Z",
    "dead": 2,
    "sick": 41,
    "invisible": false
  },
  {
    "id": "Rf4uvBfP3GRDSHdZElRd",
    "infected": 3296,
    "recovered": 0,
    "latitude": 39.0119,
    "pop": 2912000,
    "longitude": -98.4842,
    "name": "Kansas",
    "country": "US",
    "lastUpdated": "2020-04-28T17:09:12.291Z",
    "dead": 122,
    "sick": 3174,
    "invisible": false
  },
  {
    "recovered": 7376,
    "latitude": 48.6998,
    "pop": 5518000,
    "longitude": 6.1878,
    "name": "Grand Est",
    "country": "FR",
    "lastUpdated": "2020-04-28T02:05:32.640Z",
    "dead": 2779,
    "id": "RmEgf1xeclWt7XCF9oiR",
    "infected": 20877,
    "sick": 10722,
    "invisible": false
  },
  {
    "id": "RryHraSohKQLAsdr1dHO",
    "infected": 15517,
    "recovered": 3033,
    "latitude": 50.4176,
    "pop": 3644000,
    "longitude": 4.451,
    "name": "Wallonia",
    "country": "BE",
    "lastUpdated": "2020-04-28T16:56:11.463Z",
    "dead": 2586,
    "sick": 9898,
    "invisible": false
  },
  {
    "latitude": 51.2538,
    "pop": 14570000,
    "longitude": -85.3232,
    "name": "Ontario",
    "country": "CA",
    "lastUpdated": "2020-04-28T17:06:09.130Z",
    "dead": 1023,
    "id": "Rx4TuyMpfGb3S8wYJX0x",
    "infected": 16040,
    "recovered": 0,
    "sick": 15017,
    "invisible": false
  },
  {
    "latitude": 41.652779,
    "pop": 2408000,
    "longitude": -4.723611,
    "name": "Castilla y León",
    "country": "ES",
    "lastUpdated": "2020-04-28T17:09:03.940Z",
    "dead": 1710,
    "id": "S8ewN4zaYp8mjtuqqOTw",
    "infected": 19372,
    "recovered": 6323,
    "sick": 11339,
    "invisible": false
  },
  {
    "infected": 175,
    "recovered": 77,
    "latitude": 14.652027,
    "pop": 376480,
    "longitude": -61.011715,
    "name": "Martinique",
    "country": "FR",
    "lastUpdated": "2020-04-28T17:10:03.099Z",
    "dead": 14,
    "id": "SDdefnq1bc3ZNr7SpEsW",
    "sick": 84,
    "invisible": false
  },
  {
    "infected": 1550,
    "recovered": 155,
    "latitude": 7.9465,
    "pop": 28830000,
    "longitude": -1.0232,
    "name": "Ghana",
    "country": "GH",
    "lastUpdated": "2020-04-28T17:10:03.092Z",
    "dead": 11,
    "id": "SG9VWLOV3x2JsTkXmVSz",
    "sick": 1384,
    "invisible": false
  },
  {
    "id": "SGe9sCPayMqh6RsGFaBA",
    "infected": 29264,
    "recovered": 22200,
    "latitude": 46.818188,
    "pop": 8570000,
    "longitude": 8.227512,
    "name": "Switzerland",
    "country": "CH",
    "lastUpdated": "2020-04-28T17:10:03.082Z",
    "dead": 1699,
    "sick": 5365,
    "invisible": false
  },
  {
    "infected": 24983,
    "recovered": 0,
    "latitude": 46.8139,
    "pop": 8485000,
    "longitude": -71.208,
    "name": "Quebec",
    "country": "CA",
    "lastUpdated": "2020-04-28T17:06:09.123Z",
    "dead": 1600,
    "id": "SHoOE3NiJgWAlDVBzwYH",
    "sick": 23383,
    "invisible": false
  },
  {
    "lastUpdated": "2020-04-28T16:40:07.817Z",
    "dead": 22,
    "id": "SMWvuMMuKp2QK7O2tNia",
    "infected": 780,
    "recovered": 201,
    "latitude": 42.6026,
    "pop": 1831000,
    "longitude": 20.903,
    "name": "Kosovo",
    "country": "XK",
    "sick": 557,
    "invisible": false
  },
  {
    "latitude": 15.2993,
    "pop": 1817000,
    "longitude": 74.124,
    "name": "Goa",
    "country": "IN",
    "lastUpdated": "2020-04-28T17:11:05.681Z",
    "dead": 0,
    "id": "SPcujsH2YlUaoAr8AiWF",
    "infected": 7,
    "recovered": 7,
    "sick": 0,
    "invisible": false
  },
  {
    "recovered": 0,
    "latitude": -16.328547,
    "pop": 6921161,
    "longitude": -48.953403,
    "name": "Goiás",
    "country": "BR",
    "lastUpdated": "2020-04-28T17:11:09.032Z",
    "dead": 26,
    "id": "SV5AMF59J61Vt4cXWLgy",
    "infected": 616,
    "sick": 590,
    "invisible": false
  },
  {
    "longitude": 16.5,
    "name": "Calabria",
    "country": "IT",
    "lastUpdated": "2020-04-28T17:01:01.748Z",
    "dead": 85,
    "id": "SZdF624x0v1LlyzZjKFu",
    "infected": 1097,
    "recovered": 248,
    "latitude": 39,
    "pop": 1957000,
    "sick": 764,
    "invisible": false
  },
  {
    "infected": 3358,
    "recovered": 0,
    "latitude": 41.4925,
    "pop": 1929000,
    "longitude": -99.9018,
    "name": "Nebraska",
    "country": "US",
    "lastUpdated": "2020-04-28T17:09:12.291Z",
    "dead": 56,
    "id": "SakhKQzKu1LRI8laqdQq",
    "sick": 3302,
    "invisible": false
  },
  {
    "infected": 418,
    "recovered": 300,
    "latitude": -21.1151,
    "pop": 859959,
    "longitude": 55.5364,
    "name": "La Réunion",
    "country": "FR",
    "lastUpdated": "2020-04-28T17:10:03.095Z",
    "dead": 0,
    "id": "SgHzWAAYK1j2sipovxM6",
    "sick": 118,
    "invisible": false
  },
  {
    "recovered": 119,
    "latitude": 12.565679,
    "pop": 16010000,
    "longitude": 104.990967,
    "name": "Cambodia",
    "country": "KH",
    "lastUpdated": "2020-04-28T17:10:03.102Z",
    "dead": 0,
    "id": "SioMALgUbo7peXmbco2f",
    "infected": 122,
    "sick": 3,
    "invisible": false
  },
  {
    "longitude": 144.7937,
    "name": "Guam",
    "country": "GU",
    "lastUpdated": "2020-04-28T17:09:12.293Z",
    "dead": 5,
    "id": "SsWhuEElU7dCTTuH5fdQ",
    "infected": 144,
    "recovered": 0,
    "latitude": 13.4443,
    "pop": 164229,
    "sick": 139,
    "invisible": false
  },
  {
    "id": "SuCr5emUaJ9RHTll1P1p",
    "invisible": true,
    "infected": 0,
    "recovered": 2655,
    "latitude": 51.9189,
    "longitude": 19.1344,
    "name": "Unknown Poland region",
    "country": "PL",
    "lastUpdated": "2020-04-28T17:10:03.083Z",
    "dead": 0,
    "sick": 0
  },
  {
    "latitude": -4.0383,
    "pop": 81340000,
    "longitude": 21.7587,
    "name": "DR Congo",
    "country": "CD",
    "lastUpdated": "2020-04-28T17:10:03.095Z",
    "dead": 30,
    "id": "T3iRf8mTUTAzbKrORTap",
    "infected": 471,
    "recovered": 56,
    "sick": 385,
    "invisible": false
  },
  {
    "recovered": 2784,
    "latitude": 23.635796,
    "pop": 32940000,
    "longitude": 44.344334,
    "name": "Saudi Arabia",
    "country": "SA",
    "lastUpdated": "2020-04-28T17:10:03.082Z",
    "dead": 152,
    "id": "T7NffoeCgTUpAbOHvYwP",
    "infected": 20077,
    "sick": 17141,
    "invisible": false
  },
  {
    "id": "TNDTapyb0k3l7Mds9q9R",
    "infected": 5097,
    "recovered": 2064,
    "latitude": 42.2871,
    "pop": 315700,
    "longitude": -2.5396,
    "name": "La Rioja",
    "country": "ES",
    "lastUpdated": "2020-04-28T17:09:03.941Z",
    "dead": 326,
    "sick": 2707,
    "invisible": false
  },
  {
    "infected": 361,
    "recovered": 0,
    "latitude": 20.400417,
    "pop": 2207200,
    "longitude": -89.134857,
    "name": "Yucatán",
    "country": "MX",
    "lastUpdated": "2020-04-28T17:08:17.011Z",
    "dead": 31,
    "id": "TQCWbhIpJQBQxBjhCGVJ",
    "sick": 330,
    "invisible": false
  },
  {
    "latitude": 4.506106,
    "pop": 428697,
    "longitude": 114.650692,
    "name": "Brunei",
    "country": "BN",
    "lastUpdated": "2020-04-28T17:10:03.101Z",
    "dead": 1,
    "id": "TQZmzsLhJqjtCSExAkCP",
    "infected": 138,
    "recovered": 124,
    "sick": 13,
    "invisible": false
  },
  {
    "id": "TT0MKODSjrxHvG19xZCa",
    "infected": 12469,
    "recovered": 4671,
    "latitude": 45.4471,
    "pop": 8027000,
    "longitude": 4.3853,
    "name": "Auvergne-Rhône-Alpes",
    "country": "FR",
    "lastUpdated": "2020-04-28T02:05:45.536Z",
    "dead": 1255,
    "sick": 6543,
    "invisible": false
  },
  {
    "latitude": 38.5667,
    "pop": 758700,
    "longitude": -7.9,
    "name": "Alentejo",
    "country": "PT",
    "lastUpdated": "2020-04-28T17:04:02.529Z",
    "dead": 1,
    "id": "TeoNTu4aw5riC04sTd73",
    "infected": 201,
    "recovered": 0,
    "sick": 200,
    "invisible": false
  },
  {
    "latitude": 39.318928,
    "pop": 5696000,
    "longitude": -105.461392,
    "name": "Colorado",
    "country": "US",
    "lastUpdated": "2020-04-28T17:09:12.284Z",
    "dead": 706,
    "id": "Th4dlpXXmSDgi1OHs36P",
    "infected": 13879,
    "recovered": 0,
    "sick": 13173,
    "invisible": false
  },
  {
    "id": "Tup6oDCHj6DgqZR3nQ3x",
    "infected": 635,
    "recovered": 469,
    "latitude": 12.2383,
    "pop": 19190000,
    "longitude": -1.5616,
    "name": "Burkina Faso",
    "country": "BF",
    "lastUpdated": "2020-04-28T17:10:03.094Z",
    "dead": 42,
    "sick": 124,
    "invisible": false
  },
  {
    "recovered": 7,
    "latitude": 12.104818,
    "pop": 112381,
    "longitude": -61.670761,
    "name": "Grenada",
    "country": "GD",
    "lastUpdated": "2020-04-28T17:10:03.105Z",
    "dead": 0,
    "id": "TvqURPN5xzVBXsmGP46N",
    "infected": 18,
    "sick": 11,
    "invisible": false
  },
  {
    "lastUpdated": "2020-04-28T17:10:03.084Z",
    "dead": 434,
    "id": "Ty1AY3VLPJcRZgdBIERx",
    "infected": 8851,
    "recovered": 6121,
    "latitude": 55.675758,
    "pop": 5603000,
    "longitude": 12.56902,
    "name": "Denmark",
    "country": "DK",
    "sick": 2296,
    "invisible": false
  },
  {
    "infected": 9222,
    "recovered": 0,
    "latitude": 53.9062,
    "pop": 5486000,
    "longitude": -1.0334,
    "name": "Yorkshire and The Humber",
    "country": "GB",
    "lastUpdated": "2020-04-28T17:10:19.810Z",
    "dead": 0,
    "id": "U0N7cIPJXAc4T6uKV60c",
    "sick": 9222,
    "invisible": false
  },
  {
    "recovered": 768,
    "latitude": 36.395859,
    "pop": 100472400,
    "longitude": 118.769882,
    "name": "Shandong",
    "country": "CN",
    "lastUpdated": "2020-04-28T17:08:14.915Z",
    "dead": 7,
    "id": "U0tkTJ9CGsBuFJ2Gdoum",
    "infected": 787,
    "sick": 12,
    "invisible": false
  },
  {
    "id": "U12rMD5GDW58Q0lIwrB1",
    "infected": 538,
    "recovered": 64,
    "latitude": 43.94236,
    "pop": 33400,
    "longitude": 12.457777,
    "name": "San Marino",
    "country": "SM",
    "lastUpdated": "2020-04-28T17:10:03.094Z",
    "dead": 41,
    "sick": 433,
    "invisible": false
  },
  {
    "id": "U13Gy4BpRLAZ95bPmBXd",
    "infected": 13614,
    "recovered": 1899,
    "latitude": 36.204823,
    "pop": 126800000,
    "longitude": 138.25293,
    "name": "Japan",
    "country": "JP",
    "lastUpdated": "2020-04-28T17:10:03.083Z",
    "dead": 385,
    "sick": 11330,
    "invisible": false
  },
  {
    "infected": 79,
    "recovered": 52,
    "latitude": 1.3733,
    "pop": 42860000,
    "longitude": 32.2903,
    "name": "Uganda",
    "country": "UG",
    "lastUpdated": "2020-04-28T17:10:03.103Z",
    "dead": 0,
    "id": "UCZXEgnHtxUoChWLR6fQ",
    "sick": 27,
    "invisible": false
  },
  {
    "recovered": 6,
    "latitude": -11.2027,
    "pop": 29780000,
    "longitude": 17.8739,
    "name": "Angola",
    "country": "AO",
    "lastUpdated": "2020-04-28T17:10:03.104Z",
    "dead": 2,
    "id": "UIbrFy6kiTTF0D37Kqmp",
    "infected": 27,
    "sick": 19,
    "invisible": false
  },
  {
    "recovered": 774,
    "latitude": 48.202,
    "pop": 3329000,
    "longitude": -2.9326,
    "name": "Bretagne",
    "country": "FR",
    "lastUpdated": "2020-04-28T02:05:54.214Z",
    "dead": 204,
    "id": "URKMlJ7OTNldjpaxFbjE",
    "infected": 2009,
    "sick": 1031,
    "invisible": false
  },
  {
    "recovered": 3300,
    "latitude": 53.5511,
    "pop": 1822000,
    "longitude": 9.9937,
    "name": "Hamburg",
    "country": "DE",
    "lastUpdated": "2020-04-28T17:00:03.126Z",
    "dead": 147,
    "id": "UfFaUECHINUutv1M9tzq",
    "infected": 4682,
    "sick": 1235,
    "invisible": false
  },
  {
    "infected": 69,
    "recovered": 0,
    "latitude": 22.774916,
    "pop": 1615000,
    "longitude": -102.586899,
    "name": "Zacatecas",
    "country": "MX",
    "lastUpdated": "2020-04-28T17:08:17.011Z",
    "dead": 7,
    "id": "UflxTAb4FnAwve7c5MbY",
    "sick": 62,
    "invisible": false
  },
  {
    "recovered": 0,
    "latitude": -20.4427795,
    "pop": 2748023,
    "longitude": -54.646389,
    "name": "Mato Grosso do Sul",
    "country": "BR",
    "lastUpdated": "2020-04-28T17:11:09.032Z",
    "dead": 9,
    "id": "UlA1ubOUhPtf9jjKxxhF",
    "infected": 238,
    "sick": 229,
    "invisible": false
  },
  {
    "longitude": 132.551,
    "name": "Northern Territory",
    "country": "AU",
    "lastUpdated": "2020-04-28T17:11:10.063Z",
    "dead": 0,
    "id": "UrF45V1VqMo6YBib2KlL",
    "infected": 27,
    "recovered": 23,
    "latitude": -19.4914,
    "pop": 211945,
    "sick": 4,
    "invisible": false
  },
  {
    "latitude": 18.0424805,
    "pop": 41109,
    "longitude": -63.0548286,
    "name": "Sint Maarten",
    "country": "SX",
    "lastUpdated": "2020-04-28T17:10:03.103Z",
    "dead": 13,
    "id": "UsxgpiuFCtlR2CW1UUFm",
    "infected": 75,
    "recovered": 33,
    "sick": 29,
    "invisible": false
  },
  {
    "latitude": 52.4751,
    "pop": 5908000,
    "longitude": -1.8298,
    "name": "West Midlands",
    "country": "GB",
    "lastUpdated": "2020-04-28T17:10:19.810Z",
    "dead": 0,
    "id": "UzOGOMitJmaFTdh2FbvI",
    "infected": 12052,
    "recovered": 0,
    "sick": 12052,
    "invisible": false
  },
  {
    "infected": 8,
    "recovered": 5,
    "latitude": 11.943179,
    "pop": 241773,
    "longitude": 79.808206,
    "name": "Puducherry",
    "country": "IN",
    "lastUpdated": "2020-04-28T17:11:05.681Z",
    "dead": 0,
    "id": "V1qE740s3EUGyKGr6SVv",
    "sick": 3,
    "invisible": false
  },
  {
    "infected": 7,
    "recovered": 0,
    "latitude": -45.5687,
    "pop": 25569,
    "longitude": -72.0597,
    "name": "Aysén",
    "country": "CL",
    "lastUpdated": "2020-04-28T17:07:12.894Z",
    "dead": 0,
    "id": "V9QxUhV4DyYK7iElEhXV",
    "sick": 7,
    "invisible": false
  },
  {
    "infected": 1437,
    "recovered": 575,
    "latitude": 21.5218,
    "pop": 11480000,
    "longitude": -77.7812,
    "name": "Cuba",
    "country": "CU",
    "lastUpdated": "2020-04-28T17:10:03.092Z",
    "dead": 58,
    "id": "VAG9AcMABTf8oIAfELPh",
    "sick": 804,
    "invisible": false
  },
  {
    "longitude": 101.864143,
    "name": "Yunnan",
    "country": "CN",
    "lastUpdated": "2020-04-28T17:08:14.917Z",
    "dead": 2,
    "id": "VIf8T8PD3ZzlzAm5eBCX",
    "infected": 185,
    "recovered": 181,
    "latitude": 25.181129,
    "pop": 45970000,
    "sick": 2,
    "invisible": false
  },
  {
    "longitude": -62.2159,
    "name": "Amazonas",
    "country": "BR",
    "lastUpdated": "2020-04-28T17:11:09.031Z",
    "dead": 320,
    "id": "VZQiSdZ7cUHgUZWgpNTP",
    "infected": 3928,
    "recovered": 0,
    "latitude": -3.4653,
    "pop": 4080611,
    "sick": 3608,
    "invisible": false
  },
  {
    "longitude": 80.9462,
    "name": "Uttar Pradesh",
    "country": "IN",
    "lastUpdated": "2020-04-28T17:11:05.679Z",
    "dead": 34,
    "id": "VcKcLdCkC6YpPfIDnRVD",
    "infected": 2053,
    "recovered": 462,
    "latitude": 26.8467,
    "pop": 204200000,
    "sick": 1557,
    "invisible": false
  },
  {
    "lastUpdated": "2020-04-28T17:06:09.134Z",
    "dead": 0,
    "id": "Vd3lLgrNsr81plzTgZkz",
    "infected": 5,
    "recovered": 0,
    "latitude": 64.8255,
    "pop": 44826,
    "longitude": -124.8457,
    "name": "Northwest Territories",
    "country": "CA",
    "sick": 5,
    "invisible": false
  },
  {
    "infected": 1940,
    "recovered": 1166,
    "latitude": 39.999079,
    "pop": 1188000,
    "longitude": 3.838942,
    "name": "Islas Baleares",
    "country": "ES",
    "lastUpdated": "2020-04-28T17:09:03.940Z",
    "dead": 181,
    "id": "VyW0IR9vLMdgnKz1cC7j",
    "sick": 593,
    "invisible": false
  },
  {
    "infected": 4550,
    "recovered": 2031,
    "latitude": 43.8927,
    "pop": 5893000,
    "longitude": 3.2828,
    "name": "Occitanie",
    "country": "FR",
    "lastUpdated": "2020-04-28T02:06:05.310Z",
    "dead": 373,
    "id": "WAnbFrEjtZDTCIYBt8rz",
    "sick": 2146,
    "invisible": false
  },
  {
    "lastUpdated": "2020-04-28T17:01:01.747Z",
    "dead": 25,
    "id": "WD502XimGXnWzqYg7zxL",
    "infected": 366,
    "recovered": 136,
    "latitude": 40.5,
    "pop": 567118,
    "longitude": 16.5,
    "name": "Basilicata",
    "country": "IT",
    "sick": 205,
    "invisible": false
  },
  {
    "recovered": 2,
    "latitude": 24.6637,
    "pop": 2722000,
    "longitude": 93.9063,
    "name": "Manipur",
    "country": "IN",
    "lastUpdated": "2020-04-28T17:11:05.681Z",
    "dead": 0,
    "id": "WKsJQmcpWKxnp0nCwN77",
    "infected": 2,
    "sick": 0,
    "invisible": false
  },
  {
    "lastUpdated": "2020-04-28T17:11:09.033Z",
    "dead": 10,
    "id": "WRqKCfMIJFjrjXLMud70",
    "infected": 393,
    "recovered": 0,
    "latitude": -9.933,
    "pop": 1757589,
    "longitude": -63.067,
    "name": "Rondônia",
    "country": "BR",
    "sick": 383,
    "invisible": false
  },
  {
    "lastUpdated": "2020-04-28T17:10:03.085Z",
    "dead": 90,
    "id": "Whrue10NtwIObLvFFyBr",
    "infected": 4793,
    "recovered": 1473,
    "latitude": -30.5595,
    "pop": 56720000,
    "longitude": 22.9375,
    "name": "South Africa",
    "country": "ZA",
    "sick": 3230,
    "invisible": false
  },
  {
    "infected": 10,
    "recovered": 8,
    "latitude": 13.443182,
    "pop": 2101000,
    "longitude": -15.3101387,
    "name": "Gambia",
    "country": "GM",
    "lastUpdated": "2020-04-28T17:10:03.106Z",
    "dead": 1,
    "id": "Wk811YwpQxsOCfz8As86",
    "sick": 1,
    "invisible": false
  },
  {
    "latitude": 19.352498,
    "pop": 17666800,
    "longitude": -99.625164,
    "name": "Estado de México",
    "country": "MX",
    "lastUpdated": "2020-04-28T17:08:17.013Z",
    "dead": 177,
    "id": "WpCXuQjYFLbozSpEhbrZ",
    "infected": 2455,
    "recovered": 0,
    "sick": 2278,
    "invisible": false
  },
  {
    "recovered": 139,
    "latitude": 23.685,
    "pop": 164700000,
    "longitude": 90.3563,
    "name": "Bangladesh",
    "country": "BD",
    "lastUpdated": "2020-04-28T17:10:03.084Z",
    "dead": 155,
    "id": "WpLayPPLIJ7VcHZdQaoM",
    "infected": 6462,
    "sick": 6168,
    "invisible": false
  },
  {
    "latitude": 20.836,
    "pop": 2100000,
    "longitude": -99.8508,
    "name": "Querétaro",
    "country": "MX",
    "lastUpdated": "2020-04-28T17:08:17.010Z",
    "dead": 12,
    "id": "Wt97UDm6jfYef6WBrS2w",
    "infected": 128,
    "recovered": 0,
    "sick": 116,
    "invisible": false
  },
  {
    "latitude": 45.5,
    "pop": 4905000,
    "longitude": 11.75,
    "name": "Veneto",
    "country": "IT",
    "lastUpdated": "2020-04-28T17:01:01.751Z",
    "dead": 1408,
    "id": "X2iRhHF6f9pUnJcxPc3J",
    "infected": 17708,
    "recovered": 7699,
    "sick": 8601,
    "invisible": false
  },
  {
    "longitude": 125.56031,
    "name": "Timor-Leste",
    "country": "TL",
    "lastUpdated": "2020-04-28T17:10:03.104Z",
    "dead": 0,
    "id": "X3GMAVINj2GDzIRVfo7n",
    "infected": 24,
    "recovered": 6,
    "latitude": -8.556856,
    "pop": 1311000,
    "sick": 18,
    "invisible": false
  },
  {
    "lastUpdated": "2020-04-28T17:11:05.681Z",
    "dead": 0,
    "id": "X3PZqaJxtnlxcgP4tzya",
    "infected": 22,
    "recovered": 16,
    "latitude": 34.152588,
    "pop": 274289,
    "longitude": 77.577049,
    "name": "Ladakh",
    "country": "IN",
    "sick": 6,
    "invisible": false
  },
  {
    "lastUpdated": "2020-04-28T17:08:14.917Z",
    "dead": 1,
    "id": "XBBw0iMPrmiEu3qogkbi",
    "infected": 355,
    "recovered": 349,
    "latitude": 25.92448,
    "pop": 38560000,
    "longitude": 118.278992,
    "name": "Fujian",
    "country": "CN",
    "sick": 5,
    "invisible": false
  },
  {
    "recovered": 0,
    "latitude": -52.368,
    "pop": 166533,
    "longitude": -70.9863,
    "name": "Magallanes",
    "country": "CL",
    "lastUpdated": "2020-04-28T17:07:12.894Z",
    "dead": 10,
    "id": "XIYUg6ShQvWyEAJfyJzC",
    "infected": 693,
    "sick": 683,
    "invisible": false
  },
  {
    "longitude": -25.506134,
    "name": "Açores",
    "country": "PT",
    "lastUpdated": "2020-04-28T17:04:02.529Z",
    "dead": 10,
    "id": "XhM7BCQK50gGQ2wIUtDq",
    "infected": 121,
    "recovered": 0,
    "latitude": 37.794597,
    "pop": 246746,
    "sick": 111,
    "invisible": false
  },
  {
    "latitude": -32.5228,
    "pop": 3457000,
    "longitude": -55.7658,
    "name": "Uruguay",
    "country": "UY",
    "lastUpdated": "2020-04-28T17:10:03.094Z",
    "dead": 15,
    "id": "XrsuLstdybIqIvv0E0aJ",
    "infected": 620,
    "recovered": 386,
    "sick": 219,
    "invisible": false
  },
  {
    "infected": 415,
    "recovered": 172,
    "latitude": 42.0396,
    "pop": 339178,
    "longitude": 9.0129,
    "name": "Corse",
    "country": "FR",
    "lastUpdated": "2020-04-28T02:06:09.495Z",
    "dead": 50,
    "id": "YGXgIObKVabP2CYEdcb9",
    "sick": 193,
    "invisible": false
  },
  {
    "recovered": 31,
    "latitude": 2.916112,
    "pop": 1126000,
    "longitude": -75.28344,
    "name": "Huila",
    "country": "CO",
    "lastUpdated": "2020-04-28T17:09:08.251Z",
    "dead": 6,
    "id": "YI9zIOUXJqAcgc0T80yb",
    "infected": 92,
    "sick": 55,
    "invisible": false
  },
  {
    "longitude": 35.2332,
    "name": "Palestine",
    "country": "PS",
    "lastUpdated": "2020-04-28T17:10:03.095Z",
    "dead": 2,
    "id": "YMzKw0SnXG71VT7H1jff",
    "infected": 342,
    "recovered": 83,
    "latitude": 31.9522,
    "pop": 5052000,
    "sick": 257,
    "invisible": false
  },
  {
    "longitude": -92.5867,
    "name": "Tabasco",
    "country": "MX",
    "lastUpdated": "2020-04-28T17:08:17.008Z",
    "dead": 100,
    "id": "YP3nlz6AKyrnCWYb5mHA",
    "infected": 819,
    "recovered": 0,
    "latitude": 17.97,
    "pop": 2460900,
    "sick": 719,
    "invisible": false
  },
  {
    "latitude": 11.8037491,
    "pop": 1955000,
    "longitude": -15.1804132,
    "name": "Guinea-Bissau",
    "country": "GW",
    "lastUpdated": "2020-04-28T17:10:03.103Z",
    "dead": 1,
    "id": "YZoy8ReFucvC3IFnWZHn",
    "infected": 73,
    "recovered": 18,
    "sick": 54,
    "invisible": false
  },
  {
    "longitude": -149.4937,
    "name": "Alaska",
    "country": "US",
    "lastUpdated": "2020-04-28T17:09:12.293Z",
    "dead": 9,
    "id": "YaCODTMD1KKRnrAlkg2u",
    "infected": 345,
    "recovered": 0,
    "latitude": 64.2008,
    "pop": 737438,
    "sick": 336,
    "invisible": false
  },
  {
    "lastUpdated": "2020-04-28T17:09:03.941Z",
    "dead": 1255,
    "id": "YfA7o2lZP1DhV4JB6Umh",
    "infected": 14804,
    "recovered": 9974,
    "latitude": 42.9896,
    "pop": 2178000,
    "longitude": -2.6189,
    "name": "País Vasco",
    "country": "ES",
    "sick": 3575,
    "invisible": false
  },
  {
    "longitude": -96.4085,
    "name": "Oaxaca",
    "country": "MX",
    "lastUpdated": "2020-04-28T17:08:17.003Z",
    "dead": 15,
    "id": "YidRsOGDERjtbaIBGCdu",
    "infected": 117,
    "recovered": 0,
    "latitude": 16.8922,
    "pop": 4091400,
    "sick": 102,
    "invisible": false
  },
  {
    "infected": 10752,
    "recovered": 8854,
    "latitude": 37.568291,
    "pop": 51470000,
    "longitude": 126.99778,
    "name": "South Korea",
    "country": "KR",
    "lastUpdated": "2020-04-28T17:10:03.084Z",
    "dead": 244,
    "id": "Yw9uBekNlefXBcOCNMfP",
    "sick": 1654,
    "invisible": false
  },