[
  {
    "lastUpdated": "2020-03-30T10:53:02.329Z",
    "dead": 117,
    "id": "0GJcws44NSPsDHAuxJhW",
    "infected": 1759,
    "recovered": 86,
    "latitude": 41.066666,
    "pop": 5827000,
    "longitude": 14.333333,
    "name": "Campania",
    "country": "IT",
    "sick": 1556
  },
  {
    "latitude": 20.9517,
    "pop": 45990000,
    "longitude": 85.0985,
    "name": "Odisha",
    "country": "IN",
    "lastUpdated": "2020-03-30T10:41:07.869Z",
    "dead": 0,
    "id": "0VG7S6aaK4eSo59fL9JO",
    "infected": 3,
    "recovered": 0,
    "sick": 3
  },
  {
    "latitude": 11.7401,
    "pop": 427246,
    "longitude": 92.6586,
    "name": "Andaman and Nicobar Islands",
    "country": "IN",
    "lastUpdated": "2020-03-30T10:41:07.895Z",
    "dead": 0,
    "id": "0jStOpTUNRaQYJqgmRoK",
    "infected": 9,
    "recovered": 0,
    "sick": 9
  },
  {
    "latitude": 25.315058,
    "pop": 2639000,
    "longitude": 51.145517,
    "name": "Qatar",
    "country": "QA",
    "lastUpdated": "2020-03-30T10:43:03.048Z",
    "dead": 1,
    "id": "0m4aECS0Z2DGFEr8ldgI",
    "infected": 634,
    "recovered": 48,
    "sick": 585
  },
  {
    "id": "0n54EMSDJcRoT1QEvw80",
    "infected": 19,
    "recovered": 0,
    "latitude": 22.9868,
    "pop": 90320000,
    "longitude": 87.855,
    "name": "West Bengal",
    "country": "IN",
    "lastUpdated": "2020-03-30T10:41:07.912Z",
    "dead": 1,
    "sick": 18
  },
  {
    "latitude": 22.9734,
    "pop": 73340000,
    "longitude": 78.6569,
    "name": "Madhya Pradesh",
    "country": "IN",
    "lastUpdated": "2020-03-30T10:41:07.909Z",
    "dead": 2,
    "id": "0s18o5DrDAHjbu5MFcrj",
    "infected": 33,
    "recovered": 0,
    "sick": 31
  },
  {
    "recovered": 4562,
    "latitude": 37.0902,
    "longitude": -95.7129,
    "name": "Unknown US state",
    "country": "US",
    "dead": 0,
    "lastUpdated": "2020-03-30T10:43:03.126Z",
    "id": "0tFoopNTs6e4tOoaltu2",
    "infected": 0,
    "sick": 0
  },
  {
    "latitude": 35.64249,
    "pop": 37330000,
    "longitude": 108.472214,
    "name": "Shaanxi",
    "country": "CN",
    "lastUpdated": "2020-03-30T10:44:12.535Z",
    "dead": 3,
    "id": "0x2HLhr5z5xAtEdO4iZm",
    "infected": 253,
    "recovered": 242,
    "sick": 8
  },
  {
    "id": "19MvIhipqTyYv1H37Upw",
    "infected": 259,
    "recovered": 3,
    "latitude": 41.643351,
    "pop": 2077000,
    "longitude": 21.668393,
    "name": "North Macedonia",
    "country": "MK",
    "lastUpdated": "2020-03-30T10:43:02.988Z",
    "dead": 6,
    "sick": 250
  },
  {
    "infected": 135,
    "recovered": 0,
    "latitude": 53.1355,
    "pop": 521542,
    "longitude": -57.6604,
    "name": "Newfoundland and Labrador",
    "country": "CA",
    "lastUpdated": "2020-03-30T10:45:02.564Z",
    "dead": 0,
    "id": "1DOMOmCWDtva46OVSZLv",
    "sick": 135
  },
  {
    "latitude": 35.801933,
    "pop": 5627000,
    "longitude": 96.779286,
    "name": "Qinghai",
    "country": "CN",
    "lastUpdated": "2020-03-30T10:44:12.530Z",
    "dead": 0,
    "id": "1Fap7rZu9SIRqf5TG9Dg",
    "infected": 18,
    "recovered": 18,
    "sick": 0
  },
  {
    "longitude": 8.206944,
    "name": "Piemonte",
    "country": "IT",
    "lastUpdated": "2020-03-30T10:53:02.438Z",
    "dead": 684,
    "id": "1eTSQyfp8RoDPeFrIwun",
    "infected": 8206,
    "recovered": 254,
    "latitude": 44.9,
    "pop": 4376000,
    "sick": 7268
  },
  {
    "latitude": -14.235004,
    "pop": 209300000,
    "longitude": -51.925282,
    "name": "Brazil",
    "country": "BR",
    "lastUpdated": "2020-03-30T10:43:03.058Z",
    "dead": 136,
    "id": "1f0YoV0vAcexEhpESyZc",
    "infected": 4256,
    "recovered": 6,
    "sick": 4114
  },
  {
    "id": "1qTPB8X3tyLyIdsb5TN3",
    "infected": 263,
    "recovered": 13,
    "latitude": 47.4116,
    "pop": 3550000,
    "longitude": 28.3699,
    "name": "Moldova",
    "country": "MD",
    "lastUpdated": "2020-03-30T10:43:03.162Z",
    "dead": 2,
    "sick": 248
  },
  {
    "lastUpdated": "2020-03-30T10:44:12.444Z",
    "dead": 0,
    "id": "25qIBtsW2nfQj3pwBKg9",
    "infected": 1,
    "recovered": 1,
    "latitude": 30.15336,
    "pop": 3180000,
    "longitude": 88.787865,
    "name": "Tibet",
    "country": "CN",
    "sick": 0
  },
  {
    "infected": 1414,
    "recovered": 75,
    "latitude": -1.572184,
    "pop": 264000000,
    "longitude": 115.66779,
    "name": "Indonesia",
    "country": "ID",
    "lastUpdated": "2020-03-30T10:43:02.985Z",
    "dead": 122,
    "id": "2KHYUb5t3lwzVVmDjwNX",
    "sick": 1217
  },
  {
    "infected": 549,
    "recovered": 0,
    "latitude": 43.807191,
    "pop": 4191000,
    "longitude": -120.585594,
    "name": "Oregon",
    "country": "US",
    "lastUpdated": "2020-03-30T10:51:14.931Z",
    "dead": 13,
    "id": "2OrsssmGUs4XCzaZzvTv",
    "sick": 536
  },
  {
    "lastUpdated": "2020-03-30T10:44:12.355Z",
    "dead": 1,
    "id": "2jxHvSsxdnom0nPNvOT8",
    "infected": 98,
    "recovered": 92,
    "latitude": 43.851921,
    "pop": 27460000,
    "longitude": 126.548103,
    "name": "Jilin",
    "country": "CN",
    "sick": 5
  },
  {
    "latitude": 36.1408,
    "pop": 34571,
    "longitude": -5.3536,
    "name": "Gibraltar",
    "country": "GI",
    "lastUpdated": "2020-03-30T10:43:03.813Z",
    "dead": 0,
    "id": "2p11BjSAs3wVyymgqBOe",
    "infected": 65,
    "recovered": 14,
    "sick": 51
  },
  {
    "infected": 561,
    "recovered": 83,
    "latitude": 47.7516,
    "pop": 2567000,
    "longitude": 1.6751,
    "name": "Centre-Val de Loire",
    "country": "FR",
    "lastUpdated": "2020-03-30T07:56:25.724Z",
    "dead": 39,
    "id": "2sLNkkHpyaHx7dD3aMDO",
    "sick": 439
  },
  {
    "infected": 1023,
    "recovered": 95,
    "latitude": 42.565044,
    "pop": 884640,
    "longitude": 12.643751,
    "name": "Umbria",
    "country": "IT",
    "lastUpdated": "2020-03-30T10:53:02.341Z",
    "dead": 31,
    "id": "319tiZOMczx1y0DfvOib",
    "sick": 897
  },
  {
    "dead": 0,
    "lastUpdated": "2020-03-30T08:07:03.337Z",
    "id": "321X89hv9Zm8QyXGHYjy",
    "infected": 0,
    "recovered": 4700,
    "latitude": 51.1657,
    "longitude": 10.4515,
    "name": "Deutschland",
    "country": "DE",
    "sick": 0
  },
  {
    "latitude": -13.133896,
    "pop": 17090000,
    "longitude": 27.849332,
    "name": "Zambia",
    "country": "ZM",
    "lastUpdated": "2020-03-30T10:43:03.847Z",
    "dead": 0,
    "id": "3IlPjAbP5qVMn1nlgLTJ",
    "infected": 29,
    "recovered": 0,
    "sick": 29
  },
  {
    "infected": 91,
    "recovered": 0,
    "latitude": 42.7044,
    "pop": 631219,
    "longitude": 19.3958,
    "name": "Montenegro",
    "country": "ME",
    "lastUpdated": "2020-03-30T10:43:03.790Z",
    "dead": 1,
    "id": "3LstMSN5XMYBkxbe5HN7",
    "sick": 90
  },
  {
    "id": "3OZoQsKrzxZ18EKyfGE6",
    "infected": 78,
    "recovered": 1,
    "latitude": -35.4735,
    "pop": 418440,
    "longitude": 149.0124,
    "name": "Australian Capital Territory",
    "country": "AU",
    "lastUpdated": "2020-03-30T08:10:03.225Z",
    "dead": 0,
    "sick": 77
  },
  {
    "recovered": 0,
    "latitude": 40.4173,
    "pop": 11690000,
    "longitude": -82.9071,
    "name": "Ohio",
    "country": "US",
    "lastUpdated": "2020-03-30T10:51:14.871Z",
    "dead": 29,
    "id": "3fC3bAyIRUquOQOEnQNe",
    "infected": 1653,
    "sick": 1624
  },
  {
    "lastUpdated": "2020-03-30T10:43:03.825Z",
    "dead": 0,
    "id": "4NnFMekRK2m14IlnZZoj",
    "infected": 5,
    "recovered": 2,
    "latitude": 21.0079,
    "pop": 4420000,
    "longitude": -10.9408,
    "name": "Mauritania",
    "country": "MR",
    "sick": 3
  },
  {
    "longitude": -127.6476,
    "name": "British Columbia",
    "country": "CA",
    "lastUpdated": "2020-03-30T10:45:02.664Z",
    "dead": 17,
    "id": "4hfZRUoUgI4a3vrG0GBk",
    "infected": 884,
    "recovered": 0,
    "latitude": 53.7267,
    "pop": 5071000,
    "sick": 867
  },
  {
    "latitude": 41.065877,
    "pop": 10290000,
    "longitude": -7.920053,
    "name": "Portugal",
    "country": "PT",
    "lastUpdated": "2020-03-30T10:43:02.996Z",
    "dead": 119,
    "id": "4rQLxUCMmQLpbi6E9tbH",
    "infected": 5962,
    "recovered": 43,
    "sick": 5800
  },
  {
    "latitude": 40.3426,
    "pop": 9898000,
    "longitude": 47.93802,
    "name": "Azerbaijan",
    "country": "AZ",
    "lastUpdated": "2020-03-30T10:43:03.033Z",
    "dead": 4,
    "id": "4zqzRm2xHn0CDVOUQJ8p",
    "infected": 209,
    "recovered": 15,
    "sick": 190
  },
  {
    "id": "5MHegCUO9L3LiAU7DDey",
    "infected": 14,
    "recovered": 1,
    "latitude": 25.025885,
    "pop": 395361,
    "longitude": -78.035889,
    "name": "Bahamas",
    "country": "BS",
    "lastUpdated": "2020-03-30T10:43:03.724Z",
    "dead": 0,
    "sick": 13
  },
  {
    "recovered": 4,
    "latitude": -31.253218,
    "pop": 7544000,
    "longitude": 146.921097,
    "name": "New South Wales",
    "country": "AU",
    "lastUpdated": "2020-03-30T08:10:03.140Z",
    "dead": 8,
    "id": "5N16a2OXXRpsEFanw0TC",
    "infected": 1918,
    "sick": 1906
  },
  {
    "lastUpdated": "2020-03-30T10:43:03.747Z",
    "dead": 0,
    "id": "5fg04eyDwFw3kEXnrxez",
    "infected": 15,
    "recovered": 0,
    "latitude": -20.9043045,
    "pop": 280460,
    "longitude": 165.618042,
    "name": "New Caledonia",
    "country": "NC",
    "sick": 15
  },
  {
    "lastUpdated": "2020-03-30T10:43:03.852Z",
    "dead": 0,
    "id": "5gXZIjRgAvd6xWN1LOv8",
    "infected": 5,
    "recovered": 1,
    "latitude": 28.394857,
    "pop": 29300000,
    "longitude": 84.124008,
    "name": "Nepal",
    "country": "NP",
    "sick": 4
  },
  {
    "lastUpdated": "2020-03-30T10:43:03.091Z",
    "dead": 78,
    "id": "5pwmh7aSdGRKqRbnuyc0",
    "infected": 1546,
    "recovered": 42,
    "latitude": 12.879721,
    "pop": 104900000,
    "longitude": 121.774017,
    "name": "Philippines",
    "country": "PH",
    "sick": 1426
  },
  {
    "longitude": 31.053028,
    "name": "Zimbabwe",
    "country": "ZW",
    "lastUpdated": "2020-03-30T10:43:03.858Z",
    "dead": 1,
    "id": "5qtR9nx4BLwu1ODTniaY",
    "infected": 7,
    "recovered": 0,
    "latitude": -17.824858,
    "pop": 14802190,
    "sick": 6
  },
  {
    "longitude": 23.804991,
    "name": "Lithuania",
    "country": "LT",
    "lastUpdated": "2020-03-30T10:43:03.120Z",
    "dead": 7,
    "id": "694ON7d0mRJDeM1gHBTR",
    "infected": 484,
    "recovered": 1,
    "latitude": 55.621011,
    "pop": 2794000,
    "sick": 476
  },
  {
    "id": "6IcHIIH0zXpY0POmBZTv",
    "infected": 642,
    "recovered": 118,
    "latitude": 22.396427,
    "pop": 7392000,
    "longitude": 114.109497,
    "name": "Hong Kong",
    "country": "HK",
    "lastUpdated": "2020-03-30T10:43:03.127Z",
    "dead": 4,
    "sick": 520
  },
  {
    "latitude": 9.3077,
    "pop": 11180000,
    "longitude": 2.3158,
    "name": "Benin",
    "country": "BJ",
    "lastUpdated": "2020-03-30T10:43:03.850Z",
    "dead": 0,
    "id": "6SlpghTyB6lpMFvx3g9U",
    "infected": 6,
    "recovered": 0,
    "sick": 6
  },
  {
    "recovered": 9255,
    "latitude": 45.6667,
    "pop": 10040000,
    "longitude": 9.5,
    "name": "Lombardia",
    "country": "IT",
    "lastUpdated": "2020-03-30T10:53:02.431Z",
    "dead": 6360,
    "id": "6ZHcvMIzVWIaRnc4R3Qp",
    "infected": 41007,
    "sick": 25392
  },
  {
    "latitude": 46.0569,
    "pop": 2067000,
    "longitude": 14.5058,
    "name": "Slovenia",
    "country": "SI",
    "lastUpdated": "2020-03-30T10:43:03.047Z",
    "dead": 11,
    "id": "6ahNiyKDSDAftCctgLH3",
    "infected": 756,
    "recovered": 10,
    "sick": 735
  },
  {
    "lastUpdated": "2020-03-30T10:43:03.857Z",
    "dead": 1,
    "id": "6pBi38TUgYfFm0bry2uh",
    "infected": 7,
    "recovered": 0,
    "latitude": -0.8037,
    "pop": 2025000,
    "longitude": 11.6094,
    "name": "Gabon",
    "country": "GA",
    "sick": 6
  },
  {
    "recovered": 0,
    "latitude": 17.901672,
    "pop": 9131,
    "longitude": -62.818544,
    "name": "Saint-Barthélémy",
    "country": "FR",
    "lastUpdated": "2020-03-30T07:55:08.919Z",
    "dead": 0,
    "id": "78Ox26bNHDA2Pk2b3Uwn",
    "infected": 3,
    "sick": 3
  },
  {
    "recovered": 0,
    "latitude": 17.0608,
    "pop": 102012,
    "longitude": -61.7964,
    "name": "Antigua and Barbuda",
    "country": "AG",
    "lastUpdated": "2020-03-30T10:43:03.828Z",
    "dead": 0,
    "id": "7hVFcEV7nV0MrQr3LHrl",
    "infected": 7,
    "sick": 7
  },
  {
    "infected": 14434,
    "recovered": 591,
    "latitude": 48.7904,
    "pop": 13000000,
    "longitude": 11.4979,
    "name": "Bayern",
    "country": "DE",
    "lastUpdated": "2020-03-30T10:53:03.477Z",
    "dead": 145,
    "id": "7kCrrlOBE3jN6FtOVNUB",
    "sick": 13698
  },
  {
    "infected": 447,
    "recovered": 34,
    "latitude": 47.4979,
    "pop": 9773000,
    "longitude": 19.0402,
    "name": "Hungary",
    "country": "HU",
    "lastUpdated": "2020-03-30T10:43:03.159Z",
    "dead": 15,
    "id": "7rYC2iFB50c55Ihgbs4Q",
    "sick": 398
  },
  {
    "lastUpdated": "2020-03-30T10:43:03.009Z",
    "dead": 6,
    "id": "8C0d7WVCjyUGtnc2gUAR",
    "infected": 139,
    "recovered": 5,
    "latitude": 7.3697,
    "pop": 24050000,
    "longitude": 12.3547,
    "name": "Cameroon",
    "country": "CM",
    "sick": 128
  },
  {
    "pop": 11050000,
    "longitude": -63.5887,
    "name": "Bolivia",
    "country": "BO",
    "lastUpdated": "2020-03-30T10:43:03.616Z",
    "dead": 1,
    "id": "8RihJrXw4NQXPxaRxr1u",
    "infected": 96,
    "recovered": 0,
    "latitude": -16.2902,
    "sick": 95
  },
  {
    "infected": 1,
    "recovered": 1,
    "latitude": 12.9843,
    "pop": 109897,
    "longitude": -61.2872,
    "name": "St. Vincent Grenadines",
    "country": "VC",
    "lastUpdated": "2020-03-30T10:43:03.779Z",
    "dead": 0,
    "id": "8ZTySQROQejkDAad0qxQ",
    "sick": 0
  },
  {
    "recovered": 212,
    "latitude": 1.352083,
    "pop": 5621000,
    "longitude": 103.819839,
    "name": "Singapore",
    "country": "SG",
    "lastUpdated": "2020-03-30T10:43:03.026Z",
    "dead": 3,
    "id": "8pA3fM4xC2c2wv1b4TnE",
    "infected": 844,
    "sick": 629
  },
  {
    "lastUpdated": "2020-03-30T07:56:07.428Z",
    "dead": 47,
    "id": "98hwAoohgWEOQVa3NlM5",
    "infected": 368,
    "recovered": 182,
    "latitude": 47.2184,
    "pop": 3787000,
    "longitude": -1.5536,
    "name": "Pays de la Loire",
    "country": "FR",
    "sick": 139
  },
  {
    "infected": 6,
    "recovered": 0,
    "latitude": 12.8628,
    "pop": 40530000,
    "longitude": 30.2176,
    "name": "Sudan",
    "country": "SD",
    "lastUpdated": "2020-03-30T10:43:03.819Z",
    "dead": 1,
    "id": "9DPOkpIqrFy9mR4e9fuv",
    "sick": 5
  },
  {
    "infected": 1952,
    "recovered": 206,
    "latitude": 45.943161,
    "pop": 19530000,
    "longitude": 24.966761,
    "name": "Romania",
    "country": "RO",
    "lastUpdated": "2020-03-30T10:43:03.073Z",
    "dead": 44,
    "id": "9QcETqEcM2fTv9zRvx5T",
    "sick": 1702
  },
  {
    "infected": 4,
    "recovered": 0,
    "latitude": 12.136389,
    "pop": 6218000,
    "longitude": -86.251389,
    "name": "Nicaragua",
    "country": "NI",
    "lastUpdated": "2020-03-30T10:43:03.739Z",
    "dead": 1,
    "id": "9Y5wmCqNCC6ZrenM31uA",
    "sick": 3
  },
  {
    "lastUpdated": "2020-03-30T10:43:03.733Z",
    "dead": 1,
    "id": "9dIzxqDSVqPyINkHqwGv",
    "infected": 18,
    "recovered": 0,
    "latitude": 17.5706921,
    "pop": 18540000,
    "longitude": -3.996166,
    "name": "Mali",
    "country": "ML",
    "sick": 17
  },
  {
    "id": "9p6OCdZbUUwBLA60Gk3W",
    "infected": 1343,
    "recovered": 10,
    "latitude": 61.92411,
    "pop": 5513000,
    "longitude": 25.748152,
    "name": "Finland",
    "country": "FI",
    "lastUpdated": "2020-03-30T10:43:03.098Z",
    "dead": 11,
    "sick": 1322
  },
  {
    "lastUpdated": "2020-03-30T10:51:14.794Z",
    "dead": 3,
    "id": "A84CwQ52kA46Hr7pn6Bm",
    "infected": 258,
    "recovered": 0,
    "latitude": 43.311643,
    "pop": 1356000,
    "longitude": -71.590315,
    "name": "New Hampshire",
    "country": "US",
    "sick": 255
  },
  {
    "infected": 294,
    "recovered": 0,
    "latitude": 41.823261,
    "pop": 1057000,
    "longitude": -71.412257,
    "name": "Rhode Island",
    "country": "US",
    "lastUpdated": "2020-03-30T10:51:14.845Z",
    "dead": 3,
    "id": "AEUWUHS65qvjEslew11c",
    "sick": 291
  },
  {
    "infected": 13119,
    "recovered": 1141,
    "latitude": 44.498955,
    "pop": 4453000,
    "longitude": 11.327591,
    "name": "Emilia Romagna",
    "country": "IT",
    "lastUpdated": "2020-03-30T10:53:02.248Z",
    "dead": 1443,
    "id": "AJ9jQ0iyKsafsmf5yHAR",
    "sick": 10535
  },
  {
    "lastUpdated": "2020-03-30T10:52:02.879Z",
    "dead": 7,
    "id": "AKjFRQGnzuuZQhv5Qwx7",
    "infected": 726,
    "recovered": 47,
    "latitude": 49.3964,
    "pop": 990509,
    "longitude": 7.023,
    "name": "Saarland",
    "country": "DE",
    "sick": 672
  },
  {
    "recovered": 2,
    "latitude": 71.7069,
    "pop": 56171,
    "longitude": -42.6043,
    "name": "Greenland",
    "country": "GL",
    "lastUpdated": "2020-03-30T10:43:03.612Z",
    "dead": 0,
    "id": "APaZzlGCEeuoLBtzTJMe",
    "infected": 10,
    "sick": 8
  },
  {
    "lastUpdated": "2020-03-30T10:45:02.574Z",
    "dead": 0,
    "id": "AVCpxeh0fuH2WrHWNDYH",
    "infected": 122,
    "recovered": 0,
    "latitude": 45.65107,
    "pop": 971395,
    "longitude": -63.582687,
    "name": "Nova Scotia",
    "country": "CA",
    "sick": 122
  },
  {
    "infected": 161,
    "recovered": 0,
    "latitude": 47.012918,
    "pop": 1062000,
    "longitude": -109.128641,
    "name": "Montana",
    "country": "US",
    "lastUpdated": "2020-03-30T10:51:14.924Z",
    "dead": 2,
    "id": "AcULcZBozObOhwuRKMjJ",
    "sick": 159
  },
  {
    "latitude": 27.285971,
    "pop": 45200000,
    "longitude": 116.01609,
    "name": "Jiangxi",
    "country": "CN",
    "lastUpdated": "2020-03-30T10:44:12.459Z",
    "dead": 1,
    "id": "AmBYm5J6E9Cuez1FQjiN",
    "infected": 937,
    "recovered": 935,
    "sick": 1
  },
  {
    "infected": 511,
    "recovered": 31,
    "latitude": 28.033886,
    "pop": 41320000,
    "longitude": 1.659626,
    "name": "Algeria",
    "country": "DZ",
    "lastUpdated": "2020-03-30T10:43:03.068Z",
    "dead": 31,
    "id": "AwN0CScPDApcLFgz6e3z",
    "sick": 449
  },
  {
    "infected": 715,
    "recovered": 55,
    "latitude": 45.099998,
    "pop": 4076000,
    "longitude": 15.2,
    "name": "Croatia",
    "country": "HR",
    "lastUpdated": "2020-03-30T10:43:03.008Z",
    "dead": 6,
    "id": "B82Ef45M8cDu4q7VsSHF",
    "sick": 654
  },
  {
    "infected": 22,
    "recovered": 0,
    "latitude": 17.6077881,
    "pop": 23716000,
    "longitude": 8.081666,
    "name": "Niger",
    "country": "NE",
    "lastUpdated": "2020-03-30T10:43:03.622Z",
    "dead": 3,
    "id": "BENubqQInFUJzhpZTsLT",
    "sick": 19
  },
  {
    "infected": 1239,
    "recovered": 0,
    "latitude": 39.509109,
    "pop": 6043000,
    "longitude": -76.98432,
    "name": "Maryland",
    "country": "US",
    "lastUpdated": "2020-03-30T10:51:14.802Z",
    "dead": 15,
    "id": "BF51mWl51fgEcyBpCSzb",
    "sick": 1224
  },
  {
    "infected": 94,
    "recovered": 32,
    "latitude": 53.709808,
    "pop": 9508000,
    "longitude": 27.953388,
    "name": "Belarus",
    "country": "BY",
    "lastUpdated": "2020-03-30T10:43:03.737Z",
    "dead": 0,
    "id": "BGg6yVU5VP71B8NXU0oh",
    "sick": 62
  },
  {
    "infected": 688,
    "recovered": 103,
    "latitude": 48.8799,
    "pop": 3319000,
    "longitude": 0.1713,
    "name": "Normandie",
    "country": "FR",
    "lastUpdated": "2020-03-30T07:56:10.628Z",
    "dead": 32,
    "id": "BGtoyzb7y54LVlJ91rbf",
    "sick": 553
  },
  {
    "infected": 919,
    "recovered": 0,
    "latitude": 34.048927,
    "pop": 7172000,
    "longitude": -111.093735,
    "name": "Arizona",
    "country": "US",
    "lastUpdated": "2020-03-30T10:51:14.891Z",
    "dead": 17,
    "id": "BTEESCuD2ZbS1afunR2A",
    "sick": 902
  },
  {
    "infected": 59746,
    "recovered": 0,
    "latitude": 40.719042,
    "pop": 19540000,
    "longitude": -73.982597,
    "name": "New York",
    "country": "US",
    "lastUpdated": "2020-03-30T10:51:14.816Z",
    "dead": 966,
    "id": "C3BCUzV80z9GfiuByIcr",
    "sick": 58780
  },
  {
    "infected": 2859,
    "recovered": 11,
    "latitude": 49.731626,
    "pop": 10650000,
    "longitude": 15.359413,
    "name": "Czechia",
    "country": "CZ",
    "lastUpdated": "2020-03-30T10:43:03.118Z",
    "dead": 17,
    "id": "C6S76AggdWVU8G22jFHQ",
    "sick": 2831
  },
  {
    "infected": 515,
    "recovered": 279,
    "latitude": 26.0667,
    "pop": 1493000,
    "longitude": 50.557701,
    "name": "Bahrain",
    "country": "BH",
    "lastUpdated": "2020-03-30T10:43:03.139Z",
    "dead": 4,
    "id": "C7cj4nwRITs13KnaJrQ2",
    "sick": 232
  },
  {
    "latitude": 27.0238,
    "pop": 68890000,
    "longitude": 74.2179,
    "name": "Rajasthan",
    "country": "IN",
    "lastUpdated": "2020-03-30T10:41:07.860Z",
    "dead": 0,
    "id": "CKZCZTPlrcq5fbfUPA9k",
    "infected": 57,
    "recovered": 3,
    "sick": 54
  },
  {
    "latitude": 13.803,
    "pop": 6378000,
    "longitude": -88.9053,
    "name": "El Salvador",
    "country": "SV",
    "lastUpdated": "2020-03-30T10:43:03.869Z",
    "dead": 0,
    "id": "Cgvmtle61ehMvCzRzYx7",
    "infected": 30,
    "recovered": 0,
    "sick": 30
  },
  {
    "infected": 19522,
    "recovered": 135,
    "latitude": 52.355518,
    "pop": 66440000,
    "longitude": -1.17432,
    "name": "United Kingdom",
    "country": "GB",
    "lastUpdated": "2020-03-30T10:43:02.947Z",
    "dead": 1228,
    "id": "CrXu6i5Sqx11iwdfHfBs",
    "sick": 18159
  },
  {
    "infected": 482,
    "recovered": 30,
    "latitude": 40.259003,
    "pop": 2973000,
    "longitude": 44.818474,
    "name": "Armenia",
    "country": "AM",
    "lastUpdated": "2020-03-30T10:43:03.052Z",
    "dead": 3,
    "id": "DCJCtZoBTWQ4mzdDNljD",
    "sick": 449
  },
  {
    "latitude": 22.192039,
    "pop": 622567,
    "longitude": 113.551262,
    "name": "Macao",
    "country": "MO",
    "lastUpdated": "2020-03-30T10:43:03.838Z",
    "dead": 0,
    "id": "DdBt8qsG6A3g92oOR3ow",
    "infected": 38,
    "recovered": 10,
    "sick": 28
  },
  {
    "pop": 577737,
    "longitude": -107.534868,
    "name": "Wyoming",
    "country": "US",
    "lastUpdated": "2020-03-30T10:51:14.807Z",
    "dead": 0,
    "id": "DrGzziUglmBognCGY7R2",
    "infected": 87,
    "recovered": 0,
    "latitude": 42.962334,
    "sick": 87
  },
  {
    "infected": 1156,
    "recovered": 52,
    "latitude": 40.6401,
    "pop": 10740000,
    "longitude": 22.9444,
    "name": "Greece",
    "country": "GR",
    "lastUpdated": "2020-03-30T10:43:03.094Z",
    "dead": 39,
    "id": "Dtr1lap1RpJpXJdXGJiW",
    "sick": 1065
  },
  {
    "infected": 306,
    "recovered": 39,
    "latitude": 25.03841,
    "pop": 23780000,
    "longitude": 121.563698,
    "name": "Taiwan",
    "country": "TW",
    "lastUpdated": "2020-03-30T10:43:03.108Z",
    "dead": 5,
    "id": "EKTfs8e7M6DXzI1HqyyX",
    "sick": 262
  },
  {
    "infected": 314,
    "recovered": 3,
    "latitude": 10.327273,
    "pop": 4906000,
    "longitude": -84.387618,
    "name": "Costa Rica",
    "country": "CR",
    "lastUpdated": "2020-03-30T10:43:03.123Z",
    "dead": 2,
    "id": "EQzJvzVHKjs8kLmK7BMu",
    "sick": 309
  },
  {
    "recovered": 1,
    "latitude": 22.2587,
    "pop": 62700000,
    "longitude": 71.1924,
    "name": "Gujarat",
    "country": "IN",
    "lastUpdated": "2020-03-30T10:41:07.885Z",
    "dead": 5,
    "id": "ERwk9R9en4m9WbdoMbIg",
    "infected": 58,
    "sick": 52
  },
  {
    "lastUpdated": "2020-03-30T10:41:07.873Z",
    "dead": 0,
    "id": "Esl5UlCVB9s8pmGB5Ofr",
    "infected": 8,
    "recovered": 0,
    "latitude": 30.7333,
    "pop": 1055000,
    "longitude": 76.7794,
    "name": "Chandigarh",
    "country": "IN",
    "sick": 8
  },
  {
    "infected": 127,
    "recovered": 0,
    "latitude": 18.200178,
    "pop": 3195000,
    "longitude": -66.664513,
    "name": "Puerto Rico",
    "country": "PR",
    "lastUpdated": "2020-03-30T10:51:14.842Z",
    "dead": 5,
    "id": "F4rPrEVGAIMM5rfPEMv4",
    "sick": 122
  },
  {
    "pop": 35530000,
    "longitude": 67.709953,
    "name": "Afghanistan",
    "country": "AF",
    "lastUpdated": "2020-03-30T10:43:03.471Z",
    "dead": 4,
    "id": "FCDmlmnIIswd8bQiUjfN",
    "infected": 120,
    "recovered": 2,
    "latitude": 33.93911,
    "sick": 114
  },
  {
    "pop": 30480000,
    "longitude": 106.912254,
    "name": "Chongqing",
    "country": "CN",
    "lastUpdated": "2020-03-30T10:44:12.392Z",
    "dead": 6,
    "id": "FErOU1m4Tj7jIkRam3vF",
    "infected": 579,
    "recovered": 570,
    "latitude": 29.431585,
    "sick": 3
  },
  {
    "latitude": 29.311661,
    "pop": 4137000,
    "longitude": 47.481766,
    "name": "Kuwait",
    "country": "KW",
    "lastUpdated": "2020-03-30T10:43:03.088Z",
    "dead": 0,
    "id": "FZsUkhxBEgqsPb4eO0PN",
    "infected": 266,
    "recovered": 72,
    "sick": 194
  },
  {
    "lastUpdated": "2020-03-30T10:41:07.863Z",
    "dead": 1,
    "id": "FeS45oMNC27pI17F0xEV",
    "infected": 50,
    "recovered": 4,
    "latitude": 11.1271,
    "pop": 67860000,
    "longitude": 78.6569,
    "name": "Tamil Nadu",
    "country": "IN",
    "sick": 45
  },
  {
    "pop": 10770000,
    "longitude": -70.430399,
    "name": "Dominican Republic",
    "country": "DO",
    "lastUpdated": "2020-03-30T10:43:03.171Z",
    "dead": 39,
    "id": "FuiVEJvWb0QMCpxJ3563",
    "infected": 859,
    "recovered": 3,
    "latitude": 18.947829,
    "sick": 817
  },
  {
    "infected": 69,
    "recovered": 1,
    "latitude": 18.1124,
    "pop": 35190000,
    "longitude": 79.0193,
    "name": "Telengana",
    "country": "IN",
    "lastUpdated": "2020-03-30T10:41:07.857Z",
    "dead": 1,
    "id": "FyC551oNwmENxbr9Yght",
    "sick": 67
  },
  {
    "lastUpdated": "2020-03-30T10:43:03.014Z",
    "dead": 0,
    "id": "FzIDXoqWnTI3nUfhPyT2",
    "infected": 336,
    "recovered": 7,
    "latitude": 48.669,
    "pop": 5450000,
    "longitude": 19.699,
    "name": "Slovakia",
    "country": "SK",
    "sick": 329
  },
  {
    "infected": 1625,
    "recovered": 29,
    "latitude": 30.37532,
    "pop": 197000000,
    "longitude": 69.345116,
    "name": "Pakistan",
    "country": "PK",
    "lastUpdated": "2020-03-30T10:43:03.051Z",
    "dead": 18,
    "id": "GAp7Wb6IMhdgbvEtMza9",
    "sick": 1578
  },
  {
    "longitude": 75.3412,
    "name": "Punjab",
    "country": "IN",
    "lastUpdated": "2020-03-30T10:41:07.914Z",
    "dead": 1,
    "id": "GGru8cG08mANO8XDDUtZ",
    "infected": 38,
    "recovered": 1,
    "latitude": 31.1471,
    "pop": 27980000,
    "sick": 36
  },
  {
    "lastUpdated": "2020-03-30T10:43:03.193Z",
    "dead": 3,
    "id": "GHzBIsHy2GiBc5JV2HMs",
    "infected": 570,
    "recovered": 58,
    "latitude": 23.424076,
    "pop": 9400000,
    "longitude": 53.847816,
    "name": "United Arab Emirates",
    "country": "AE",
    "sick": 509
  },
  {
    "lastUpdated": "2020-03-30T07:53:16.756Z",
    "dead": 133,
    "id": "Gh46r6vuaY7fbGt3IboN",
    "infected": 6319,
    "recovered": 0,
    "latitude": 36.621981,
    "pop": 39560000,
    "longitude": -119.339046,
    "name": "California",
    "country": "US",
    "sick": 6186
  },
  {
    "lastUpdated": "2020-03-30T10:51:14.917Z",
    "dead": 16,
    "id": "GpF8ULuKOQiFDCUHN44h",
    "infected": 431,
    "recovered": 0,
    "latitude": 35.87189,
    "pop": 3943000,
    "longitude": -97.145514,
    "name": "Oklahoma",
    "country": "US",
    "sick": 415
  },
  {
    "recovered": 116,
    "latitude": 46.5,
    "pop": 520891,
    "longitude": 11.35,
    "name": "P.A. Bolzano",
    "country": "IT",
    "lastUpdated": "2020-03-30T10:53:02.238Z",
    "dead": 64,
    "id": "Gzx6GX1qhBm714BkEC6l",
    "infected": 1214,
    "sick": 1034
  },
  {
    "lastUpdated": "2020-03-30T10:44:12.438Z",
    "dead": 1,
    "id": "H3JeVigVbo5CSYfZG4WI",
    "infected": 97,
    "recovered": 74,
    "latitude": 42.83263,
    "pop": 24710000,
    "longitude": 113.750972,
    "name": "Inner Mongolia",
    "country": "CN",
    "sick": 22
  },
  {
    "latitude": 39.74536,
    "pop": 3034000,
    "longitude": -116.724977,
    "name": "Nevada",
    "country": "US",
    "lastUpdated": "2020-03-30T10:51:14.909Z",
    "dead": 15,
    "id": "H3bDg4eV30up4WWrIDAS",
    "infected": 920,
    "recovered": 0,
    "sick": 905
  },
  {
    "longitude": 75.7139,
    "name": "Karnataka",
    "country": "IN",
    "lastUpdated": "2020-03-30T10:41:07.844Z",
    "dead": 3,
    "id": "HN5mGmxlqlSeFSNeu1K5",
    "infected": 80,
    "recovered": 5,
    "latitude": 15.3173,
    "pop": 64060000,
    "sick": 72
  },
  {
    "lastUpdated": "2020-03-30T10:43:03.816Z",
    "dead": 0,
    "id": "HRDpwyxpqW9RN0xLFyNu",
    "infected": 4,
    "recovered": 0,
    "latitude": 27.5142,
    "pop": 807610,
    "longitude": 90.4336,
    "name": "Bhutan",
    "country": "BT",
    "sick": 4
  },
  {
    "longitude": 64.5853,
    "name": "Uzbekistan",
    "country": "UZ",
    "lastUpdated": "2020-03-30T10:43:03.194Z",
    "dead": 2,
    "id": "HRTA10dtrruDEwjJEGMp",
    "infected": 144,
    "recovered": 7,
    "latitude": 41.3775,
    "pop": 32390000,
    "sick": 135
  },
  {
    "infected": 237,
    "recovered": 0,
    "latitude": 34.138916,
    "pop": 2095000,
    "longitude": -105.576255,
    "name": "New Mexico",
    "country": "US",
    "lastUpdated": "2020-03-30T10:51:14.904Z",
    "dead": 2,
    "id": "HSSFomRju0doHhWgW8On",
    "sick": 235
  },
  {
    "latitude": 53.6127,
    "pop": 1635000,
    "longitude": 12.4296,
    "name": "Mecklenburg-Vorpommern",
    "country": "DE",
    "lastUpdated": "2020-03-30T10:53:03.461Z",
    "dead": 1,
    "id": "He1gSS1v50t06i3YrqvB",
    "infected": 361,
    "recovered": 11,
    "sick": 349
  },
  {
    "recovered": 35,
    "latitude": 23.634501,
    "pop": 129200000,
    "longitude": -102.552788,
    "name": "Mexico",
    "country": "MX",
    "lastUpdated": "2020-03-30T10:43:02.961Z",
    "dead": 20,
    "id": "I4OJ6z9Vjs1byOcbsJrd",
    "infected": 993,
    "sick": 938
  },
  {
    "infected": 1293,
    "recovered": 36,
    "latitude": 42.25,
    "pop": 1315000,
    "longitude": 13.75,
    "name": "Abruzzo",
    "country": "IT",
    "lastUpdated": "2020-03-30T10:53:02.042Z",
    "dead": 88,
    "id": "I9EqrZfbPnkioNU4wZGz",
    "sick": 1169
  },
  {
    "infected": 1484,
    "recovered": 1351,
    "latitude": 23.363855,
    "pop": 113460000,
    "longitude": 113.373448,
    "name": "Guangdong",
    "country": "CN",
    "lastUpdated": "2020-03-30T10:44:12.452Z",
    "dead": 8,
    "id": "IAX0OQLVnUwU7FX0ENF1",
    "sick": 125
  },
  {
    "infected": 1276,
    "recovered": 1251,
    "latitude": 33.875408,
    "pop": 94000000,
    "longitude": 113.484016,
    "name": "Henan",
    "country": "CN",
    "lastUpdated": "2020-03-30T10:44:12.451Z",
    "dead": 22,
    "id": "IFuMrMvSjoiX5agYvllh",
    "sick": 3
  },
  {
    "latitude": 19.0558,
    "pop": 10980000,
    "longitude": -73.0513,
    "name": "Haiti",
    "country": "HT",
    "lastUpdated": "2020-03-30T10:43:03.744Z",
    "dead": 0,
    "id": "InZ38sIqyK7FN7XAOZoX",
    "infected": 15,
    "recovered": 1,
    "sick": 14
  },
  {
    "id": "IvQkDJkTAsoIqPRAU25n",
    "infected": 2683,
    "recovered": 0,
    "latitude": 32.528564,
    "pop": 10520000,
    "longitude": -83.280125,
    "name": "Georgia (US)",
    "country": "US",
    "lastUpdated": "2020-03-30T10:51:14.887Z",
    "dead": 84,
    "sick": 2599
  },
  {
    "recovered": 63,
    "latitude": -42.8285,
    "pop": 4794000,
    "longitude": 172.488081,
    "name": "New Zealand",
    "country": "NZ",
    "lastUpdated": "2020-03-30T10:43:03.153Z",
    "dead": 1,
    "id": "IvVhpOoGpH6JVkGyUhXN",
    "infected": 589,
    "sick": 525
  },
  {
    "latitude": 6.4238,
    "pop": 31980000,
    "longitude": -66.5897,
    "name": "Venezuela",
    "country": "VE",
    "lastUpdated": "2020-03-30T10:43:03.619Z",
    "dead": 3,
    "id": "J3mZXlfEnnJx4CDZLvRG",
    "infected": 119,
    "recovered": 39,
    "sick": 77
  },
  {
    "infected": 214,
    "recovered": 15,
    "latitude": 35.1264,
    "pop": 1170000,
    "longitude": 33.4299,
    "name": "Cyprus",
    "country": "CY",
    "lastUpdated": "2020-03-30T10:43:03.054Z",
    "dead": 6,
    "id": "JQByE4l2OA6sGOqIcWrM",
    "sick": 193
  },
  {
    "infected": 11,
    "recovered": 0,
    "latitude": 25.0961,
    "pop": 99020000,
    "longitude": 85.3131,
    "name": "Bihar",
    "country": "IN",
    "lastUpdated": "2020-03-30T10:41:07.812Z",
    "dead": 1,
    "id": "JR7hOGked7CZtIs2nCV5",
    "sick": 10
  },
  {
    "lastUpdated": "2020-03-30T10:43:03.818Z",
    "dead": 1,
    "id": "JUWE6bG3b5oL7fKQMSvv",
    "infected": 34,
    "recovered": 10,
    "latitude": 14.628434,
    "pop": 16910000,
    "longitude": -90.522713,
    "name": "Guatemala",
    "country": "GT",
    "sick": 23
  },
  {
    "latitude": 49.8153,
    "pop": 602005,
    "longitude": 6.1296,
    "name": "Luxembourg",
    "country": "LU",
    "lastUpdated": "2020-03-30T10:43:03.021Z",
    "dead": 21,
    "id": "JcFsHSn2WvZ5LJW42ovG",
    "infected": 1950,
    "recovered": 40,
    "sick": 1889
  },
  {
    "lastUpdated": "2020-03-30T10:43:03.805Z",
    "dead": 1,
    "id": "JrBbirlBKGdWSdcDt7PF",
    "infected": 30,
    "recovered": 1,
    "latitude": 8.6195,
    "pop": 7798000,
    "longitude": 0.8248,
    "name": "Togo",
    "country": "TG",
    "sick": 28
  },
  {
    "id": "JzZ8sbqzjutThVjkPKPL",
    "infected": 354,
    "recovered": 15,
    "latitude": 42.7339,
    "pop": 7050000,
    "longitude": 25.4858,
    "name": "Bulgaria",
    "country": "BG",
    "lastUpdated": "2020-03-30T10:43:03.045Z",
    "dead": 8,
    "sick": 331
  },
  {
    "recovered": 420,
    "latitude": 44.5,
    "pop": 1557000,
    "longitude": 8.833,
    "name": "Liguria",
    "country": "IT",
    "lastUpdated": "2020-03-30T10:53:02.428Z",
    "dead": 377,
    "id": "KLXicxFogWnu0dLp4bNK",
    "infected": 3076,
    "sick": 2279
  },
  {
    "id": "KrLrJbpDqqiXgUPGCCW9",
    "infected": 4122,
    "recovered": 121,
    "latitude": 43.4167,
    "pop": 3737000,
    "longitude": 11,
    "name": "Toscana",
    "country": "IT",
    "lastUpdated": "2020-03-30T10:53:02.336Z",
    "dead": 215,
    "sick": 3786
  },
  {
    "recovered": 15,
    "latitude": 7.873054,
    "pop": 21440000,
    "longitude": 80.771797,
    "name": "Sri Lanka",
    "country": "LK",
    "lastUpdated": "2020-03-30T10:43:03.163Z",
    "dead": 1,
    "id": "KsWzJO06cf0d6LJ4ZNh9",
    "infected": 122,
    "sick": 106
  },
  {
    "longitude": 79.74,
    "name": "Andhra Pradesh",
    "country": "IN",
    "lastUpdated": "2020-03-30T10:41:07.900Z",
    "dead": 0,
    "id": "KtQIo2DoqjELtPAlyDVO",
    "infected": 19,
    "recovered": 1,
    "latitude": 15.9129,
    "pop": 49670000,
    "sick": 18
  },
  {
    "latitude": 61.52401,
    "pop": 144500000,
    "longitude": 105.318756,
    "name": "Russia",
    "country": "RU",
    "lastUpdated": "2020-03-30T10:43:03.016Z",
    "dead": 9,
    "id": "KwOuGBKSMRlmwftxAvLX",
    "infected": 1836,
    "recovered": 66,
    "sick": 1761
  },
  {
    "recovered": 0,
    "latitude": 18.0708,
    "pop": 32125,
    "longitude": -63.0501,
    "name": "Saint-Martin",
    "country": "FR",
    "lastUpdated": "2020-03-30T07:56:29.989Z",
    "dead": 0,
    "id": "LBUtrLDKJiupXjlUNTUe",
    "infected": 11,
    "sick": 11
  },
  {
    "id": "LTGEU2E9MFkrCcFhZYVk",
    "infected": 56,
    "recovered": 0,
    "latitude": 47.166,
    "pop": 38557,
    "longitude": 9.5554,
    "name": "Liechtenstein",
    "country": "LI",
    "lastUpdated": "2020-03-30T10:43:03.607Z",
    "dead": 0,
    "sick": 56
  },
  {
    "latitude": 9.9456,
    "pop": 12720000,
    "longitude": -9.6966,
    "name": "Guinea",
    "country": "GN",
    "lastUpdated": "2020-03-30T10:43:03.775Z",
    "dead": 0,
    "id": "LU2QWt5ao8IJa8evNYVV",
    "infected": 16,
    "recovered": 0,
    "sick": 16
  },
  {
    "pop": 563402,
    "longitude": -56.0277824,
    "name": "Suriname",
    "country": "SR",
    "lastUpdated": "2020-03-30T10:43:03.865Z",
    "dead": 0,
    "id": "LglKINHyQpYpFxjckbQ6",
    "infected": 8,
    "recovered": 0,
    "latitude": 3.9193051,
    "sick": 8
  },
  {
    "infected": 156,
    "recovered": 0,
    "latitude": 52.9399,
    "pop": 1174000,
    "longitude": -106.4509,
    "name": "Saskatchewan",
    "country": "CA",
    "lastUpdated": "2020-03-30T10:45:02.571Z",
    "dead": 0,
    "id": "LkIDKY0CMAqzbwBHyYCP",
    "sick": 156
  },
  {
    "infected": 439,
    "recovered": 0,
    "latitude": 37.8393,
    "pop": 4468000,
    "longitude": -84.27,
    "name": "Kentucky",
    "country": "US",
    "lastUpdated": "2020-03-30T10:51:14.971Z",
    "dead": 9,
    "id": "MC8MXFw9iXYybnF8v7e6",
    "sick": 430
  },
  {
    "recovered": 0,
    "latitude": 40.2672,
    "pop": 6692000,
    "longitude": -86.1349,
    "name": "Indiana",
    "country": "US",
    "lastUpdated": "2020-03-30T10:51:14.940Z",
    "dead": 32,
    "id": "MOxDkmQ4wBi1CuAdVxDE",
    "infected": 1514,
    "sick": 1482
  },
  {
    "recovered": 4,
    "latitude": 7.54,
    "pop": 24290000,
    "longitude": -5.5471,
    "name": "Ivory Coast",
    "country": "CI",
    "lastUpdated": "2020-03-30T10:43:02.997Z",
    "dead": 1,
    "id": "MdQOfc1gNh2DOqwSP6UV",
    "infected": 165,
    "sick": 160
  },
  {
    "longitude": 7.6616,
    "name": "Nordrhein-Westfalen",
    "country": "DE",
    "lastUpdated": "2020-03-30T10:52:02.971Z",
    "dead": 125,
    "id": "MjpYq3zQyAvSQlVVYjD2",
    "infected": 14219,
    "recovered": 2084,
    "latitude": 51.4332,
    "pop": 17910000,
    "sick": 12010
  },
  {
    "infected": 75,
    "recovered": 75,
    "latitude": 37.330509,
    "pop": 6301000,
    "longitude": 105.977203,
    "name": "Ningxia",
    "country": "CN",
    "lastUpdated": "2020-03-30T10:44:12.526Z",
    "dead": 0,
    "id": "MntmjjuHljarCdt6aIeE",
    "sick": 0
  },
  {
    "lastUpdated": "2020-03-30T10:53:03.365Z",
    "dead": 150,
    "id": "N3XsRBwJSsNclkEf7Zz5",
    "infected": 12799,
    "recovered": 650,
    "latitude": 48.6616,
    "pop": 11020000,
    "longitude": 9.3501,
    "name": "Baden-Württemberg",
    "country": "DE",
    "sick": 11999
  },
  {
    "recovered": 8,
    "latitude": 44.696652,
    "pop": 3507000,
    "longitude": 17.824332,
    "name": "Bosnia and Herzegovina",
    "country": "BA",
    "lastUpdated": "2020-03-30T10:43:03.176Z",
    "dead": 6,
    "id": "N7c13sCQF0G789XAVazJ",
    "infected": 340,
    "sick": 326
  },
  {
    "infected": 136,
    "recovered": 133,
    "latitude": 37.242565,
    "pop": 36500000,
    "longitude": 111.856857,
    "name": "Shanxi",
    "country": "CN",
    "lastUpdated": "2020-03-30T10:44:12.448Z",
    "dead": 0,
    "id": "NBRIGIRrJB1Ry8prDNAC",
    "sick": 3
  },
  {
    "latitude": 35.7596,
    "pop": 10380000,
    "longitude": -79.0193,
    "name": "North Carolina",
    "country": "US",
    "lastUpdated": "2020-03-30T10:51:14.847Z",
    "dead": 6,
    "id": "NC64Qp5kTqAfiTuR27k8",
    "infected": 1189,
    "recovered": 0,
    "sick": 1183
  },
  {
    "infected": 861,
    "recovered": 58,
    "latitude": 52.4125,
    "pop": 2504000,
    "longitude": 12.5316,
    "name": "Brandenburg",
    "country": "DE",
    "lastUpdated": "2020-03-30T10:53:03.478Z",
    "dead": 4,
    "id": "NJjo2gfBvnbK4xatrsUz",
    "sick": 799
  },
  {
    "latitude": 30.0668,
    "pop": 10080000,
    "longitude": 79.0193,
    "name": "Uttarakhand",
    "country": "IN",
    "lastUpdated": "2020-03-30T10:41:07.917Z",
    "dead": 0,
    "id": "NMeZEcGToxXfpi16PfFV",
    "infected": 7,
    "recovered": 2,
    "sick": 5
  },
  {
    "id": "Nk5vPgUIXsWVfbWZf15O",
    "infected": 3091,
    "recovered": 159,
    "latitude": 50.6521,
    "pop": 6243000,
    "longitude": 9.1624,
    "name": "Hessen",
    "country": "DE",
    "lastUpdated": "2020-03-30T10:53:03.372Z",
    "dead": 15,
    "sick": 2917
  },
  {
    "lastUpdated": "2020-03-30T10:43:03.169Z",
    "dead": 0,
    "id": "NmmMKy0YqA8StHdGzB5N",
    "infected": 376,
    "recovered": 1,
    "latitude": 56.96776,
    "pop": 1920000,
    "longitude": 25.837107,
    "name": "Latvia",
    "country": "LV",
    "sick": 375
  },
  {
    "pop": 4732000,
    "longitude": -9.4295,
    "name": "Liberia",
    "country": "LR",
    "lastUpdated": "2020-03-30T10:43:03.841Z",
    "dead": 0,
    "id": "O4g88K49HKEZLFXm5gxb",
    "infected": 3,
    "recovered": 0,
    "latitude": 6.4281,
    "sick": 3
  },
  {
    "lastUpdated": "2020-03-30T10:51:14.900Z",
    "dead": 16,
    "id": "ONU4CK8QjViFHKg2w5if",
    "infected": 774,
    "recovered": 0,
    "latitude": 34.003307,
    "pop": 5084000,
    "longitude": -80.525613,
    "name": "South Carolina",
    "country": "US",
    "sick": 758
  },
  {
    "latitude": 33.51822,
    "pop": 2987000,
    "longitude": -89.582775,
    "name": "Mississippi",
    "country": "US",
    "lastUpdated": "2020-03-30T10:51:14.819Z",
    "dead": 14,
    "id": "OYa0jFzdbAgo8zUsRv6q",
    "infected": 759,
    "recovered": 0,
    "sick": 745
  },
  {
    "recovered": 0,
    "latitude": 45.2538,
    "pop": 1338000,
    "longitude": -69.4455,
    "name": "Maine",
    "country": "US",
    "lastUpdated": "2020-03-30T10:51:14.831Z",
    "dead": 3,
    "id": "OcXNp9kNVSwrRlG3bNVN",
    "infected": 253,
    "sick": 250
  },
  {
    "infected": 65,
    "recovered": 3,
    "latitude": -41.915264,
    "pop": 515000,
    "longitude": 146.725256,
    "name": "Tasmania",
    "country": "AU",
    "lastUpdated": "2020-03-30T08:10:03.227Z",
    "dead": 0,
    "id": "OnOseaqWdnuP18oruABW",
    "sick": 62
  },
  {
    "longitude": -81.2546,
    "name": "Cayman Islands",
    "country": "KY",
    "lastUpdated": "2020-03-30T10:43:03.617Z",
    "dead": 1,
    "id": "P4mwRFLbrvT0t75uD8Wo",
    "infected": 12,
    "recovered": 0,
    "latitude": 19.3133,
    "pop": 61559,
    "sick": 11
  },
  {
    "infected": 5,
    "recovered": 0,
    "latitude": 16.7424984,
    "pop": 5900,
    "longitude": -62.1873665,
    "name": "Montserrat",
    "country": "MS",
    "lastUpdated": "2020-03-30T10:43:03.815Z",
    "dead": 0,
    "id": "PEDkeFMTOZpvHiSVxBk7",
    "sick": 5
  },
  {
    "infected": 70,
    "recovered": 0,
    "latitude": -1.9403,
    "pop": 12210000,
    "longitude": 29.8739,
    "name": "Rwanda",
    "country": "RW",
    "lastUpdated": "2020-03-30T10:43:03.800Z",
    "dead": 0,
    "id": "PEcgZGEkyhABztt1Ufgc",
    "sick": 70
  },
  {
    "id": "PJvVYosLIhbcRZYnKX1R",
    "infected": 503,
    "recovered": 0,
    "latitude": 46.7296,
    "pop": 5611000,
    "longitude": -94.6859,
    "name": "Minnesota",
    "country": "US",
    "lastUpdated": "2020-03-30T10:51:14.935Z",
    "dead": 9,
    "sick": 494
  },
  {
    "infected": 4596,
    "recovered": 0,
    "latitude": 40.6331,
    "pop": 12740000,
    "longitude": -89.3985,
    "name": "Illinois",
    "country": "US",
    "lastUpdated": "2020-03-30T10:51:14.800Z",
    "dead": 66,
    "id": "PTwQr9ijo0TBBsPH2sdJ",
    "sick": 4530
  },
  {
    "pop": 178844,
    "longitude": -60.978893,
    "name": "Saint Lucia",
    "country": "LC",
    "lastUpdated": "2020-03-30T10:43:03.772Z",
    "dead": 0,
    "id": "PjLqCeFdyzdZNcZxMkK1",
    "infected": 9,
    "recovered": 1,
    "latitude": 13.909444,
    "sick": 8
  },
  {
    "infected": 312,
    "recovered": 2,
    "latitude": 34.201507,
    "pop": 11530000,
    "longitude": 9.460554,
    "name": "Tunisia",
    "country": "TN",
    "lastUpdated": "2020-03-30T10:43:03.101Z",
    "dead": 8,
    "id": "Pr76V4raf108uSRoEXac",
    "sick": 302
  },
  {
    "infected": 9,
    "recovered": 0,
    "latitude": -26.5225,
    "pop": 1367000,
    "longitude": 31.4659,
    "name": "Eswatini",
    "country": "SZ",
    "lastUpdated": "2020-03-30T10:43:03.782Z",
    "dead": 0,
    "id": "PuQgOd9KWiMzGZXm11sR",
    "sick": 9
  },
  {
    "longitude": 143.94853,
    "name": "Victoria",
    "country": "AU",
    "lastUpdated": "2020-03-30T08:10:03.229Z",
    "dead": 4,
    "id": "Q18mrGvFWTLX2BU9SqhQ",
    "infected": 821,
    "recovered": 171,
    "latitude": -37.009609,
    "pop": 6359000,
    "sick": 646
  },
  {
    "lastUpdated": "2020-03-30T10:52:02.979Z",
    "dead": 7,
    "id": "Q39XkabIYxt15mHINzTa",
    "infected": 1053,
    "recovered": 28,
    "latitude": 54.2194,
    "pop": 2890000,
    "longitude": 9.6961,
    "name": "Schleswig-Holstein",
    "country": "DE",
    "sick": 1018
  },
  {
    "infected": 715,
    "recovered": 20,
    "latitude": 58.595272,
    "pop": 1328000,
    "longitude": 25.013607,
    "name": "Estonia",
    "country": "EE",
    "lastUpdated": "2020-03-30T10:43:03.080Z",
    "dead": 3,
    "id": "QR9go2hQKXjty7JHUYe4",
    "sick": 692
  },
  {
    "longitude": 143.9555,
    "name": "Papua New Guinea",
    "country": "PG",
    "lastUpdated": "2020-03-30T10:43:03.792Z",
    "dead": 0,
    "id": "QlZrE4nosm5WfdA2aCDg",
    "infected": 1,
    "recovered": 0,
    "latitude": -6.315,
    "pop": 8251000,
    "sick": 1
  },
  {
    "infected": 23,
    "recovered": 0,
    "latitude": 18.3358,
    "pop": 107268,
    "longitude": -64.8963,
    "name": "U.S. Virgin Islands",
    "country": "US",
    "lastUpdated": "2020-03-30T10:51:14.874Z",
    "dead": 0,
    "id": "QqhD3YDMKXojvQY3Yu41",
    "sick": 23
  },
  {
    "id": "Qy2qW2ep5wltnYjPJBxh",
    "infected": 11,
    "recovered": 0,
    "latitude": 15.414999,
    "pop": 71937,
    "longitude": -61.3709755,
    "name": "Dominica",
    "country": "DM",
    "lastUpdated": "2020-03-30T10:43:03.854Z",
    "dead": 0,
    "sick": 11
  },
  {
    "infected": 989,
    "recovered": 4,
    "latitude": 8.538,
    "pop": 4099000,
    "longitude": -80.7821,
    "name": "Panama",
    "country": "PA",
    "lastUpdated": "2020-03-30T10:43:03.099Z",
    "dead": 24,
    "id": "R8YCgephnxTufvcPWMgx",
    "sick": 961
  },
  {
    "latitude": 15.2,
    "pop": 9265000,
    "longitude": -86.2419,
    "name": "Honduras",
    "country": "HN",
    "lastUpdated": "2020-03-30T10:43:03.105Z",
    "dead": 3,
    "id": "RA2SE0p2bVhqo0P2hzGY",
    "infected": 139,
    "recovered": 3,
    "sick": 133
  },
  {
    "latitude": 45.633331,
    "pop": 1216000,
    "longitude": 13.8,
    "name": "Friuli Venezia Giulia",
    "country": "IT",
    "lastUpdated": "2020-03-30T10:53:02.444Z",
    "dead": 98,
    "id": "RCrDBCdBNYzgLNr0aB2H",
    "infected": 1480,
    "recovered": 241,
    "sick": 1141
  },
  {
    "lastUpdated": "2020-03-30T10:51:14.804Z",
    "dead": 4,
    "id": "RX0KDu1AFrlCsrRso0nb",
    "infected": 336,
    "recovered": 0,
    "latitude": 41.878,
    "pop": 3156000,
    "longitude": -93.0977,
    "name": "Iowa",
    "country": "US",
    "sick": 332
  },
  {
    "infected": 8,
    "recovered": 0,
    "latitude": 26.3351002,
    "pop": 6846000,
    "longitude": 17.2283306,
    "name": "Libya",
    "country": "LY",
    "lastUpdated": "2020-03-30T10:43:03.727Z",
    "dead": 0,
    "id": "RaJxbzlnRFTuj4B8IbpC",
    "sick": 8
  },
  {
    "lastUpdated": "2020-03-30T10:51:14.811Z",
    "dead": 7,
    "id": "Rf4uvBfP3GRDSHdZElRd",
    "infected": 330,
    "recovered": 0,
    "latitude": 39.0119,
    "pop": 2912000,
    "longitude": -98.4842,
    "name": "Kansas",
    "country": "US",
    "sick": 323
  },
  {
    "infected": 5479,
    "recovered": 1348,
    "latitude": 48.6998,
    "pop": 5518000,
    "longitude": 6.1878,
    "name": "Grand Est",
    "country": "FR",
    "lastUpdated": "2020-03-30T07:55:21.550Z",
    "dead": 815,
    "id": "RmEgf1xeclWt7XCF9oiR",
    "sick": 3316
  },
  {
    "recovered": 0,
    "latitude": 51.2538,
    "pop": 14570000,
    "longitude": -85.3232,
    "name": "Ontario",
    "country": "CA",
    "lastUpdated": "2020-03-30T10:45:02.475Z",
    "dead": 21,
    "id": "Rx4TuyMpfGb3S8wYJX0x",
    "infected": 1355,
    "sick": 1334
  },
  {
    "longitude": -61.011715,
    "name": "Martinique",
    "country": "FR",
    "lastUpdated": "2020-03-30T07:55:12.676Z",
    "dead": 3,
    "id": "SDdefnq1bc3ZNr7SpEsW",
    "infected": 66,
    "recovered": 17,
    "latitude": 14.652027,
    "pop": 376480,
    "sick": 46
  },
  {
    "lastUpdated": "2020-03-30T10:43:03.024Z",
    "dead": 5,
    "id": "SG9VWLOV3x2JsTkXmVSz",
    "infected": 152,
    "recovered": 2,
    "latitude": 7.9465,
    "pop": 28830000,
    "longitude": -1.0232,
    "name": "Ghana",
    "country": "GH",
    "sick": 145
  },
  {
    "lastUpdated": "2020-03-30T10:43:03.121Z",
    "dead": 312,
    "id": "SGe9sCPayMqh6RsGFaBA",
    "infected": 15069,
    "recovered": 1823,
    "latitude": 46.818188,
    "pop": 8570000,
    "longitude": 8.227512,
    "name": "Switzerland",
    "country": "CH",
    "sick": 12934
  },
  {
    "latitude": 46.8139,
    "pop": 8485000,
    "longitude": -71.208,
    "name": "Quebec",
    "country": "CA",
    "lastUpdated": "2020-03-30T10:45:02.482Z",
    "dead": 22,
    "id": "SHoOE3NiJgWAlDVBzwYH",
    "infected": 2840,
    "recovered": 0,
    "sick": 2818
  },
  {
    "infected": 94,
    "recovered": 1,
    "latitude": 42.6026,
    "pop": 1831000,
    "longitude": 20.903,
    "name": "Kosovo",
    "country": "XK",
    "lastUpdated": "2020-03-30T10:29:08.021Z",
    "dead": 1,
    "id": "SMWvuMMuKp2QK7O2tNia",
    "sick": 92
  },
  {
    "lastUpdated": "2020-03-30T10:41:07.929Z",
    "dead": 0,
    "id": "SPcujsH2YlUaoAr8AiWF",
    "infected": 5,
    "recovered": 0,
    "latitude": 15.2993,
    "pop": 1817000,
    "longitude": 74.124,
    "name": "Goa",
    "country": "IN",
    "sick": 5
  },
  {
    "recovered": 12,
    "latitude": 39,
    "pop": 1957000,
    "longitude": 16.5,
    "name": "Calabria",
    "country": "IT",
    "lastUpdated": "2020-03-30T10:53:02.231Z",
    "dead": 25,
    "id": "SZdF624x0v1LlyzZjKFu",
    "infected": 614,
    "sick": 577
  },
  {
    "infected": 120,
    "recovered": 0,
    "latitude": 41.4925,
    "pop": 1929000,
    "longitude": -99.9018,
    "name": "Nebraska",
    "country": "US",
    "lastUpdated": "2020-03-30T10:51:14.857Z",
    "dead": 2,
    "id": "SakhKQzKu1LRI8laqdQq",
    "sick": 118
  },
  {
    "longitude": 55.5364,
    "name": "La Réunion",
    "country": "FR",
    "lastUpdated": "2020-03-30T07:56:41.653Z",
    "dead": 0,
    "id": "SgHzWAAYK1j2sipovxM6",
    "infected": 94,
    "recovered": 5,
    "latitude": -21.1151,
    "pop": 859959,
    "sick": 89
  },
  {
    "latitude": 12.565679,
    "pop": 16010000,
    "longitude": 104.990967,
    "name": "Cambodia",
    "country": "KH",
    "lastUpdated": "2020-03-30T10:43:03.614Z",
    "dead": 0,
    "id": "SioMALgUbo7peXmbco2f",
    "infected": 107,
    "recovered": 21,
    "sick": 86
  },
  {
    "lastUpdated": "2020-03-30T10:51:14.890Z",
    "dead": 1,
    "id": "SsWhuEElU7dCTTuH5fdQ",
    "infected": 56,
    "recovered": 0,
    "latitude": 13.4443,
    "pop": 164229,
    "longitude": 144.7937,
    "name": "Guam",
    "country": "GU",
    "sick": 55
  },
  {
    "latitude": -4.0383,
    "pop": 81340000,
    "longitude": 21.7587,
    "name": "DR Congo",
    "country": "CD",
    "lastUpdated": "2020-03-30T10:43:03.788Z",
    "dead": 8,
    "id": "T3iRf8mTUTAzbKrORTap",
    "infected": 81,
    "recovered": 2,
    "sick": 71
  },
  {
    "pop": 32940000,
    "longitude": 44.344334,
    "name": "Saudi Arabia",
    "country": "SA",
    "lastUpdated": "2020-03-30T10:43:03.173Z",
    "dead": 8,
    "id": "T7NffoeCgTUpAbOHvYwP",
    "infected": 1299,
    "recovered": 66,
    "latitude": 23.635796,
    "sick": 1225
  },
  {
    "lastUpdated": "2020-03-30T10:43:02.990Z",
    "dead": 1,
    "id": "TQZmzsLhJqjtCSExAkCP",
    "infected": 127,
    "recovered": 38,
    "latitude": 4.506106,
    "pop": 428697,
    "longitude": 114.650692,
    "name": "Brunei",
    "country": "BN",
    "sick": 88
  },
  {
    "lastUpdated": "2020-03-30T07:55:34.340Z",
    "dead": 227,
    "id": "TT0MKODSjrxHvG19xZCa",
    "infected": 2093,
    "recovered": 755,
    "latitude": 45.4471,
    "pop": 8027000,
    "longitude": 4.3853,
    "name": "Auvergne-Rhône-Alpes",
    "country": "FR",
    "sick": 1111
  },
  {
    "longitude": -105.461392,
    "name": "Colorado",
    "country": "US",
    "lastUpdated": "2020-03-30T10:51:14.950Z",
    "dead": 47,
    "id": "Th4dlpXXmSDgi1OHs36P",
    "infected": 2308,
    "recovered": 0,
    "latitude": 39.318928,
    "pop": 5696000,
    "sick": 2261
  },
  {
    "recovered": 23,
    "latitude": 12.2383,
    "pop": 19190000,
    "longitude": -1.5616,
    "name": "Burkina Faso",
    "country": "BF",
    "lastUpdated": "2020-03-30T10:43:03.132Z",
    "dead": 12,
    "id": "Tup6oDCHj6DgqZR3nQ3x",
    "infected": 222,
    "sick": 187
  },
  {
    "id": "TvqURPN5xzVBXsmGP46N",
    "infected": 9,
    "recovered": 0,
    "latitude": 12.104818,
    "pop": 112381,
    "longitude": -61.670761,
    "name": "Grenada",
    "country": "GD",
    "lastUpdated": "2020-03-30T10:43:03.823Z",
    "dead": 0,
    "sick": 9
  },
  {
    "infected": 2555,
    "recovered": 1,
    "latitude": 55.675758,
    "pop": 5603000,
    "longitude": 12.56902,
    "name": "Denmark",
    "country": "DK",
    "lastUpdated": "2020-03-30T10:43:03.002Z",
    "dead": 72,
    "id": "Ty1AY3VLPJcRZgdBIERx",
    "sick": 2482
  },
  {
    "latitude": 36.395859,
    "pop": 100472400,
    "longitude": 118.769882,
    "name": "Shandong",
    "country": "CN",
    "lastUpdated": "2020-03-30T10:44:12.327Z",
    "dead": 7,
    "id": "U0tkTJ9CGsBuFJ2Gdoum",
    "infected": 773,
    "recovered": 753,
    "sick": 13
  },
  {
    "lastUpdated": "2020-03-30T10:43:03.034Z",
    "dead": 22,
    "id": "U12rMD5GDW58Q0lIwrB1",
    "infected": 224,
    "recovered": 6,
    "latitude": 43.94236,
    "pop": 33400,
    "longitude": 12.457777,
    "name": "San Marino",
    "country": "SM",
    "sick": 196
  },
  {
    "latitude": 36.204823,
    "pop": 126800000,
    "longitude": 138.25293,
    "name": "Japan",
    "country": "JP",
    "lastUpdated": "2020-03-30T10:43:03.214Z",
    "dead": 54,
    "id": "U13Gy4BpRLAZ95bPmBXd",
    "infected": 1866,
    "recovered": 424,
    "sick": 1388
  },
  {
    "latitude": 1.3733,
    "pop": 42860000,
    "longitude": 32.2903,
    "name": "Uganda",
    "country": "UG",
    "lastUpdated": "2020-03-30T10:43:03.855Z",
    "dead": 0,
    "id": "UCZXEgnHtxUoChWLR6fQ",
    "infected": 33,
    "recovered": 0,
    "sick": 33
  },
  {
    "recovered": 0,
    "latitude": -11.2027,
    "pop": 29780000,
    "longitude": 17.8739,
    "name": "Angola",
    "country": "AO",
    "lastUpdated": "2020-03-30T10:43:03.809Z",
    "dead": 2,
    "id": "UIbrFy6kiTTF0D37Kqmp",
    "infected": 7,
    "sick": 5
  },
  {
    "lastUpdated": "2020-03-30T07:55:43.391Z",
    "dead": 41,
    "id": "URKMlJ7OTNldjpaxFbjE",
    "infected": 603,
    "recovered": 166,
    "latitude": 48.202,
    "pop": 3329000,
    "longitude": -2.9326,
    "name": "Bretagne",
    "country": "FR",
    "sick": 396
  },
  {
    "infected": 2078,
    "recovered": 1,
    "latitude": 53.5511,
    "pop": 1822000,
    "longitude": 9.9937,
    "name": "Hamburg",
    "country": "DE",
    "lastUpdated": "2020-03-30T10:52:02.765Z",
    "dead": 5,
    "id": "UfFaUECHINUutv1M9tzq",
    "sick": 2072
  },
  {
    "longitude": 132.551,
    "name": "Northern Territory",
    "country": "AU",
    "lastUpdated": "2020-03-30T08:10:03.322Z",
    "dead": 0,
    "id": "UrF45V1VqMo6YBib2KlL",
    "infected": 14,
    "recovered": 0,
    "latitude": -19.4914,
    "pop": 211945,
    "sick": 14
  },
  {
    "recovered": 0,
    "latitude": 18.0424805,
    "pop": 41109,
    "longitude": -63.0548286,
    "name": "Sint Maarten",
    "country": "SX",
    "lastUpdated": "2020-03-30T10:43:03.840Z",
    "dead": 0,
    "id": "UsxgpiuFCtlR2CW1UUFm",
    "infected": 6,
    "sick": 6
  },
  {
    "lastUpdated": "2020-03-30T10:41:07.835Z",
    "dead": 0,
    "id": "V1qE740s3EUGyKGr6SVv",
    "infected": 1,
    "recovered": 0,
    "latitude": 11.943179,
    "pop": 241773,
    "longitude": 79.808206,
    "name": "Puducherry",
    "country": "IN",
    "sick": 1
  },
  {
    "infected": 702,
    "recovered": 10,
    "latitude": 3.527606,
    "pop": 49070000,
    "longitude": -72.998674,
    "name": "Colombia",
    "country": "CO",
    "lastUpdated": "2020-03-30T10:43:03.090Z",
    "dead": 10,
    "id": "VAAmtxtDuCY0o55zRsOh",
    "sick": 682
  },
  {
    "lastUpdated": "2020-03-30T10:43:03.103Z",
    "dead": 3,
    "id": "VAG9AcMABTf8oIAfELPh",
    "infected": 139,
    "recovered": 4,
    "latitude": 21.5218,
    "pop": 11480000,
    "longitude": -77.7812,
    "name": "Cuba",
    "country": "CU",
    "sick": 132
  },
  {
    "infected": 180,
    "recovered": 172,
    "latitude": 25.181129,
    "pop": 45970000,
    "longitude": 101.864143,
    "name": "Yunnan",
    "country": "CN",
    "lastUpdated": "2020-03-30T10:44:12.441Z",
    "dead": 2,
    "id": "VIf8T8PD3ZzlzAm5eBCX",
    "sick": 6
  },
  {
    "recovered": 11,
    "latitude": 26.8467,
    "pop": 204200000,
    "longitude": 80.9462,
    "name": "Uttar Pradesh",
    "country": "IN",
    "lastUpdated": "2020-03-30T10:41:07.881Z",
    "dead": 0,
    "id": "VcKcLdCkC6YpPfIDnRVD",
    "infected": 75,
    "sick": 64
  },
  {
    "latitude": 64.8255,
    "pop": 44826,
    "longitude": -124.8457,
    "name": "Northwest Territories",
    "country": "CA",
    "lastUpdated": "2020-03-30T10:45:02.576Z",
    "dead": 0,
    "id": "Vd3lLgrNsr81plzTgZkz",
    "infected": 1,
    "recovered": 0,
    "sick": 1
  },
  {
    "infected": 1082,
    "recovered": 314,
    "latitude": 43.8927,
    "pop": 5893000,
    "longitude": 3.2828,
    "name": "Occitanie",
    "country": "FR",
    "lastUpdated": "2020-03-30T07:55:52.340Z",
    "dead": 76,
    "id": "WAnbFrEjtZDTCIYBt8rz",
    "sick": 692
  },
  {
    "infected": 202,
    "recovered": 1,
    "latitude": 40.5,
    "pop": 567118,
    "longitude": 16.5,
    "name": "Basilicata",
    "country": "IT",
    "lastUpdated": "2020-03-30T10:53:02.229Z",
    "dead": 4,
    "id": "WD502XimGXnWzqYg7zxL",
    "sick": 197
  },
  {
    "lastUpdated": "2020-03-30T10:41:07.865Z",
    "dead": 0,
    "id": "WKsJQmcpWKxnp0nCwN77",
    "infected": 1,
    "recovered": 0,
    "latitude": 24.6637,
    "pop": 2722000,
    "longitude": 93.9063,
    "name": "Manipur",
    "country": "IN",
    "sick": 1
  },
  {
    "infected": 1280,
    "recovered": 31,
    "latitude": -30.5595,
    "pop": 56720000,
    "longitude": 22.9375,
    "name": "South Africa",
    "country": "ZA",
    "lastUpdated": "2020-03-30T10:43:03.005Z",
    "dead": 2,
    "id": "Whrue10NtwIObLvFFyBr",
    "sick": 1247
  },
  {
    "lastUpdated": "2020-03-30T10:43:03.778Z",
    "dead": 1,
    "id": "Wk811YwpQxsOCfz8As86",
    "infected": 4,
    "recovered": 0,
    "latitude": 13.443182,
    "pop": 2101000,
    "longitude": -15.3101387,
    "name": "Gambia",
    "country": "GM",
    "sick": 3
  },
  {
    "recovered": 19,
    "latitude": 23.685,
    "pop": 164700000,
    "longitude": 90.3563,
    "name": "Bangladesh",
    "country": "BD",
    "lastUpdated": "2020-03-30T10:43:03.801Z",
    "dead": 5,
    "id": "WpLayPPLIJ7VcHZdQaoM",
    "infected": 49,
    "sick": 25
  },
  {
    "lastUpdated": "2020-03-30T10:53:02.134Z",
    "dead": 392,
    "id": "X2iRhHF6f9pUnJcxPc3J",
    "infected": 8358,
    "recovered": 715,
    "latitude": 45.5,
    "pop": 4905000,
    "longitude": 11.75,
    "name": "Veneto",
    "country": "IT",
    "sick": 7251
  },
  {
    "infected": 1,
    "recovered": 0,
    "latitude": -8.556856,
    "pop": 1311000,
    "longitude": 125.56031,
    "name": "Timor-Leste",
    "country": "TL",
    "lastUpdated": "2020-03-30T10:43:03.876Z",
    "dead": 0,
    "id": "X3GMAVINj2GDzIRVfo7n",
    "sick": 1
  },
  {
    "id": "X3PZqaJxtnlxcgP4tzya",
    "infected": 13,
    "recovered": 3,
    "latitude": 34.152588,
    "pop": 274289,
    "longitude": 77.577049,
    "name": "Ladakh",
    "country": "IN",
    "lastUpdated": "2020-03-30T10:41:07.876Z",
    "dead": 0,
    "sick": 10
  },
  {
    "infected": 340,
    "recovered": 295,
    "latitude": 25.92448,
    "pop": 38560000,
    "longitude": 118.278992,
    "name": "Fujian",
    "country": "CN",
    "lastUpdated": "2020-03-30T10:44:12.544Z",
    "dead": 1,
    "id": "XBBw0iMPrmiEu3qogkbi",
    "sick": 44
  },
  {
    "infected": 309,
    "recovered": 0,
    "latitude": -32.5228,
    "pop": 3457000,
    "longitude": -55.7658,
    "name": "Uruguay",
    "country": "UY",
    "lastUpdated": "2020-03-30T07:52:36.677Z",
    "dead": 1,
    "id": "XrsuLstdybIqIvv0E0aJ",
    "sick": 308
  },
  {
    "id": "YGXgIObKVabP2CYEdcb9",
    "infected": 225,
    "recovered": 79,
    "latitude": 42.0396,
    "pop": 339178,
    "longitude": 9.0129,
    "name": "Corse",
    "country": "FR",
    "lastUpdated": "2020-03-30T07:55:56.741Z",
    "dead": 19,
    "sick": 127
  },
  {
    "latitude": 31.9522,
    "pop": 5052000,
    "longitude": 35.2332,
    "name": "Palestine",
    "country": "PS",
    "lastUpdated": "2020-03-30T10:43:03.473Z",
    "dead": 1,
    "id": "YMzKw0SnXG71VT7H1jff",
    "infected": 115,
    "recovered": 18,
    "sick": 96
  },
  {
    "lastUpdated": "2020-03-30T10:43:03.761Z",
    "dead": 0,
    "id": "YZoy8ReFucvC3IFnWZHn",
    "infected": 2,
    "recovered": 0,
    "latitude": 11.8037491,
    "pop": 1955000,
    "longitude": -15.1804132,
    "name": "Guinea-Bissau",
    "country": "GW",
    "sick": 2
  },
  {
    "latitude": 64.2008,
    "pop": 737438,
    "longitude": -149.4937,
    "name": "Alaska",
    "country": "US",
    "lastUpdated": "2020-03-30T10:51:14.880Z",
    "dead": 3,
    "id": "YaCODTMD1KKRnrAlkg2u",
    "infected": 114,
    "recovered": 0,
    "sick": 111
  },
  {
    "id": "Yw9uBekNlefXBcOCNMfP",
    "infected": 9661,
    "recovered": 5228,
    "latitude": 37.568291,
    "pop": 51470000,
    "longitude": 126.99778,
    "name": "South Korea",
    "country": "KR",
    "lastUpdated": "2020-03-30T10:43:03.085Z",
    "dead": 158,
    "sick": 4275
  },
  {
    "recovered": 0,
    "latitude": 13.193887,
    "pop": 285719,
    "longitude": -59.543198,
    "name": "Barbados",
    "country": "BB",
    "lastUpdated": "2020-03-30T10:43:03.863Z",
    "dead": 0,
    "id": "YzZqZMJGvG6joQCdiuXC",
    "infected": 33,
    "sick": 33
  },
  {
    "recovered": 7,
    "latitude": 52.2297,
    "pop": 37980000,
    "longitude": 21.0122,
    "name": "Poland",
    "country": "PL",
    "lastUpdated": "2020-03-30T10:43:03.184Z",
    "dead": 26,
    "id": "ZAZNuCK1VweBaTLCFzCk",
    "infected": 1905,
    "sick": 1872
  },
  {
    "longitude": 178.065033,
    "name": "Fiji",
    "country": "FJ",
    "lastUpdated": "2020-03-30T10:43:03.861Z",
    "dead": 0,
    "id": "ZmzOT0sJgfWXEpRImItC",
    "infected": 5,
    "recovered": 0,
    "latitude": -17.713371,
    "pop": 905502,
    "sick": 5
  },
  {
    "infected": 1993,
    "recovered": 0,
    "latitude": 41.6032,
    "pop": 3573000,
    "longitude": -73.0877,
    "name": "Connecticut",
    "country": "US",
    "lastUpdated": "2020-03-30T10:51:14.906Z",
    "dead": 34,
    "id": "Zqy0gftQzocR49jEJNMl",
    "sick": 1959
  },
  {
    "infected": 3558,
    "recovered": 12,
    "latitude": 43.616943,
    "pop": 1532000,
    "longitude": 13.516667,
    "name": "Marche",
    "country": "IT",
    "lastUpdated": "2020-03-30T10:53:02.334Z",
    "dead": 386,
    "id": "Zwbjs4XN7P9s849Q3zFj",
    "sick": 3160
  },
  {
    "infected": 749,
    "recovered": 129,
    "latitude": 51.011,
    "pop": 2137000,
    "longitude": 10.8453,
    "name": "Thüringen",
    "country": "DE",
    "lastUpdated": "2020-03-30T10:52:02.875Z",
    "dead": 5,
    "id": "a9OgUWo6ZSWA3HyF0xnj",
    "sick": 615
  },
  {
    "lastUpdated": "2020-03-30T08:10:03.232Z",
    "dead": 0,
    "id": "a9p9pAOsjg1WAjPGc2a6",
    "infected": 305,
    "recovered": 6,
    "latitude": -30.000233,
    "pop": 1677000,
    "longitude": 136.209152,
    "name": "South Australia",
    "country": "AU",
    "sick": 299
  },
  {
    "infected": 926,
    "recovered": 0,
    "latitude": 37.9643,
    "pop": 6126000,
    "longitude": -91.8318,
    "name": "Missouri",
    "country": "US",
    "lastUpdated": "2020-03-30T10:51:14.915Z",
    "dead": 13,
    "id": "aPubGfQ8ToSEuKJldKRT",
    "sick": 913
  },
  {
    "latitude": 23.64407,
    "pop": 48380000,
    "longitude": 108.26651,
    "name": "Guangxi",
    "country": "CN",
    "lastUpdated": "2020-03-30T10:44:12.371Z",
    "dead": 2,
    "id": "aTa8MiBjtH3iY0SRs2HQ",
    "infected": 254,
    "recovered": 250,
    "sick": 2
  },
  {
    "infected": 3,
    "recovered": 0,
    "latitude": 6.6111,
    "pop": 4659000,
    "longitude": 20.9394,
    "name": "CAR",
    "country": "CF",
    "lastUpdated": "2020-03-30T10:43:03.802Z",
    "dead": 0,
    "id": "adcBUeAYp6ey0ZXCzKNs",
    "sick": 3
  },
  {
    "latitude": 37.4316,
    "pop": 8518000,
    "longitude": -78.6569,
    "name": "Virginia",
    "country": "US",
    "lastUpdated": "2020-03-30T10:51:14.911Z",
    "dead": 24,
    "id": "afeZTVC1J1SMMNFxkrcc",
    "infected": 890,
    "recovered": 0,
    "sick": 866
  },
  {
    "latitude": 39.904202,
    "pop": 21540000,
    "longitude": 116.407394,
    "name": "Beijing",
    "country": "CN",
    "lastUpdated": "2020-03-30T10:44:12.424Z",
    "dead": 8,
    "id": "alj4hkxg9cjrTxOzwFKt",
    "infected": 577,
    "recovered": 415,
    "sick": 154
  },
  {
    "lastUpdated": "2020-03-30T10:43:03.040Z",
    "dead": 42,
    "id": "b7TwXX46FA0EmH1CjHET",
    "infected": 547,
    "recovered": 143,
    "latitude": 33.22319,
    "pop": 38270000,
    "longitude": 43.679291,
    "name": "Iraq",
    "country": "IQ",
    "sick": 362
  },
  {
    "infected": 162,
    "recovered": 27,
    "latitude": 14.457474,
    "pop": 15850000,
    "longitude": -14.358636,
    "name": "Senegal",
    "country": "SN",
    "lastUpdated": "2020-03-30T10:43:03.156Z",
    "dead": 0,
    "id": "b9p1JhVml3GGC7iiPmKv",
    "sick": 135
  },
  {
    "id": "bVHiTolbUJGHIeVht3eG",
    "infected": 42,
    "recovered": 1,
    "latitude": -0.0236,
    "pop": 49700000,
    "longitude": 37.9062,
    "name": "Kenya",
    "country": "KE",
    "lastUpdated": "2020-03-30T10:43:03.797Z",
    "dead": 1,
    "sick": 40
  },
  {
    "id": "bYp4RRHv19M7lYtSzQeV",
    "infected": 13386,
    "recovered": 0,
    "latitude": 39.561889,
    "pop": 8909000,
    "longitude": -74.672169,
    "name": "New Jersey",
    "country": "US",
    "lastUpdated": "2020-03-30T10:51:14.901Z",
    "dead": 161,
    "sick": 13225
  },
  {
    "pop": 31620000,
    "longitude": 101.6869,
    "name": "Malaysia",
    "country": "MY",
    "lastUpdated": "2020-03-30T10:43:03.057Z",
    "dead": 37,
    "id": "bdqD4kpdqGgUaX70Tm2Q",
    "infected": 2626,
    "recovered": 479,
    "latitude": 3.139,
    "sick": 2110
  },
  {
    "latitude": 60.128162,
    "pop": 10120000,
    "longitude": 18.643501,
    "name": "Sweden",
    "country": "SE",
    "lastUpdated": "2020-03-30T10:43:03.195Z",
    "dead": 110,
    "id": "bignnyt2A8BBx8VNo32p",
    "infected": 3700,
    "recovered": 16,
    "sick": 3574
  },
  {
    "lastUpdated": "2020-03-30T10:43:03.773Z",
    "dead": 0,
    "id": "bor36ktvkrB3iSxlsegc",
    "infected": 2,
    "recovered": 0,
    "latitude": 17.363747,
    "pop": 53100,
    "longitude": -62.754593,
    "name": "Saint Kitts and Nevis",
    "country": "KN",
    "sick": 2
  },
  {
    "id": "cCGmFmwHOoBrEpvG3qBP",
    "infected": 223,
    "recovered": 44,
    "latitude": 40.973765,
    "pop": 2877000,
    "longitude": 20.010162,
    "name": "Albania",
    "country": "AL",
    "lastUpdated": "2020-03-30T10:43:03.110Z",
    "dead": 11,
    "sick": 168
  },
  {
    "latitude": 16.871311,
    "pop": 55901000,
    "longitude": 96.199379,
    "name": "Myanmar",
    "country": "MM",
    "lastUpdated": "2020-03-30T10:43:03.736Z",
    "dead": 0,
    "id": "cIbchhSBTuxXmXYgpkdB",
    "infected": 10,
    "recovered": 0,
    "sick": 10
  },
  {
    "infected": 8,
    "recovered": 0,
    "latitude": -25.953724,
    "pop": 29670000,
    "longitude": 32.588711,
    "name": "Mozambique",
    "country": "MZ",
    "lastUpdated": "2020-03-30T10:43:03.753Z",
    "dead": 0,
    "id": "cO8TChMvQvAtoZMNurTQ",
    "sick": 8
  },
  {
    "infected": 12,
    "recovered": 2,
    "latitude": 46.8625,
    "pop": 3076000,
    "longitude": 103.8467,
    "name": "Mongolia",
    "country": "MN",
    "lastUpdated": "2020-03-30T10:43:03.767Z",
    "dead": 0,
    "id": "cPxONYsVo6BgvCW9HUeQ",
    "sick": 10
  },
  {
    "infected": 1020,
    "recovered": 135,
    "latitude": 64.963051,
    "pop": 364260,
    "longitude": -19.020836,
    "name": "Iceland",
    "country": "IS",
    "lastUpdated": "2020-03-30T10:43:03.136Z",
    "dead": 2,
    "id": "cPxe7nsRnOf6aOPqHElJ",
    "sick": 883
  },
  {
    "latitude": 31.046051,
    "pop": 8712000,
    "longitude": 34.851612,
    "name": "Israel",
    "country": "IL",
    "lastUpdated": "2020-03-30T10:43:03.066Z",
    "dead": 16,
    "id": "cX891t0ONLNFj0MYq6La",
    "infected": 4347,
    "recovered": 134,
    "sick": 4197
  },
  {
    "latitude": 4.749531,
    "pop": 290691,
    "longitude": -53.112909,
    "name": "Guyane",
    "country": "FR",
    "lastUpdated": "2020-03-30T07:55:16.180Z",
    "dead": 0,
    "id": "cc7s6hYGQ2MovBBBgkKb",
    "infected": 28,
    "recovered": 0,
    "sick": 28
  },
  {
    "infected": 159,
    "recovered": 70,
    "latitude": 61.8926,
    "pop": 49290,
    "longitude": -6.9118,
    "name": "Faeroe Islands",
    "country": "FO",
    "lastUpdated": "2020-03-30T10:43:03.035Z",
    "dead": 0,
    "id": "cgzd5EM8PZv5ziJtTz1w",
    "sick": 89
  },
  {
    "latitude": 41.2033,
    "pop": 12810000,
    "longitude": -77.1945,
    "name": "Pennsylvania",
    "country": "US",
    "lastUpdated": "2020-03-30T10:51:14.839Z",
    "dead": 43,
    "id": "chj2FF3zb4Xxcop9RHre",
    "infected": 3465,
    "recovered": 0,
    "sick": 3422
  },
  {
    "infected": 912,
    "recovered": 226,
    "latitude": 45.7087,
    "pop": 5987000,
    "longitude": 0.6269,
    "name": "Nouvelle-Aquitaine",
    "country": "FR",
    "lastUpdated": "2020-03-30T07:56:04.252Z",
    "dead": 58,
    "id": "cpf3Y5PQTYywIm3PrpIQ",
    "sick": 628
  },
  {
    "pop": 46660000,
    "longitude": -3.74922,
    "name": "Spain",
    "country": "ES",
    "lastUpdated": "2020-03-30T10:43:03.038Z",
    "dead": 7340,
    "id": "d0ExINgPaWUBm3l4ioJL",
    "infected": 85195,
    "recovered": 16780,
    "latitude": 40.463669,
    "sick": 61075
  },
  {
    "latitude": 42.50837,
    "pop": 76965,
    "longitude": 1.517155,
    "name": "Andorra",
    "country": "AD",
    "lastUpdated": "2020-03-30T10:43:02.998Z",
    "dead": 6,
    "id": "dedMXSYR2k92wkSXNZqn",
    "infected": 334,
    "recovered": 6,
    "sick": 322
  },
  {
    "infected": 232,
    "recovered": 0,
    "latitude": 38.831163,
    "pop": 967171,
    "longitude": -75.375673,
    "name": "Delaware",
    "country": "US",
    "lastUpdated": "2020-03-30T10:51:14.921Z",
    "dead": 6,
    "id": "dzCgqYduzyncjNKU9z6G",
    "sick": 226
  },
  {
    "latitude": 38.9637,
    "pop": 80810000,
    "longitude": 35.2433,
    "name": "Turkey",
    "country": "TR",
    "lastUpdated": "2020-03-30T10:43:03.140Z",
    "dead": 131,
    "id": "dzIcCaUZlbIXuRw0SyDE",
    "infected": 9217,
    "recovered": 105,
    "sick": 8981
  },
  {
    "infected": 9103,
    "recovered": 636,
    "latitude": 47.516232,
    "pop": 8822000,
    "longitude": 14.550072,
    "name": "Austria",
    "country": "AT",
    "lastUpdated": "2020-03-30T10:43:03.112Z",
    "dead": 108,
    "id": "e3BtI12qbqhE8jypOoZu",
    "sick": 8359
  },
  {
    "latitude": 52.6367,
    "pop": 7963000,
    "longitude": 9.8451,
    "name": "Niedersachsen",
    "country": "DE",
    "lastUpdated": "2020-03-30T10:53:03.482Z",
    "dead": 31,
    "id": "e3CJgTO8wVbBQZaxqNze",
    "infected": 4012,
    "recovered": 491,
    "sick": 3490
  },
  {
    "lastUpdated": "2020-03-30T10:44:12.357Z",
    "dead": 2,
    "id": "e7P83iImanpd9r36oXK3",
    "infected": 136,
    "recovered": 124,
    "latitude": 41.097481,
    "pop": 43900000,
    "longitude": 122.310669,
    "name": "Liaoning",
    "country": "CN",
    "sick": 10
  },
  {
    "id": "e9pQqQa7CEblCYoDtfKo",
    "infected": 498,
    "recovered": 338,
    "latitude": 31.230391,
    "pop": 24240000,
    "longitude": 121.473701,
    "name": "Shanghai",
    "country": "CN",
    "lastUpdated": "2020-03-30T10:44:12.375Z",
    "dead": 5,
    "sick": 155
  },
  {
    "lastUpdated": "2020-03-30T10:51:14.959Z",
    "dead": 48,
    "id": "eCKDGssww4pF7NrxOySu",
    "infected": 4955,
    "recovered": 0,
    "latitude": 42.407211,
    "pop": 6902000,
    "longitude": -71.382439,
    "name": "Massachusetts",
    "country": "US",
    "sick": 4907
  },
  {
    "lastUpdated": "2020-03-30T10:43:03.829Z",
    "dead": 1,
    "id": "eLgKPNUwYM5MNDAtF6ql",
    "infected": 46,
    "recovered": 1,
    "latitude": 43.740451,
    "pop": 38695,
    "longitude": 7.432032,
    "name": "Monaco",
    "country": "MC",
    "sick": 44
  },
  {
    "latitude": 47.2805,
    "pop": 2686000,
    "longitude": 4.9994,
    "name": "Bourgogne-Franche-Comté",
    "country": "FR",
    "lastUpdated": "2020-03-30T07:55:38.622Z",
    "dead": 164,
    "id": "ejrjMKfHexGnK52FS9Aa",
    "infected": 1569,
    "recovered": 549,
    "sick": 856
  },
  {
    "latitude": 48.0196,
    "pop": 18040000,
    "longitude": 66.9237,
    "name": "Kazakhstan",
    "country": "KZ",
    "lastUpdated": "2020-03-30T10:43:03.037Z",
    "dead": 1,
    "id": "etrmrftkQg6Kbd9seAga",
    "infected": 294,
    "recovered": 20,
    "sick": 273
  },
  {
    "infected": 550,
    "recovered": 536,
    "latitude": 30.14208,
    "pop": 81100000,
    "longitude": 102.960701,
    "name": "Sichuan",
    "country": "CN",
    "lastUpdated": "2020-03-30T10:44:12.454Z",
    "dead": 3,
    "id": "eyK5bxFkwdoAouIBvLFM",
    "sick": 11
  },
  {
    "lastUpdated": "2020-03-30T10:43:02.968Z",
    "dead": 0,
    "id": "f9kmlhYtc3WA3kjbWszW",
    "infected": 167,
    "recovered": 23,
    "latitude": 21.473534,
    "pop": 4636000,
    "longitude": 55.975414,
    "name": "Oman",
    "country": "OM",
    "sick": 144
  },
  {
    "latitude": -0.228021,
    "pop": 81340000,
    "longitude": 15.8276587,
    "name": "Congo",
    "country": "CG",
    "lastUpdated": "2020-03-30T10:43:03.729Z",
    "dead": 0,
    "id": "fEyJ83bQtvcaes8KLhVx",
    "infected": 19,
    "recovered": 0,
    "sick": 19
  },
  {
    "lastUpdated": "2020-03-30T10:53:03.562Z",
    "dead": 10,
    "id": "fGqVm2khm3IBRs709S1f",
    "infected": 1884,
    "recovered": 24,
    "latitude": 51.1045,
    "pop": 4081000,
    "longitude": 13.2017,
    "name": "Sachsen",
    "country": "DE",
    "sick": 1850
  },
  {
    "infected": 14941,
    "recovered": 0,
    "latitude": 47,
    "longitude": 2,
    "name": "Région non communiquée",
    "country": "FR",
    "dead": 0,
    "lastUpdated": "2020-03-30T07:56:49.957Z",
    "id": "fIp76gl05LhZ0aOxUbhz",
    "sick": 14941
  },
  {
    "pop": 14900000,
    "longitude": 18.7322,
    "name": "Chad",
    "country": "TD",
    "lastUpdated": "2020-03-30T10:43:03.770Z",
    "dead": 0,
    "id": "fJc9CaZGR1OCHaW8Tn4V",
    "infected": 3,
    "recovered": 0,
    "latitude": 15.4542,
    "sick": 3
  },
  {
    "infected": 259,
    "recovered": 18,
    "latitude": 31.295929,
    "pop": 9702000,
    "longitude": 36.691952,
    "name": "Jordan",
    "country": "JO",
    "lastUpdated": "2020-03-30T10:43:03.082Z",
    "dead": 4,
    "id": "fK06AziL8wyrcoz7rsmJ",
    "sick": 237
  },
  {
    "infected": 4950,
    "recovered": 0,
    "latitude": 27.716933,
    "pop": 21300000,
    "longitude": -81.555239,
    "name": "Florida",
    "country": "US",
    "lastUpdated": "2020-03-30T10:51:14.855Z",
    "dead": 60,
    "id": "fNganaGVPifA4QahEQPS",
    "sick": 4890
  },
  {
    "longitude": 139.664285,
    "name": "Diamond Princess (Cruise)",
    "country": "ZZ",
    "dead": 10,
    "lastUpdated": "2020-03-30T07:51:07.925Z",
    "id": "fNnE9CD0SttEVrCUo1Ym",
    "infected": 712,
    "recovered": 587,
    "latitude": 35.452016,
    "sick": 115
  },
  {
    "infected": 1594,
    "recovered": 172,
    "latitude": 46.0679,
    "pop": 538223,
    "longitude": 11.1211,
    "name": "P.A. Trento",
    "country": "IT",
    "lastUpdated": "2020-03-30T10:53:02.049Z",
    "dead": 129,
    "id": "fOlU5JggPKOO8jbHh5GD",
    "sick": 1293
  },
  {
    "latitude": 52.52,
    "pop": 3748000,
    "longitude": 13.405,
    "name": "Berlin",
    "country": "DE",
    "lastUpdated": "2020-03-30T10:52:02.786Z",
    "dead": 11,
    "id": "ffKhENYKy3bwsyBLiYtE",
    "infected": 2464,
    "recovered": 845,
    "sick": 1608
  },
  {
    "latitude": 31.160629,
    "pop": 58500000,
    "longitude": 112.255402,
    "name": "Hubei",
    "country": "CN",
    "lastUpdated": "2020-03-30T10:44:12.436Z",
    "dead": 3186,
    "id": "fiJ14DCxw15e3SMemh8R",
    "infected": 67801,
    "recovered": 62882,
    "sick": 1733
  },
  {
    "infected": 480,
    "recovered": 6,
    "latitude": 50.4501,
    "pop": 42220000,
    "longitude": 30.5234,
    "name": "Ukraine",
    "country": "UA",
    "lastUpdated": "2020-03-30T10:43:03.199Z",
    "dead": 11,
    "id": "flbZ2kaR5kBuV8XZ2Nsu",
    "sick": 463
  },
  {
    "infected": 94,
    "recovered": 0,
    "latitude": 41.2044,
    "pop": 6202000,
    "longitude": 74.7661,
    "name": "Kyrgyzstan",
    "country": "KG",
    "lastUpdated": "2020-03-30T10:43:03.741Z",
    "dead": 0,
    "id": "fst48lrFxiMJbQPf4nur",
    "sick": 94
  },
  {
    "infected": 10866,
    "recovered": 250,
    "latitude": 52.132633,
    "pop": 17180000,
    "longitude": 5.291266,
    "name": "Netherlands",
    "country": "NL",
    "lastUpdated": "2020-03-30T10:43:03.167Z",
    "dead": 771,
    "id": "g0lRMtEJbucWIGqSPn0I",
    "sick": 9845
  },
  {
    "lastUpdated": "2020-03-30T10:51:14.797Z",
    "dead": 6,
    "id": "gIdgxJZfTl2QOSYEwMAz",
    "infected": 449,
    "recovered": 0,
    "latitude": 34.69522,
    "pop": 3014000,
    "longitude": -92.288012,
    "name": "Arkansas",
    "country": "US",
    "sick": 443
  },
  {
    "latitude": 4.8604159,
    "pop": 777859,
    "longitude": -58.9301796,
    "name": "Guyana",
    "country": "GY",
    "lastUpdated": "2020-03-30T10:43:03.785Z",
    "dead": 1,
    "id": "gXd2X2PjmGP0XVwxpWqT",
    "infected": 8,
    "recovered": 0,
    "sick": 7
  },
  {
    "recovered": 0,
    "latitude": 43.9695,
    "pop": 882235,
    "longitude": -99.9018,
    "name": "South Dakota",
    "country": "US",
    "lastUpdated": "2020-03-30T10:51:14.828Z",
    "dead": 1,
    "id": "gYDsNgvuvtbg8t77w6FS",
    "infected": 90,
    "sick": 89
  },
  {
    "infected": 156,
    "recovered": 2,
    "latitude": 35.894231,
    "pop": 493559,
    "longitude": 14.432846,
    "name": "Malta",
    "country": "MT",
    "lastUpdated": "2020-03-30T10:43:03.189Z",
    "dead": 0,
    "id": "h9UqxYZ5xC4JZrmdDz0q",
    "sick": 154
  },
  {
    "lastUpdated": "2020-03-30T10:41:07.878Z",
    "dead": 2,
    "id": "hqwsh1rmvkWI3LFUVuMk",
    "infected": 53,
    "recovered": 6,
    "latitude": 28.7041,
    "pop": 18980000,
    "longitude": 77.1025,
    "name": "Delhi",
    "country": "IN",
    "sick": 45
  },
  {
    "infected": 138,
    "recovered": 125,
    "latitude": 35.751835,
    "pop": 25580000,
    "longitude": 104.28611,
    "name": "Gansu",
    "country": "CN",
    "lastUpdated": "2020-03-30T10:44:12.377Z",
    "dead": 2,
    "id": "iGkTscdD0XyHFSP23Qrp",
    "sick": 11
  },
  {
    "longitude": 38.9968,
    "name": "Syria",
    "country": "SY",
    "lastUpdated": "2020-03-30T10:43:03.758Z",
    "dead": 1,
    "id": "iHf1IZQP3CA3sT2erzyh",
    "infected": 9,
    "recovered": 0,
    "latitude": 34.8021,
    "pop": 18270000,
    "sick": 8
  },
  {
    "lastUpdated": "2020-03-30T10:41:07.892Z",
    "dead": 1,
    "id": "idymmgoqLHImnBdyC7r7",
    "infected": 194,
    "recovered": 19,
    "latitude": 10.8505,
    "pop": 34800000,
    "longitude": 76.2711,
    "name": "Kerala",
    "country": "IN",
    "sick": 174
  },
  {
    "longitude": -61.551,
    "name": "Guadeloupe",
    "country": "FR",
    "lastUpdated": "2020-03-30T07:56:33.029Z",
    "dead": 2,
    "id": "j8eMjjqNAqHAJhAKdBYN",
    "infected": 76,
    "recovered": 9,
    "latitude": 16.265,
    "pop": 395700,
    "sick": 65
  },
  {
    "lastUpdated": "2020-03-30T10:53:03.463Z",
    "dead": 20,
    "id": "jKn2pIFlIBScjb47GjRX",
    "infected": 2772,
    "recovered": 73,
    "latitude": 50.1183,
    "pop": 4074000,
    "longitude": 7.309,
    "name": "Rheinland-Pfalz",
    "country": "DE",
    "sick": 2679
  },
  {
    "id": "jMlHjIOb7eMPSxFBrmG1",
    "infected": 174,
    "recovered": 133,
    "latitude": 39.343357,
    "pop": 15000000,
    "longitude": 117.361649,
    "name": "Tianjin",
    "country": "CN",
    "lastUpdated": "2020-03-30T10:44:12.431Z",
    "dead": 3,
    "sick": 38
  },
  {
    "latitude": 17.1898766,
    "pop": 397000,
    "longitude": -88.4976501,
    "name": "Belize",
    "country": "BZ",
    "lastUpdated": "2020-03-30T10:43:03.843Z",
    "dead": 0,
    "id": "jOc8JUDWxCmquh49oZxV",
    "infected": 2,
    "recovered": 0,
    "sick": 2
  },
  {
    "infected": 235,
    "recovered": 0,
    "latitude": 44.5588,
    "pop": 629299,
    "longitude": -72.5778,
    "name": "Vermont",
    "country": "US",
    "lastUpdated": "2020-03-30T10:51:14.858Z",
    "dead": 12,
    "id": "jPC0eOG50FWknCDe3K6P",
    "sick": 223
  },
  {
    "longitude": -6.2603,
    "name": "Ireland",
    "country": "IE",
    "lastUpdated": "2020-03-30T10:43:03.177Z",
    "dead": 46,
    "id": "jpVXEDCyfyq26gPoCtHL",
    "infected": 2615,
    "recovered": 5,
    "latitude": 53.3498,
    "pop": 4830000,
    "sick": 2564
  },
  {
    "lastUpdated": "2020-03-30T10:45:02.478Z",
    "dead": 0,
    "id": "k73gNv36u1SmziUF6mUw",
    "infected": 4,
    "recovered": 0,
    "latitude": 64.2823,
    "pop": 35874,
    "longitude": -135,
    "name": "Yukon",
    "country": "CA",
    "sick": 4
  },
  {
    "latitude": 40.078072,
    "pop": 1648000,
    "longitude": 9.283447,
    "name": "Sardegna",
    "country": "IT",
    "lastUpdated": "2020-03-30T10:53:02.128Z",
    "dead": 27,
    "id": "kF99avagXvBfZTHv9ETi",
    "infected": 638,
    "recovered": 29,
    "sick": 582
  },
  {
    "infected": 18,
    "recovered": 0,
    "latitude": 11.572076,
    "pop": 956985,
    "longitude": 43.145645,
    "name": "Djibouti",
    "country": "DJ",
    "lastUpdated": "2020-03-30T10:43:03.781Z",
    "dead": 0,
    "id": "l4nYeaqwy2yrEVqnijFj",
    "sick": 18
  },
  {
    "infected": 324,
    "recovered": 0,
    "latitude": 44.0682,
    "pop": 1754000,
    "longitude": -114.742,
    "name": "Idaho",
    "country": "US",
    "lastUpdated": "2020-03-30T10:51:14.957Z",
    "dead": 6,
    "id": "l7fHSKOmcaRX3tq9FCT6",
    "sick": 318
  },
  {
    "infected": 1549,
    "recovered": 31,
    "latitude": 40.816666,
    "pop": 4048000,
    "longitude": 16.549999,
    "name": "Puglia",
    "country": "IT",
    "lastUpdated": "2020-03-30T10:53:02.327Z",
    "dead": 86,
    "id": "lAKH5Wfg4GhaM54VElFN",
    "sick": 1432
  },
  {
    "infected": 78,
    "recovered": 1,
    "latitude": 10.6918,
    "pop": 1369000,
    "longitude": -61.2225,
    "name": "Trinidad and Tobago",
    "country": "TT",
    "lastUpdated": "2020-03-30T10:43:03.860Z",
    "dead": 3,
    "id": "lfLdfRP7hyiA6MVnQqqn",
    "sick": 74
  },
  {
    "pop": 546388,
    "longitude": -23.0418,
    "name": "Cape Verde",
    "country": "CV",
    "lastUpdated": "2020-03-30T10:43:03.756Z",
    "dead": 1,
    "id": "lgqPuia1S3ApA5Lsl2la",
    "infected": 6,
    "recovered": 0,
    "latitude": 16.5388,
    "sick": 5
  },
  {
    "longitude": 87.539589,
    "name": "Xinjiang",
    "country": "CN",
    "lastUpdated": "2020-03-30T10:44:12.537Z",
    "dead": 3,
    "id": "lhPjpn6CzqTRDN0RW8uE",
    "infected": 76,
    "recovered": 73,
    "latitude": 42.524635,
    "pop": 21810000,
    "sick": 0
  },
  {
    "infected": 17,
    "recovered": 13,
    "latitude": 3.2028,
    "pop": 436330,
    "longitude": 73.2207,
    "name": "Maldives",
    "country": "MV",
    "lastUpdated": "2020-03-30T10:43:03.746Z",
    "dead": 0,
    "id": "m45gI2UbWMuTrOnTtp9k",
    "sick": 4
  },
  {
    "recovered": 0,
    "latitude": 41.9029,
    "pop": 1000,
    "longitude": 12.4534,
    "name": "Vatican City",
    "country": "VA",
    "lastUpdated": "2020-03-30T10:43:03.877Z",
    "dead": 0,
    "id": "mF7rVMdVnazAuw8G22xs",
    "infected": 6,
    "sick": 6
  },
  {
    "latitude": 19.7515,
    "pop": 114200000,
    "longitude": 75.7139,
    "name": "Maharashtra",
    "country": "IN",
    "lastUpdated": "2020-03-30T10:41:07.883Z",
    "dead": 8,
    "id": "mJtdLs4ub6CkcAOeMWUm",
    "infected": 193,
    "recovered": 25,
    "sick": 160
  },
  {
    "infected": 2139,
    "recovered": 75,
    "latitude": -33.4489,
    "pop": 18050000,
    "longitude": -70.6693,
    "name": "Chile",
    "country": "CL",
    "lastUpdated": "2020-03-30T10:43:03.205Z",
    "dead": 7,
    "id": "mSACWVbCy5QE7ciLA93J",
    "sick": 2057
  },
  {
    "lastUpdated": "2020-03-30T10:43:03.866Z",
    "dead": 0,
    "id": "mnew3ojzmWV0dWSPfCQ9",
    "infected": 14,
    "recovered": 1,
    "latitude": -6.369,
    "pop": 57310000,
    "longitude": 34.8888,
    "name": "Tanzania",
    "country": "TZ",
    "sick": 13
  },
  {
    "latitude": 15.1794,
    "pop": 4475000,
    "longitude": 39.7823,
    "name": "Eritrea",
    "country": "ER",
    "lastUpdated": "2020-03-30T10:43:03.811Z",
    "dead": 0,
    "id": "n6OSwOVBdUie3xeZJmOf",
    "infected": 12,
    "recovered": 0,
    "sick": 12
  },
  {
    "lastUpdated": "2020-03-30T10:51:14.943Z",
    "dead": 12,
    "id": "nLhJXE2apq8yNNj363ai",
    "infected": 1818,
    "recovered": 0,
    "latitude": 35.693323,
    "pop": 6770000,
    "longitude": -86.605748,
    "name": "Tennessee",
    "country": "US",
    "sick": 1806
  },
  {
    "recovered": 0,
    "latitude": 19.8562698,
    "pop": 7247000,
    "longitude": 102.4954987,
    "name": "Laos",
    "country": "LA",
    "lastUpdated": "2020-03-30T10:43:03.776Z",
    "dead": 0,
    "id": "nZzFt6liil98URpNfQyX",
    "infected": 8,
    "sick": 8
  },
  {
    "pop": 95843,
    "longitude": 55.492,
    "name": "Seychelles",
    "country": "SC",
    "lastUpdated": "2020-03-30T10:43:03.806Z",
    "dead": 0,
    "id": "oB5fSyjWJ0FbNAkssuci",
    "infected": 8,
    "recovered": 0,
    "latitude": -4.6796,
    "sick": 8
  },
  {
    "infected": 516,
    "recovered": 13,
    "latitude": 31.893778,
    "pop": 35740000,
    "longitude": -6.196132,
    "name": "Morocco",
    "country": "MA",
    "lastUpdated": "2020-03-30T10:43:03.063Z",
    "dead": 27,
    "id": "oJ5vSDE9vgXC2PG8LElp",
    "sick": 476
  },
  {
    "latitude": 50.4801,
    "pop": 5978000,
    "longitude": 2.7937,
    "name": "Hauts-de-France",
    "country": "FR",
    "lastUpdated": "2020-03-30T07:55:30.380Z",
    "dead": 211,
    "id": "ofWLu9EuQoK2nHjwU1mA",
    "infected": 1753,
    "recovered": 476,
    "sick": 1066
  },
  {
    "lastUpdated": "2020-03-30T10:41:07.921Z",
    "dead": 1,
    "id": "oqLEd2Z9P3FJeQsfIk8e",
    "infected": 3,
    "recovered": 0,
    "latitude": 31.1048,
    "pop": 6856000,
    "longitude": 77.1734,
    "name": "Himachal Pradesh",
    "country": "IN",
    "sick": 2
  },
  {
    "latitude": -20.917574,
    "pop": 5071000,
    "longitude": 142.702789,
    "name": "Queensland",
    "country": "AU",
    "lastUpdated": "2020-03-30T08:10:03.324Z",
    "dead": 2,
    "id": "oxz2l1rJipCsfMfy8Mmk",
    "infected": 689,
    "recovered": 8,
    "sick": 679
  },
  {
    "longitude": 128.738235,
    "name": "Heilongjiang",
    "country": "CN",
    "lastUpdated": "2020-03-30T10:44:12.385Z",
    "dead": 13,
    "id": "p1aZboN4BtRJe7hPl8cw",
    "infected": 484,
    "recovered": 469,
    "latitude": 47.121647,
    "pop": 38310000,
    "sick": 2
  },
  {
    "lastUpdated": "2020-03-30T10:44:12.534Z",
    "dead": 6,
    "id": "pFhBwPnGGpQ6DLppJ6YS",
    "infected": 990,
    "recovered": 984,
    "latitude": 32.026379,
    "pop": 62000000,
    "longitude": 117.252747,
    "name": "Anhui",
    "country": "CN",
    "sick": 0
  },
  {
    "lastUpdated": "2020-03-30T10:43:03.796Z",
    "dead": 0,
    "id": "pHrUAOBW5WDdMsVWpEEi",
    "infected": 3,
    "recovered": 0,
    "latitude": 2.046934,
    "pop": 14740000,
    "longitude": 45.318161,
    "name": "Somalia",
    "country": "SO",
    "sick": 3
  },
  {
    "recovered": 0,
    "latitude": 21.2787,
    "pop": 25550000,
    "longitude": 81.8661,
    "name": "Chhattisgarh",
    "country": "IN",
    "lastUpdated": "2020-03-30T10:41:07.888Z",
    "dead": 0,
    "id": "pu6AXEsDnpmmqnhajobN",
    "infected": 7,
    "sick": 7
  },
  {
    "pop": 633427,
    "longitude": -77.0369,
    "name": "Washington, D.C.",
    "country": "US",
    "lastUpdated": "2020-03-30T10:51:14.919Z",
    "dead": 9,
    "id": "q5cfvHprVTraL1yXnhDx",
    "infected": 401,
    "recovered": 0,
    "latitude": 38.9072,
    "sick": 392
  },
  {
    "longitude": -106.3468,
    "name": "Unknown Canadian province",
    "country": "CA",
    "dead": 0,
    "lastUpdated": "2020-03-30T10:43:03.078Z",
    "id": "qAbgEfrtA8NbQkzMFkEk",
    "infected": 0,
    "recovered": 573,
    "latitude": 56.1304,
    "sick": 0
  },
  {
    "longitude": 123.325947,
    "name": "Western Australia",
    "country": "AU",
    "lastUpdated": "2020-03-30T08:10:03.223Z",
    "dead": 2,
    "id": "qnQ0dkxAxnDP01YpdZgk",
    "infected": 355,
    "recovered": 1,
    "latitude": -26.190439,
    "pop": 2589000,
    "sick": 352
  },
  {
    "lastUpdated": "2020-03-30T10:43:03.031Z",
    "dead": 513,
    "id": "qpAxVz0garcS0gNZxtOw",
    "infected": 11899,
    "recovered": 1527,
    "latitude": 50.503887,
    "pop": 11400000,
    "longitude": 4.469936,
    "name": "Belgium",
    "country": "BE",
    "sick": 9859
  },
  {
    "id": "qrYN2o4c4gAK3ffF5JIw",
    "infected": 124,
    "recovered": 0,
    "latitude": 39,
    "pop": 1806000,
    "longitude": -80.5,
    "name": "West Virginia",
    "country": "US",
    "lastUpdated": "2020-03-30T10:51:14.883Z",
    "dead": 1,
    "sick": 123
  },
  {
    "id": "qsrWiq0qCmIG66hpWojP",
    "infected": 2826,
    "recovered": 0,
    "latitude": 31,
    "pop": 28700000,
    "longitude": -100,
    "name": "Texas",
    "country": "US",
    "lastUpdated": "2020-03-30T10:51:14.946Z",
    "dead": 37,
    "sick": 2789
  },
  {
    "infected": 1927,
    "recovered": 710,
    "latitude": 43.9352,
    "pop": 5059000,
    "longitude": 6.0679,
    "name": "Provence-Alpes-Côte d’Azur",
    "country": "FR",
    "lastUpdated": "2020-03-30T07:55:48.598Z",
    "dead": 65,
    "id": "qyX9xXEuKg3co8yKe3Fl",
    "sick": 1152
  },
  {
    "id": "qzuktS0qQVU4PEookjss",
    "infected": 3540,
    "recovered": 0,
    "latitude": 30.9843,
    "pop": 4660000,
    "longitude": -91.9623,
    "name": "Louisiana",
    "country": "US",
    "lastUpdated": "2020-03-30T10:51:14.898Z",
    "dead": 151,
    "sick": 3389
  },
  {
    "infected": 1,
    "recovered": 0,
    "latitude": 23.1645,
    "pop": 1116000,
    "longitude": 92.9376,
    "name": "Mizoram",
    "country": "IN",
    "lastUpdated": "2020-03-30T10:41:07.903Z",
    "dead": 0,
    "id": "r54PtV0VHsIOc0YPTyhd",
    "sick": 1
  },
  {
    "infected": 50,
    "recovered": 1,
    "latitude": 12.5211,
    "pop": 105264,
    "longitude": -69.9683,
    "name": "Aruba",
    "country": "AW",
    "lastUpdated": "2020-03-30T10:43:03.709Z",
    "dead": 0,
    "id": "rKbrli0DkAmp1UpbrqHQ",
    "sick": 49
  },
  {
    "longitude": 108.277199,
    "name": "Vietnam",
    "country": "VN",
    "lastUpdated": "2020-03-30T10:43:03.179Z",
    "dead": 0,
    "id": "rKnSEyG03ak4YmGzonlg",
    "infected": 194,
    "recovered": 52,
    "latitude": 14.058324,
    "pop": 95540000,
    "sick": 142
  },
  {
    "id": "rS04qvFoAknfeZsL2w5f",
    "infected": 12,
    "recovered": 0,
    "latitude": 1.6508009,
    "pop": 1268000,
    "longitude": 10.2678947,
    "name": "Equatorial Guinea",
    "country": "GQ",
    "lastUpdated": "2020-03-30T10:43:03.834Z",
    "dead": 0,
    "sick": 12
  },
  {
    "id": "rUQ6Z3pmWTPVlqEUSmN7",
    "infected": 35,
    "recovered": 0,
    "latitude": -12.8275,
    "pop": 270372,
    "longitude": 45.1662,
    "name": "Mayotte",
    "country": "FR",
    "lastUpdated": "2020-03-30T07:56:36.683Z",
    "dead": 0,
    "sick": 35
  },
  {
    "infected": 1255,
    "recovered": 1225,
    "latitude": 29.159849,
    "pop": 57370000,
    "longitude": 120.326447,
    "name": "Zhejiang",
    "country": "CN",
    "lastUpdated": "2020-03-30T10:44:12.373Z",
    "dead": 1,
    "id": "rgBVJ4hPofqjjchnroiY",
    "sick": 29
  },
  {
    "infected": 584,
    "recovered": 2,
    "latitude": 45.734955,
    "pop": 126202,
    "longitude": 7.313076,
    "name": "Valle d'Aosta",
    "country": "IT",
    "lastUpdated": "2020-03-30T10:53:02.046Z",
    "dead": 43,
    "id": "rqbHQdev461heM0vyE9L",
    "sick": 539
  },
  {
    "latitude": 60.472023,
    "pop": 5368000,
    "longitude": 8.468946,
    "name": "Norway",
    "country": "NO",
    "lastUpdated": "2020-03-30T10:43:03.065Z",
    "dead": 29,
    "id": "rxSafpWsyKhfkV0HTtb4",
    "infected": 4313,
    "recovered": 7,
    "sick": 4277
  },
  {
    "recovered": 0,
    "latitude": 53.9333,
    "pop": 4371000,
    "longitude": -116.5765,
    "name": "Alberta",
    "country": "CA",
    "lastUpdated": "2020-03-30T10:45:02.561Z",
    "dead": 3,
    "id": "sBFMOzZJdrdXdyLZpweO",
    "infected": 661,
    "sick": 658
  },
  {
    "longitude": 109.949684,
    "name": "Hainan",
    "country": "CN",
    "lastUpdated": "2020-03-30T10:44:12.539Z",
    "dead": 6,
    "id": "sKNhMvgXeyivpNFg02RA",
    "infected": 168,
    "recovered": 162,
    "latitude": 19.566395,
    "pop": 9258000,
    "sick": 0
  },
  {
    "lastUpdated": "2020-03-30T10:43:03.129Z",
    "dead": 18,
    "id": "sLL1jETcJYjT6g5bfcEG",
    "infected": 852,
    "recovered": 16,
    "latitude": -10.33755,
    "pop": 32170000,
    "longitude": -75.630295,
    "name": "Peru",
    "country": "PE",
    "sick": 818
  },
  {
    "infected": 321,
    "recovered": 310,
    "latitude": 37.89566,
    "pop": 74700000,
    "longitude": 114.904221,
    "name": "Hebei",
    "country": "CN",
    "lastUpdated": "2020-03-30T10:44:12.529Z",
    "dead": 6,
    "id": "sgsBhTwHxF1VVnqXbXXp",
    "sick": 5
  },
  {
    "infected": 98,
    "recovered": 18,
    "latitude": 42.3154,
    "pop": 3717000,
    "longitude": 43.3569,
    "name": "Georgia",
    "country": "GE",
    "lastUpdated": "2020-03-30T10:43:03.742Z",
    "dead": 0,
    "id": "sjW9OwjFqrOvjVHRXWoR",
    "sick": 80
  },
  {
    "lastUpdated": "2020-03-30T10:43:03.836Z",
    "dead": 3,
    "id": "t2fq7L9UcXfhuXfQNVRj",
    "infected": 64,
    "recovered": 1,
    "latitude": -23.4425,
    "pop": 6811000,
    "longitude": -58.4438,
    "name": "Paraguay",
    "country": "PY",
    "sick": 60
  },
  {
    "latitude": 39.147061,
    "pop": 3161000,
    "longitude": -111.596466,
    "name": "Utah",
    "country": "US",
    "lastUpdated": "2020-03-30T10:51:14.961Z",
    "dead": 4,
    "id": "tSmr8vNsiDhhpXMSBsms",
    "infected": 724,
    "recovered": 0,
    "sick": 720
  },
  {
    "latitude": 27.3818,
    "pop": 67370000,
    "longitude": 111.510681,
    "name": "Hunan",
    "country": "CN",
    "lastUpdated": "2020-03-30T10:44:12.541Z",
    "dead": 4,
    "id": "tdNRDDrgvBQqqwzdFGh4",
    "infected": 1018,
    "recovered": 1014,
    "sick": 0
  },
  {
    "lastUpdated": "2020-03-30T10:44:12.365Z",
    "dead": 2,
    "id": "tyY4QSHWG9sXqSO9jm0Y",
    "infected": 147,
    "recovered": 144,
    "latitude": 26.842964,
    "pop": 34750000,
    "longitude": 107.290283,
    "name": "Guizhou",
    "country": "CN",
    "sick": 1
  },
  {
    "latitude": -20.2067,
    "pop": 1265000,
    "longitude": 57.6755,
    "name": "Mauritius",
    "country": "MU",
    "lastUpdated": "2020-03-30T10:43:03.735Z",
    "dead": 3,
    "id": "uZg9Xtu4zR5tp12TMpOQ",
    "infected": 110,
    "recovered": 0,
    "sick": 107
  },
  {
    "lastUpdated": "2020-03-30T10:41:07.925Z",
    "dead": 0,
    "id": "ubUuY89n0cXVgahI4Ytp",
    "infected": 33,
    "recovered": 17,
    "latitude": 29.0588,
    "pop": 25350000,
    "longitude": 76.0856,
    "name": "Haryana",
    "country": "IN",
    "sick": 16
  },
  {
    "latitude": 41.6667,
    "pop": 308493,
    "longitude": 14.5,
    "name": "Molise",
    "country": "IT",
    "lastUpdated": "2020-03-30T10:53:02.136Z",
    "dead": 9,
    "id": "ueDdQxnY3NvbnoCcPaDH",
    "infected": 127,
    "recovered": 18,
    "sick": 100
  },
  {
    "latitude": 32.93708,
    "pop": 80400000,
    "longitude": 119.151932,
    "name": "Jiangsu",
    "country": "CN",
    "lastUpdated": "2020-03-30T10:44:12.382Z",
    "dead": 0,
    "id": "uvxN28EpGmRq3K9REtBP",
    "infected": 645,
    "recovered": 631,
    "sick": 14
  },
  {
    "lastUpdated": "2020-03-30T10:52:02.975Z",
    "dead": 4,
    "id": "uxAceZxiizwmo60pyyGn",
    "infected": 654,
    "recovered": 22,
    "latitude": 51.9503,
    "pop": 2277000,
    "longitude": 11.6923,
    "name": "Sachsen-Anhalt",
    "country": "DE",
    "sick": 628
  },
  {
    "recovered": 1,
    "latitude": 33.7782,
    "pop": 12550000,
    "longitude": 76.5762,
    "name": "Jammu and Kashmir",
    "country": "IN",
    "lastUpdated": "2020-03-30T10:41:07.923Z",
    "dead": 2,
    "id": "v5wfBhxjYTpTMaKko6AW",
    "infected": 31,
    "sick": 28
  },
  {
    "lastUpdated": "2020-03-30T10:43:03.056Z",
    "dead": 40,
    "id": "v8JcH4FHH7BDpJlNNHjv",
    "infected": 609,
    "recovered": 132,
    "latitude": 26.820553,
    "pop": 97550000,
    "longitude": 30.802498,
    "name": "Egypt",
    "country": "EG",
    "sick": 437
  },
  {
    "lastUpdated": "2020-03-30T10:51:14.836Z",
    "dead": 204,
    "id": "vCUVQn7RK8pkw5y2rvYN",
    "infected": 4896,
    "recovered": 0,
    "latitude": 47.288374,
    "pop": 7536000,
    "longitude": -119.928431,
    "name": "Washington",
    "country": "US",
    "sick": 4692
  },
  {
    "lastUpdated": "2020-03-30T10:43:03.826Z",
    "dead": 1,
    "id": "vMGALmMJbagxGIbLyFfS",
    "infected": 32,
    "recovered": 2,
    "latitude": 18.1096,
    "pop": 2890000,
    "longitude": -77.2975,
    "name": "Jamaica",
    "country": "JM",
    "sick": 29
  },
  {
    "infected": 830,
    "recovered": 0,
    "latitude": 32.3182,
    "pop": 4888000,
    "longitude": -86.9023,
    "name": "Alabama",
    "country": "US",
    "lastUpdated": "2020-03-30T10:51:14.849Z",
    "dead": 10,
    "id": "vSMJR4m49MZM15umlC9B",
    "sick": 820
  },
  {
    "infected": 7660,
    "recovered": 2109,
    "latitude": 48.8499,
    "pop": 12210000,
    "longitude": 2.637,
    "name": "Ile-de-France",
    "country": "FR",
    "lastUpdated": "2020-03-30T07:55:26.558Z",
    "dead": 807,
    "id": "vSwFXxTSLgzsG25zOJUy",
    "sick": 4744
  },
  {
    "latitude": 46.5107,
    "pop": 156947,
    "longitude": -63.4168,
    "name": "Prince Edward Island",
    "country": "CA",
    "lastUpdated": "2020-03-30T10:45:02.375Z",
    "dead": 0,
    "id": "vjK6292ALJl5wq8XHw3P",
    "infected": 11,
    "recovered": 0,
    "sick": 11
  },
  {
    "longitude": 53.688046,
    "name": "Iran",
    "country": "IR",
    "lastUpdated": "2020-03-30T10:43:02.911Z",
    "dead": 2757,
    "id": "vkkXVaqUswO5JsMZx0mX",
    "infected": 41495,
    "recovered": 13911,
    "latitude": 32.42791,
    "pop": 81160000,
    "sick": 24827
  },
  {
    "infected": 72,
    "recovered": 0,
    "latitude": 53.7609,
    "pop": 1369000,
    "longitude": -98.8139,
    "name": "Manitoba",
    "country": "CA",
    "lastUpdated": "2020-03-30T10:45:02.579Z",
    "dead": 1,
    "id": "wCnlOr8oX3DlF0otQrFc",
    "sick": 71
  },
  {
    "lastUpdated": "2020-03-30T10:43:03.049Z",
    "dead": 20,
    "id": "wEl0cjiA6OcZiI9kaSsF",
    "infected": 820,
    "recovered": 91,
    "latitude": -34.6037,
    "pop": 44270000,
    "longitude": -58.3816,
    "name": "Argentina",
    "country": "AR",
    "sick": 709
  },