[
  {
    "latitude": 25.315058,
    "longitude": 51.145517,
    "name": "Qatar",
    "country": "QA",
    "dead": 0,
    "lastUpdated": "2020-03-15T21:08:03.143Z",
    "id": "0m4aECS0Z2DGFEr8ldgI",
    "infected": 401,
    "recovered": 4,
    "sick": 397
  },
  {
    "latitude": 35.64249,
    "longitude": 108.472214,
    "name": "Shaanxi",
    "country": "CN",
    "dead": 2,
    "lastUpdated": "2020-03-15T08:05:09.213Z",
    "id": "0x2HLhr5z5xAtEdO4iZm",
    "infected": 245,
    "recovered": 232,
    "sick": 11
  },
  {
    "longitude": 21.668393,
    "name": "North Macedonia",
    "country": "MK",
    "dead": 0,
    "lastUpdated": "2020-03-15T21:08:03.156Z",
    "id": "19MvIhipqTyYv1H37Upw",
    "infected": 19,
    "recovered": 1,
    "latitude": 41.643351,
    "sick": 18
  },
  {
    "latitude": 53.1355,
    "longitude": -57.6604,
    "name": "Newfoundland and Labrador,",
    "country": "CA",
    "dead": 0,
    "lastUpdated": "2020-03-15T12:25:14.161Z",
    "id": "1DOMOmCWDtva46OVSZLv",
    "infected": 1,
    "recovered": 0,
    "sick": 1
  },
  {
    "latitude": 35.801933,
    "longitude": 96.779286,
    "name": "Qinghai",
    "country": "CN",
    "dead": 0,
    "lastUpdated": "2020-03-15T08:04:49.909Z",
    "id": "1Fap7rZu9SIRqf5TG9Dg",
    "infected": 18,
    "recovered": 18,
    "sick": 0
  },
  {
    "latitude": -14.235004,
    "longitude": -51.925282,
    "name": "Brazil",
    "country": "BR",
    "dead": 0,
    "lastUpdated": "2020-03-15T12:23:03.808Z",
    "id": "1f0YoV0vAcexEhpESyZc",
    "infected": 185,
    "recovered": 1,
    "sick": 184
  },
  {
    "latitude": 47.4116,
    "longitude": 28.3699,
    "name": "Moldova",
    "country": "MD",
    "dead": 0,
    "lastUpdated": "2020-03-15T21:08:03.139Z",
    "id": "1qTPB8X3tyLyIdsb5TN3",
    "infected": 23,
    "recovered": 0,
    "sick": 23
  },
  {
    "recovered": 1,
    "latitude": 30.15336,
    "longitude": 88.787865,
    "name": "Tibet",
    "country": "CN",
    "dead": 0,
    "lastUpdated": "2020-03-15T08:06:10.036Z",
    "id": "25qIBtsW2nfQj3pwBKg9",
    "infected": 1,
    "sick": 0
  },
  {
    "longitude": 115.66779,
    "name": "Indonesia",
    "country": "ID",
    "dead": 5,
    "lastUpdated": "2020-03-15T21:08:02.901Z",
    "id": "2KHYUb5t3lwzVVmDjwNX",
    "infected": 117,
    "recovered": 8,
    "latitude": -1.572184,
    "sick": 104
  },
  {
    "infected": 36,
    "recovered": 0,
    "latitude": 43.807191,
    "longitude": -120.585594,
    "name": "Oregon",
    "country": "US",
    "dead": 1,
    "lastUpdated": "2020-03-15T21:13:04.080Z",
    "id": "2OrsssmGUs4XCzaZzvTv",
    "sick": 35
  },
  {
    "id": "2jxHvSsxdnom0nPNvOT8",
    "infected": 93,
    "recovered": 91,
    "latitude": 43.851921,
    "longitude": 126.548103,
    "name": "Jilin",
    "country": "CN",
    "dead": 1,
    "lastUpdated": "2020-03-15T08:04:42.269Z",
    "sick": 1
  },
  {
    "dead": 0,
    "lastUpdated": "2020-03-15T21:08:03.506Z",
    "id": "2p11BjSAs3wVyymgqBOe",
    "infected": 1,
    "recovered": 1,
    "latitude": 36.1408,
    "longitude": -5.3536,
    "name": "Gibraltar",
    "country": "GI",
    "sick": 0
  },
  {
    "id": "2sLNkkHpyaHx7dD3aMDO",
    "infected": 71,
    "recovered": 0,
    "latitude": 47.7516,
    "longitude": 1.6751,
    "name": "Centre-Val de Loire",
    "country": "FR",
    "dead": 0,
    "lastUpdated": "2020-03-15T21:14:02.882Z",
    "sick": 71
  },
  {
    "latitude": -35.4735,
    "longitude": 149.0124,
    "name": "Australian Capital Territory",
    "country": "AU",
    "dead": 0,
    "lastUpdated": "2020-03-15T12:20:46.116Z",
    "id": "3OZoQsKrzxZ18EKyfGE6",
    "infected": 1,
    "recovered": 0,
    "sick": 1
  },
  {
    "infected": 26,
    "recovered": 0,
    "latitude": 40.4173,
    "longitude": -82.9071,
    "name": "Ohio",
    "country": "US",
    "dead": 0,
    "lastUpdated": "2020-03-15T21:13:04.046Z",
    "id": "3fC3bAyIRUquOQOEnQNe",
    "sick": 26
  },
  {
    "dead": 0,
    "lastUpdated": "2020-03-15T21:08:03.512Z",
    "id": "4NnFMekRK2m14IlnZZoj",
    "infected": 1,
    "recovered": 0,
    "latitude": 21.0079,
    "longitude": -10.9408,
    "name": "Mauritania",
    "country": "MR",
    "sick": 1
  },
  {
    "dead": 1,
    "lastUpdated": "2020-03-15T12:22:25.248Z",
    "id": "4hfZRUoUgI4a3vrG0GBk",
    "infected": 73,
    "recovered": 4,
    "latitude": 53.7267,
    "longitude": -127.6476,
    "name": "British Columbia",
    "country": "CA",
    "sick": 68
  },
  {
    "infected": 245,
    "recovered": 2,
    "latitude": 41.065877,
    "longitude": -7.920053,
    "name": "Portugal",
    "country": "PT",
    "dead": 0,
    "lastUpdated": "2020-03-15T21:08:03.088Z",
    "id": "4rQLxUCMmQLpbi6E9tbH",
    "sick": 243
  },
  {
    "recovered": 6,
    "latitude": 40.3426,
    "longitude": 47.93802,
    "name": "Azerbaijan",
    "country": "AZ",
    "dead": 1,
    "lastUpdated": "2020-03-15T21:08:03.166Z",
    "id": "4zqzRm2xHn0CDVOUQJ8p",
    "infected": 23,
    "sick": 16
  },
  {
    "dead": 2,
    "lastUpdated": "2020-03-15T12:17:33.129Z",
    "id": "5N16a2OXXRpsEFanw0TC",
    "infected": 112,
    "recovered": 4,
    "latitude": -31.253218,
    "longitude": 146.921097,
    "name": "New South Wales",
    "country": "AU",
    "sick": 106
  },
  {
    "recovered": 1,
    "latitude": 28.394857,
    "longitude": 84.124008,
    "name": "Nepal",
    "country": "NP",
    "dead": 0,
    "lastUpdated": "2020-03-15T21:08:03.473Z",
    "id": "5gXZIjRgAvd6xWN1LOv8",
    "infected": 1,
    "sick": 0
  },
  {
    "recovered": 2,
    "latitude": 12.879721,
    "longitude": 121.774017,
    "name": "Philippines",
    "country": "PH",
    "dead": 11,
    "lastUpdated": "2020-03-15T21:08:02.988Z",
    "id": "5pwmh7aSdGRKqRbnuyc0",
    "infected": 140,
    "sick": 127
  },
  {
    "longitude": 23.804991,
    "name": "Lithuania",
    "country": "LT",
    "dead": 0,
    "lastUpdated": "2020-03-15T21:08:03.203Z",
    "id": "694ON7d0mRJDeM1gHBTR",
    "infected": 12,
    "recovered": 1,
    "latitude": 55.621011,
    "sick": 11
  },
  {
    "longitude": 114.109497,
    "name": "Hong Kong",
    "country": "HK",
    "dead": 4,
    "lastUpdated": "2020-03-15T21:08:03.150Z",
    "id": "6IcHIIH0zXpY0POmBZTv",
    "infected": 149,
    "recovered": 81,
    "latitude": 22.396427,
    "sick": 64
  },
  {
    "recovered": 0,
    "latitude": 46.0569,
    "longitude": 14.5058,
    "name": "Slovenia",
    "country": "SI",
    "dead": 1,
    "lastUpdated": "2020-03-15T21:08:03.185Z",
    "id": "6ahNiyKDSDAftCctgLH3",
    "infected": 219,
    "sick": 218
  },
  {
    "infected": 1,
    "recovered": 0,
    "latitude": -0.8037,
    "longitude": 11.6094,
    "name": "Gabon",
    "country": "GA",
    "dead": 0,
    "lastUpdated": "2020-03-15T21:08:03.525Z",
    "id": "6pBi38TUgYfFm0bry2uh",
    "sick": 1
  },
  {
    "longitude": -62.818544,
    "name": "Saint-Barthélemy",
    "country": "FR",
    "dead": 0,
    "lastUpdated": "2020-03-15T21:14:02.847Z",
    "id": "78Ox26bNHDA2Pk2b3Uwn",
    "infected": 3,
    "recovered": 0,
    "latitude": 17.901672,
    "sick": 3
  },
  {
    "latitude": 17.0608,
    "longitude": -61.7964,
    "name": "Antigua and Barbuda",
    "country": "AG",
    "dead": 0,
    "lastUpdated": "2020-03-15T21:08:03.543Z",
    "id": "7hVFcEV7nV0MrQr3LHrl",
    "infected": 1,
    "recovered": 0,
    "sick": 1
  },
  {
    "infected": 32,
    "recovered": 1,
    "latitude": 47.4979,
    "longitude": 19.0402,
    "name": "Hungary",
    "country": "HU",
    "dead": 1,
    "lastUpdated": "2020-03-15T21:08:02.937Z",
    "id": "7rYC2iFB50c55Ihgbs4Q",
    "sick": 30
  },
  {
    "latitude": 7.3697,
    "longitude": 12.3547,
    "name": "Cameroon",
    "country": "CM",
    "dead": 0,
    "lastUpdated": "2020-03-15T21:08:03.523Z",
    "id": "8C0d7WVCjyUGtnc2gUAR",
    "infected": 2,
    "recovered": 0,
    "sick": 2
  },
  {
    "longitude": -63.5887,
    "name": "Bolivia",
    "country": "BO",
    "dead": 0,
    "lastUpdated": "2020-03-15T21:08:02.915Z",
    "id": "8RihJrXw4NQXPxaRxr1u",
    "infected": 10,
    "recovered": 0,
    "latitude": -16.2902,
    "sick": 10
  },
  {
    "id": "8ZTySQROQejkDAad0qxQ",
    "infected": 1,
    "recovered": 0,
    "latitude": 12.9843,
    "longitude": -61.2872,
    "name": "St. Vincent Grenadines",
    "country": "VC",
    "dead": 0,
    "lastUpdated": "2020-03-15T21:08:03.517Z",
    "sick": 1
  },
  {
    "infected": 226,
    "recovered": 105,
    "latitude": 1.352083,
    "longitude": 103.819839,
    "name": "Singapore",
    "country": "SG",
    "dead": 0,
    "lastUpdated": "2020-03-15T21:08:03.212Z",
    "id": "8pA3fM4xC2c2wv1b4TnE",
    "sick": 121
  },
  {
    "infected": 99,
    "recovered": 4,
    "latitude": 47.2184,
    "longitude": -1.5536,
    "name": "Pays de la Loire",
    "country": "FR",
    "dead": 0,
    "lastUpdated": "2020-03-15T21:14:02.896Z",
    "id": "98hwAoohgWEOQVa3NlM5",
    "sick": 95
  },
  {
    "recovered": 0,
    "latitude": 12.8628,
    "longitude": 30.2176,
    "name": "Sudan",
    "country": "SD",
    "dead": 1,
    "lastUpdated": "2020-03-15T21:08:03.541Z",
    "id": "9DPOkpIqrFy9mR4e9fuv",
    "infected": 1,
    "sick": 0
  },
  {
    "dead": 0,
    "lastUpdated": "2020-03-15T21:08:03.084Z",
    "id": "9QcETqEcM2fTv9zRvx5T",
    "infected": 139,
    "recovered": 9,
    "latitude": 45.943161,
    "longitude": 24.966761,
    "name": "Romania",
    "country": "RO",
    "sick": 130
  },
  {
    "latitude": 61.92411,
    "longitude": 25.748152,
    "name": "Finland",
    "country": "FI",
    "dead": 0,
    "lastUpdated": "2020-03-15T21:08:03.154Z",
    "id": "9p6OCdZbUUwBLA60Gk3W",
    "infected": 244,
    "recovered": 10,
    "sick": 234
  },
  {
    "infected": 7,
    "recovered": 0,
    "latitude": 43.311643,
    "longitude": -71.590315,
    "name": "New Hampshire",
    "country": "US",
    "dead": 0,
    "lastUpdated": "2020-03-15T21:13:04.058Z",
    "id": "A84CwQ52kA46Hr7pn6Bm",
    "sick": 7
  },
  {
    "dead": 0,
    "lastUpdated": "2020-03-15T21:13:04.036Z",
    "id": "AEUWUHS65qvjEslew11c",
    "infected": 20,
    "recovered": 0,
    "latitude": 41.823261,
    "longitude": -71.412257,
    "name": "Rhode Island",
    "country": "US",
    "sick": 20
  },
  {
    "longitude": -109.128641,
    "name": "Montana",
    "country": "US",
    "dead": 0,
    "lastUpdated": "2020-03-15T21:13:04.087Z",
    "id": "AcULcZBozObOhwuRKMjJ",
    "infected": 4,
    "recovered": 0,
    "latitude": 47.012918,
    "sick": 4
  },
  {
    "latitude": 27.285971,
    "longitude": 116.01609,
    "name": "Jiangxi",
    "country": "CN",
    "dead": 1,
    "lastUpdated": "2020-03-15T08:03:22.963Z",
    "id": "AmBYm5J6E9Cuez1FQjiN",
    "infected": 935,
    "recovered": 934,
    "sick": 0
  },
  {
    "infected": 48,
    "recovered": 10,
    "latitude": 28.033886,
    "longitude": 1.659626,
    "name": "Algeria",
    "country": "DZ",
    "dead": 4,
    "lastUpdated": "2020-03-15T21:08:02.962Z",
    "id": "AwN0CScPDApcLFgz6e3z",
    "sick": 34
  },
  {
    "latitude": 45.099998,
    "longitude": 15.2,
    "name": "Croatia",
    "country": "HR",
    "dead": 0,
    "lastUpdated": "2020-03-15T21:08:02.948Z",
    "id": "B82Ef45M8cDu4q7VsSHF",
    "infected": 49,
    "recovered": 2,
    "sick": 47
  },
  {
    "dead": 0,
    "lastUpdated": "2020-03-15T21:13:04.074Z",
    "id": "BF51mWl51fgEcyBpCSzb",
    "infected": 33,
    "recovered": 3,
    "latitude": 39.509109,
    "longitude": -76.98432,
    "name": "Maryland",
    "country": "US",
    "sick": 30
  },
  {
    "latitude": 53.709808,
    "longitude": 27.953388,
    "name": "Belarus",
    "country": "BY",
    "dead": 0,
    "lastUpdated": "2020-03-15T21:08:03.216Z",
    "id": "BGg6yVU5VP71B8NXU0oh",
    "infected": 27,
    "recovered": 3,
    "sick": 24
  },
  {
    "latitude": 48.8799,
    "longitude": 0.1713,
    "name": "Normandie",
    "country": "FR",
    "dead": 1,
    "lastUpdated": "2020-03-15T21:14:02.905Z",
    "id": "BGtoyzb7y54LVlJ91rbf",
    "infected": 143,
    "recovered": 0,
    "sick": 142
  },
  {
    "recovered": 1,
    "latitude": 34.048927,
    "longitude": -111.093735,
    "name": "Arizona",
    "country": "US",
    "dead": 0,
    "lastUpdated": "2020-03-15T21:13:03.989Z",
    "id": "BTEESCuD2ZbS1afunR2A",
    "infected": 12,
    "sick": 11
  },
  {
    "infected": 729,
    "recovered": 0,
    "latitude": 40.719042,
    "longitude": -73.982597,
    "name": "New York",
    "country": "US",
    "dead": 3,
    "lastUpdated": "2020-03-15T21:13:04.016Z",
    "id": "C3BCUzV80z9GfiuByIcr",
    "sick": 726
  },
  {
    "infected": 253,
    "recovered": 0,
    "latitude": 49.731626,
    "longitude": 15.359413,
    "name": "Czechia",
    "country": "CZ",
    "dead": 0,
    "lastUpdated": "2020-03-15T21:08:03.041Z",
    "id": "C6S76AggdWVU8G22jFHQ",
    "sick": 253
  },
  {
    "longitude": 50.557701,
    "name": "Bahrain",
    "country": "BH",
    "dead": 0,
    "lastUpdated": "2020-03-15T21:08:02.986Z",
    "id": "C7cj4nwRITs13KnaJrQ2",
    "infected": 214,
    "recovered": 60,
    "latitude": 26.0667,
    "sick": 154
  },
  {
    "latitude": 27.0238,
    "longitude": 74.2179,
    "name": "Rajasthan",
    "country": "IN",
    "dead": 0,
    "lastUpdated": "2020-03-15T02:42:02.448Z",
    "id": "CKZCZTPlrcq5fbfUPA9k",
    "infected": 4,
    "recovered": 1,
    "sick": 3
  },
  {
    "infected": 1391,
    "recovered": 20,
    "latitude": 52.355518,
    "longitude": -1.17432,
    "name": "United Kingdom",
    "country": "GB",
    "dead": 35,
    "lastUpdated": "2020-03-15T21:08:02.886Z",
    "id": "CrXu6i5Sqx11iwdfHfBs",
    "sick": 1336
  },
  {
    "infected": 26,
    "recovered": 0,
    "latitude": 40.259003,
    "longitude": 44.818474,
    "name": "Armenia",
    "country": "AM",
    "dead": 0,
    "lastUpdated": "2020-03-15T21:08:03.209Z",
    "id": "DCJCtZoBTWQ4mzdDNljD",
    "sick": 26
  },
  {
    "infected": 11,
    "recovered": 10,
    "latitude": 22.192039,
    "longitude": 113.551262,
    "name": "Macao",
    "country": "MO",
    "dead": 0,
    "lastUpdated": "2020-03-15T21:08:03.137Z",
    "id": "DdBt8qsG6A3g92oOR3ow",
    "sick": 1
  },
  {
    "recovered": 0,
    "latitude": 42.962334,
    "longitude": -107.534868,
    "name": "Wyoming",
    "country": "US",
    "dead": 0,
    "lastUpdated": "2020-03-15T21:13:03.972Z",
    "id": "DrGzziUglmBognCGY7R2",
    "infected": 2,
    "sick": 2
  },
  {
    "infected": 331,
    "recovered": 8,
    "latitude": 40.6401,
    "longitude": 22.9444,
    "name": "Greece",
    "country": "GR",
    "dead": 4,
    "lastUpdated": "2020-03-15T21:08:03.146Z",
    "id": "Dtr1lap1RpJpXJdXGJiW",
    "sick": 319
  },
  {
    "longitude": 121.563698,
    "name": "Taiwan",
    "country": "TW",
    "dead": 1,
    "lastUpdated": "2020-03-15T21:08:02.950Z",
    "id": "EKTfs8e7M6DXzI1HqyyX",
    "infected": 59,
    "recovered": 20,
    "latitude": 25.03841,
    "sick": 38
  },
  {
    "dead": 0,
    "lastUpdated": "2020-03-15T21:08:02.905Z",
    "id": "EQzJvzVHKjs8kLmK7BMu",
    "infected": 35,
    "recovered": 0,
    "latitude": 10.327273,
    "longitude": -84.387618,
    "name": "Costa Rica",
    "country": "CR",
    "sick": 35
  },
  {
    "infected": 4,
    "recovered": 0,
    "latitude": 18.200178,
    "longitude": -66.664513,
    "name": "Puerto Rico",
    "country": "PR",
    "dead": 0,
    "lastUpdated": "2020-03-15T21:08:03.467Z",
    "id": "F4rPrEVGAIMM5rfPEMv4",
    "sick": 4
  },
  {
    "latitude": 33.93911,
    "longitude": 67.709953,
    "name": "Afghanistan",
    "country": "AF",
    "dead": 0,
    "lastUpdated": "2020-03-15T21:08:03.186Z",
    "id": "FCDmlmnIIswd8bQiUjfN",
    "infected": 16,
    "recovered": 1,
    "sick": 15
  },
  {
    "latitude": 29.431585,
    "longitude": 106.912254,
    "name": "Chongqing",
    "country": "CN",
    "dead": 6,
    "lastUpdated": "2020-03-15T08:02:44.688Z",
    "id": "FErOU1m4Tj7jIkRam3vF",
    "infected": 576,
    "recovered": 570,
    "sick": 0
  },
  {
    "infected": 112,
    "recovered": 9,
    "latitude": 29.311661,
    "longitude": 47.481766,
    "name": "Kuwait",
    "country": "KW",
    "dead": 0,
    "lastUpdated": "2020-03-15T21:08:03.148Z",
    "id": "FZsUkhxBEgqsPb4eO0PN",
    "sick": 103
  },
  {
    "latitude": 11.1271,
    "longitude": 78.6569,
    "name": "Tamil Nadu",
    "country": "IN",
    "dead": 0,
    "lastUpdated": "2020-03-15T21:12:02.717Z",
    "id": "FeS45oMNC27pI17F0xEV",
    "infected": 1,
    "recovered": 0,
    "sick": 1
  },
  {
    "infected": 11,
    "recovered": 0,
    "latitude": 18.947829,
    "longitude": -70.430399,
    "name": "Dominican Republic",
    "country": "DO",
    "dead": 0,
    "lastUpdated": "2020-03-15T21:08:02.910Z",
    "id": "FuiVEJvWb0QMCpxJ3563",
    "sick": 11
  },
  {
    "infected": 3,
    "recovered": 1,
    "latitude": 18.1124,
    "longitude": 79.0193,
    "name": "Telangana",
    "country": "IN",
    "dead": 0,
    "lastUpdated": "2020-03-15T08:42:02.902Z",
    "id": "FyC551oNwmENxbr9Yght",
    "sick": 2
  },
  {
    "recovered": 0,
    "latitude": 48.669,
    "longitude": 19.699,
    "name": "Slovakia",
    "country": "SK",
    "dead": 0,
    "lastUpdated": "2020-03-15T21:08:03.107Z",
    "id": "FzIDXoqWnTI3nUfhPyT2",
    "infected": 61,
    "sick": 61
  },
  {
    "latitude": 30.37532,
    "longitude": 69.345116,
    "name": "Pakistan",
    "country": "PK",
    "dead": 0,
    "lastUpdated": "2020-03-15T21:08:03.195Z",
    "id": "GAp7Wb6IMhdgbvEtMza9",
    "infected": 53,
    "recovered": 2,
    "sick": 51
  },
  {
    "infected": 1,
    "recovered": 0,
    "latitude": 31.1471,
    "longitude": 75.3412,
    "name": "Punjab",
    "country": "IN",
    "dead": 0,
    "lastUpdated": "2020-03-15T21:12:02.725Z",
    "id": "GGru8cG08mANO8XDDUtZ",
    "sick": 1
  },
  {
    "infected": 98,
    "recovered": 20,
    "latitude": 23.424076,
    "longitude": 53.847816,
    "name": "United Arab Emirates",
    "country": "AE",
    "dead": 0,
    "lastUpdated": "2020-03-15T21:08:02.980Z",
    "id": "GHzBIsHy2GiBc5JV2HMs",
    "sick": 78
  },
  {
    "dead": 5,
    "lastUpdated": "2020-03-15T02:14:19.305Z",
    "id": "Gh46r6vuaY7fbGt3IboN",
    "infected": 340,
    "recovered": 6,
    "latitude": 36.621981,
    "longitude": -119.339046,
    "name": "California",
    "country": "US",
    "sick": 329
  },
  {
    "latitude": 35.87189,
    "longitude": -97.145514,
    "name": "Oklahoma",
    "country": "US",
    "dead": 0,
    "lastUpdated": "2020-03-15T21:13:03.932Z",
    "id": "GpF8ULuKOQiFDCUHN44h",
    "infected": 4,
    "recovered": 0,
    "sick": 4
  },
  {
    "infected": 75,
    "recovered": 71,
    "latitude": 42.83263,
    "longitude": 113.750972,
    "name": "Inner Mongolia",
    "country": "CN",
    "dead": 1,
    "lastUpdated": "2020-03-15T08:05:36.173Z",
    "id": "H3JeVigVbo5CSYfZG4WI",
    "sick": 3
  },
  {
    "latitude": 39.74536,
    "longitude": -116.724977,
    "name": "Nevada",
    "country": "US",
    "dead": 0,
    "lastUpdated": "2020-03-15T21:13:04.001Z",
    "id": "H3bDg4eV30up4WWrIDAS",
    "infected": 19,
    "recovered": 0,
    "sick": 19
  },
  {
    "latitude": 15.3173,
    "longitude": 75.7139,
    "name": "Karnataka",
    "country": "IN",
    "dead": 1,
    "lastUpdated": "2020-03-15T08:42:02.882Z",
    "id": "HN5mGmxlqlSeFSNeu1K5",
    "infected": 6,
    "recovered": 0,
    "sick": 5
  },
  {
    "latitude": 27.5142,
    "longitude": 90.4336,
    "name": "Bhutan",
    "country": "BT",
    "dead": 0,
    "lastUpdated": "2020-03-15T21:08:03.497Z",
    "id": "HRDpwyxpqW9RN0xLFyNu",
    "infected": 1,
    "recovered": 0,
    "sick": 1
  },
  {
    "latitude": 34.138916,
    "longitude": -105.576255,
    "name": "New Mexico",
    "country": "US",
    "dead": 0,
    "lastUpdated": "2020-03-15T21:13:04.024Z",
    "id": "HSSFomRju0doHhWgW8On",
    "infected": 10,
    "recovered": 0,
    "sick": 10
  },
  {
    "latitude": 23.634501,
    "longitude": -102.552788,
    "name": "Mexico",
    "country": "MX",
    "dead": 0,
    "lastUpdated": "2020-03-15T21:08:03.177Z",
    "id": "I4OJ6z9Vjs1byOcbsJrd",
    "infected": 43,
    "recovered": 4,
    "sick": 39
  },
  {
    "latitude": 23.363855,
    "longitude": 113.373448,
    "name": "Guangdong",
    "country": "CN",
    "dead": 8,
    "lastUpdated": "2020-03-15T08:03:29.357Z",
    "id": "IAX0OQLVnUwU7FX0ENF1",
    "infected": 1357,
    "recovered": 1303,
    "sick": 46
  },
  {
    "longitude": 113.484016,
    "name": "Henan",
    "country": "CN",
    "dead": 22,
    "lastUpdated": "2020-03-15T08:02:52.275Z",
    "id": "IFuMrMvSjoiX5agYvllh",
    "infected": 1273,
    "recovered": 1250,
    "latitude": 33.875408,
    "sick": 1
  },
  {
    "recovered": 0,
    "latitude": 32.528564,
    "longitude": -83.280125,
    "name": "Georgia (US)",
    "country": "US",
    "dead": 1,
    "lastUpdated": "2020-03-15T21:13:03.996Z",
    "id": "IvQkDJkTAsoIqPRAU25n",
    "infected": 99,
    "sick": 98
  },
  {
    "longitude": 172.488081,
    "name": "New Zealand",
    "country": "NZ",
    "dead": 0,
    "lastUpdated": "2020-03-15T21:08:03.129Z",
    "id": "IvVhpOoGpH6JVkGyUhXN",
    "infected": 8,
    "recovered": 0,
    "latitude": -42.8285,
    "sick": 8
  },
  {
    "longitude": -66.5897,
    "name": "Venezuela",
    "country": "VE",
    "dead": 0,
    "lastUpdated": "2020-03-15T21:08:03.119Z",
    "id": "J3mZXlfEnnJx4CDZLvRG",
    "infected": 10,
    "recovered": 0,
    "latitude": 6.4238,
    "sick": 10
  },
  {
    "infected": 39,
    "recovered": 0,
    "latitude": 35.1264,
    "longitude": 33.4299,
    "name": "Cyprus",
    "country": "CY",
    "dead": 0,
    "lastUpdated": "2020-03-15T19:53:02.452Z",
    "id": "JQByE4l2OA6sGOqIcWrM",
    "sick": 39
  },
  {
    "recovered": 0,
    "latitude": 14.628434,
    "longitude": -90.522713,
    "name": "Guatemala",
    "country": "GT",
    "dead": 0,
    "lastUpdated": "2020-03-15T21:08:03.510Z",
    "id": "JUWE6bG3b5oL7fKQMSvv",
    "infected": 1,
    "sick": 1
  },
  {
    "longitude": 6.1296,
    "name": "Luxembourg",
    "country": "LU",
    "dead": 1,
    "lastUpdated": "2020-03-15T21:08:02.941Z",
    "id": "JcFsHSn2WvZ5LJW42ovG",
    "infected": 77,
    "recovered": 0,
    "latitude": 49.8153,
    "sick": 76
  },
  {
    "dead": 0,
    "lastUpdated": "2020-03-15T21:08:03.462Z",
    "id": "JrBbirlBKGdWSdcDt7PF",
    "infected": 1,
    "recovered": 0,
    "latitude": 8.6195,
    "longitude": 0.8248,
    "name": "Togo",
    "country": "TG",
    "sick": 1
  },
  {
    "latitude": 42.7339,
    "longitude": 25.4858,
    "name": "Bulgaria",
    "country": "BG",
    "dead": 2,
    "lastUpdated": "2020-03-15T21:08:03.190Z",
    "id": "JzZ8sbqzjutThVjkPKPL",
    "infected": 51,
    "recovered": 0,
    "sick": 49
  },
  {
    "infected": 18,
    "recovered": 1,
    "latitude": 7.873054,
    "longitude": 80.771797,
    "name": "Sri Lanka",
    "country": "LK",
    "dead": 0,
    "lastUpdated": "2020-03-15T21:08:03.098Z",
    "id": "KsWzJO06cf0d6LJ4ZNh9",
    "sick": 17
  },
  {
    "dead": 0,
    "lastUpdated": "2020-03-15T21:12:02.719Z",
    "id": "KtQIo2DoqjELtPAlyDVO",
    "infected": 1,
    "recovered": 0,
    "latitude": 15.9129,
    "longitude": 79.74,
    "name": "Andhra Pradesh",
    "country": "IN",
    "sick": 1
  },
  {
    "infected": 63,
    "recovered": 8,
    "latitude": 61.52401,
    "longitude": 105.318756,
    "name": "Russia",
    "country": "RU",
    "dead": 0,
    "lastUpdated": "2020-03-15T21:08:03.201Z",
    "id": "KwOuGBKSMRlmwftxAvLX",
    "sick": 55
  },
  {
    "id": "LBUtrLDKJiupXjlUNTUe",
    "infected": 2,
    "recovered": 0,
    "latitude": 18.0708,
    "longitude": -63.0501,
    "name": "Saint-Martin",
    "country": "FR",
    "dead": 0,
    "lastUpdated": "2020-03-15T21:14:02.833Z",
    "sick": 2
  },
  {
    "dead": 0,
    "lastUpdated": "2020-03-15T21:08:03.469Z",
    "id": "LTGEU2E9MFkrCcFhZYVk",
    "infected": 7,
    "recovered": 0,
    "latitude": 47.166,
    "longitude": 9.5554,
    "name": "Liechtenstein",
    "country": "LI",
    "sick": 7
  },
  {
    "latitude": 9.9456,
    "longitude": -9.6966,
    "name": "Guinea",
    "country": "GN",
    "dead": 0,
    "lastUpdated": "2020-03-15T21:08:03.529Z",
    "id": "LU2QWt5ao8IJa8evNYVV",
    "infected": 1,
    "recovered": 0,
    "sick": 1
  },
  {
    "longitude": -56.0277824,
    "name": "Suriname",
    "country": "SR",
    "dead": 0,
    "lastUpdated": "2020-03-15T21:08:03.519Z",
    "id": "LglKINHyQpYpFxjckbQ6",
    "infected": 1,
    "recovered": 0,
    "latitude": 3.9193051,
    "sick": 1
  },
  {
    "dead": 0,
    "lastUpdated": "2020-03-15T12:22:54.879Z",
    "id": "LkIDKY0CMAqzbwBHyYCP",
    "infected": 2,
    "recovered": 0,
    "latitude": 52.9399,
    "longitude": -106.4509,
    "name": "Saskatchewan",
    "country": "CA",
    "sick": 2
  },
  {
    "latitude": 37.8393,
    "longitude": -84.27,
    "name": "Kentucky",
    "country": "US",
    "dead": 0,
    "lastUpdated": "2020-03-15T21:13:03.955Z",
    "id": "MC8MXFw9iXYybnF8v7e6",
    "infected": 14,
    "recovered": 1,
    "sick": 13
  },
  {
    "longitude": -86.1349,
    "name": "Indiana",
    "country": "US",
    "dead": 0,
    "lastUpdated": "2020-03-15T21:13:03.925Z",
    "id": "MOxDkmQ4wBi1CuAdVxDE",
    "infected": 15,
    "recovered": 0,
    "latitude": 40.2672,
    "sick": 15
  },
  {
    "latitude": 7.54,
    "longitude": -5.5471,
    "name": "Ivory Coast",
    "country": "CI",
    "dead": 0,
    "lastUpdated": "2020-03-15T21:08:03.504Z",
    "id": "MdQOfc1gNh2DOqwSP6UV",
    "infected": 4,
    "recovered": 0,
    "sick": 4
  },
  {
    "latitude": 37.330509,
    "longitude": 105.977203,
    "name": "Ningxia",
    "country": "CN",
    "dead": 0,
    "lastUpdated": "2020-03-15T08:05:59.645Z",
    "id": "MntmjjuHljarCdt6aIeE",
    "infected": 75,
    "recovered": 73,
    "sick": 2
  },
  {
    "latitude": 44.696652,
    "longitude": 17.824332,
    "name": "Bosnia and Herzegovina",
    "country": "BA",
    "dead": 0,
    "lastUpdated": "2020-03-15T21:08:03.223Z",
    "id": "N7c13sCQF0G789XAVazJ",
    "infected": 24,
    "recovered": 0,
    "sick": 24
  },
  {
    "infected": 133,
    "recovered": 133,
    "latitude": 37.242565,
    "longitude": 111.856857,
    "name": "Shanxi",
    "country": "CN",
    "dead": 0,
    "lastUpdated": "2020-03-15T08:05:15.431Z",
    "id": "NBRIGIRrJB1Ry8prDNAC",
    "sick": 0
  },
  {
    "latitude": 35.7596,
    "longitude": -79.0193,
    "name": "North Carolina",
    "country": "US",
    "dead": 0,
    "lastUpdated": "2020-03-15T21:13:04.032Z",
    "id": "NC64Qp5kTqAfiTuR27k8",
    "infected": 23,
    "recovered": 0,
    "sick": 23
  },
  {
    "infected": 30,
    "recovered": 1,
    "latitude": 56.96776,
    "longitude": 25.837107,
    "name": "Latvia",
    "country": "LV",
    "dead": 0,
    "lastUpdated": "2020-03-15T21:08:02.945Z",
    "id": "NmmMKy0YqA8StHdGzB5N",
    "sick": 29
  },
  {
    "latitude": 34.003307,
    "longitude": -80.525613,
    "name": "South Carolina",
    "country": "US",
    "dead": 0,
    "lastUpdated": "2020-03-15T21:13:04.035Z",
    "id": "ONU4CK8QjViFHKg2w5if",
    "infected": 13,
    "recovered": 0,
    "sick": 13
  },
  {
    "longitude": -89.582775,
    "name": "Mississippi",
    "country": "US",
    "dead": 0,
    "lastUpdated": "2020-03-15T21:13:03.917Z",
    "id": "OYa0jFzdbAgo8zUsRv6q",
    "infected": 6,
    "recovered": 0,
    "latitude": 33.51822,
    "sick": 6
  },
  {
    "id": "OcXNp9kNVSwrRlG3bNVN",
    "infected": 3,
    "recovered": 0,
    "latitude": 45.2538,
    "longitude": -69.4455,
    "name": "Maine",
    "country": "US",
    "dead": 0,
    "lastUpdated": "2020-03-15T21:13:03.964Z",
    "sick": 3
  },
  {
    "latitude": -41.915264,
    "longitude": 146.725256,
    "name": "Tasmania",
    "country": "AU",
    "dead": 0,
    "lastUpdated": "2020-03-15T12:17:59.175Z",
    "id": "OnOseaqWdnuP18oruABW",
    "infected": 5,
    "recovered": 0,
    "sick": 5
  },
  {
    "id": "P4mwRFLbrvT0t75uD8Wo",
    "infected": 1,
    "recovered": 0,
    "latitude": 19.3133,
    "longitude": -81.2546,
    "name": "Cayman Islands",
    "country": "KY",
    "dead": 0,
    "lastUpdated": "2020-03-15T21:08:03.527Z",
    "sick": 1
  },
  {
    "infected": 5,
    "recovered": 0,
    "latitude": -1.9403,
    "longitude": 29.8739,
    "name": "Rwanda",
    "country": "RW",
    "dead": 0,
    "lastUpdated": "2020-03-15T21:08:03.454Z",
    "id": "PEcgZGEkyhABztt1Ufgc",
    "sick": 5
  },
  {
    "dead": 0,
    "lastUpdated": "2020-03-15T21:13:04.077Z",
    "id": "PJvVYosLIhbcRZYnKX1R",
    "infected": 35,
    "recovered": 0,
    "latitude": 46.7296,
    "longitude": -94.6859,
    "name": "Minnesota",
    "country": "US",
    "sick": 35
  },
  {
    "id": "PTwQr9ijo0TBBsPH2sdJ",
    "infected": 93,
    "recovered": 2,
    "latitude": 40.6331,
    "longitude": -89.3985,
    "name": "Illinois",
    "country": "US",
    "dead": 0,
    "lastUpdated": "2020-03-15T21:13:03.948Z",
    "sick": 91
  },
  {
    "latitude": 13.909444,
    "longitude": -60.978893,
    "name": "Saint Lucia",
    "country": "LC",
    "dead": 0,
    "lastUpdated": "2020-03-15T21:08:03.464Z",
    "id": "PjLqCeFdyzdZNcZxMkK1",
    "infected": 2,
    "recovered": 0,
    "sick": 2
  },
  {
    "latitude": 34.201507,
    "longitude": 9.460554,
    "name": "Tunisia",
    "country": "TN",
    "dead": 0,
    "lastUpdated": "2020-03-15T21:08:02.934Z",
    "id": "Pr76V4raf108uSRoEXac",
    "infected": 20,
    "recovered": 0,
    "sick": 20
  },
  {
    "latitude": -19.810776,
    "longitude": 133.639248,
    "name": "Northern Australia",
    "country": "AU",
    "dead": 0,
    "lastUpdated": "2020-03-15T12:19:42.607Z",
    "id": "PxDu1tj8voGfRMpDyOWK",
    "infected": 1,
    "recovered": 0,
    "sick": 1
  },
  {
    "latitude": -37.009609,
    "longitude": 143.94853,
    "name": "Victoria",
    "country": "AU",
    "dead": 0,
    "lastUpdated": "2020-03-15T12:18:25.607Z",
    "id": "Q18mrGvFWTLX2BU9SqhQ",
    "infected": 49,
    "recovered": 8,
    "sick": 41
  },
  {
    "longitude": 25.013607,
    "name": "Estonia",
    "country": "EE",
    "dead": 0,
    "lastUpdated": "2020-03-15T21:08:03.121Z",
    "id": "QR9go2hQKXjty7JHUYe4",
    "infected": 171,
    "recovered": 1,
    "latitude": 58.595272,
    "sick": 170
  },
  {
    "infected": 1,
    "recovered": 0,
    "latitude": 18.3358,
    "longitude": -64.8963,
    "name": "U.S. Virgin Islands",
    "country": "VI",
    "dead": 0,
    "lastUpdated": "2020-03-15T21:13:04.009Z",
    "id": "QqhD3YDMKXojvQY3Yu41",
    "sick": 1
  },
  {
    "infected": 43,
    "recovered": 0,
    "latitude": 8.538,
    "longitude": -80.7821,
    "name": "Panama",
    "country": "PA",
    "dead": 1,
    "lastUpdated": "2020-03-15T21:08:03.033Z",
    "id": "R8YCgephnxTufvcPWMgx",
    "sick": 42
  },
  {
    "infected": 3,
    "recovered": 0,
    "latitude": 15.2,
    "longitude": -86.2419,
    "name": "Honduras",
    "country": "HN",
    "dead": 0,
    "lastUpdated": "2020-03-15T21:08:03.489Z",
    "id": "RA2SE0p2bVhqo0P2hzGY",
    "sick": 3
  },
  {
    "longitude": -93.0977,
    "name": "Iowa",
    "country": "US",
    "dead": 0,
    "lastUpdated": "2020-03-15T21:13:04.037Z",
    "id": "RX0KDu1AFrlCsrRso0nb",
    "infected": 17,
    "recovered": 0,
    "latitude": 41.878,
    "sick": 17
  },
  {
    "infected": 6,
    "recovered": 0,
    "latitude": 39.0119,
    "longitude": -98.4842,
    "name": "Kansas",
    "country": "US",
    "dead": 1,
    "lastUpdated": "2020-03-15T21:13:03.978Z",
    "id": "Rf4uvBfP3GRDSHdZElRd",
    "sick": 5
  },
  {
    "dead": 9,
    "lastUpdated": "2020-03-15T21:14:02.806Z",
    "id": "RmEgf1xeclWt7XCF9oiR",
    "infected": 1378,
    "recovered": 0,
    "latitude": 48.6998,
    "longitude": 6.1878,
    "name": "Grand Est",
    "country": "FR",
    "sick": 1369
  },
  {
    "longitude": -85.3232,
    "name": "Ontario",
    "country": "CA",
    "dead": 0,
    "lastUpdated": "2020-03-15T12:24:02.693Z",
    "id": "Rx4TuyMpfGb3S8wYJX0x",
    "infected": 104,
    "recovered": 4,
    "latitude": 51.2538,
    "sick": 100
  },
  {
    "infected": 15,
    "recovered": 0,
    "latitude": 14.652027,
    "longitude": -61.011715,
    "name": "Martinique",
    "country": "FR",
    "dead": 0,
    "lastUpdated": "2020-03-15T21:14:02.873Z",
    "id": "SDdefnq1bc3ZNr7SpEsW",
    "sick": 15
  },
  {
    "longitude": -1.0232,
    "name": "Ghana",
    "country": "GH",
    "dead": 0,
    "lastUpdated": "2020-03-15T21:08:03.493Z",
    "id": "SG9VWLOV3x2JsTkXmVSz",
    "infected": 6,
    "recovered": 0,
    "latitude": 7.9465,
    "sick": 6
  },
  {
    "dead": 14,
    "lastUpdated": "2020-03-15T21:08:02.882Z",
    "id": "SGe9sCPayMqh6RsGFaBA",
    "infected": 2217,
    "recovered": 4,
    "latitude": 46.818188,
    "longitude": 8.227512,
    "name": "Switzerland",
    "country": "CH",
    "sick": 2199
  },
  {
    "id": "SHoOE3NiJgWAlDVBzwYH",
    "infected": 24,
    "recovered": 0,
    "latitude": 46.8139,
    "longitude": -71.208,
    "name": "Quebec",
    "country": "CA",
    "dead": 0,
    "lastUpdated": "2020-03-15T12:24:18.093Z",
    "sick": 24
  },
  {
    "recovered": 0,
    "latitude": 42.6026,
    "longitude": 20.903,
    "name": "Kosovo",
    "country": "XK",
    "dead": 0,
    "lastUpdated": "2020-03-15T12:57:10.657Z",
    "id": "SMWvuMMuKp2QK7O2tNia",
    "infected": 2,
    "sick": 2
  },
  {
    "longitude": -99.9018,
    "name": "Nebraska",
    "country": "US",
    "dead": 0,
    "lastUpdated": "2020-03-15T21:13:03.956Z",
    "id": "SakhKQzKu1LRI8laqdQq",
    "infected": 14,
    "recovered": 0,
    "latitude": 41.4925,
    "sick": 14
  },
  {
    "latitude": -21.1151,
    "longitude": 55.5364,
    "name": "La Réunion",
    "country": "FR",
    "dead": 0,
    "lastUpdated": "2020-03-15T21:14:02.892Z",
    "id": "SgHzWAAYK1j2sipovxM6",
    "infected": 9,
    "recovered": 0,
    "sick": 9
  },
  {
    "infected": 12,
    "recovered": 1,
    "latitude": 12.565679,
    "longitude": 104.990967,
    "name": "Cambodia",
    "country": "KH",
    "dead": 0,
    "lastUpdated": "2020-03-15T21:08:02.954Z",
    "id": "SioMALgUbo7peXmbco2f",
    "sick": 11
  },
  {
    "latitude": -4.0383,
    "longitude": 21.7587,
    "name": "DR Congo",
    "country": "CD",
    "dead": 0,
    "lastUpdated": "2020-03-15T21:08:03.471Z",
    "id": "T3iRf8mTUTAzbKrORTap",
    "infected": 2,
    "recovered": 0,
    "sick": 2
  },
  {
    "latitude": 23.635796,
    "longitude": 44.344334,
    "name": "Saudi Arabia",
    "country": "SA",
    "dead": 0,
    "lastUpdated": "2020-03-15T21:08:03.081Z",
    "id": "T7NffoeCgTUpAbOHvYwP",
    "infected": 118,
    "recovered": 2,
    "sick": 116
  },
  {
    "longitude": 114.650692,
    "name": "Brunei",
    "country": "BN",
    "dead": 0,
    "lastUpdated": "2020-03-15T21:08:02.947Z",
    "id": "TQZmzsLhJqjtCSExAkCP",
    "infected": 50,
    "recovered": 0,
    "latitude": 4.506106,
    "sick": 50
  },
  {
    "infected": 523,
    "recovered": 8,
    "latitude": 45.4471,
    "longitude": 4.3853,
    "name": "Auvergne-Rhône-Alpes",
    "country": "FR",
    "dead": 7,
    "lastUpdated": "2020-03-15T21:14:02.888Z",
    "id": "TT0MKODSjrxHvG19xZCa",
    "sick": 508
  },
  {
    "recovered": 0,
    "latitude": 39.318928,
    "longitude": -105.461392,
    "name": "Colorado",
    "country": "US",
    "dead": 1,
    "lastUpdated": "2020-03-15T21:13:03.911Z",
    "id": "Th4dlpXXmSDgi1OHs36P",
    "infected": 101,
    "sick": 100
  },
  {
    "infected": 3,
    "recovered": 0,
    "latitude": 12.2383,
    "longitude": -1.5616,
    "name": "Burkina Faso",
    "country": "BF",
    "dead": 0,
    "lastUpdated": "2020-03-15T21:08:03.522Z",
    "id": "Tup6oDCHj6DgqZR3nQ3x",
    "sick": 3
  },
  {
    "id": "Ty1AY3VLPJcRZgdBIERx",
    "infected": 864,
    "recovered": 1,
    "latitude": 55.675758,
    "longitude": 12.56902,
    "name": "Denmark",
    "country": "DK",
    "dead": 2,
    "lastUpdated": "2020-03-15T21:08:02.921Z",
    "sick": 861
  },
  {
    "infected": 760,
    "recovered": 741,
    "latitude": 36.395859,
    "longitude": 118.769882,
    "name": "Shandong",
    "country": "CN",
    "dead": 7,
    "lastUpdated": "2020-03-15T08:04:56.639Z",
    "id": "U0tkTJ9CGsBuFJ2Gdoum",
    "sick": 12
  },
  {
    "latitude": 43.94236,
    "longitude": 12.457777,
    "name": "San Marino",
    "country": "SM",
    "dead": 5,
    "lastUpdated": "2020-03-15T21:08:03.124Z",
    "id": "U12rMD5GDW58Q0lIwrB1",
    "infected": 101,
    "recovered": 4,
    "sick": 92
  },
  {
    "id": "U13Gy4BpRLAZ95bPmBXd",
    "infected": 839,
    "recovered": 144,
    "latitude": 36.204823,
    "longitude": 138.25293,
    "name": "Japan",
    "country": "JP",
    "dead": 24,
    "lastUpdated": "2020-03-15T21:08:03.217Z",
    "sick": 671
  },
  {
    "longitude": -2.9326,
    "name": "Bretagne",
    "country": "FR",
    "dead": 3,
    "lastUpdated": "2020-03-15T21:14:02.898Z",
    "id": "URKMlJ7OTNldjpaxFbjE",
    "infected": 207,
    "recovered": 0,
    "latitude": 48.202,
    "sick": 204
  },
  {
    "dead": 0,
    "lastUpdated": "2020-03-15T21:08:03.094Z",
    "id": "VAAmtxtDuCY0o55zRsOh",
    "infected": 34,
    "recovered": 0,
    "latitude": 3.527606,
    "longitude": -72.998674,
    "name": "Colombia",
    "country": "CO",
    "sick": 34
  },
  {
    "latitude": 21.5218,
    "longitude": -77.7812,
    "name": "Cuba",
    "country": "CU",
    "dead": 0,
    "lastUpdated": "2020-03-15T21:08:03.492Z",
    "id": "VAG9AcMABTf8oIAfELPh",
    "infected": 4,
    "recovered": 0,
    "sick": 4
  },
  {
    "longitude": 101.864143,
    "name": "Yunnan",
    "country": "CN",
    "dead": 2,
    "lastUpdated": "2020-03-15T08:03:57.753Z",
    "id": "VIf8T8PD3ZzlzAm5eBCX",
    "infected": 174,
    "recovered": 172,
    "latitude": 25.181129,
    "sick": 0
  },
  {
    "recovered": 5,
    "latitude": 26.8467,
    "longitude": 80.9462,
    "name": "Uttar Pradesh",
    "country": "IN",
    "dead": 0,
    "lastUpdated": "2020-03-15T04:27:02.221Z",
    "id": "VcKcLdCkC6YpPfIDnRVD",
    "infected": 12,
    "sick": 7
  },
  {
    "longitude": 3.2828,
    "name": "Occitanie",
    "country": "FR",
    "dead": 0,
    "lastUpdated": "2020-03-15T21:14:02.889Z",
    "id": "WAnbFrEjtZDTCIYBt8rz",
    "infected": 243,
    "recovered": 0,
    "latitude": 43.8927,
    "sick": 243
  },
  {
    "latitude": -30.5595,
    "longitude": 22.9375,
    "name": "South Africa",
    "country": "ZA",
    "dead": 0,
    "lastUpdated": "2020-03-15T21:08:02.931Z",
    "id": "Whrue10NtwIObLvFFyBr",
    "infected": 61,
    "recovered": 0,
    "sick": 61
  },
  {
    "dead": 0,
    "lastUpdated": "2020-03-15T21:08:03.485Z",
    "id": "WpLayPPLIJ7VcHZdQaoM",
    "infected": 5,
    "recovered": 2,
    "latitude": 23.685,
    "longitude": 90.3563,
    "name": "Bangladesh",
    "country": "BD",
    "sick": 3
  },
  {
    "longitude": 78.2932,
    "name": "Ladakh",
    "country": "IN",
    "dead": 0,
    "lastUpdated": "2020-03-15T21:12:02.711Z",
    "id": "X3PZqaJxtnlxcgP4tzya",
    "infected": 3,
    "recovered": 0,
    "latitude": 34.2996,
    "sick": 3
  },
  {
    "dead": 1,
    "lastUpdated": "2020-03-15T08:03:36.959Z",
    "id": "XBBw0iMPrmiEu3qogkbi",
    "infected": 296,
    "recovered": 295,
    "latitude": 25.92448,
    "longitude": 118.278992,
    "name": "Fujian",
    "country": "CN",
    "sick": 0
  },
  {
    "infected": 5813,
    "recovered": 46,
    "latitude": 51.165691,
    "longitude": 10.451526,
    "name": "Germany",
    "country": "DE",
    "dead": 11,
    "lastUpdated": "2020-03-15T21:08:03.099Z",
    "id": "XWtMdKtp2HAFy68kPZLa",
    "sick": 5756
  },
  {
    "infected": 24747,
    "recovered": 2335,
    "latitude": 41.871941,
    "longitude": 12.56738,
    "name": "Italy",
    "country": "IT",
    "dead": 1809,
    "lastUpdated": "2020-03-15T21:08:03.128Z",
    "id": "XdekMZcw1lJK2MWpBlNK",
    "sick": 20603
  },
  {
    "dead": 0,
    "lastUpdated": "2020-03-15T21:08:03.503Z",
    "id": "XrsuLstdybIqIvv0E0aJ",
    "infected": 6,
    "recovered": 0,
    "latitude": -32.5228,
    "longitude": -55.7658,
    "name": "Uruguay",
    "country": "UY",
    "sick": 6
  },
  {
    "infected": 115,
    "recovered": 0,
    "latitude": 42.0396,
    "longitude": 9.0129,
    "name": "Corse",
    "country": "FR",
    "dead": 5,
    "lastUpdated": "2020-03-15T21:14:02.900Z",
    "id": "YGXgIObKVabP2CYEdcb9",
    "sick": 110
  },
  {
    "dead": 0,
    "lastUpdated": "2020-03-15T21:08:02.907Z",
    "id": "YMzKw0SnXG71VT7H1jff",
    "infected": 38,
    "recovered": 0,
    "latitude": 31.9522,
    "longitude": 35.2332,
    "name": "Palestine",
    "country": "PS",
    "sick": 38
  },
  {
    "dead": 0,
    "lastUpdated": "2020-03-15T21:13:03.834Z",
    "id": "YaCODTMD1KKRnrAlkg2u",
    "infected": 1,
    "recovered": 0,
    "latitude": 64.2008,
    "longitude": -149.4937,
    "name": "Alaska",
    "country": "US",
    "sick": 1
  },
  {
    "latitude": 37.568291,
    "longitude": 126.99778,
    "name": "South Korea",
    "country": "KR",
    "dead": 75,
    "lastUpdated": "2020-03-15T21:08:02.884Z",
    "id": "Yw9uBekNlefXBcOCNMfP",
    "infected": 8162,
    "recovered": 834,
    "sick": 7253
  },
  {
    "infected": 125,
    "recovered": 13,
    "latitude": 52.2297,
    "longitude": 21.0122,
    "name": "Poland",
    "country": "PL",
    "dead": 3,
    "lastUpdated": "2020-03-15T21:08:03.152Z",
    "id": "ZAZNuCK1VweBaTLCFzCk",
    "sick": 109
  },
  {
    "latitude": 41.6032,
    "longitude": -73.0877,
    "name": "Connecticut",
    "country": "US",
    "dead": 0,
    "lastUpdated": "2020-03-15T21:13:03.962Z",
    "id": "Zqy0gftQzocR49jEJNMl",
    "infected": 20,
    "recovered": 0,
    "sick": 20
  },
  {
    "latitude": -30.000233,
    "longitude": 136.209152,
    "name": "South Australia",
    "country": "AU",
    "dead": 0,
    "lastUpdated": "2020-03-15T12:17:17.247Z",
    "id": "a9p9pAOsjg1WAjPGc2a6",
    "infected": 19,
    "recovered": 3,
    "sick": 16
  },
  {
    "recovered": 0,
    "latitude": 37.9643,
    "longitude": -91.8318,
    "name": "Missouri",
    "country": "US",
    "dead": 0,
    "lastUpdated": "2020-03-15T21:13:04.005Z",
    "id": "aPubGfQ8ToSEuKJldKRT",
    "infected": 4,
    "sick": 4
  },
  {
    "dead": 2,
    "lastUpdated": "2020-03-14T14:11:20.954Z",
    "id": "aTa8MiBjtH3iY0SRs2HQ",
    "infected": 252,
    "recovered": 243,
    "latitude": 23.64407,
    "longitude": 108.26651,
    "name": "Guangxi",
    "country": "CN",
    "sick": 7
  },
  {
    "id": "afeZTVC1J1SMMNFxkrcc",
    "infected": 45,
    "recovered": 0,
    "latitude": 37.4316,
    "longitude": -78.6569,
    "name": "Virginia",
    "country": "US",
    "dead": 1,
    "lastUpdated": "2020-03-15T21:13:04.026Z",
    "sick": 44
  },
  {
    "latitude": 39.904202,
    "longitude": 116.407394,
    "name": "Beijing",
    "country": "CN",
    "dead": 8,
    "lastUpdated": "2020-03-15T08:04:10.437Z",
    "id": "alj4hkxg9cjrTxOzwFKt",
    "infected": 442,
    "recovered": 353,
    "sick": 81
  },
  {
    "dead": 10,
    "lastUpdated": "2020-03-15T21:08:03.097Z",
    "id": "b7TwXX46FA0EmH1CjHET",
    "infected": 124,
    "recovered": 26,
    "latitude": 33.22319,
    "longitude": 43.679291,
    "name": "Iraq",
    "country": "IQ",
    "sick": 88
  },
  {
    "longitude": -14.358636,
    "name": "Senegal",
    "country": "SN",
    "dead": 0,
    "lastUpdated": "2020-03-15T21:08:03.134Z",
    "id": "b9p1JhVml3GGC7iiPmKv",
    "infected": 24,
    "recovered": 2,
    "latitude": 14.457474,
    "sick": 22
  },
  {
    "latitude": -0.0236,
    "longitude": 37.9062,
    "name": "Kenya",
    "country": "KE",
    "dead": 0,
    "lastUpdated": "2020-03-15T21:08:03.514Z",
    "id": "bVHiTolbUJGHIeVht3eG",
    "infected": 3,
    "recovered": 0,
    "sick": 3
  },
  {
    "latitude": 39.561889,
    "longitude": -74.672169,
    "name": "New Jersey",
    "country": "US",
    "dead": 2,
    "lastUpdated": "2020-03-15T21:13:04.049Z",
    "id": "bYp4RRHv19M7lYtSzQeV",
    "infected": 69,
    "recovered": 1,
    "sick": 66
  },
  {
    "latitude": 3.139,
    "longitude": 101.6869,
    "name": "Malaysia",
    "country": "MY",
    "dead": 0,
    "lastUpdated": "2020-03-15T21:08:03.198Z",
    "id": "bdqD4kpdqGgUaX70Tm2Q",
    "infected": 428,
    "recovered": 42,
    "sick": 386
  },
  {
    "longitude": 18.643501,
    "name": "Sweden",
    "country": "SE",
    "dead": 3,
    "lastUpdated": "2020-03-15T21:08:03.096Z",
    "id": "bignnyt2A8BBx8VNo32p",
    "infected": 1040,
    "recovered": 1,
    "latitude": 60.128162,
    "sick": 1036
  },
  {
    "infected": 42,
    "recovered": 0,
    "latitude": 40.973765,
    "longitude": 20.010162,
    "name": "Albania",
    "country": "AL",
    "dead": 1,
    "lastUpdated": "2020-03-15T21:08:03.220Z",
    "id": "cCGmFmwHOoBrEpvG3qBP",
    "sick": 41
  },
  {
    "longitude": 103.8467,
    "name": "Mongolia",
    "country": "MN",
    "dead": 0,
    "lastUpdated": "2020-03-15T21:08:03.530Z",
    "id": "cPxONYsVo6BgvCW9HUeQ",
    "infected": 1,
    "recovered": 0,
    "latitude": 46.8625,
    "sick": 1
  },
  {
    "infected": 175,
    "recovered": 0,
    "latitude": 64.963051,
    "longitude": -19.020836,
    "name": "Iceland",
    "country": "IS",
    "dead": 0,
    "lastUpdated": "2020-03-15T21:08:03.179Z",
    "id": "cPxe7nsRnOf6aOPqHElJ",
    "sick": 175
  },
  {
    "latitude": 31.046051,
    "longitude": 34.851612,
    "name": "Israel",
    "country": "IL",
    "dead": 0,
    "lastUpdated": "2020-03-15T21:08:02.925Z",
    "id": "cX891t0ONLNFj0MYq6La",
    "infected": 213,
    "recovered": 4,
    "sick": 209
  },
  {
    "id": "cc7s6hYGQ2MovBBBgkKb",
    "infected": 7,
    "recovered": 0,
    "latitude": 4.749531,
    "longitude": -53.112909,
    "name": "Guyane",
    "country": "FR",
    "dead": 0,
    "lastUpdated": "2020-03-15T21:14:02.834Z",
    "sick": 7
  },
  {
    "latitude": 61.8926,
    "longitude": -6.9118,
    "name": "Faeroe Islands",
    "country": "FO",
    "dead": 0,
    "lastUpdated": "2020-03-15T21:08:03.210Z",
    "id": "cgzd5EM8PZv5ziJtTz1w",
    "infected": 11,
    "recovered": 0,
    "sick": 11
  },
  {
    "dead": 0,
    "lastUpdated": "2020-03-15T21:13:03.949Z",
    "id": "chj2FF3zb4Xxcop9RHre",
    "infected": 63,
    "recovered": 0,
    "latitude": 41.2033,
    "longitude": -77.1945,
    "name": "Pennsylvania",
    "country": "US",
    "sick": 63
  },
  {
    "dead": 0,
    "lastUpdated": "2020-03-15T21:14:02.843Z",
    "id": "cpf3Y5PQTYywIm3PrpIQ",
    "infected": 144,
    "recovered": 2,
    "latitude": 45.7087,
    "longitude": 0.6269,
    "name": "Nouvelle-Aquitaine",
    "country": "FR",
    "sick": 142
  },
  {
    "latitude": 40.463669,
    "longitude": -3.74922,
    "name": "Spain",
    "country": "ES",
    "dead": 292,
    "lastUpdated": "2020-03-15T21:08:03.046Z",
    "id": "d0ExINgPaWUBm3l4ioJL",
    "infected": 7843,
    "recovered": 517,
    "sick": 7034
  },
  {
    "longitude": 1.517155,
    "name": "Andorra",
    "country": "AD",
    "dead": 0,
    "lastUpdated": "2020-03-15T21:08:03.458Z",
    "id": "dedMXSYR2k92wkSXNZqn",
    "infected": 5,
    "recovered": 0,
    "latitude": 42.50837,
    "sick": 5
  },
  {
    "dead": 0,
    "lastUpdated": "2020-03-15T21:13:03.934Z",
    "id": "dzCgqYduzyncjNKU9z6G",
    "infected": 6,
    "recovered": 0,
    "latitude": 38.831163,
    "longitude": -75.375673,
    "name": "Delaware",
    "country": "US",
    "sick": 6
  },
  {
    "infected": 11,
    "recovered": 0,
    "latitude": 38.9637,
    "longitude": 35.2433,
    "name": "Turkey",
    "country": "TR",
    "dead": 0,
    "lastUpdated": "2020-03-15T14:53:03.439Z",
    "id": "dzIcCaUZlbIXuRw0SyDE",
    "sick": 11
  },
  {
    "recovered": 6,
    "latitude": 47.516232,
    "longitude": 14.550072,
    "name": "Austria",
    "country": "AT",
    "dead": 1,
    "lastUpdated": "2020-03-15T21:08:03.157Z",
    "id": "e3BtI12qbqhE8jypOoZu",
    "infected": 860,
    "sick": 853
  },
  {
    "latitude": 41.097481,
    "longitude": 122.310669,
    "name": "Liaoning",
    "country": "CN",
    "dead": 1,
    "lastUpdated": "2020-03-15T08:04:17.799Z",
    "id": "e7P83iImanpd9r36oXK3",
    "infected": 125,
    "recovered": 114,
    "sick": 10
  },
  {
    "infected": 353,
    "recovered": 324,
    "latitude": 31.230391,
    "longitude": 121.473701,
    "name": "Shanghai",
    "country": "CN",
    "dead": 3,
    "lastUpdated": "2020-03-15T08:03:43.878Z",
    "id": "e9pQqQa7CEblCYoDtfKo",
    "sick": 26
  },
  {
    "latitude": 42.407211,
    "longitude": -71.382439,
    "name": "Massachusetts",
    "country": "US",
    "dead": 0,
    "lastUpdated": "2020-03-15T21:13:03.998Z",
    "id": "eCKDGssww4pF7NrxOySu",
    "infected": 138,
    "recovered": 1,
    "sick": 137
  },
  {
    "infected": 2,
    "recovered": 0,
    "latitude": 43.740451,
    "longitude": 7.432032,
    "name": "Monaco",
    "country": "MC",
    "dead": 0,
    "lastUpdated": "2020-03-15T21:08:03.537Z",
    "id": "eLgKPNUwYM5MNDAtF6ql",
    "sick": 2
  },
  {
    "infected": 412,
    "recovered": 8,
    "latitude": 47.2805,
    "longitude": 4.9994,
    "name": "Bourgogne-Franche-Comté",
    "country": "FR",
    "dead": 5,
    "lastUpdated": "2020-03-15T21:14:02.903Z",
    "id": "ejrjMKfHexGnK52FS9Aa",
    "sick": 399
  },
  {
    "dead": 0,
    "lastUpdated": "2020-03-15T21:08:02.956Z",
    "id": "etrmrftkQg6Kbd9seAga",
    "infected": 9,
    "recovered": 0,
    "latitude": 48.0196,
    "longitude": 66.9237,
    "name": "Kazakhstan",
    "country": "KZ",
    "sick": 9
  },
  {
    "infected": 539,
    "recovered": 515,
    "latitude": 30.14208,
    "longitude": 102.960701,
    "name": "Sichuan",
    "country": "CN",
    "dead": 3,
    "lastUpdated": "2020-03-15T08:03:50.010Z",
    "id": "eyK5bxFkwdoAouIBvLFM",
    "sick": 21
  },
  {
    "infected": 22,
    "recovered": 9,
    "latitude": 21.473534,
    "longitude": 55.975414,
    "name": "Oman",
    "country": "OM",
    "dead": 0,
    "lastUpdated": "2020-03-15T21:08:02.911Z",
    "id": "f9kmlhYtc3WA3kjbWszW",
    "sick": 13
  },
  {
    "longitude": 2,
    "name": "Région non communiquée",
    "country": "FR",
    "dead": 35,
    "lastUpdated": "2020-03-15T10:45:00.764Z",
    "id": "fIp76gl05LhZ0aOxUbhz",
    "infected": 0,
    "recovered": 0,
    "latitude": 47,
    "sick": 0
  },
  {
    "infected": 10,
    "recovered": 1,
    "latitude": 31.295929,
    "longitude": 36.691952,
    "name": "Jordan",
    "country": "JO",
    "dead": 0,
    "lastUpdated": "2020-03-15T21:08:02.966Z",
    "id": "fK06AziL8wyrcoz7rsmJ",
    "sick": 9
  },
  {
    "dead": 4,
    "lastUpdated": "2020-03-15T21:13:04.057Z",
    "id": "fNganaGVPifA4QahEQPS",
    "infected": 116,
    "recovered": 0,
    "latitude": 27.716933,
    "longitude": -81.555239,
    "name": "Florida",
    "country": "US",
    "sick": 112
  },
  {
    "infected": 696,
    "recovered": 325,
    "latitude": 35.452016,
    "longitude": 139.664285,
    "name": "Diamond Princess (Cruise)",
    "country": "ZZ",
    "dead": 7,
    "lastUpdated": "2020-03-15T08:02:08.034Z",
    "id": "fNnE9CD0SttEVrCUo1Ym",
    "sick": 364
  },
  {
    "dead": 3085,
    "lastUpdated": "2020-03-15T08:03:01.251Z",
    "id": "fiJ14DCxw15e3SMemh8R",
    "infected": 67794,
    "recovered": 54278,
    "latitude": 31.160629,
    "longitude": 112.255402,
    "name": "Hubei",
    "country": "CN",
    "sick": 10431
  },
  {
    "latitude": 50.4501,
    "longitude": 30.5234,
    "name": "Ukraine",
    "country": "UA",
    "dead": 1,
    "lastUpdated": "2020-03-15T21:08:03.498Z",
    "id": "flbZ2kaR5kBuV8XZ2Nsu",
    "infected": 3,
    "recovered": 0,
    "sick": 2
  },
  {
    "infected": 1135,
    "recovered": 2,
    "latitude": 52.132633,
    "longitude": 5.291266,
    "name": "Netherlands",
    "country": "NL",
    "dead": 20,
    "lastUpdated": "2020-03-15T21:08:03.173Z",
    "id": "g0lRMtEJbucWIGqSPn0I",
    "sick": 1113
  },
  {
    "latitude": 34.69522,
    "longitude": -92.288012,
    "name": "Arkansas",
    "country": "US",
    "dead": 0,
    "lastUpdated": "2020-03-15T21:13:03.927Z",
    "id": "gIdgxJZfTl2QOSYEwMAz",
    "infected": 12,
    "recovered": 0,
    "sick": 12
  },
  {
    "recovered": 0,
    "latitude": 43.9695,
    "longitude": -99.9018,
    "name": "South Dakota",
    "country": "US",
    "dead": 1,
    "lastUpdated": "2020-03-15T21:13:04.053Z",
    "id": "gYDsNgvuvtbg8t77w6FS",
    "infected": 9,
    "sick": 8
  },
  {
    "latitude": 35.894231,
    "longitude": 14.432846,
    "name": "Malta",
    "country": "MT",
    "dead": 0,
    "lastUpdated": "2020-03-15T21:08:03.215Z",
    "id": "h9UqxYZ5xC4JZrmdDz0q",
    "infected": 21,
    "recovered": 2,
    "sick": 19
  },
  {
    "recovered": 2,
    "latitude": 28.7041,
    "longitude": 77.1025,
    "name": "Delhi",
    "country": "IN",
    "dead": 1,
    "lastUpdated": "2020-03-15T08:42:02.895Z",
    "id": "hqwsh1rmvkWI3LFUVuMk",
    "infected": 7,
    "sick": 4
  },
  {
    "latitude": 35.751835,
    "longitude": 104.28611,
    "name": "Gansu",
    "country": "CN",
    "dead": 2,
    "lastUpdated": "2020-03-15T08:04:04.350Z",
    "id": "iGkTscdD0XyHFSP23Qrp",
    "infected": 132,
    "recovered": 91,
    "sick": 39
  },
  {
    "latitude": 10.8505,
    "longitude": 76.2711,
    "name": "Kerala",
    "country": "IN",
    "dead": 0,
    "lastUpdated": "2020-03-15T08:42:02.838Z",
    "id": "idymmgoqLHImnBdyC7r7",
    "infected": 22,
    "recovered": 3,
    "sick": 19
  },
  {
    "dead": 0,
    "lastUpdated": "2020-03-15T21:14:02.830Z",
    "id": "j8eMjjqNAqHAJhAKdBYN",
    "infected": 6,
    "recovered": 0,
    "latitude": 16.265,
    "longitude": -61.551,
    "name": "Guadeloupe",
    "country": "FR",
    "sick": 6
  },
  {
    "infected": 136,
    "recovered": 132,
    "latitude": 39.343357,
    "longitude": 117.361649,
    "name": "Tianjin",
    "country": "CN",
    "dead": 3,
    "lastUpdated": "2020-03-15T08:04:30.997Z",
    "id": "jMlHjIOb7eMPSxFBrmG1",
    "sick": 1
  },
  {
    "longitude": -72.5778,
    "name": "Vermont",
    "country": "US",
    "dead": 0,
    "lastUpdated": "2020-03-15T21:13:04.056Z",
    "id": "jPC0eOG50FWknCDe3K6P",
    "infected": 4,
    "recovered": 0,
    "latitude": 44.5588,
    "sick": 4
  },
  {
    "longitude": -6.2603,
    "name": "Ireland",
    "country": "IE",
    "dead": 2,
    "lastUpdated": "2020-03-15T21:08:03.170Z",
    "id": "jpVXEDCyfyq26gPoCtHL",
    "infected": 170,
    "recovered": 1,
    "latitude": 53.3498,
    "sick": 167
  },
  {
    "dead": 0,
    "lastUpdated": "2020-03-15T21:13:03.896Z",
    "id": "l7fHSKOmcaRX3tq9FCT6",
    "infected": 2,
    "recovered": 0,
    "latitude": 44.0682,
    "longitude": -114.742,
    "name": "Idaho",
    "country": "US",
    "sick": 2
  },
  {
    "latitude": 10.6918,
    "longitude": -61.2225,
    "name": "Trinidad and Tobago",
    "country": "TT",
    "dead": 0,
    "lastUpdated": "2020-03-15T21:08:03.496Z",
    "id": "lfLdfRP7hyiA6MVnQqqn",
    "infected": 2,
    "recovered": 0,
    "sick": 2
  },
  {
    "longitude": 87.539589,
    "name": "Xinjiang",
    "country": "CN",
    "dead": 3,
    "lastUpdated": "2020-03-15T08:06:04.614Z",
    "id": "lhPjpn6CzqTRDN0RW8uE",
    "infected": 76,
    "recovered": 73,
    "latitude": 42.524635,
    "sick": 0
  },
  {
    "latitude": 3.2028,
    "longitude": 73.2207,
    "name": "Maldives",
    "country": "MV",
    "dead": 0,
    "lastUpdated": "2020-03-15T21:08:03.205Z",
    "id": "m45gI2UbWMuTrOnTtp9k",
    "infected": 13,
    "recovered": 0,
    "sick": 13
  },
  {
    "infected": 1,
    "recovered": 0,
    "latitude": 41.9029,
    "longitude": 12.4534,
    "name": "Vatican City",
    "country": "VA",
    "dead": 0,
    "lastUpdated": "2020-03-15T21:08:03.444Z",
    "id": "mF7rVMdVnazAuw8G22xs",
    "sick": 1
  },
  {
    "recovered": 0,
    "latitude": 19.7515,
    "longitude": 75.7139,
    "name": "Maharashtra",
    "country": "IN",
    "dead": 0,
    "lastUpdated": "2020-03-15T21:12:02.718Z",
    "id": "mJtdLs4ub6CkcAOeMWUm",
    "infected": 31,
    "sick": 31
  },
  {
    "longitude": -70.6693,
    "name": "Chile",
    "country": "CL",
    "dead": 0,
    "lastUpdated": "2020-03-15T21:08:03.191Z",
    "id": "mSACWVbCy5QE7ciLA93J",
    "infected": 75,
    "recovered": 0,
    "latitude": -33.4489,
    "sick": 75
  },
  {
    "latitude": 35.693323,
    "longitude": -86.605748,
    "name": "Tennessee",
    "country": "US",
    "dead": 0,
    "lastUpdated": "2020-03-15T21:13:04.034Z",
    "id": "nLhJXE2apq8yNNj363ai",
    "infected": 32,
    "recovered": 0,
    "sick": 32
  },
  {
    "recovered": 0,
    "latitude": -4.6796,
    "longitude": 55.492,
    "name": "Seychelles",
    "country": "SC",
    "dead": 0,
    "lastUpdated": "2020-03-15T21:08:03.438Z",
    "id": "oB5fSyjWJ0FbNAkssuci",
    "infected": 3,
    "sick": 3
  },
  {
    "recovered": 1,
    "latitude": 31.893778,
    "longitude": -6.196132,
    "name": "Morocco",
    "country": "MA",
    "dead": 1,
    "lastUpdated": "2020-03-15T21:08:02.968Z",
    "id": "oJ5vSDE9vgXC2PG8LElp",
    "infected": 28,
    "sick": 26
  },
  {
    "infected": 507,
    "recovered": 0,
    "latitude": 50.4801,
    "longitude": 2.7937,
    "name": "Hauts-de-France",
    "country": "FR",
    "dead": 21,
    "lastUpdated": "2020-03-15T21:14:02.836Z",
    "id": "ofWLu9EuQoK2nHjwU1mA",
    "sick": 486
  },
  {
    "latitude": -20.917574,
    "longitude": 142.702789,
    "name": "Queensland",
    "country": "AU",
    "dead": 0,
    "lastUpdated": "2020-03-15T12:17:48.552Z",
    "id": "oxz2l1rJipCsfMfy8Mmk",
    "infected": 46,
    "recovered": 8,
    "sick": 38
  },
  {
    "infected": 482,
    "recovered": 453,
    "latitude": 47.121647,
    "longitude": 128.738235,
    "name": "Heilongjiang",
    "country": "CN",
    "dead": 13,
    "lastUpdated": "2020-03-15T08:04:24.995Z",
    "id": "p1aZboN4BtRJe7hPl8cw",
    "sick": 16
  },
  {
    "longitude": 117.252747,
    "name": "Anhui",
    "country": "CN",
    "dead": 6,
    "lastUpdated": "2020-03-15T08:03:10.450Z",
    "id": "pFhBwPnGGpQ6DLppJ6YS",
    "infected": 990,
    "recovered": 984,
    "latitude": 32.026379,
    "sick": 0
  },
  {
    "infected": 10,
    "recovered": 0,
    "latitude": 38.9072,
    "longitude": -77.0369,
    "name": "Washington, D.C.",
    "country": "US",
    "dead": 0,
    "lastUpdated": "2020-03-15T21:13:04.039Z",
    "id": "q5cfvHprVTraL1yXnhDx",
    "sick": 10
  },
  {
    "longitude": 123.325947,
    "name": "Western Australia",
    "country": "AU",
    "dead": 1,
    "lastUpdated": "2020-03-15T12:17:02.976Z",
    "id": "qnQ0dkxAxnDP01YpdZgk",
    "infected": 17,
    "recovered": 0,
    "latitude": -26.190439,
    "sick": 16
  },
  {
    "longitude": 4.469936,
    "name": "Belgium",
    "country": "BE",
    "dead": 4,
    "lastUpdated": "2020-03-15T21:08:02.983Z",
    "id": "qpAxVz0garcS0gNZxtOw",
    "infected": 886,
    "recovered": 1,
    "latitude": 50.503887,
    "sick": 881
  },
  {
    "infected": 62,
    "recovered": 0,
    "latitude": 31,
    "longitude": -100,
    "name": "Texas",
    "country": "US",
    "dead": 0,
    "lastUpdated": "2020-03-15T17:43:11.659Z",
    "id": "qsrWiq0qCmIG66hpWojP",
    "sick": 62
  },
  {
    "recovered": 1,
    "latitude": 43.9352,
    "longitude": 6.0679,
    "name": "Provence-Alpes-Côte d'Azur",
    "country": "FR",
    "dead": 1,
    "lastUpdated": "2020-03-15T21:14:02.869Z",
    "id": "qyX9xXEuKg3co8yKe3Fl",
    "infected": 330,
    "sick": 328
  },
  {
    "latitude": 30.9843,
    "longitude": -91.9623,
    "name": "Louisiana",
    "country": "US",
    "dead": 2,
    "lastUpdated": "2020-03-15T21:13:04.072Z",
    "id": "qzuktS0qQVU4PEookjss",
    "infected": 91,
    "recovered": 0,
    "sick": 89
  },
  {
    "dead": 0,
    "lastUpdated": "2020-03-15T21:08:03.449Z",
    "id": "rKbrli0DkAmp1UpbrqHQ",
    "infected": 2,
    "recovered": 0,
    "latitude": 12.5211,
    "longitude": -69.9683,
    "name": "Aruba",
    "country": "AW",
    "sick": 2
  },
  {
    "latitude": 14.058324,
    "longitude": 108.277199,
    "name": "Vietnam",
    "country": "VN",
    "dead": 0,
    "lastUpdated": "2020-03-15T21:08:02.977Z",
    "id": "rKnSEyG03ak4YmGzonlg",
    "infected": 56,
    "recovered": 16,
    "sick": 40
  },
  {
    "infected": 1,
    "recovered": 0,
    "latitude": -12.8275,
    "longitude": 45.1662,
    "name": "Mayotte",
    "country": "FR",
    "dead": 0,
    "lastUpdated": "2020-03-15T21:14:02.906Z",
    "id": "rUQ6Z3pmWTPVlqEUSmN7",
    "sick": 1
  },
  {
    "infected": 1215,
    "recovered": 1197,
    "latitude": 29.159849,
    "longitude": 120.326447,
    "name": "Zhejiang",
    "country": "CN",
    "dead": 1,
    "lastUpdated": "2020-03-12T23:51:47.642Z",
    "id": "rgBVJ4hPofqjjchnroiY",
    "sick": 17
  },
  {
    "infected": 1250,
    "recovered": 1,
    "latitude": 60.472023,
    "longitude": 8.468946,
    "name": "Norway",
    "country": "NO",
    "dead": 3,
    "lastUpdated": "2020-03-15T21:08:02.972Z",
    "id": "rxSafpWsyKhfkV0HTtb4",
    "sick": 1246
  },
  {
    "latitude": 53.9333,
    "longitude": -116.5765,
    "name": "Alberta",
    "country": "CA",
    "dead": 0,
    "lastUpdated": "2020-03-15T12:22:38.839Z",
    "id": "sBFMOzZJdrdXdyLZpweO",
    "infected": 39,
    "recovered": 0,
    "sick": 39
  },
  {
    "infected": 168,
    "recovered": 160,
    "latitude": 19.566395,
    "longitude": 109.949684,
    "name": "Hainan",
    "country": "CN",
    "dead": 6,
    "lastUpdated": "2020-03-14T14:11:34.622Z",
    "id": "sKNhMvgXeyivpNFg02RA",
    "sick": 2
  },
  {
    "infected": 71,
    "recovered": 0,
    "latitude": -10.33755,
    "longitude": -75.630295,
    "name": "Peru",
    "country": "PE",
    "dead": 0,
    "lastUpdated": "2020-03-15T21:08:03.207Z",
    "id": "sLL1jETcJYjT6g5bfcEG",
    "sick": 71
  },
  {
    "dead": 6,
    "lastUpdated": "2020-03-15T08:04:36.840Z",
    "id": "sgsBhTwHxF1VVnqXbXXp",
    "infected": 318,
    "recovered": 310,
    "latitude": 37.89566,
    "longitude": 114.904221,
    "name": "Hebei",
    "country": "CN",
    "sick": 2
  },
  {
    "latitude": 42.3154,
    "longitude": 43.3569,
    "name": "Georgia",
    "country": "GE",
    "dead": 0,
    "lastUpdated": "2020-03-15T21:08:02.923Z",
    "id": "sjW9OwjFqrOvjVHRXWoR",
    "infected": 33,
    "recovered": 1,
    "sick": 32
  },
  {
    "latitude": -23.4425,
    "longitude": -58.4438,
    "name": "Paraguay",
    "country": "PY",
    "dead": 0,
    "lastUpdated": "2020-03-15T21:08:03.483Z",
    "id": "t2fq7L9UcXfhuXfQNVRj",
    "infected": 7,
    "recovered": 0,
    "sick": 7
  },
  {
    "longitude": -111.596466,
    "name": "Utah",
    "country": "US",
    "dead": 0,
    "lastUpdated": "2020-03-15T21:13:03.958Z",
    "id": "tSmr8vNsiDhhpXMSBsms",
    "infected": 28,
    "recovered": 0,
    "latitude": 39.147061,
    "sick": 28
  },
  {
    "infected": 1018,
    "recovered": 1014,
    "latitude": 27.3818,
    "longitude": 111.510681,
    "name": "Hunan",
    "country": "CN",
    "dead": 4,
    "lastUpdated": "2020-03-15T08:03:17.211Z",
    "id": "tdNRDDrgvBQqqwzdFGh4",
    "sick": 0
  },
  {
    "dead": 2,
    "lastUpdated": "2020-03-15T08:05:43.755Z",
    "id": "tyY4QSHWG9sXqSO9jm0Y",
    "infected": 146,
    "recovered": 143,
    "latitude": 26.842964,
    "longitude": 107.290283,
    "name": "Guizhou",
    "country": "CN",
    "sick": 1
  },
  {
    "infected": 14,
    "recovered": 0,
    "latitude": 29.0588,
    "longitude": 76.0856,
    "name": "Haryana",
    "country": "IN",
    "dead": 0,
    "lastUpdated": "2020-03-15T21:12:02.704Z",
    "id": "ubUuY89n0cXVgahI4Ytp",
    "sick": 14
  },
  {
    "infected": 631,
    "recovered": 631,
    "latitude": 32.93708,
    "longitude": 119.151932,
    "name": "Jiangsu",
    "country": "CN",
    "dead": 0,
    "lastUpdated": "2020-03-15T08:05:02.556Z",
    "id": "uvxN28EpGmRq3K9REtBP",
    "sick": 0
  },
  {
    "latitude": 33.7782,
    "longitude": 76.5762,
    "name": "Jammu and Kashmir",
    "country": "IN",
    "dead": 0,
    "lastUpdated": "2020-03-15T21:12:02.728Z",
    "id": "v5wfBhxjYTpTMaKko6AW",
    "infected": 2,
    "recovered": 0,
    "sick": 2
  },
  {
    "latitude": 26.820553,
    "longitude": 30.802498,
    "name": "Egypt",
    "country": "EG",
    "dead": 2,
    "lastUpdated": "2020-03-15T21:08:03.221Z",
    "id": "v8JcH4FHH7BDpJlNNHjv",
    "infected": 126,
    "recovered": 27,
    "sick": 97
  },
  {
    "latitude": 47.288374,
    "longitude": -119.928431,
    "name": "Washington",
    "country": "US",
    "dead": 40,
    "lastUpdated": "2020-03-15T21:13:04.041Z",
    "id": "vCUVQn7RK8pkw5y2rvYN",
    "infected": 642,
    "recovered": 1,
    "sick": 601
  },
  {
    "latitude": 18.1096,
    "longitude": -77.2975,
    "name": "Jamaica",
    "country": "JM",
    "dead": 0,
    "lastUpdated": "2020-03-15T21:08:03.155Z",
    "id": "vMGALmMJbagxGIbLyFfS",
    "infected": 10,
    "recovered": 2,
    "sick": 8
  },
  {
    "latitude": 32.3182,
    "longitude": -86.9023,
    "name": "Alabama",
    "country": "US",
    "dead": 0,
    "lastUpdated": "2020-03-15T21:13:03.884Z",
    "id": "vSMJR4m49MZM15umlC9B",
    "infected": 6,
    "recovered": 0,
    "sick": 6
  },
  {
    "dead": 4,
    "lastUpdated": "2020-03-15T20:44:02.266Z",
    "id": "vSwFXxTSLgzsG25zOJUy",
    "infected": 1240,
    "recovered": 5,
    "latitude": 48.8499,
    "longitude": 2.637,
    "name": "Île-de-France",
    "country": "FR",
    "sick": 1231
  },
  {
    "dead": 0,
    "lastUpdated": "2020-03-15T12:53:24.494Z",
    "id": "vjK6292ALJl5wq8XHw3P",
    "infected": 1,
    "recovered": 0,
    "latitude": 46.5107,
    "longitude": -63.4168,
    "name": "Prince Edward Island",
    "country": "CA",
    "sick": 1
  },
  {
    "infected": 13938,
    "recovered": 4590,
    "latitude": 32.42791,
    "longitude": 53.688046,
    "name": "Iran",
    "country": "IR",
    "dead": 724,
    "lastUpdated": "2020-03-15T21:08:03.125Z",
    "id": "vkkXVaqUswO5JsMZx0mX",
    "sick": 8624
  },
  {
    "dead": 0,
    "lastUpdated": "2020-03-15T12:50:46.396Z",
    "id": "wCnlOr8oX3DlF0otQrFc",
    "infected": 4,
    "recovered": 0,
    "latitude": 53.7609,
    "longitude": -98.8139,
    "name": "Manitoba",
    "country": "CA",
    "sick": 4
  },
  {
    "latitude": -34.6037,
    "longitude": -58.3816,
    "name": "Argentina",
    "country": "AR",
    "dead": 2,
    "lastUpdated": "2020-03-15T21:08:02.990Z",
    "id": "wEl0cjiA6OcZiI9kaSsF",
    "infected": 45,
    "recovered": 0,
    "sick": 43
  },
  {
    "infected": 33,
    "recovered": 0,
    "latitude": 44.3148,
    "longitude": -85.6024,
    "name": "Michigan",
    "country": "US",
    "dead": 0,
    "lastUpdated": "2020-03-15T21:13:03.943Z",
    "id": "wgRwpPMGBaKLAl1xo1C7",
    "sick": 33
  },
  {
    "infected": 4,
    "recovered": 0,
    "latitude": 21.287261,
    "longitude": -157.838954,
    "name": "Hawaii",
    "country": "US",
    "dead": 0,
    "lastUpdated": "2020-03-15T21:13:03.987Z",
    "id": "wi47s9vKxiMqxfgurj3B",
    "sick": 4
  },
  {
    "recovered": 1,
    "latitude": 34.08267,
    "longitude": 35.918113,
    "name": "Lebanon",
    "country": "LB",
    "dead": 3,
    "lastUpdated": "2020-03-15T21:08:03.218Z",
    "id": "xFgM48q8JxVPfvQLQDNb",
    "infected": 99,
    "sick": 95
  },
  {
    "latitude": 9.081999,
    "longitude": 8.675277,
    "name": "Nigeria",
    "country": "NG",
    "dead": 0,
    "lastUpdated": "2020-03-15T21:08:03.546Z",
    "id": "xHWPTTpNHEwWv6MqfxP5",
    "infected": 2,
    "recovered": 1,
    "sick": 1
  },
  {
    "infected": 1,
    "recovered": 0,
    "latitude": 47.5515,
    "longitude": -101.002,
    "name": "North Dakota",
    "country": "US",
    "dead": 0,
    "lastUpdated": "2020-03-15T21:13:04.007Z",
    "id": "xQpNodSQfHNHAtG9Onnj",
    "sick": 1
  },
  {
    "longitude": -89.5,
    "name": "Wisconsin",
    "country": "US",
    "dead": 0,
    "lastUpdated": "2020-03-15T13:58:03.085Z",
    "id": "xSHgaJlyPxHFWB6hhyng",
    "infected": 27,
    "recovered": 1,
    "latitude": 44.5,
    "sick": 26
  },
  {
    "dead": 0,
    "lastUpdated": "2020-03-15T21:08:03.440Z",
    "id": "xY69Nr3VSiZCwD2Qp0SD",
    "infected": 4,
    "recovered": 0,
    "latitude": 9.145,
    "longitude": 40.4897,
    "name": "Ethiopia",
    "country": "ET",
    "sick": 4
  },
  {
    "recovered": 0,
    "latitude": -17.6797,
    "longitude": -149.4068,
    "name": "Polynésie française",
    "country": "FR",
    "dead": 0,
    "lastUpdated": "2020-03-15T21:14:02.840Z",
    "id": "yOfFKDRrscqcZ85WMRqF",
    "infected": 3,
    "sick": 3
  },
  {
    "dead": 0,
    "lastUpdated": "2020-03-15T21:08:03.539Z",
    "id": "z0KDu61I2qPILneW2Lih",
    "infected": 2,
    "recovered": 0,
    "latitude": 12.1696,
    "longitude": -68.99,
    "name": "Curaçao",
    "country": "CW",
    "sick": 2
  },
  {
    "id": "z1Vx0y33oMGoeJSuS8Ui",
    "infected": 2,
    "recovered": 0,
    "latitude": 46.5653,
    "longitude": -66.4619,
    "name": "New Brunswick",
    "country": "CA",
    "dead": 0,
    "lastUpdated": "2020-03-15T08:07:34.435Z",
    "sick": 2
  },
  {
    "dead": 2,
    "lastUpdated": "2020-03-15T21:08:02.932Z",
    "id": "zC03Urt1iJJb2Tf6p0jd",
    "infected": 37,
    "recovered": 0,
    "latitude": -1.831239,
    "longitude": -78.183403,
    "name": "Ecuador",
    "country": "EC",
    "sick": 35
  },
  {
    "latitude": 15.870032,
    "longitude": 100.992538,
    "name": "Thailand",
    "country": "TH",
    "dead": 1,
    "lastUpdated": "2020-03-15T21:08:02.942Z",
    "id": "zvdC0u72Bk5YKNaazZFZ",
    "infected": 114,
    "recovered": 35,
    "sick": 78
  },
  {
    "latitude": 44.0165,
    "longitude": 21.0059,
    "name": "Serbia",
    "country": "RS",
    "dead": 0,
    "lastUpdated": "2020-03-15T21:08:02.970Z",
    "id": "zyxFwuiyCJHhRyNEg60C",
    "infected": 48,
    "recovered": 1,
    "sick": 47
  }
]