[
  {
    "lastUpdated": "2020-05-08T12:41:08.948Z",
    "dead": 0,
    "id": "01b09TY4vmuZwzVuiRFK",
    "infected": 6,
    "recovered": 4,
    "latitude": 12.5847,
    "pop": 72600,
    "longitude": -81.7006,
    "name": "San Andrés",
    "country": "CO",
    "sick": 2,
    "invisible": false
  },
  {
    "lastUpdated": "2020-05-08T12:41:11.342Z",
    "dead": 13,
    "id": "0FOJefeLxQYXQ1CnJm9o",
    "infected": 252,
    "recovered": 223,
    "latitude": 49.4482,
    "pop": 63196,
    "longitude": -2.5895,
    "name": "Guernsey",
    "country": "GG",
    "sick": 16,
    "invisible": false
  },
  {
    "infected": 4541,
    "recovered": 2023,
    "latitude": 41.066666,
    "pop": 5827000,
    "longitude": 14.333333,
    "name": "Campania",
    "country": "IT",
    "lastUpdated": "2020-05-08T12:31:01.923Z",
    "dead": 379,
    "id": "0GJcws44NSPsDHAuxJhW",
    "sick": 2139,
    "invisible": false
  },
  {
    "latitude": -20.2167,
    "pop": 383870,
    "longitude": -70.14222,
    "name": "Tarapacá",
    "country": "CL",
    "lastUpdated": "2020-05-08T12:41:05.719Z",
    "dead": 1,
    "id": "0HDQbiHe462xMCUV5HiI",
    "infected": 417,
    "recovered": 0,
    "sick": 416,
    "invisible": false
  },
  {
    "lastUpdated": "2020-05-08T12:41:11.960Z",
    "dead": 2,
    "id": "0VG7S6aaK4eSo59fL9JO",
    "infected": 246,
    "recovered": 63,
    "latitude": 20.9517,
    "pop": 45990000,
    "longitude": 85.0985,
    "name": "Odisha",
    "country": "IN",
    "sick": 181,
    "invisible": false
  },
  {
    "infected": 431,
    "recovered": 0,
    "latitude": 20.4737,
    "pop": 2990300,
    "longitude": -98.8582,
    "name": "Hidalgo",
    "country": "MX",
    "lastUpdated": "2020-05-08T12:32:01.613Z",
    "dead": 66,
    "id": "0XmCRqiK2ZaehoEJvfer",
    "sick": 365,
    "invisible": false
  },
  {
    "infected": 33,
    "recovered": 33,
    "latitude": 11.7401,
    "pop": 427246,
    "longitude": 92.6586,
    "name": "Andaman and Nicobar Islands",
    "country": "IN",
    "lastUpdated": "2020-05-08T12:41:11.961Z",
    "dead": 0,
    "id": "0jStOpTUNRaQYJqgmRoK",
    "sick": 0,
    "invisible": false
  },
  {
    "recovered": 2286,
    "latitude": 25.315058,
    "pop": 2639000,
    "longitude": 51.145517,
    "name": "Qatar",
    "country": "QA",
    "lastUpdated": "2020-05-08T12:40:02.453Z",
    "dead": 12,
    "id": "0m4aECS0Z2DGFEr8ldgI",
    "infected": 18890,
    "sick": 16592,
    "invisible": false
  },
  {
    "infected": 1548,
    "recovered": 296,
    "latitude": 22.9868,
    "pop": 90320000,
    "longitude": 87.855,
    "name": "West Bengal",
    "country": "IN",
    "lastUpdated": "2020-05-08T12:41:11.957Z",
    "dead": 151,
    "id": "0n54EMSDJcRoT1QEvw80",
    "sick": 1101,
    "invisible": false
  },
  {
    "infected": 3252,
    "recovered": 1231,
    "latitude": 22.9734,
    "pop": 73340000,
    "longitude": 78.6569,
    "name": "Madhya Pradesh",
    "country": "IN",
    "lastUpdated": "2020-05-08T12:41:11.956Z",
    "dead": 193,
    "id": "0s18o5DrDAHjbu5MFcrj",
    "sick": 1828,
    "invisible": false
  },
  {
    "invisible": true,
    "infected": 0,
    "recovered": 217251,
    "latitude": 37.0902,
    "longitude": -95.7129,
    "name": "Unknown US state",
    "country": "US",
    "lastUpdated": "2020-05-08T12:40:02.450Z",
    "dead": 0,
    "id": "0tFoopNTs6e4tOoaltu2",
    "sick": 0
  },
  {
    "lastUpdated": "2020-05-08T12:38:04.039Z",
    "dead": 3,
    "id": "0x2HLhr5z5xAtEdO4iZm",
    "infected": 308,
    "recovered": 268,
    "latitude": 35.64249,
    "pop": 37330000,
    "longitude": 108.472214,
    "name": "Shaanxi",
    "country": "CN",
    "sick": 37,
    "invisible": false
  },
  {
    "lastUpdated": "2020-05-08T12:40:02.457Z",
    "dead": 90,
    "id": "19MvIhipqTyYv1H37Upw",
    "infected": 1586,
    "recovered": 1099,
    "latitude": 41.643351,
    "pop": 2077000,
    "longitude": 21.668393,
    "name": "North Macedonia",
    "country": "MK",
    "sick": 397,
    "invisible": false
  },
  {
    "infected": 261,
    "recovered": 0,
    "latitude": 53.1355,
    "pop": 521542,
    "longitude": -57.6604,
    "name": "Newfoundland and Labrador",
    "country": "CA",
    "lastUpdated": "2020-05-08T12:27:08.868Z",
    "dead": 3,
    "id": "1DOMOmCWDtva46OVSZLv",
    "sick": 258,
    "invisible": false
  },
  {
    "infected": 18,
    "recovered": 18,
    "latitude": 35.801933,
    "pop": 5627000,
    "longitude": 96.779286,
    "name": "Qinghai",
    "country": "CN",
    "lastUpdated": "2020-05-08T12:38:04.139Z",
    "dead": 0,
    "id": "1Fap7rZu9SIRqf5TG9Dg",
    "sick": 0,
    "invisible": false
  },
  {
    "id": "1YXQMlVL3fUeDZmcVfJw",
    "invisible": true,
    "infected": 0,
    "recovered": 17781,
    "latitude": 23.6345,
    "pop": 126200000,
    "longitude": -102.5528,
    "name": "Unknown Mexico state",
    "country": "MX",
    "lastUpdated": "2020-05-08T12:40:02.452Z",
    "dead": 0,
    "sick": 0
  },
  {
    "lastUpdated": "2020-05-08T12:30:18.586Z",
    "dead": 6,
    "id": "1at5nIap9H51v32otlQl",
    "infected": 223,
    "recovered": 46,
    "latitude": 55.0555,
    "pop": 1960000,
    "longitude": 73.3167,
    "name": "Omsk Oblast",
    "country": "RU",
    "sick": 171,
    "invisible": false
  },
  {
    "infected": 28135,
    "recovered": 10384,
    "latitude": 44.9,
    "pop": 4376000,
    "longitude": 8.206944,
    "name": "Piemonte",
    "country": "IT",
    "lastUpdated": "2020-05-08T12:31:01.924Z",
    "dead": 3282,
    "id": "1eTSQyfp8RoDPeFrIwun",
    "sick": 14469,
    "invisible": false
  },
  {
    "latitude": 51.993,
    "pop": 1003000,
    "longitude": 15.461,
    "name": "Lubuskie",
    "country": "PL",
    "lastUpdated": "2020-05-08T12:33:01.501Z",
    "dead": 0,
    "id": "1j1OurxLTpZYuWIWwQ9F",
    "infected": 92,
    "recovered": 0,
    "sick": 92,
    "invisible": false
  },
  {
    "latitude": 47.4116,
    "pop": 3550000,
    "longitude": 28.3699,
    "name": "Moldova",
    "country": "MD",
    "lastUpdated": "2020-05-08T12:40:02.455Z",
    "dead": 145,
    "id": "1qTPB8X3tyLyIdsb5TN3",
    "infected": 4605,
    "recovered": 1747,
    "sick": 2713,
    "invisible": false
  },
  {
    "id": "22PJOAThcDFKgSbyQIkD",
    "invisible": true,
    "infected": 2890,
    "recovered": 0,
    "latitude": 37.0902,
    "longitude": -95.7129,
    "name": "Federal Bureau of Prisons",
    "country": "US",
    "lastUpdated": "2020-05-08T12:39:01.261Z",
    "dead": 44,
    "sick": 2846
  },
  {
    "lastUpdated": "2020-05-08T12:38:04.139Z",
    "dead": 0,
    "id": "25qIBtsW2nfQj3pwBKg9",
    "infected": 1,
    "recovered": 1,
    "latitude": 30.15336,
    "pop": 3180000,
    "longitude": 88.787865,
    "name": "Tibet",
    "country": "CN",
    "sick": 0,
    "invisible": false
  },
  {
    "pop": 264000000,
    "longitude": 115.66779,
    "name": "Indonesia",
    "country": "ID",
    "lastUpdated": "2020-05-08T12:40:02.453Z",
    "dead": 943,
    "id": "2KHYUb5t3lwzVVmDjwNX",
    "infected": 13112,
    "recovered": 2494,
    "latitude": -1.572184,
    "sick": 9675,
    "invisible": false
  },
  {
    "pop": 4191000,
    "longitude": -120.585594,
    "name": "Oregon",
    "country": "US",
    "lastUpdated": "2020-05-08T12:39:01.259Z",
    "dead": 121,
    "id": "2OrsssmGUs4XCzaZzvTv",
    "infected": 2989,
    "recovered": 0,
    "latitude": 43.807191,
    "sick": 2868,
    "invisible": false
  },
  {
    "infected": 895,
    "recovered": 0,
    "latitude": -23.65,
    "pop": 425000,
    "longitude": -70.400002,
    "name": "Antofagasta",
    "country": "CL",
    "lastUpdated": "2020-05-08T12:41:05.719Z",
    "dead": 7,
    "id": "2c5HBZ1ffkCVXnMYUWnY",
    "sick": 888,
    "invisible": false
  },
  {
    "pop": 9029000,
    "longitude": -51.070534,
    "name": "Amapá",
    "country": "BR",
    "lastUpdated": "2020-05-08T12:38:01.630Z",
    "dead": 61,
    "id": "2dzhyWsBSPpENWlNew0b",
    "infected": 2199,
    "recovered": 0,
    "latitude": 0.035574,
    "sick": 2138,
    "invisible": false
  },
  {
    "infected": 113,
    "recovered": 104,
    "latitude": 43.851921,
    "pop": 27460000,
    "longitude": 126.548103,
    "name": "Jilin",
    "country": "CN",
    "lastUpdated": "2020-05-08T12:38:04.136Z",
    "dead": 1,
    "id": "2jxHvSsxdnom0nPNvOT8",
    "sick": 8,
    "invisible": false
  },
  {
    "infected": 144,
    "recovered": 141,
    "latitude": 36.1408,
    "pop": 34571,
    "longitude": -5.3536,
    "name": "Gibraltar",
    "country": "GI",
    "lastUpdated": "2020-05-08T12:40:02.465Z",
    "dead": 0,
    "id": "2p11BjSAs3wVyymgqBOe",
    "sick": 3,
    "invisible": false
  },
  {
    "latitude": 47.7516,
    "pop": 2567000,
    "longitude": 1.6751,
    "name": "Centre-Val de Loire",
    "country": "FR",
    "lastUpdated": "2020-05-07T22:30:25.438Z",
    "dead": 434,
    "id": "2sLNkkHpyaHx7dD3aMDO",
    "infected": 3944,
    "recovered": 1392,
    "sick": 2118,
    "invisible": false
  },
  {
    "latitude": 42.565044,
    "pop": 884640,
    "longitude": 12.643751,
    "name": "Umbria",
    "country": "IT",
    "lastUpdated": "2020-05-08T12:31:01.925Z",
    "dead": 70,
    "id": "319tiZOMczx1y0DfvOib",
    "infected": 1405,
    "recovered": 1194,
    "sick": 141,
    "invisible": false
  },
  {
    "latitude": 2.43823,
    "pop": 1355000,
    "longitude": -76.6131592,
    "name": "Cauca",
    "country": "CO",
    "lastUpdated": "2020-05-08T12:41:08.948Z",
    "dead": 4,
    "id": "38T96Q3XNjt5FSJygPed",
    "infected": 40,
    "recovered": 16,
    "sick": 20,
    "invisible": false
  },
  {
    "infected": 153,
    "recovered": 103,
    "latitude": -13.133896,
    "pop": 17090000,
    "longitude": 27.849332,
    "name": "Zambia",
    "country": "ZM",
    "lastUpdated": "2020-05-08T12:40:02.465Z",
    "dead": 4,
    "id": "3IlPjAbP5qVMn1nlgLTJ",
    "sick": 46,
    "invisible": false
  },
  {
    "latitude": 42.7044,
    "pop": 631219,
    "longitude": 19.3958,
    "name": "Montenegro",
    "country": "ME",
    "lastUpdated": "2020-05-08T12:40:02.463Z",
    "dead": 8,
    "id": "3LstMSN5XMYBkxbe5HN7",
    "infected": 324,
    "recovered": 266,
    "sick": 50,
    "invisible": false
  },
  {
    "infected": 107,
    "recovered": 103,
    "latitude": -35.4735,
    "pop": 418440,
    "longitude": 149.0124,
    "name": "Australian Capital Territory",
    "country": "AU",
    "lastUpdated": "2020-05-08T09:32:17.908Z",
    "dead": 3,
    "id": "3OZoQsKrzxZ18EKyfGE6",
    "sick": 1,
    "invisible": false
  },
  {
    "latitude": 57.8992,
    "pop": 608000,
    "longitude": 38.8389,
    "name": "Yaroslavl Oblast",
    "country": "RU",
    "lastUpdated": "2020-05-08T12:30:18.574Z",
    "dead": 11,
    "id": "3PfzjWjvOkfgxc672BHQ",
    "infected": 993,
    "recovered": 162,
    "sick": 820,
    "invisible": false
  },
  {
    "latitude": 51.8873,
    "pop": 321000,
    "longitude": 95.626,
    "name": "Tuva",
    "country": "RU",
    "lastUpdated": "2020-05-08T12:30:18.588Z",
    "dead": 0,
    "id": "3PpqgIUJAtzxo1j7z56i",
    "infected": 56,
    "recovered": 29,
    "sick": 27,
    "invisible": false
  },
  {
    "latitude": 26.2006,
    "pop": 30940000,
    "longitude": 92.9376,
    "name": "Assam",
    "country": "IN",
    "lastUpdated": "2020-05-08T12:41:11.961Z",
    "dead": 2,
    "id": "3cCbnJCsK7mKlTO08K1o",
    "infected": 57,
    "recovered": 35,
    "sick": 20,
    "invisible": false
  },
  {
    "latitude": 40.4173,
    "pop": 11690000,
    "longitude": -82.9071,
    "name": "Ohio",
    "country": "US",
    "lastUpdated": "2020-05-08T12:39:01.256Z",
    "dead": 1274,
    "id": "3fC3bAyIRUquOQOEnQNe",
    "infected": 22134,
    "recovered": 0,
    "sick": 20860,
    "invisible": false
  },
  {
    "lastUpdated": "2020-05-08T12:32:01.607Z",
    "dead": 197,
    "id": "3kFCzJguabtBvXaHxgiu",
    "infected": 1326,
    "recovered": 0,
    "latitude": 25,
    "pop": 3066400,
    "longitude": -107.5,
    "name": "Sinaloa",
    "country": "MX",
    "sick": 1129,
    "invisible": false
  },
  {
    "recovered": 320,
    "latitude": 3.420556,
    "pop": 4708300,
    "longitude": -76.522224,
    "name": "Valle del Cauca",
    "country": "CO",
    "lastUpdated": "2020-05-08T12:41:08.945Z",
    "dead": 67,
    "id": "3mC2LveOpXV8P1PmQGUj",
    "infected": 1173,
    "sick": 786,
    "invisible": false
  },
  {
    "latitude": 21.0079,
    "pop": 4420000,
    "longitude": -10.9408,
    "name": "Mauritania",
    "country": "MR",
    "lastUpdated": "2020-05-08T12:40:02.471Z",
    "dead": 1,
    "id": "4NnFMekRK2m14IlnZZoj",
    "infected": 8,
    "recovered": 6,
    "sick": 1,
    "invisible": false
  },
  {
    "latitude": 53.7267,
    "pop": 5071000,
    "longitude": -127.6476,
    "name": "British Columbia",
    "country": "CA",
    "lastUpdated": "2020-05-08T12:27:08.868Z",
    "dead": 126,
    "id": "4hfZRUoUgI4a3vrG0GBk",
    "infected": 2288,
    "recovered": 0,
    "sick": 2162,
    "invisible": false
  },
  {
    "infected": 14156,
    "recovered": 0,
    "latitude": -22.908333,
    "pop": 17159960,
    "longitude": -43.196388,
    "name": "Rio de Janeiro",
    "country": "BR",
    "lastUpdated": "2020-05-08T12:38:01.633Z",
    "dead": 1394,
    "id": "4kq0z3kh5zt3YAUWxvtE",
    "sick": 12762,
    "invisible": false
  },
  {
    "infected": 4528,
    "recovered": 0,
    "latitude": -11.409874,
    "pop": 14812617,
    "longitude": -41.280857,
    "name": "Bahia",
    "country": "BR",
    "lastUpdated": "2020-05-08T12:38:01.630Z",
    "dead": 165,
    "id": "4yDbkEyqsNzZJjfrciYV",
    "sick": 4363,
    "invisible": false
  },
  {
    "lastUpdated": "2020-05-08T12:40:02.456Z",
    "dead": 28,
    "id": "4zqzRm2xHn0CDVOUQJ8p",
    "infected": 2204,
    "recovered": 1551,
    "latitude": 40.3426,
    "pop": 9898000,
    "longitude": 47.93802,
    "name": "Azerbaijan",
    "country": "AZ",
    "sick": 625,
    "invisible": false
  },
  {
    "longitude": -97.861099,
    "name": "Tamaulipas",
    "country": "MX",
    "lastUpdated": "2020-05-08T12:32:01.612Z",
    "dead": 35,
    "id": "54cfsdsRF76XVHWtZs19",
    "infected": 727,
    "recovered": 0,
    "latitude": 22.233105,
    "pop": 3672300,
    "sick": 692,
    "invisible": false
  },
  {
    "infected": 28828,
    "recovered": 7333,
    "latitude": 51.0109,
    "pop": 6596000,
    "longitude": 3.7265,
    "name": "Flanders",
    "country": "BE",
    "lastUpdated": "2020-05-08T12:26:12.088Z",
    "dead": 4200,
    "id": "57ydD48mLRD2YoyteJZj",
    "sick": 17295,
    "invisible": false
  },
  {
    "recovered": 26,
    "latitude": 25.025885,
    "pop": 395361,
    "longitude": -78.035889,
    "name": "Bahamas",
    "country": "BS",
    "lastUpdated": "2020-05-08T12:40:02.467Z",
    "dead": 11,
    "id": "5MHegCUO9L3LiAU7DDey",
    "infected": 92,
    "sick": 55,
    "invisible": false
  },
  {
    "infected": 3044,
    "recovered": 2486,
    "latitude": -31.253218,
    "pop": 7544000,
    "longitude": 146.921097,
    "name": "New South Wales",
    "country": "AU",
    "lastUpdated": "2020-05-08T09:32:17.908Z",
    "dead": 44,
    "id": "5N16a2OXXRpsEFanw0TC",
    "sick": 514,
    "invisible": false
  },
  {
    "lastUpdated": "2020-05-08T12:40:02.467Z",
    "dead": 0,
    "id": "5N4PRxsCDzzwk7R200V1",
    "infected": 74,
    "recovered": 0,
    "latitude": 6.8769908,
    "pop": 12580000,
    "longitude": 31.3069782,
    "name": "South Sudan",
    "country": "SS",
    "sick": 74,
    "invisible": false
  },
  {
    "infected": 13507,
    "recovered": 8181,
    "latitude": 39.484,
    "pop": 4975000,
    "longitude": -0.7533,
    "name": "C. Valenciana",
    "country": "ES",
    "lastUpdated": "2020-05-08T12:32:11.251Z",
    "dead": 1309,
    "id": "5Va9A7CXR8AXdUz4HTJj",
    "sick": 4017,
    "invisible": false
  },
  {
    "recovered": 18,
    "latitude": -20.9043045,
    "pop": 280460,
    "longitude": 165.618042,
    "name": "New Caledonia",
    "country": "NC",
    "lastUpdated": "2020-05-08T12:40:02.469Z",
    "dead": 0,
    "id": "5fg04eyDwFw3kEXnrxez",
    "infected": 18,
    "sick": 0,
    "invisible": false
  },
  {
    "longitude": 84.124008,
    "name": "Nepal",
    "country": "NP",
    "lastUpdated": "2020-05-08T12:40:02.466Z",
    "dead": 0,
    "id": "5gXZIjRgAvd6xWN1LOv8",
    "infected": 102,
    "recovered": 30,
    "latitude": 28.394857,
    "pop": 29300000,
    "sick": 72,
    "invisible": false
  },
  {
    "latitude": 12.879721,
    "pop": 104900000,
    "longitude": 121.774017,
    "name": "Philippines",
    "country": "PH",
    "lastUpdated": "2020-05-08T12:40:02.453Z",
    "dead": 696,
    "id": "5pwmh7aSdGRKqRbnuyc0",
    "infected": 10463,
    "recovered": 1734,
    "sick": 8033,
    "invisible": false
  },
  {
    "longitude": 31.053028,
    "name": "Zimbabwe",
    "country": "ZW",
    "lastUpdated": "2020-05-08T12:40:02.469Z",
    "dead": 4,
    "id": "5qtR9nx4BLwu1ODTniaY",
    "infected": 34,
    "recovered": 5,
    "latitude": -17.824858,
    "pop": 14802190,
    "sick": 25,
    "invisible": false
  },
  {
    "infected": 2654,
    "recovered": 0,
    "latitude": 36.0672,
    "pop": 356890,
    "longitude": -109.188,
    "name": "Navajo Nation",
    "country": "US",
    "lastUpdated": "2020-05-08T12:39:01.261Z",
    "dead": 85,
    "id": "5vkKgxTaKq1IH0Go357L",
    "invisible": true,
    "sick": 2569
  },
  {
    "latitude": 19.432241,
    "pop": 8781300,
    "longitude": -99.177254,
    "name": "Ciudad de México",
    "country": "MX",
    "lastUpdated": "2020-05-08T12:32:01.610Z",
    "dead": 696,
    "id": "61E7TGjUwAo9xu6Y6gAH",
    "infected": 8129,
    "recovered": 0,
    "sick": 7433,
    "invisible": false
  },
  {
    "infected": 1564,
    "recovered": 224,
    "latitude": 54.3873,
    "pop": 1012000,
    "longitude": 35.1889,
    "name": "Kaluga Oblast",
    "country": "RU",
    "lastUpdated": "2020-05-08T12:30:18.570Z",
    "dead": 13,
    "id": "63KYOuWe41mvqWQrJbr2",
    "sick": 1327,
    "invisible": false
  },
  {
    "longitude": 23.804991,
    "name": "Lithuania",
    "country": "LT",
    "lastUpdated": "2020-05-08T12:40:02.457Z",
    "dead": 49,
    "id": "694ON7d0mRJDeM1gHBTR",
    "infected": 1436,
    "recovered": 765,
    "latitude": 55.621011,
    "pop": 2794000,
    "sick": 622,
    "invisible": false
  },
  {
    "latitude": 51.1781,
    "pop": 9175000,
    "longitude": -0.5596,
    "name": "South East",
    "country": "GB",
    "lastUpdated": "2020-05-08T12:38:18.486Z",
    "dead": 0,
    "id": "6IQAsvrmBv0HPdeTnh4x",
    "infected": 18696,
    "recovered": 0,
    "sick": 18696,
    "invisible": false
  },
  {
    "lastUpdated": "2020-05-08T12:40:02.457Z",
    "dead": 4,
    "id": "6IcHIIH0zXpY0POmBZTv",
    "infected": 1045,
    "recovered": 960,
    "latitude": 22.396427,
    "pop": 7392000,
    "longitude": 114.109497,
    "name": "Hong Kong",
    "country": "HK",
    "sick": 81,
    "invisible": false
  },
  {
    "latitude": -8.65,
    "pop": 869265,
    "longitude": -72.4,
    "name": "Acre",
    "country": "BR",
    "lastUpdated": "2020-05-08T12:38:01.628Z",
    "dead": 36,
    "id": "6LQesrx5bHJsVUi1TXBp",
    "infected": 1014,
    "recovered": 0,
    "sick": 978,
    "invisible": false
  },
  {
    "infected": 242,
    "recovered": 62,
    "latitude": 9.3077,
    "pop": 11180000,
    "longitude": 2.3158,
    "name": "Benin",
    "country": "BJ",
    "lastUpdated": "2020-05-08T12:40:02.464Z",
    "dead": 2,
    "id": "6SlpghTyB6lpMFvx3g9U",
    "sick": 178,
    "invisible": false
  },
  {
    "infected": 80089,
    "recovered": 33329,
    "latitude": 45.6667,
    "pop": 10040000,
    "longitude": 9.5,
    "name": "Lombardia",
    "country": "IT",
    "lastUpdated": "2020-05-08T12:31:01.924Z",
    "dead": 14745,
    "id": "6ZHcvMIzVWIaRnc4R3Qp",
    "sick": 32015,
    "invisible": false
  },
  {
    "longitude": 14.5058,
    "name": "Slovenia",
    "country": "SI",
    "lastUpdated": "2020-05-08T12:40:02.457Z",
    "dead": 99,
    "id": "6ahNiyKDSDAftCctgLH3",
    "infected": 1449,
    "recovered": 247,
    "latitude": 46.0569,
    "pop": 2067000,
    "sick": 1103,
    "invisible": false
  },
  {
    "lastUpdated": "2020-05-08T12:41:05.719Z",
    "dead": 0,
    "id": "6nyns7UGGgkU7pxrHf8i",
    "infected": 87,
    "recovered": 0,
    "latitude": -27.3667908,
    "pop": 300000,
    "longitude": -70.331398,
    "name": "Atacama",
    "country": "CL",
    "sick": 87,
    "invisible": false
  },
  {
    "longitude": 11.6094,
    "name": "Gabon",
    "country": "GA",
    "lastUpdated": "2020-05-08T12:40:02.461Z",
    "dead": 8,
    "id": "6pBi38TUgYfFm0bry2uh",
    "infected": 504,
    "recovered": 110,
    "latitude": -0.8037,
    "pop": 2025000,
    "sick": 386,
    "invisible": false
  },
  {
    "infected": 223,
    "recovered": 0,
    "latitude": 22.1498,
    "pop": 2831900,
    "longitude": -100.9792,
    "name": "San Luis Potosí",
    "country": "MX",
    "lastUpdated": "2020-05-08T12:32:01.612Z",
    "dead": 13,
    "id": "6vjIVg1gSANFZghV7xtS",
    "sick": 210,
    "invisible": false
  },
  {
    "latitude": 17.901672,
    "pop": 9131,
    "longitude": -62.818544,
    "name": "Saint-Barthélémy",
    "country": "FR",
    "lastUpdated": "2020-05-08T12:40:02.471Z",
    "dead": 0,
    "id": "78Ox26bNHDA2Pk2b3Uwn",
    "infected": 6,
    "recovered": 6,
    "sick": 0,
    "invisible": false
  },
  {
    "infected": 477,
    "recovered": 0,
    "latitude": 54.367,
    "pop": 2305000,
    "longitude": 18.633,
    "name": "Pomorskie",
    "country": "PL",
    "lastUpdated": "2020-05-08T12:33:01.500Z",
    "dead": 22,
    "id": "7JDx6UJiwGSJyL1fChaJ",
    "sick": 455,
    "invisible": false
  },
  {
    "infected": 132,
    "recovered": 108,
    "latitude": 35.2923,
    "pop": 84690,
    "longitude": -2.9381,
    "name": "Melilla",
    "country": "ES",
    "lastUpdated": "2020-05-08T12:32:11.253Z",
    "dead": 2,
    "id": "7UASdZTZ1nPzzBwSTEA9",
    "sick": 22,
    "invisible": false
  },
  {
    "lastUpdated": "2020-05-08T12:40:02.469Z",
    "dead": 3,
    "id": "7hVFcEV7nV0MrQr3LHrl",
    "infected": 25,
    "recovered": 16,
    "latitude": 17.0608,
    "pop": 102012,
    "longitude": -61.7964,
    "name": "Antigua and Barbuda",
    "country": "AG",
    "sick": 6,
    "invisible": false
  },
  {
    "latitude": 48.7904,
    "pop": 13000000,
    "longitude": 11.4979,
    "name": "Bayern",
    "country": "DE",
    "lastUpdated": "2020-05-08T12:30:07.614Z",
    "dead": 2221,
    "id": "7kCrrlOBE3jN6FtOVNUB",
    "infected": 44760,
    "recovered": 36420,
    "sick": 6119,
    "invisible": false
  },
  {
    "infected": 3178,
    "recovered": 865,
    "latitude": 47.4979,
    "pop": 9773000,
    "longitude": 19.0402,
    "name": "Hungary",
    "country": "HU",
    "lastUpdated": "2020-05-08T12:40:02.455Z",
    "dead": 392,
    "id": "7rYC2iFB50c55Ihgbs4Q",
    "sick": 1921,
    "invisible": false
  },
  {
    "latitude": 10.9685,
    "pop": 2400000,
    "longitude": -74.7813,
    "name": "Barranquilla D.E.",
    "country": "CO",
    "lastUpdated": "2020-05-08T12:41:08.948Z",
    "dead": 20,
    "id": "7tqLvLyXcBDK808nJv0m",
    "infected": 342,
    "recovered": 48,
    "sick": 274,
    "invisible": false
  },
  {
    "longitude": 12.3547,
    "name": "Cameroon",
    "country": "CM",
    "lastUpdated": "2020-05-08T12:40:02.456Z",
    "dead": 108,
    "id": "8C0d7WVCjyUGtnc2gUAR",
    "infected": 2267,
    "recovered": 1002,
    "latitude": 7.3697,
    "pop": 24050000,
    "sick": 1157,
    "invisible": false
  },
  {
    "infected": 5334,
    "recovered": 2101,
    "latitude": 50.8503,
    "pop": 1209000,
    "longitude": 4.3517,
    "name": "Brussels",
    "country": "BE",
    "lastUpdated": "2020-05-08T12:26:12.098Z",
    "dead": 1339,
    "id": "8DOZWbN6bDdgaLXVlUEu",
    "sick": 1894,
    "invisible": false
  },
  {
    "infected": 2081,
    "recovered": 219,
    "latitude": -16.2902,
    "pop": 11050000,
    "longitude": -63.5887,
    "name": "Bolivia",
    "country": "BO",
    "lastUpdated": "2020-05-08T12:40:02.456Z",
    "dead": 102,
    "id": "8RihJrXw4NQXPxaRxr1u",
    "sick": 1760,
    "invisible": false
  },
  {
    "lastUpdated": "2020-05-08T12:40:02.469Z",
    "dead": 0,
    "id": "8ZTySQROQejkDAad0qxQ",
    "infected": 17,
    "recovered": 9,
    "latitude": 12.9843,
    "pop": 109897,
    "longitude": -61.2872,
    "name": "St. Vincent Grenadines",
    "country": "VC",
    "sick": 8,
    "invisible": false
  },
  {
    "infected": 21707,
    "recovered": 1712,
    "latitude": 1.352083,
    "pop": 5621000,
    "longitude": 103.819839,
    "name": "Singapore",
    "country": "SG",
    "lastUpdated": "2020-05-08T12:40:02.453Z",
    "dead": 20,
    "id": "8pA3fM4xC2c2wv1b4TnE",
    "sick": 19975,
    "invisible": false
  },
  {
    "latitude": 47.2184,
    "pop": 3787000,
    "longitude": -1.5536,
    "name": "Pays de la Loire",
    "country": "FR",
    "lastUpdated": "2020-05-07T22:29:42.154Z",
    "dead": 372,
    "id": "98hwAoohgWEOQVa3NlM5",
    "infected": 3378,
    "recovered": 1373,
    "sick": 1633,
    "invisible": false
  },
  {
    "lastUpdated": "2020-05-08T12:32:01.612Z",
    "dead": 26,
    "id": "9DAvxOObTqIvMOU93nlY",
    "infected": 219,
    "recovered": 0,
    "latitude": 19.30754,
    "pop": 952300,
    "longitude": -90.19885,
    "name": "Campeche",
    "country": "MX",
    "sick": 193,
    "invisible": false
  },
  {
    "infected": 930,
    "recovered": 92,
    "latitude": 12.8628,
    "pop": 40530000,
    "longitude": 30.2176,
    "name": "Sudan",
    "country": "SD",
    "lastUpdated": "2020-05-08T12:40:02.457Z",
    "dead": 52,
    "id": "9DPOkpIqrFy9mR4e9fuv",
    "sick": 786,
    "invisible": false
  },
  {
    "id": "9JFYfvpcejMIgYlHpngA",
    "infected": 333,
    "recovered": 85,
    "latitude": 58.5501,
    "pop": 643000,
    "longitude": 43.9541,
    "name": "Kostroma Oblast",
    "country": "RU",
    "lastUpdated": "2020-05-08T12:30:18.584Z",
    "dead": 3,
    "sick": 245,
    "invisible": false
  },
  {
    "latitude": 45.943161,
    "pop": 19530000,
    "longitude": 24.966761,
    "name": "Romania",
    "country": "RO",
    "lastUpdated": "2020-05-08T12:40:02.453Z",
    "dead": 898,
    "id": "9QcETqEcM2fTv9zRvx5T",
    "infected": 14811,
    "recovered": 6423,
    "sick": 7490,
    "invisible": false
  },
  {
    "latitude": 12.136389,
    "pop": 6218000,
    "longitude": -86.251389,
    "name": "Nicaragua",
    "country": "NI",
    "lastUpdated": "2020-05-08T12:40:02.469Z",
    "dead": 5,
    "id": "9Y5wmCqNCC6ZrenM31uA",
    "infected": 16,
    "recovered": 7,
    "sick": 4,
    "invisible": false
  },
  {
    "infected": 650,
    "recovered": 271,
    "latitude": 17.5706921,
    "pop": 18540000,
    "longitude": -3.996166,
    "name": "Mali",
    "country": "ML",
    "lastUpdated": "2020-05-08T12:40:02.460Z",
    "dead": 32,
    "id": "9dIzxqDSVqPyINkHqwGv",
    "sick": 347,
    "invisible": false
  },
  {
    "infected": 5738,
    "recovered": 3500,
    "latitude": 61.92411,
    "pop": 5513000,
    "longitude": 25.748152,
    "name": "Finland",
    "country": "FI",
    "lastUpdated": "2020-05-08T12:40:02.455Z",
    "dead": 260,
    "id": "9p6OCdZbUUwBLA60Gk3W",
    "sick": 1978,
    "invisible": false
  },
  {
    "latitude": 64.248,
    "pop": 2876000,
    "longitude": 95.1104,
    "name": "Krasnoyarsk Krai",
    "country": "RU",
    "lastUpdated": "2020-05-08T12:30:18.574Z",
    "dead": 12,
    "id": "A6Us0fpQVCc85SoIqzg3",
    "infected": 964,
    "recovered": 220,
    "sick": 732,
    "invisible": false
  },
  {
    "id": "A84CwQ52kA46Hr7pn6Bm",
    "infected": 2843,
    "recovered": 0,
    "latitude": 43.311643,
    "pop": 1356000,
    "longitude": -71.590315,
    "name": "New Hampshire",
    "country": "US",
    "lastUpdated": "2020-05-08T12:39:01.259Z",
    "dead": 114,
    "sick": 2729,
    "invisible": false
  },
  {
    "infected": 10530,
    "recovered": 0,
    "latitude": 41.823261,
    "pop": 1057000,
    "longitude": -71.412257,
    "name": "Rhode Island",
    "country": "US",
    "lastUpdated": "2020-05-08T12:39:01.257Z",
    "dead": 388,
    "id": "AEUWUHS65qvjEslew11c",
    "sick": 10142,
    "invisible": false
  },
  {
    "infected": 26487,
    "recovered": 14710,
    "latitude": 44.498955,
    "pop": 4453000,
    "longitude": 11.327591,
    "name": "Emilia-Romagna",
    "country": "IT",
    "lastUpdated": "2020-05-08T12:31:01.923Z",
    "dead": 3766,
    "id": "AJ9jQ0iyKsafsmf5yHAR",
    "sick": 8011,
    "invisible": false
  },
  {
    "longitude": 7.023,
    "name": "Saarland",
    "country": "DE",
    "lastUpdated": "2020-05-08T12:30:07.616Z",
    "dead": 145,
    "id": "AKjFRQGnzuuZQhv5Qwx7",
    "infected": 2693,
    "recovered": 2206,
    "latitude": 49.3964,
    "pop": 990509,
    "sick": 342,
    "invisible": false
  },
  {
    "latitude": 54.4319,
    "pop": 3493000,
    "longitude": 60.8789,
    "name": "Chelyabinsk Oblast",
    "country": "RU",
    "lastUpdated": "2020-05-08T12:30:18.575Z",
    "dead": 3,
    "id": "AOapJ3gElQApd8Gnt8EL",
    "infected": 881,
    "recovered": 148,
    "sick": 730,
    "invisible": false
  },
  {
    "latitude": -35.717,
    "pop": 1125002,
    "longitude": -71.167,
    "name": "Maule",
    "country": "CL",
    "lastUpdated": "2020-05-08T12:41:05.720Z",
    "dead": 13,
    "id": "APTPgjAsjFi0nsGyJV7M",
    "infected": 414,
    "recovered": 0,
    "sick": 401,
    "invisible": false
  },
  {
    "infected": 11,
    "recovered": 11,
    "latitude": 71.7069,
    "pop": 56171,
    "longitude": -42.6043,
    "name": "Greenland",
    "country": "GL",
    "lastUpdated": "2020-05-08T12:40:02.470Z",
    "dead": 0,
    "id": "APaZzlGCEeuoLBtzTJMe",
    "sick": 0,
    "invisible": false
  },
  {
    "latitude": 54.8331,
    "pop": 984000,
    "longitude": 112.4061,
    "name": "Buryatia",
    "country": "RU",
    "lastUpdated": "2020-05-08T12:30:18.582Z",
    "dead": 4,
    "id": "ATxF6ZoDJ2ibdE6ZRYIX",
    "infected": 518,
    "recovered": 162,
    "sick": 352,
    "invisible": false
  },
  {
    "latitude": 45.65107,
    "pop": 971395,
    "longitude": -63.582687,
    "name": "Nova Scotia",
    "country": "CA",
    "lastUpdated": "2020-05-08T12:27:08.868Z",
    "dead": 44,
    "id": "AVCpxeh0fuH2WrHWNDYH",
    "infected": 1007,
    "recovered": 0,
    "sick": 963,
    "invisible": false
  },
  {
    "lastUpdated": "2020-05-08T12:39:01.260Z",
    "dead": 16,
    "id": "AcULcZBozObOhwuRKMjJ",
    "infected": 457,
    "recovered": 0,
    "latitude": 47.012918,
    "pop": 1062000,
    "longitude": -109.128641,
    "name": "Montana",
    "country": "US",
    "sick": 441,
    "invisible": false
  },
  {
    "lastUpdated": "2020-05-08T12:40:02.462Z",
    "dead": 12,
    "id": "AiIGs3ybYZZhm1ytVopr",
    "infected": 461,
    "recovered": 0,
    "latitude": 38.861,
    "pop": 9275000,
    "longitude": 71.2761,
    "name": "Tajikistan",
    "country": "TJ",
    "sick": 449,
    "invisible": false
  },
  {
    "latitude": 27.285971,
    "pop": 45200000,
    "longitude": 116.01609,
    "name": "Jiangxi",
    "country": "CN",
    "lastUpdated": "2020-05-08T12:38:04.138Z",
    "dead": 1,
    "id": "AmBYm5J6E9Cuez1FQjiN",
    "infected": 937,
    "recovered": 936,
    "sick": 0,
    "invisible": false
  },
  {
    "infected": 10851,
    "recovered": 0,
    "latitude": 52.1307,
    "pop": 3136000,
    "longitude": -3.7837,
    "name": "Wales",
    "country": "GB",
    "lastUpdated": "2020-05-08T12:38:18.483Z",
    "dead": 1062,
    "id": "AoLhHdTydeWTfmp9koEX",
    "sick": 9789,
    "invisible": false
  },
  {
    "infected": 367,
    "recovered": 50,
    "latitude": 53.0452,
    "pop": 537000,
    "longitude": 90.3982,
    "name": "Khakassia",
    "country": "RU",
    "lastUpdated": "2020-05-08T12:30:18.583Z",
    "dead": 8,
    "id": "Avls64fLKoEsBFH0Ol0b",
    "sick": 309,
    "invisible": false
  },
  {
    "recovered": 2323,
    "latitude": 28.033886,
    "pop": 41320000,
    "longitude": 1.659626,
    "name": "Algeria",
    "country": "DZ",
    "lastUpdated": "2020-05-08T12:40:02.455Z",
    "dead": 483,
    "id": "AwN0CScPDApcLFgz6e3z",
    "infected": 5182,
    "sick": 2376,
    "invisible": false
  },
  {
    "longitude": 15.2,
    "name": "Croatia",
    "country": "HR",
    "lastUpdated": "2020-05-08T12:40:02.456Z",
    "dead": 86,
    "id": "B82Ef45M8cDu4q7VsSHF",
    "infected": 2161,
    "recovered": 1689,
    "latitude": 45.099998,
    "pop": 4076000,
    "sick": 386,
    "invisible": false
  },
  {
    "infected": 781,
    "recovered": 586,
    "latitude": 17.6077881,
    "pop": 23716000,
    "longitude": 8.081666,
    "name": "Niger",
    "country": "NE",
    "lastUpdated": "2020-05-08T12:40:02.460Z",
    "dead": 42,
    "id": "BENubqQInFUJzhpZTsLT",
    "sick": 153,
    "invisible": false
  },
  {
    "latitude": 39.509109,
    "pop": 6043000,
    "longitude": -76.98432,
    "name": "Maryland",
    "country": "US",
    "lastUpdated": "2020-05-08T12:39:01.256Z",
    "dead": 1503,
    "id": "BF51mWl51fgEcyBpCSzb",
    "infected": 29374,
    "recovered": 0,
    "sick": 27871,
    "invisible": false
  },
  {
    "latitude": 53.709808,
    "pop": 9508000,
    "longitude": 27.953388,
    "name": "Belarus",
    "country": "BY",
    "lastUpdated": "2020-05-08T12:40:02.453Z",
    "dead": 116,
    "id": "BGg6yVU5VP71B8NXU0oh",
    "infected": 20168,
    "recovered": 5067,
    "sick": 14985,
    "invisible": false
  },
  {
    "infected": 3021,
    "recovered": 1169,
    "latitude": 48.8799,
    "pop": 3319000,
    "longitude": 0.1713,
    "name": "Normandie",
    "country": "FR",
    "lastUpdated": "2020-05-07T22:30:05.357Z",
    "dead": 367,
    "id": "BGtoyzb7y54LVlJ91rbf",
    "sick": 1485,
    "invisible": false
  },
  {
    "infected": 6825,
    "recovered": 0,
    "latitude": 50.7772,
    "pop": 5616000,
    "longitude": -3.9995,
    "name": "South West",
    "country": "GB",
    "lastUpdated": "2020-05-08T12:38:18.486Z",
    "dead": 0,
    "id": "BQqMOlPFD36ZEDTGd3WC",
    "sick": 6825,
    "invisible": false
  },
  {
    "id": "BTEESCuD2ZbS1afunR2A",
    "infected": 9945,
    "recovered": 0,
    "latitude": 34.048927,
    "pop": 7172000,
    "longitude": -111.093735,
    "name": "Arizona",
    "country": "US",
    "lastUpdated": "2020-05-08T12:39:01.257Z",
    "dead": 450,
    "sick": 9495,
    "invisible": false
  },
  {
    "latitude": 54.9883,
    "pop": 949000,
    "longitude": 32.6677,
    "name": "Smolensk Oblast",
    "country": "RU",
    "lastUpdated": "2020-05-08T12:30:18.579Z",
    "dead": 5,
    "id": "BUb7oDHcBM4lQ5cufNoG",
    "infected": 646,
    "recovered": 94,
    "sick": 547,
    "invisible": false
  },
  {
    "lastUpdated": "2020-05-08T12:30:18.577Z",
    "dead": 4,
    "id": "BWojXmuKU3szKlS7CE4k",
    "infected": 718,
    "recovered": 143,
    "latitude": 58.4199,
    "pop": 1283000,
    "longitude": 50.2097,
    "name": "Kirov Oblast",
    "country": "RU",
    "sick": 571,
    "invisible": false
  },
  {
    "recovered": 0,
    "latitude": 53.428543,
    "pop": 1676000,
    "longitude": 14.552812,
    "name": "Zachodniopomorskie",
    "country": "PL",
    "lastUpdated": "2020-05-08T12:33:01.500Z",
    "dead": 16,
    "id": "BZwZOAlDJ8AIiaRVLyC9",
    "infected": 464,
    "sick": 448,
    "invisible": false
  },
  {
    "lastUpdated": "2020-05-08T12:41:05.721Z",
    "dead": 0,
    "id": "BbiuZcm8oURX7cZwaa5U",
    "invisible": true,
    "infected": 0,
    "recovered": 11664,
    "latitude": -33.4489,
    "longitude": -70.6693,
    "name": "Unknown Chile region",
    "country": "CL",
    "sick": 0
  },
  {
    "lastUpdated": "2020-05-08T12:40:02.468Z",
    "dead": 3,
    "id": "BfT8o5DaEixC6JIZ28kY",
    "infected": 43,
    "recovered": 14,
    "latitude": -13.2543,
    "pop": 18620000,
    "longitude": 34.3015,
    "name": "Malawi",
    "country": "MW",
    "sick": 26,
    "invisible": false
  },
  {
    "latitude": -3.3730559,
    "pop": 10860000,
    "longitude": 29.9188862,
    "name": "Burundi",
    "country": "BI",
    "lastUpdated": "2020-05-08T12:40:02.470Z",
    "dead": 1,
    "id": "BnpMamidC5yYzeK8tPUL",
    "infected": 15,
    "recovered": 7,
    "sick": 7,
    "invisible": false
  },
  {
    "infected": 2709,
    "recovered": 0,
    "latitude": 52.257,
    "pop": 5385000,
    "longitude": 21.002,
    "name": "Mazowieckie",
    "country": "PL",
    "lastUpdated": "2020-05-08T12:33:01.499Z",
    "dead": 217,
    "id": "BrToMzyq8y2xdwXn75kM",
    "sick": 2492,
    "invisible": false
  },
  {
    "latitude": -1.333845,
    "pop": 74751,
    "longitude": -71.347573,
    "name": "Amazonas (Colombia)",
    "country": "CO",
    "lastUpdated": "2020-05-08T12:41:08.949Z",
    "dead": 14,
    "id": "C25xSDm4iYibX5RYML14",
    "infected": 418,
    "recovered": 0,
    "sick": 404,
    "invisible": false
  },
  {
    "infected": 337421,
    "recovered": 0,
    "latitude": 40.719042,
    "pop": 19540000,
    "longitude": -73.982597,
    "name": "New York",
    "country": "US",
    "lastUpdated": "2020-05-08T12:39:01.254Z",
    "dead": 26365,
    "id": "C3BCUzV80z9GfiuByIcr",
    "sick": 311056,
    "invisible": false
  },
  {
    "id": "C6S76AggdWVU8G22jFHQ",
    "infected": 8034,
    "recovered": 4372,
    "latitude": 49.731626,
    "pop": 10650000,
    "longitude": 15.359413,
    "name": "Czechia",
    "country": "CZ",
    "lastUpdated": "2020-05-08T12:40:02.454Z",
    "dead": 270,
    "sick": 3392,
    "invisible": false
  },
  {
    "latitude": 26.0667,
    "pop": 1493000,
    "longitude": 50.557701,
    "name": "Bahrain",
    "country": "BH",
    "lastUpdated": "2020-05-08T12:40:02.455Z",
    "dead": 8,
    "id": "C7cj4nwRITs13KnaJrQ2",
    "infected": 4404,
    "recovered": 2027,
    "sick": 2369,
    "invisible": false
  },
  {
    "infected": 69,
    "recovered": 15,
    "latitude": 10.4113,
    "pop": 1285400,
    "longitude": -74.4057,
    "name": "Magdalena",
    "country": "CO",
    "lastUpdated": "2020-05-08T12:41:08.949Z",
    "dead": 6,
    "id": "CA9LaAl3bNaeAqBuozn4",
    "sick": 48,
    "invisible": false
  },
  {
    "infected": 536,
    "recovered": 0,
    "latitude": 26.909979,
    "pop": 3073500,
    "longitude": -101.430756,
    "name": "Coahuila",
    "country": "MX",
    "lastUpdated": "2020-05-08T12:32:01.611Z",
    "dead": 51,
    "id": "CCUFp4urvgXPo5unfMGy",
    "sick": 485,
    "invisible": false
  },
  {
    "longitude": 74.2179,
    "name": "Rajasthan",
    "country": "IN",
    "lastUpdated": "2020-05-08T12:41:11.956Z",
    "dead": 100,
    "id": "CKZCZTPlrcq5fbfUPA9k",
    "infected": 3491,
    "recovered": 1916,
    "latitude": 27.0238,
    "pop": 68890000,
    "sick": 1475,
    "invisible": false
  },
  {
    "lastUpdated": "2020-05-08T12:30:18.589Z",
    "dead": 0,
    "id": "CX8z9U1iABNBhc1VK2Dy",
    "infected": 41,
    "recovered": 5,
    "latitude": 50.6182,
    "pop": 218000,
    "longitude": 86.2199,
    "name": "Altai",
    "country": "RU",
    "sick": 36,
    "invisible": false
  },
  {
    "latitude": 13.803,
    "pop": 6378000,
    "longitude": -88.9053,
    "name": "El Salvador",
    "country": "SV",
    "lastUpdated": "2020-05-08T12:40:02.460Z",
    "dead": 15,
    "id": "Cgvmtle61ehMvCzRzYx7",
    "infected": 742,
    "recovered": 257,
    "sick": 470,
    "invisible": false
  },
  {
    "latitude": 62.6643,
    "pop": 144000,
    "longitude": 153.915,
    "name": "Magadan Oblast",
    "country": "RU",
    "lastUpdated": "2020-05-08T12:30:18.587Z",
    "dead": 2,
    "id": "D4WkbqyUXY1pazbOxfKx",
    "infected": 146,
    "recovered": 67,
    "sick": 77,
    "invisible": false
  },
  {
    "recovered": 48,
    "latitude": 58.897,
    "pop": 1078000,
    "longitude": 82.6765,
    "name": "Tomsk Oblast",
    "country": "RU",
    "lastUpdated": "2020-05-08T12:30:18.587Z",
    "dead": 2,
    "id": "DAp3PFow4BuCMYWWTo3i",
    "infected": 176,
    "sick": 126,
    "invisible": false
  },
  {
    "lastUpdated": "2020-05-08T12:40:02.456Z",
    "dead": 43,
    "id": "DCJCtZoBTWQ4mzdDNljD",
    "infected": 3029,
    "recovered": 1218,
    "latitude": 40.259003,
    "pop": 2973000,
    "longitude": 44.818474,
    "name": "Armenia",
    "country": "AM",
    "sick": 1768,
    "invisible": false
  },
  {
    "latitude": 5.535,
    "pop": 1278000,
    "longitude": -73.368,
    "name": "Boyacá",
    "country": "CO",
    "lastUpdated": "2020-05-08T12:41:08.949Z",
    "dead": 3,
    "id": "DJJraANgQbEqz1wBBtZz",
    "infected": 61,
    "recovered": 18,
    "sick": 40,
    "invisible": false
  },
  {
    "infected": 1055,
    "recovered": 160,
    "latitude": 54.2369,
    "pop": 834000,
    "longitude": 44.0684,
    "name": "Mordovia",
    "country": "RU",
    "lastUpdated": "2020-05-08T12:30:18.573Z",
    "dead": 8,
    "id": "DKwy7USk22oXUQGEvO42",
    "sick": 887,
    "invisible": false
  },
  {
    "latitude": 53.6221,
    "pop": 7300000,
    "longitude": -2.5945,
    "name": "North West",
    "country": "GB",
    "lastUpdated": "2020-05-08T12:38:18.486Z",
    "dead": 0,
    "id": "DPwBt2aJuwF0O71vwfM9",
    "infected": 21600,
    "recovered": 0,
    "sick": 21600,
    "invisible": false
  },
  {
    "id": "DZyTD0Mu5WIcK6yTcJ91",
    "infected": 118,
    "recovered": 61,
    "latitude": 32.3213844,
    "pop": 65440,
    "longitude": -64.75737,
    "name": "Bermuda",
    "country": "BM",
    "lastUpdated": "2020-05-08T12:40:02.466Z",
    "dead": 7,
    "sick": 50,
    "invisible": false
  },
  {
    "infected": 12,
    "recovered": 6,
    "latitude": 21.694,
    "pop": 35446,
    "longitude": -71.7979,
    "name": "Turks and Caicos",
    "country": "TC",
    "lastUpdated": "2020-05-08T12:40:02.470Z",
    "dead": 1,
    "id": "DaMrRSIGJXIG36nW0Pnc",
    "sick": 5,
    "invisible": false
  },
  {
    "infected": 22908,
    "recovered": 5981,
    "latitude": 39.2796,
    "pop": 2035000,
    "longitude": -3.0977,
    "name": "Castilla La Mancha",
    "country": "ES",
    "lastUpdated": "2020-05-08T12:32:11.253Z",
    "dead": 2713,
    "id": "Dbng0NBTH41EEwBxhMzE",
    "sick": 14214,
    "invisible": false
  },
  {
    "infected": 1028,
    "recovered": 0,
    "latitude": 50.023,
    "pop": 3361000,
    "longitude": 20.006,
    "name": "Malopolskie",
    "country": "PL",
    "lastUpdated": "2020-05-08T12:33:01.500Z",
    "dead": 33,
    "id": "DcQ3D0WkacXEbv6iznRB",
    "sick": 995,
    "invisible": false
  },
  {
    "infected": 45,
    "recovered": 40,
    "latitude": 22.192039,
    "pop": 622567,
    "longitude": 113.551262,
    "name": "Macao",
    "country": "MO",
    "lastUpdated": "2020-05-08T12:40:02.468Z",
    "dead": 0,
    "id": "DdBt8qsG6A3g92oOR3ow",
    "sick": 5,
    "invisible": false
  },
  {
    "infected": 12,
    "recovered": 10,
    "latitude": 25.467,
    "pop": 2651000,
    "longitude": 91.3662,
    "name": "Meghalaya",
    "country": "IN",
    "lastUpdated": "2020-05-08T12:41:11.961Z",
    "dead": 1,
    "id": "Dh0O1vmhrVfmsCsfZCUg",
    "sick": 1,
    "invisible": false
  },
  {
    "longitude": 41.8259,
    "name": "Rostov Oblast",
    "country": "RU",
    "lastUpdated": "2020-05-08T12:30:18.569Z",
    "dead": 16,
    "id": "DqzAhNFTJFQVm88ma21P",
    "infected": 1594,
    "recovered": 262,
    "latitude": 47.6853,
    "pop": 4220000,
    "sick": 1316,
    "invisible": false
  },
  {
    "latitude": 42.962334,
    "pop": 577737,
    "longitude": -107.534868,
    "name": "Wyoming",
    "country": "US",
    "lastUpdated": "2020-05-08T12:39:01.260Z",
    "dead": 7,
    "id": "DrGzziUglmBognCGY7R2",
    "infected": 635,
    "recovered": 0,
    "sick": 628,
    "invisible": false
  },
  {
    "latitude": 37.9838,
    "pop": 10740000,
    "longitude": 23.7275,
    "name": "Greece",
    "country": "GR",
    "lastUpdated": "2020-05-08T12:40:02.456Z",
    "dead": 148,
    "id": "Dtr1lap1RpJpXJdXGJiW",
    "infected": 2678,
    "recovered": 1374,
    "sick": 1156,
    "invisible": false
  },
  {
    "latitude": 58.8232,
    "pop": 2623000,
    "longitude": 56.5872,
    "name": "Perm Krai",
    "country": "RU",
    "lastUpdated": "2020-05-08T12:30:18.577Z",
    "dead": 10,
    "id": "E8vIyXLVNtcY9dxLHICp",
    "infected": 719,
    "recovered": 333,
    "sick": 376,
    "invisible": false
  },
  {
    "recovered": 271,
    "latitude": 56.9634,
    "pop": 3692000,
    "longitude": 66.9483,
    "name": "Tyumen Oblast",
    "country": "RU",
    "lastUpdated": "2020-05-08T12:30:18.578Z",
    "dead": 5,
    "id": "EHKZ6ivhrJUs3XqNDBOw",
    "infected": 707,
    "sick": 431,
    "invisible": false
  },
  {
    "latitude": 25.03841,
    "pop": 23780000,
    "longitude": 121.563698,
    "name": "Taiwan",
    "country": "TW",
    "lastUpdated": "2020-05-08T12:40:02.462Z",
    "dead": 6,
    "id": "EKTfs8e7M6DXzI1HqyyX",
    "infected": 440,
    "recovered": 355,
    "sick": 79,
    "invisible": false
  },
  {
    "lastUpdated": "2020-05-08T12:40:02.460Z",
    "dead": 6,
    "id": "EQzJvzVHKjs8kLmK7BMu",
    "infected": 765,
    "recovered": 445,
    "latitude": 10.327273,
    "pop": 4906000,
    "longitude": -84.387618,
    "name": "Costa Rica",
    "country": "CR",
    "sick": 314,
    "invisible": false
  },
  {
    "longitude": 71.1924,
    "name": "Gujarat",
    "country": "IN",
    "lastUpdated": "2020-05-08T12:41:11.956Z",
    "dead": 425,
    "id": "ERwk9R9en4m9WbdoMbIg",
    "infected": 7013,
    "recovered": 1709,
    "latitude": 22.2587,
    "pop": 62700000,
    "sick": 4879,
    "invisible": false
  },
  {
    "infected": 372,
    "recovered": 137,
    "latitude": 63.2853,
    "pop": 1155000,
    "longitude": 42.5884,
    "name": "Arkhangelsk Oblast",
    "country": "RU",
    "lastUpdated": "2020-05-08T12:30:18.583Z",
    "dead": 1,
    "id": "EVMBsgCJedjHy91mDYEC",
    "sick": 234,
    "invisible": false
  },
  {
    "infected": 146,
    "recovered": 21,
    "latitude": 30.7333,
    "pop": 1055000,
    "longitude": 76.7794,
    "name": "Chandigarh",
    "country": "IN",
    "lastUpdated": "2020-05-08T12:41:11.960Z",
    "dead": 1,
    "id": "Esl5UlCVB9s8pmGB5Ofr",
    "sick": 124,
    "invisible": false
  },
  {
    "id": "Esy1La2CxwH5uB8bGVWZ",
    "infected": 384,
    "recovered": 0,
    "latitude": 51.24,
    "pop": 2148000,
    "longitude": 22.653,
    "name": "Lubelskie",
    "country": "PL",
    "lastUpdated": "2020-05-08T12:33:01.501Z",
    "dead": 14,
    "sick": 370,
    "invisible": false
  },
  {
    "infected": 2031,
    "recovered": 0,
    "latitude": 18.200178,
    "pop": 3195000,
    "longitude": -66.664513,
    "name": "Puerto Rico",
    "country": "PR",
    "lastUpdated": "2020-05-08T12:39:01.261Z",
    "dead": 102,
    "id": "F4rPrEVGAIMM5rfPEMv4",
    "sick": 1929,
    "invisible": false
  },
  {
    "lastUpdated": "2020-05-08T12:41:08.948Z",
    "dead": 13,
    "id": "F7MED5VwEhi3JvJu6KjB",
    "infected": 266,
    "recovered": 125,
    "latitude": 4.862437,
    "pop": 2919000,
    "longitude": -74.058655,
    "name": "Cundinamarca",
    "country": "CO",
    "sick": 128,
    "invisible": false
  },
  {
    "id": "F8LnLqvuWoWh8awBqiw1",
    "infected": 8,
    "recovered": 0,
    "latitude": -11.6455,
    "pop": 832322,
    "longitude": 43.3333,
    "name": "Comoros",
    "country": "KM",
    "lastUpdated": "2020-05-08T12:40:02.471Z",
    "dead": 1,
    "sick": 7,
    "invisible": false
  },
  {
    "latitude": 33.93911,
    "pop": 35530000,
    "longitude": 67.709953,
    "name": "Afghanistan",
    "country": "AF",
    "lastUpdated": "2020-05-08T12:40:02.455Z",
    "dead": 106,
    "id": "FCDmlmnIIswd8bQiUjfN",
    "infected": 3563,
    "recovered": 468,
    "sick": 2989,
    "invisible": false
  },
  {
    "longitude": 106.912254,
    "name": "Chongqing",
    "country": "CN",
    "lastUpdated": "2020-05-08T12:38:04.138Z",
    "dead": 6,
    "id": "FErOU1m4Tj7jIkRam3vF",
    "infected": 579,
    "recovered": 573,
    "latitude": 29.431585,
    "pop": 30480000,
    "sick": 0,
    "invisible": false
  },
  {
    "latitude": 29.311661,
    "pop": 4137000,
    "longitude": 47.481766,
    "name": "Kuwait",
    "country": "KW",
    "lastUpdated": "2020-05-08T12:40:02.454Z",
    "dead": 47,
    "id": "FZsUkhxBEgqsPb4eO0PN",
    "infected": 7208,
    "recovered": 2466,
    "sick": 4695,
    "invisible": false
  },
  {
    "latitude": -10.9111,
    "pop": 2278308,
    "longitude": -37.0717,
    "name": "Sergipe",
    "country": "BR",
    "lastUpdated": "2020-05-08T12:38:01.633Z",
    "dead": 25,
    "id": "FboWeolpM62SZCLwdilT",
    "infected": 1214,
    "recovered": 0,
    "sick": 1189,
    "invisible": false
  },
  {
    "latitude": 11.1271,
    "pop": 67860000,
    "longitude": 78.6569,
    "name": "Tamil Nadu",
    "country": "IN",
    "lastUpdated": "2020-05-08T12:41:11.956Z",
    "dead": 37,
    "id": "FeS45oMNC27pI17F0xEV",
    "infected": 5409,
    "recovered": 1547,
    "sick": 3825,
    "invisible": false
  },
  {
    "infected": 9095,
    "recovered": 2064,
    "latitude": 18.947829,
    "pop": 10770000,
    "longitude": -70.430399,
    "name": "Dominican Republic",
    "country": "DO",
    "lastUpdated": "2020-05-08T12:40:02.454Z",
    "dead": 373,
    "id": "FuiVEJvWb0QMCpxJ3563",
    "sick": 6658,
    "invisible": false
  },
  {
    "infected": 1122,
    "recovered": 693,
    "latitude": 18.1124,
    "pop": 35190000,
    "longitude": 79.0193,
    "name": "Telengana",
    "country": "IN",
    "lastUpdated": "2020-05-08T12:41:11.958Z",
    "dead": 29,
    "id": "FyC551oNwmENxbr9Yght",
    "sick": 400,
    "invisible": false
  },
  {
    "pop": 5450000,
    "longitude": 19.699,
    "name": "Slovakia",
    "country": "SK",
    "lastUpdated": "2020-05-08T12:40:02.457Z",
    "dead": 26,
    "id": "FzIDXoqWnTI3nUfhPyT2",
    "infected": 1455,
    "recovered": 905,
    "latitude": 48.669,
    "sick": 524,
    "invisible": false
  },
  {
    "infected": 26435,
    "recovered": 7530,
    "latitude": 30.37532,
    "pop": 197000000,
    "longitude": 69.345116,
    "name": "Pakistan",
    "country": "PK",
    "lastUpdated": "2020-05-08T12:40:02.452Z",
    "dead": 599,
    "id": "GAp7Wb6IMhdgbvEtMza9",
    "sick": 18306,
    "invisible": false
  },
  {
    "lastUpdated": "2020-05-08T12:41:11.957Z",
    "dead": 28,
    "id": "GGru8cG08mANO8XDDUtZ",
    "infected": 1644,
    "recovered": 149,
    "latitude": 31.1471,
    "pop": 27980000,
    "longitude": 75.3412,
    "name": "Punjab",
    "country": "IN",
    "sick": 1467,
    "invisible": false
  },
  {
    "infected": 16793,
    "recovered": 3837,
    "latitude": 23.424076,
    "pop": 9400000,
    "longitude": 53.847816,
    "name": "United Arab Emirates",
    "country": "AE",
    "lastUpdated": "2020-05-08T12:40:02.453Z",
    "dead": 174,
    "id": "GHzBIsHy2GiBc5JV2HMs",
    "sick": 12782,
    "invisible": false
  },
  {
    "recovered": 0,
    "latitude": 37.0902,
    "longitude": -95.7129,
    "name": "Grand Princess",
    "country": "US",
    "lastUpdated": "2020-05-08T12:39:01.261Z",
    "dead": 3,
    "id": "GLViSIjDjwvptOphedAu",
    "invisible": true,
    "infected": 103,
    "sick": 100
  },
  {
    "latitude": 51.5074,
    "pop": 10100000,
    "longitude": -0.1278,
    "name": "London",
    "country": "GB",
    "lastUpdated": "2020-05-08T12:38:18.485Z",
    "dead": 0,
    "id": "GPtoS0Yy2EnNafpmmTqY",
    "infected": 25499,
    "recovered": 0,
    "sick": 25499,
    "invisible": false
  },
  {
    "infected": 62477,
    "recovered": 0,
    "latitude": 36.621981,
    "pop": 39560000,
    "longitude": -119.339046,
    "name": "California",
    "country": "US",
    "lastUpdated": "2020-05-08T12:39:01.255Z",
    "dead": 2545,
    "id": "Gh46r6vuaY7fbGt3IboN",
    "sick": 59932,
    "invisible": false
  },
  {
    "infected": 1,
    "recovered": 0,
    "latitude": 20.4283,
    "pop": 343709,
    "longitude": 72.8397,
    "name": "Dadra and Nagar Haveli",
    "country": "IN",
    "lastUpdated": "2020-05-08T12:41:11.962Z",
    "dead": 0,
    "id": "GljWeVnun6o9DeW6rlEm",
    "sick": 1,
    "invisible": false
  },
  {
    "latitude": 35.87189,
    "pop": 3943000,
    "longitude": -97.145514,
    "name": "Oklahoma",
    "country": "US",
    "lastUpdated": "2020-05-08T12:39:01.259Z",
    "dead": 260,
    "id": "GpF8ULuKOQiFDCUHN44h",
    "infected": 4330,
    "recovered": 0,
    "sick": 4070,
    "invisible": false
  },
  {
    "longitude": 41.483,
    "name": "Ivanovo Oblast",
    "country": "RU",
    "lastUpdated": "2020-05-08T12:30:18.578Z",
    "dead": 7,
    "id": "GsecjBfopdgTOnyRgtCA",
    "infected": 653,
    "recovered": 133,
    "latitude": 57.1057,
    "pop": 1014000,
    "sick": 513,
    "invisible": false
  },
  {
    "lastUpdated": "2020-05-08T12:31:01.923Z",
    "dead": 286,
    "id": "Gzx6GX1qhBm714BkEC6l",
    "infected": 2552,
    "recovered": 1715,
    "latitude": 46.5,
    "pop": 520891,
    "longitude": 11.35,
    "name": "P.A. Bolzano",
    "country": "IT",
    "sick": 551,
    "invisible": false
  },
  {
    "latitude": 42.83263,
    "pop": 24710000,
    "longitude": 113.750972,
    "name": "Inner Mongolia",
    "country": "CN",
    "lastUpdated": "2020-05-08T12:38:04.126Z",
    "dead": 1,
    "id": "H3JeVigVbo5CSYfZG4WI",
    "infected": 201,
    "recovered": 172,
    "sick": 28,
    "invisible": false
  },
  {
    "infected": 5766,
    "recovered": 0,
    "latitude": 39.74536,
    "pop": 3034000,
    "longitude": -116.724977,
    "name": "Nevada",
    "country": "US",
    "lastUpdated": "2020-05-08T12:39:01.258Z",
    "dead": 293,
    "id": "H3bDg4eV30up4WWrIDAS",
    "sick": 5473,
    "invisible": false
  },
  {
    "infected": 13888,
    "recovered": 0,
    "latitude": -3.731862,
    "pop": 9075649,
    "longitude": -38.526669,
    "name": "Ceará",
    "country": "BR",
    "lastUpdated": "2020-05-08T12:38:01.630Z",
    "dead": 903,
    "id": "HEMWNnFxeFEoeOCBOLJD",
    "sick": 12985,
    "invisible": false
  },
  {
    "infected": 753,
    "recovered": 376,
    "latitude": 15.3173,
    "pop": 64060000,
    "longitude": 75.7139,
    "name": "Karnataka",
    "country": "IN",
    "lastUpdated": "2020-05-08T12:41:11.960Z",
    "dead": 30,
    "id": "HN5mGmxlqlSeFSNeu1K5",
    "sick": 347,
    "invisible": false
  },
  {
    "infected": 7,
    "recovered": 5,
    "latitude": 27.5142,
    "pop": 807610,
    "longitude": 90.4336,
    "name": "Bhutan",
    "country": "BT",
    "lastUpdated": "2020-05-08T12:40:02.471Z",
    "dead": 0,
    "id": "HRDpwyxpqW9RN0xLFyNu",
    "sick": 2,
    "invisible": false
  },
  {
    "infected": 2324,
    "recovered": 1748,
    "latitude": 41.3775,
    "pop": 32390000,
    "longitude": 64.5853,
    "name": "Uzbekistan",
    "country": "UZ",
    "lastUpdated": "2020-05-08T12:40:02.456Z",
    "dead": 10,
    "id": "HRTA10dtrruDEwjJEGMp",
    "sick": 566,
    "invisible": false
  },
  {
    "lastUpdated": "2020-05-08T12:39:01.259Z",
    "dead": 172,
    "id": "HSSFomRju0doHhWgW8On",
    "infected": 4493,
    "recovered": 0,
    "latitude": 34.138916,
    "pop": 2095000,
    "longitude": -105.576255,
    "name": "New Mexico",
    "country": "US",
    "sick": 4321,
    "invisible": false
  },
  {
    "latitude": -40.231,
    "pop": 412812,
    "longitude": -72.3311,
    "name": "Los Ríos",
    "country": "CL",
    "lastUpdated": "2020-05-08T12:41:05.720Z",
    "dead": 4,
    "id": "HZkACHjW7NlYjg8vEMj2",
    "infected": 202,
    "recovered": 0,
    "sick": 198,
    "invisible": false
  },
  {
    "lastUpdated": "2020-05-08T12:30:07.616Z",
    "dead": 20,
    "id": "He1gSS1v50t06i3YrqvB",
    "infected": 720,
    "recovered": 650,
    "latitude": 53.6127,
    "pop": 1635000,
    "longitude": 12.4296,
    "name": "Mecklenburg-Vorpommern",
    "country": "DE",
    "sick": 50,
    "invisible": false
  },
  {
    "id": "I9EqrZfbPnkioNU4wZGz",
    "infected": 3072,
    "recovered": 954,
    "latitude": 42.25,
    "pop": 1315000,
    "longitude": 13.75,
    "name": "Abruzzo",
    "country": "IT",
    "lastUpdated": "2020-05-08T12:31:01.922Z",
    "dead": 348,
    "sick": 1770,
    "invisible": false
  },
  {
    "latitude": 23.363855,
    "pop": 113460000,
    "longitude": 113.373448,
    "name": "Guangdong",
    "country": "CN",
    "lastUpdated": "2020-05-08T12:38:04.136Z",
    "dead": 8,
    "id": "IAX0OQLVnUwU7FX0ENF1",
    "infected": 1589,
    "recovered": 1575,
    "sick": 6,
    "invisible": false
  },
  {
    "latitude": 33.875408,
    "pop": 94000000,
    "longitude": 113.484016,
    "name": "Henan",
    "country": "CN",
    "lastUpdated": "2020-05-08T12:38:04.138Z",
    "dead": 22,
    "id": "IFuMrMvSjoiX5agYvllh",
    "infected": 1276,
    "recovered": 1254,
    "sick": 0,
    "invisible": false
  },
  {
    "recovered": 0,
    "latitude": 37.2,
    "pop": 451000,
    "longitude": -8.16667,
    "name": "Algarve",
    "country": "PT",
    "lastUpdated": "2020-05-08T12:34:01.630Z",
    "dead": 13,
    "id": "IHqRHC8K3OZPN8gniM7V",
    "infected": 343,
    "sick": 330,
    "invisible": false
  },
  {
    "lastUpdated": "2020-05-08T12:41:08.949Z",
    "dead": 3,
    "id": "IKWjRUo0SYgHQKdWjTvq",
    "infected": 51,
    "recovered": 2,
    "latitude": 3.883,
    "pop": 333194,
    "longitude": -77.0197,
    "name": "Buenaventura D.E.",
    "country": "CO",
    "sick": 46,
    "invisible": false
  },
  {
    "infected": 7393,
    "recovered": 0,
    "latitude": 52.87,
    "pop": 4811000,
    "longitude": -0.995,
    "name": "East Midlands",
    "country": "GB",
    "lastUpdated": "2020-05-08T12:38:18.485Z",
    "dead": 0,
    "id": "INyu1R48Ppv8cfW4Nuz4",
    "sick": 7393,
    "invisible": false
  },
  {
    "lastUpdated": "2020-05-08T12:32:01.614Z",
    "dead": 11,
    "id": "ISRKMzEDojyrZ9iyWwex",
    "infected": 372,
    "recovered": 0,
    "latitude": 22.017,
    "pop": 1342600,
    "longitude": -102.317,
    "name": "Aguascalientes",
    "country": "MX",
    "sick": 361,
    "invisible": false
  },
  {
    "lastUpdated": "2020-05-08T12:32:01.614Z",
    "dead": 32,
    "id": "IdKbgzgKLpjBFh4UPOwu",
    "infected": 962,
    "recovered": 0,
    "latitude": 25.686613,
    "pop": 5321300,
    "longitude": -100.316116,
    "name": "Nuevo León",
    "country": "MX",
    "sick": 930,
    "invisible": false
  },
  {
    "lastUpdated": "2020-05-08T12:32:01.607Z",
    "dead": 126,
    "id": "IhhiYI6T0TX4CYVPcnmH",
    "infected": 729,
    "recovered": 0,
    "latitude": 28.632996,
    "pop": 3826900,
    "longitude": -106.069099,
    "name": "Chihuahua",
    "country": "MX",
    "sick": 603,
    "invisible": false
  },
  {
    "lastUpdated": "2020-05-08T12:41:05.720Z",
    "dead": 17,
    "id": "ImnOiVx9Cb8Nw7cbRcQ7",
    "infected": 793,
    "recovered": 0,
    "latitude": -36.7,
    "pop": 480600,
    "longitude": -72.57,
    "name": "Ñuble",
    "country": "CL",
    "sick": 776,
    "invisible": false
  },
  {
    "lastUpdated": "2020-05-08T12:40:02.466Z",
    "dead": 12,
    "id": "InZ38sIqyK7FN7XAOZoX",
    "infected": 129,
    "recovered": 16,
    "latitude": 19.0558,
    "pop": 10980000,
    "longitude": -73.0513,
    "name": "Haiti",
    "country": "HT",
    "sick": 101,
    "invisible": false
  },
  {
    "infected": 31609,
    "recovered": 0,
    "latitude": 32.528564,
    "pop": 10520000,
    "longitude": -83.280125,
    "name": "Georgia (US)",
    "country": "US",
    "lastUpdated": "2020-05-08T12:39:01.256Z",
    "dead": 1352,
    "id": "IvQkDJkTAsoIqPRAU25n",
    "sick": 30257,
    "invisible": false
  },
  {
    "latitude": -42.8285,
    "pop": 4794000,
    "longitude": 172.488081,
    "name": "New Zealand",
    "country": "NZ",
    "lastUpdated": "2020-05-08T12:40:02.457Z",
    "dead": 21,
    "id": "IvVhpOoGpH6JVkGyUhXN",
    "infected": 1490,
    "recovered": 1347,
    "sick": 122,
    "invisible": false
  },
  {
    "latitude": 28.218,
    "pop": 1255000,
    "longitude": 94.7278,
    "name": "Arunachal Pradesh",
    "country": "IN",
    "lastUpdated": "2020-05-08T12:41:11.961Z",
    "dead": 0,
    "id": "IwYKiIVY18NGwdGQFGWW",
    "infected": 1,
    "recovered": 1,
    "sick": 0,
    "invisible": false
  },
  {
    "infected": 381,
    "recovered": 185,
    "latitude": 6.4238,
    "pop": 31980000,
    "longitude": -66.5897,
    "name": "Venezuela",
    "country": "VE",
    "lastUpdated": "2020-05-08T12:40:02.463Z",
    "dead": 10,
    "id": "J3mZXlfEnnJx4CDZLvRG",
    "sick": 186,
    "invisible": false
  },
  {
    "latitude": 44.8229,
    "pop": 453000,
    "longitude": 40.1754,
    "name": "Adygea",
    "country": "RU",
    "lastUpdated": "2020-05-08T12:30:18.586Z",
    "dead": 7,
    "id": "JOJVBvOnsLDJPVeYJaI2",
    "infected": 212,
    "recovered": 114,
    "sick": 91,
    "invisible": false
  },
  {
    "latitude": 35.1264,
    "pop": 1170000,
    "longitude": 33.4299,
    "name": "Cyprus",
    "country": "CY",
    "lastUpdated": "2020-05-08T12:40:02.458Z",
    "dead": 15,
    "id": "JQByE4l2OA6sGOqIcWrM",
    "infected": 889,
    "recovered": 400,
    "sick": 474,
    "invisible": false
  },
  {
    "infected": 563,
    "recovered": 218,
    "latitude": 25.0961,
    "pop": 99020000,
    "longitude": 85.3131,
    "name": "Bihar",
    "country": "IN",
    "lastUpdated": "2020-05-08T12:41:11.960Z",
    "dead": 5,
    "id": "JR7hOGked7CZtIs2nCV5",
    "sick": 340,
    "invisible": false
  },
  {
    "latitude": 14.628434,
    "pop": 17250000,
    "longitude": -90.522713,
    "name": "Guatemala",
    "country": "GT",
    "lastUpdated": "2020-05-08T12:40:02.458Z",
    "dead": 23,
    "id": "JUWE6bG3b5oL7fKQMSvv",
    "infected": 832,
    "recovered": 90,
    "sick": 719,
    "invisible": false
  },
  {
    "infected": 3859,
    "recovered": 3505,
    "latitude": 49.8153,
    "pop": 602005,
    "longitude": 6.1296,
    "name": "Luxembourg",
    "country": "LU",
    "lastUpdated": "2020-05-08T12:40:02.455Z",
    "dead": 100,
    "id": "JcFsHSn2WvZ5LJW42ovG",
    "sick": 254,
    "invisible": false
  },
  {
    "longitude": -74.167,
    "name": "Bolívar",
    "country": "CO",
    "lastUpdated": "2020-05-08T12:41:08.949Z",
    "dead": 3,
    "id": "JmOyaFe25yZCIV64JbZj",
    "infected": 32,
    "recovered": 11,
    "latitude": 8.8,
    "pop": 2049000,
    "sick": 18,
    "invisible": false
  },
  {
    "infected": 2176,
    "recovered": 0,
    "latitude": 31.4,
    "pop": 3648100,
    "longitude": -115.783,
    "name": "Baja California",
    "country": "MX",
    "lastUpdated": "2020-05-08T12:32:01.606Z",
    "dead": 341,
    "id": "Jp9ePErcc8i1aOozEAMf",
    "sick": 1835,
    "invisible": false
  },
  {
    "infected": 30,
    "recovered": 9,
    "latitude": 8.7479801,
    "pop": 1786500,
    "longitude": -75.8814316,
    "name": "Córdoba",
    "country": "CO",
    "lastUpdated": "2020-05-08T12:41:08.949Z",
    "dead": 3,
    "id": "Jr8syCB0lydmPDXw8Q6N",
    "sick": 18,
    "invisible": false
  },
  {
    "latitude": 8.6195,
    "pop": 7798000,
    "longitude": 0.8248,
    "name": "Togo",
    "country": "TG",
    "lastUpdated": "2020-05-08T12:40:02.466Z",
    "dead": 9,
    "id": "JrBbirlBKGdWSdcDt7PF",
    "infected": 135,
    "recovered": 85,
    "sick": 41,
    "invisible": false
  },
  {
    "latitude": 42.7339,
    "pop": 7050000,
    "longitude": 25.4858,
    "name": "Bulgaria",
    "country": "BG",
    "lastUpdated": "2020-05-08T12:40:02.456Z",
    "dead": 84,
    "id": "JzZ8sbqzjutThVjkPKPL",
    "infected": 1865,
    "recovered": 401,
    "sick": 1380,
    "invisible": false
  },
  {
    "infected": 311,
    "recovered": 0,
    "latitude": 50.823,
    "pop": 1263000,
    "longitude": 20.709,
    "name": "Świętokrzyskie",
    "country": "PL",
    "lastUpdated": "2020-05-08T12:33:01.501Z",
    "dead": 10,
    "id": "KGrK7gafkeWjmU6sHQd2",
    "sick": 301,
    "invisible": false
  },
  {
    "longitude": 61.9316,
    "name": "Sverdlovsk Oblast",
    "country": "RU",
    "lastUpdated": "2020-05-08T12:30:18.569Z",
    "dead": 3,
    "id": "KLBR5QHW6DePaGcFxlqH",
    "infected": 1584,
    "recovered": 237,
    "latitude": 59.0077,
    "pop": 4325000,
    "sick": 1344,
    "invisible": false
  },
  {
    "recovered": 4143,
    "latitude": 44.5,
    "pop": 1557000,
    "longitude": 8.833,
    "name": "Liguria",
    "country": "IT",
    "lastUpdated": "2020-05-08T12:31:01.924Z",
    "dead": 1254,
    "id": "KLXicxFogWnu0dLp4bNK",
    "infected": 8645,
    "sick": 3248,
    "invisible": false
  },
  {
    "id": "KUnAVGJH6fLwFetE8A2x",
    "infected": 845,
    "recovered": 537,
    "latitude": 56.4385,
    "pop": 682000,
    "longitude": 47.9608,
    "name": "Mari El Republic",
    "country": "RU",
    "lastUpdated": "2020-05-08T12:30:18.575Z",
    "dead": 4,
    "sick": 304,
    "invisible": false
  },
  {
    "infected": 70,
    "recovered": 36,
    "latitude": 10.4631,
    "pop": 1201000,
    "longitude": -73.2532,
    "name": "Cesar",
    "country": "CO",
    "lastUpdated": "2020-05-08T12:41:08.948Z",
    "dead": 10,
    "id": "KpOz3WmiZkrXUMlUJNlV",
    "sick": 24,
    "invisible": false
  },
  {
    "infected": 9683,
    "recovered": 4052,
    "latitude": 43.4167,
    "pop": 3737000,
    "longitude": 11,
    "name": "Toscana",
    "country": "IT",
    "lastUpdated": "2020-05-08T12:31:01.925Z",
    "dead": 915,
    "id": "KrLrJbpDqqiXgUPGCCW9",
    "sick": 4716,
    "invisible": false
  },
  {
    "latitude": 7.873054,
    "pop": 21440000,
    "longitude": 80.771797,
    "name": "Sri Lanka",
    "country": "LK",
    "lastUpdated": "2020-05-08T12:40:02.459Z",
    "dead": 9,
    "id": "KsWzJO06cf0d6LJ4ZNh9",
    "infected": 824,
    "recovered": 240,
    "sick": 575,
    "invisible": false
  },
  {
    "recovered": 842,
    "latitude": 15.9129,
    "pop": 49670000,
    "longitude": 79.74,
    "name": "Andhra Pradesh",
    "country": "IN",
    "lastUpdated": "2020-05-08T12:41:11.957Z",
    "dead": 41,
    "id": "KtQIo2DoqjELtPAlyDVO",
    "infected": 1887,
    "sick": 1004,
    "invisible": false
  },
  {
    "lastUpdated": "2020-05-08T12:40:02.468Z",
    "dead": 3,
    "id": "LBUtrLDKJiupXjlUNTUe",
    "infected": 38,
    "recovered": 30,
    "latitude": 18.0708,
    "pop": 32125,
    "longitude": -63.0501,
    "name": "Saint-Martin",
    "country": "FR",
    "sick": 5,
    "invisible": false
  },
  {
    "id": "LD8TNScpLrLRvgpQAn9T",
    "infected": 923,
    "recovered": 211,
    "latitude": 52.7856,
    "pop": 747000,
    "longitude": 36.9242,
    "name": "Oryol Oblast",
    "country": "RU",
    "lastUpdated": "2020-05-08T12:30:18.575Z",
    "dead": 7,
    "sick": 705,
    "invisible": false
  },
  {
    "lastUpdated": "2020-05-08T12:40:02.467Z",
    "dead": 1,
    "id": "LTGEU2E9MFkrCcFhZYVk",
    "infected": 82,
    "recovered": 55,
    "latitude": 47.166,
    "pop": 38557,
    "longitude": 9.5554,
    "name": "Liechtenstein",
    "country": "LI",
    "sick": 26,
    "invisible": false
  },
  {
    "longitude": -9.6966,
    "name": "Guinea",
    "country": "GN",
    "lastUpdated": "2020-05-08T12:40:02.456Z",
    "dead": 11,
    "id": "LU2QWt5ao8IJa8evNYVV",
    "infected": 1927,
    "recovered": 629,
    "latitude": 9.9456,
    "pop": 12720000,
    "sick": 1287,
    "invisible": false
  },
  {
    "infected": 485,
    "recovered": 0,
    "latitude": 29.6667,
    "pop": 3062000,
    "longitude": -110.5,
    "name": "Sonora",
    "country": "MX",
    "lastUpdated": "2020-05-08T12:32:01.607Z",
    "dead": 45,
    "id": "LYCBHrA9ms6GcxpLGPCT",
    "sick": 440,
    "invisible": false
  },
  {
    "longitude": -56.0277824,
    "name": "Suriname",
    "country": "SR",
    "lastUpdated": "2020-05-08T12:40:02.470Z",
    "dead": 1,
    "id": "LglKINHyQpYpFxjckbQ6",
    "infected": 10,
    "recovered": 9,
    "latitude": 3.9193051,
    "pop": 563402,
    "sick": 0,
    "invisible": false
  },
  {
    "recovered": 0,
    "latitude": 52.9399,
    "pop": 1174000,
    "longitude": -106.4509,
    "name": "Saskatchewan",
    "country": "CA",
    "lastUpdated": "2020-05-08T12:27:08.868Z",
    "dead": 7,
    "id": "LkIDKY0CMAqzbwBHyYCP",
    "infected": 531,
    "sick": 524,
    "invisible": false
  },
  {
    "infected": 6,
    "recovered": 5,
    "latitude": 24.2155,
    "pop": 636442,
    "longitude": -12.8858,
    "name": "Western Sahara",
    "country": "EH",
    "lastUpdated": "2020-05-08T12:40:02.471Z",
    "dead": 0,
    "id": "LooNn6RuMiDhQnwa9svw",
    "sick": 1,
    "invisible": false
  },
  {
    "infected": 3157,
    "recovered": 983,
    "latitude": 43.363129,
    "pop": 1022000,
    "longitude": -5.951843,
    "name": "Principado de Asturias",
    "country": "ES",
    "lastUpdated": "2020-05-08T12:32:11.252Z",
    "dead": 292,
    "id": "Lsga7AvYNnY0qQ5gEfV8",
    "sick": 1882,
    "invisible": false
  },
  {
    "longitude": -6.0679,
    "name": "Extremadura",
    "country": "ES",
    "lastUpdated": "2020-05-08T12:32:11.253Z",
    "dead": 472,
    "id": "LuEErlF7dVKI0eJsRjFm",
    "infected": 3853,
    "recovered": 2312,
    "latitude": 39.4937,
    "pop": 1065000,
    "sick": 1069,
    "invisible": false
  },
  {
    "latitude": 21.0186,
    "pop": 5965000,
    "longitude": -101.2591,
    "name": "Guanajuato",
    "country": "MX",
    "lastUpdated": "2020-05-08T12:32:01.612Z",
    "dead": 47,
    "id": "M3wdiueFtwrUHiQ2rOXA",
    "infected": 493,
    "recovered": 0,
    "sick": 446,
    "invisible": false
  },
  {
    "latitude": 37.8393,
    "pop": 4468000,
    "longitude": -84.27,
    "name": "Kentucky",
    "country": "US",
    "lastUpdated": "2020-05-08T12:39:01.258Z",
    "dead": 294,
    "id": "MC8MXFw9iXYybnF8v7e6",
    "infected": 6128,
    "recovered": 0,
    "sick": 5834,
    "invisible": false
  },
  {
    "invisible": true,
    "infected": 52568,
    "recovered": 0,
    "latitude": 55.3781,
    "longitude": -3.436,
    "name": "Unknown UK region or state",
    "country": "GB",
    "lastUpdated": "2020-05-08T12:38:18.486Z",
    "dead": 27432,
    "id": "MEjlm8VYdGA28TTTnQmf",
    "sick": 25136
  },
  {
    "recovered": 0,
    "latitude": 41.3006,
    "pop": 3689000,
    "longitude": -7.7441,
    "name": "Norte",
    "country": "PT",
    "lastUpdated": "2020-05-08T12:34:01.629Z",
    "dead": 634,
    "id": "MG4e9tulLJ010SZJvbYN",
    "infected": 15450,
    "sick": 14816,
    "invisible": false
  },
  {
    "recovered": 0,
    "latitude": 56.4907,
    "pop": 5450000,
    "longitude": -4.2026,
    "name": "Scotland",
    "country": "GB",
    "lastUpdated": "2020-05-08T12:38:18.484Z",
    "dead": 1703,
    "id": "MObRYyIriHG337L8FyFC",
    "infected": 12924,
    "sick": 11221,
    "invisible": false
  },
  {
    "latitude": 40.2672,
    "pop": 6692000,
    "longitude": -86.1349,
    "name": "Indiana",
    "country": "US",
    "lastUpdated": "2020-05-08T12:39:01.256Z",
    "dead": 1414,
    "id": "MOxDkmQ4wBi1CuAdVxDE",
    "infected": 22503,
    "recovered": 0,
    "sick": 21089,
    "invisible": false
  },
  {
    "longitude": -5.5471,
    "name": "Ivory Coast",
    "country": "CI",
    "lastUpdated": "2020-05-08T12:40:02.457Z",
    "dead": 20,
    "id": "MdQOfc1gNh2DOqwSP6UV",
    "infected": 1571,
    "recovered": 742,
    "latitude": 7.54,
    "pop": 24290000,
    "sick": 809,
    "invisible": false
  },
  {
    "id": "MjpYq3zQyAvSQlVVYjD2",
    "infected": 34692,
    "recovered": 27352,
    "latitude": 51.4332,
    "pop": 17910000,
    "longitude": 7.6616,
    "name": "Nordrhein-Westfalen",
    "country": "DE",
    "lastUpdated": "2020-05-08T12:30:07.616Z",
    "dead": 1410,
    "sick": 5930,
    "invisible": false
  },
  {
    "lastUpdated": "2020-05-08T12:38:04.139Z",
    "dead": 0,
    "id": "MntmjjuHljarCdt6aIeE",
    "infected": 75,
    "recovered": 75,
    "latitude": 37.330509,
    "pop": 6301000,
    "longitude": 105.977203,
    "name": "Ningxia",
    "country": "CN",
    "sick": 0,
    "invisible": false
  },
  {
    "lastUpdated": "2020-05-08T12:38:01.631Z",
    "dead": 410,
    "id": "MuEB2UgkId5crsxi9zQT",
    "infected": 5524,
    "recovered": 0,
    "latitude": -3.20166586,
    "pop": 8513497,
    "longitude": -52.203499186,
    "name": "Pará",
    "country": "BR",
    "sick": 5114,
    "invisible": false
  },
  {
    "latitude": 52.5265,
    "pop": 1150000,
    "longitude": 39.2032,
    "name": "Lipetsk Oblast",
    "country": "RU",
    "lastUpdated": "2020-05-08T12:30:18.577Z",
    "dead": 2,
    "id": "N0KGfqgROVOjAxWcd8wi",
    "infected": 752,
    "recovered": 186,
    "sick": 564,
    "invisible": false
  },
  {
    "latitude": 48.6616,
    "pop": 11020000,
    "longitude": 9.3501,
    "name": "Baden-Württemberg",
    "country": "DE",
    "lastUpdated": "2020-05-08T12:30:07.609Z",
    "dead": 1573,
    "id": "N3XsRBwJSsNclkEf7Zz5",
    "infected": 33904,
    "recovered": 26766,
    "sick": 5565,
    "invisible": false
  },
  {
    "longitude": 17.824332,
    "name": "Bosnia and Herzegovina",
    "country": "BA",
    "lastUpdated": "2020-05-08T12:40:02.456Z",
    "dead": 98,
    "id": "N7c13sCQF0G789XAVazJ",
    "infected": 2070,
    "recovered": 960,
    "latitude": 44.696652,
    "pop": 3507000,
    "sick": 1012,
    "invisible": false
  },
  {
    "lastUpdated": "2020-05-08T12:38:04.137Z",
    "dead": 0,
    "id": "NBRIGIRrJB1Ry8prDNAC",
    "infected": 198,
    "recovered": 195,
    "latitude": 37.242565,
    "pop": 36500000,
    "longitude": 111.856857,
    "name": "Shanxi",
    "country": "CN",
    "sick": 3,
    "invisible": false
  },
  {
    "lastUpdated": "2020-05-08T12:39:01.256Z",
    "dead": 513,
    "id": "NC64Qp5kTqAfiTuR27k8",
    "infected": 13541,
    "recovered": 0,
    "latitude": 35.7596,
    "pop": 10380000,
    "longitude": -79.0193,
    "name": "North Carolina",
    "country": "US",
    "sick": 13028,
    "invisible": false
  },
  {
    "infected": 3124,
    "recovered": 2420,
    "latitude": 52.4125,
    "pop": 2504000,
    "longitude": 12.5316,
    "name": "Brandenburg",
    "country": "DE",
    "lastUpdated": "2020-05-08T12:30:07.615Z",
    "dead": 159,
    "id": "NJjo2gfBvnbK4xatrsUz",
    "sick": 545,
    "invisible": false
  },
  {
    "lastUpdated": "2020-05-08T12:39:01.261Z",
    "dead": 2,
    "id": "NLLL6pJhJSw0lrDMD4uP",
    "infected": 15,
    "recovered": 0,
    "latitude": 15.0979,
    "pop": 55144,
    "longitude": -145.6739,
    "name": "Northern Mariana Islands",
    "country": "MP",
    "sick": 13,
    "invisible": false
  },
  {
    "lastUpdated": "2020-05-08T12:41:11.960Z",
    "dead": 1,
    "id": "NMeZEcGToxXfpi16PfFV",
    "infected": 63,
    "recovered": 45,
    "latitude": 30.0668,
    "pop": 10080000,
    "longitude": 79.0193,
    "name": "Uttarakhand",
    "country": "IN",
    "sick": 17,
    "invisible": false
  },
  {
    "latitude": 50.6521,
    "pop": 6243000,
    "longitude": 9.1624,
    "name": "Hessen",
    "country": "DE",
    "lastUpdated": "2020-05-08T12:30:07.615Z",
    "dead": 408,
    "id": "Nk5vPgUIXsWVfbWZf15O",
    "infected": 8837,
    "recovered": 6454,
    "sick": 1975,
    "invisible": false
  },
  {
    "infected": 928,
    "recovered": 464,
    "latitude": 56.96776,
    "pop": 1920000,
    "longitude": 25.837107,
    "name": "Latvia",
    "country": "LV",
    "lastUpdated": "2020-05-08T12:40:02.457Z",
    "dead": 18,
    "id": "NmmMKy0YqA8StHdGzB5N",
    "sick": 446,
    "invisible": false
  },
  {
    "id": "NyGlFL1gATK1Omv9qtcC",
    "infected": 10824,
    "recovered": 0,
    "latitude": -8.472372,
    "pop": 9496294,
    "longitude": -37.946777,
    "name": "Pernambuco",
    "country": "BR",
    "lastUpdated": "2020-05-08T12:38:01.631Z",
    "dead": 845,
    "sick": 9979,
    "invisible": false
  },
  {
    "latitude": 6.4281,
    "pop": 4732000,
    "longitude": -9.4295,
    "name": "Liberia",
    "country": "LR",
    "lastUpdated": "2020-05-08T12:40:02.465Z",
    "dead": 20,
    "id": "O4g88K49HKEZLFXm5gxb",
    "infected": 189,
    "recovered": 79,
    "sick": 90,
    "invisible": false
  },
  {
    "infected": 621,
    "recovered": 164,
    "latitude": 51.7936,
    "pop": 2350000,
    "longitude": 82.6759,
    "name": "Altai Krai",
    "country": "RU",
    "lastUpdated": "2020-05-08T12:30:18.581Z",
    "dead": 3,
    "id": "O5fNOGWKosps6JTrzkpn",
    "sick": 454,
    "invisible": false
  },
  {
    "latitude": 53.0929,
    "pop": 1072000,
    "longitude": 116.9677,
    "name": "Zabaykalsky Krai",
    "country": "RU",
    "lastUpdated": "2020-05-08T12:30:18.585Z",
    "dead": 0,
    "id": "O6PDzAxKENYbLsLjPx2K",
    "infected": 262,
    "recovered": 92,
    "sick": 170,
    "invisible": false
  },
  {
    "latitude": 34.003307,
    "pop": 5084000,
    "longitude": -80.525613,
    "name": "South Carolina",
    "country": "US",
    "lastUpdated": "2020-05-08T12:39:01.258Z",
    "dead": 316,
    "id": "ONU4CK8QjViFHKg2w5if",
    "infected": 7142,
    "recovered": 0,
    "sick": 6826,
    "invisible": false
  },
  {
    "latitude": 33.51822,
    "pop": 2987000,
    "longitude": -89.582775,
    "name": "Mississippi",
    "country": "US",
    "lastUpdated": "2020-05-08T12:39:01.258Z",
    "dead": 396,
    "id": "OYa0jFzdbAgo8zUsRv6q",
    "infected": 8686,
    "recovered": 0,
    "sick": 8290,
    "invisible": false
  },
  {
    "pop": 1338000,
    "longitude": -69.4455,
    "name": "Maine",
    "country": "US",
    "lastUpdated": "2020-05-08T12:39:01.260Z",
    "dead": 62,
    "id": "OcXNp9kNVSwrRlG3bNVN",
    "infected": 1330,
    "recovered": 0,
    "latitude": 45.2538,
    "sick": 1268,
    "invisible": false
  },
  {
    "infected": 1108,
    "recovered": 250,
    "latitude": 43.4052,
    "pop": 488000,
    "longitude": 44.8203,
    "name": "Ingushetia",
    "country": "RU",
    "lastUpdated": "2020-05-08T12:30:18.573Z",
    "dead": 28,
    "id": "OlKS5SPydHY2TedStFuf",
    "sick": 830,
    "invisible": false
  },
  {
    "infected": 226,
    "recovered": 175,
    "latitude": -41.915264,
    "pop": 515000,
    "longitude": 146.725256,
    "name": "Tasmania",
    "country": "AU",
    "lastUpdated": "2020-05-08T09:32:17.909Z",
    "dead": 13,
    "id": "OnOseaqWdnuP18oruABW",
    "sick": 38,
    "invisible": false
  },
  {
    "latitude": -16.35,
    "pop": 3441998,
    "longitude": -56.666668,
    "name": "Mato Grosso",
    "country": "BR",
    "lastUpdated": "2020-05-08T12:38:01.631Z",
    "dead": 13,
    "id": "P0GHFGUt1pkKTk5PM8uz",
    "infected": 417,
    "recovered": 0,
    "sick": 404,
    "invisible": false
  },
  {
    "infected": 1124,
    "recovered": 43,
    "latitude": 56.1553,
    "pop": 1378000,
    "longitude": 40.5927,
    "name": "Vladimir Oblast",
    "country": "RU",
    "lastUpdated": "2020-05-08T12:30:18.573Z",
    "dead": 12,
    "id": "P2I90oqdFSoVk03AaGo4",
    "sick": 1069,
    "invisible": false
  },
  {
    "lastUpdated": "2020-05-08T12:40:02.467Z",
    "dead": 1,
    "id": "P4mwRFLbrvT0t75uD8Wo",
    "infected": 80,
    "recovered": 35,
    "latitude": 19.3133,
    "pop": 61559,
    "longitude": -81.2546,
    "name": "Cayman Islands",
    "country": "KY",
    "sick": 44,
    "invisible": false
  },
  {
    "lastUpdated": "2020-05-08T12:40:02.470Z",
    "dead": 1,
    "id": "PEDkeFMTOZpvHiSVxBk7",
    "infected": 11,
    "recovered": 7,
    "latitude": 16.7424984,
    "pop": 5900,
    "longitude": -62.1873665,
    "name": "Montserrat",
    "country": "MS",
    "sick": 3,
    "invisible": false
  },
  {
    "infected": 271,
    "recovered": 133,
    "latitude": -1.9403,
    "pop": 12210000,
    "longitude": 29.8739,
    "name": "Rwanda",
    "country": "RW",
    "lastUpdated": "2020-05-08T12:40:02.464Z",
    "dead": 0,
    "id": "PEcgZGEkyhABztt1Ufgc",
    "sick": 138,
    "invisible": false
  },
  {
    "infected": 1332,
    "recovered": 361,
    "latitude": 54.2312,
    "pop": 4063000,
    "longitude": 56.1645,
    "name": "Bashkortostan",
    "country": "RU",
    "lastUpdated": "2020-05-08T12:30:18.572Z",
    "dead": 14,
    "id": "PHlHdeqYd6KgxsJGfEz0",
    "sick": 957,
    "invisible": false
  },
  {
    "infected": 9365,
    "recovered": 0,
    "latitude": 46.7296,
    "pop": 5611000,
    "longitude": -94.6859,
    "name": "Minnesota",
    "country": "US",
    "lastUpdated": "2020-05-08T12:39:01.257Z",
    "dead": 508,
    "id": "PJvVYosLIhbcRZYnKX1R",
    "sick": 8857,
    "invisible": false
  },
  {
    "lastUpdated": "2020-05-08T12:39:01.255Z",
    "dead": 3111,
    "id": "PTwQr9ijo0TBBsPH2sdJ",
    "infected": 70873,
    "recovered": 0,
    "latitude": 40.6331,
    "pop": 12740000,
    "longitude": -89.3985,
    "name": "Illinois",
    "country": "US",
    "sick": 67762,
    "invisible": false
  },
  {
    "lastUpdated": "2020-05-08T12:40:02.469Z",
    "dead": 0,
    "id": "PjLqCeFdyzdZNcZxMkK1",
    "infected": 18,
    "recovered": 17,
    "latitude": 13.909444,
    "pop": 178844,
    "longitude": -60.978893,
    "name": "Saint Lucia",
    "country": "LC",
    "sick": 1,
    "invisible": false
  },
  {
    "lastUpdated": "2020-05-08T12:32:11.253Z",
    "dead": 484,
    "id": "PmUlsNx2uFLU797wwU39",
    "infected": 7227,
    "recovered": 2827,
    "latitude": 42.6954,
    "pop": 649900,
    "longitude": -1.6761,
    "name": "Comunidad Foral de Navarra",
    "country": "ES",
    "sick": 3916,
    "invisible": false
  },
  {
    "infected": 1026,
    "recovered": 600,
    "latitude": 34.201507,
    "pop": 11530000,
    "longitude": 9.460554,
    "name": "Tunisia",
    "country": "TN",
    "lastUpdated": "2020-05-08T12:40:02.457Z",
    "dead": 44,
    "id": "Pr76V4raf108uSRoEXac",
    "sick": 382,
    "invisible": false
  },
  {
    "lastUpdated": "2020-05-08T12:40:02.465Z",
    "dead": 2,
    "id": "PuQgOd9KWiMzGZXm11sR",
    "infected": 153,
    "recovered": 12,
    "latitude": -26.5225,
    "pop": 1367000,
    "longitude": 31.4659,
    "name": "Eswatini",
    "country": "SZ",
    "sick": 139,
    "invisible": false
  },
  {
    "infected": 1455,
    "recovered": 1327,
    "latitude": -37.009609,
    "pop": 6359000,
    "longitude": 143.94853,
    "name": "Victoria",
    "country": "AU",
    "lastUpdated": "2020-05-08T09:32:17.909Z",
    "dead": 18,
    "id": "Q18mrGvFWTLX2BU9SqhQ",
    "sick": 110,
    "invisible": false
  },
  {
    "latitude": 54.2194,
    "pop": 2890000,
    "longitude": 9.6961,
    "name": "Schleswig-Holstein",
    "country": "DE",
    "lastUpdated": "2020-05-08T12:30:07.617Z",
    "dead": 133,
    "id": "Q39XkabIYxt15mHINzTa",
    "infected": 2893,
    "recovered": 2400,
    "sick": 360,
    "invisible": false
  },
  {
    "latitude": -27.953491,
    "pop": 11329605,
    "longitude": -52.031696,
    "name": "Rio Grande do Sul",
    "country": "BR",
    "lastUpdated": "2020-05-08T12:38:01.632Z",
    "dead": 90,
    "id": "QGpQNhuoVTUPHXvS7qcu",
    "infected": 2129,
    "recovered": 0,
    "sick": 2039,
    "invisible": false
  },
  {
    "infected": 1018,
    "recovered": 175,
    "latitude": 55.5596,
    "pop": 1231000,
    "longitude": 46.9284,
    "name": "Chuvashia",
    "country": "RU",
    "lastUpdated": "2020-05-08T12:30:18.574Z",
    "dead": 8,
    "id": "QGyuno7Bc4kwuvGFgMiO",
    "sick": 835,
    "invisible": false
  },
  {
    "latitude": 58.595272,
    "pop": 1328000,
    "longitude": 25.013607,
    "name": "Estonia",
    "country": "EE",
    "lastUpdated": "2020-05-08T08:25:03.094Z",
    "dead": 56,
    "id": "QR9go2hQKXjty7JHUYe4",
    "infected": 1725,
    "recovered": 273,
    "sick": 1396,
    "invisible": false
  },
  {
    "lastUpdated": "2020-05-08T12:30:18.576Z",
    "dead": 11,
    "id": "QTafh5fpbS8abcuyEjaL",
    "infected": 793,
    "recovered": 194,
    "latitude": 63.8631,
    "pop": 840000,
    "longitude": 54.8313,
    "name": "Komi Republic",
    "country": "RU",
    "sick": 588,
    "invisible": false
  },
  {
    "lastUpdated": "2020-05-08T12:38:01.630Z",
    "dead": 155,
    "id": "QaWDLKH8SuwD0Qxq6c38",
    "infected": 3838,
    "recovered": 0,
    "latitude": -20.318,
    "pop": 3972388,
    "longitude": -40.336,
    "name": "Espírito Santo",
    "country": "BR",
    "sick": 3683,
    "invisible": false
  },
  {
    "infected": 2322,
    "recovered": 234,
    "latitude": 67.8443,
    "pop": 795000,
    "longitude": 35.0884,
    "name": "Murmansk Oblast",
    "country": "RU",
    "lastUpdated": "2020-05-08T12:30:18.568Z",
    "dead": 4,
    "id": "Qh73PKA4KWeuPoqZfWXz",
    "sick": 2084,
    "invisible": false
  },
  {
    "pop": 8222700,
    "longitude": -103.6667,
    "name": "Jalisco",
    "country": "MX",
    "lastUpdated": "2020-05-08T12:32:01.614Z",
    "dead": 43,
    "id": "Qkho455pBwx88Gohs3hL",
    "infected": 697,
    "recovered": 0,
    "latitude": 20.3333,
    "sick": 654,
    "invisible": false
  },
  {
    "id": "QlZrE4nosm5WfdA2aCDg",
    "infected": 8,
    "recovered": 8,
    "latitude": -6.315,
    "pop": 8251000,
    "longitude": 143.9555,
    "name": "Papua New Guinea",
    "country": "PG",
    "lastUpdated": "2020-05-08T12:40:02.471Z",
    "dead": 0,
    "sick": 0,
    "invisible": false
  },
  {
    "infected": 66,
    "recovered": 0,
    "latitude": 18.3358,
    "pop": 107268,
    "longitude": -64.8963,
    "name": "U.S. Virgin Islands",
    "country": "US",
    "lastUpdated": "2020-05-08T12:39:01.261Z",
    "dead": 4,
    "id": "QqhD3YDMKXojvQY3Yu41",
    "sick": 62,
    "invisible": false
  },
  {
    "infected": 16,
    "recovered": 14,
    "latitude": 15.414999,
    "pop": 71937,
    "longitude": -61.3709755,
    "name": "Dominica",
    "country": "DM",
    "lastUpdated": "2020-05-08T12:40:02.470Z",
    "dead": 0,
    "id": "Qy2qW2ep5wltnYjPJBxh",
    "sick": 2,
    "invisible": false
  },
  {
    "infected": 20,
    "recovered": 7,
    "latitude": 5.167,
    "pop": 344027,
    "longitude": -72.167,
    "name": "Casanare",
    "country": "CO",
    "lastUpdated": "2020-05-08T12:41:08.949Z",
    "dead": 0,
    "id": "R3IHMWqIUhOJJTlrmbUZ",
    "sick": 13,
    "invisible": false
  },
  {
    "longitude": -80.7821,
    "name": "Panama",
    "country": "PA",
    "lastUpdated": "2020-05-08T12:40:02.454Z",
    "dead": 225,
    "id": "R8YCgephnxTufvcPWMgx",
    "infected": 7868,
    "recovered": 886,
    "latitude": 8.538,
    "pop": 4099000,
    "sick": 6757,
    "invisible": false
  },
  {
    "lastUpdated": "2020-05-08T12:40:02.457Z",
    "dead": 105,
    "id": "RA2SE0p2bVhqo0P2hzGY",
    "infected": 1685,
    "recovered": 154,
    "latitude": 15.2,
    "pop": 9265000,
    "longitude": -86.2419,
    "name": "Honduras",
    "country": "HN",
    "sick": 1426,
    "invisible": false
  },
  {
    "infected": 325,
    "recovered": 0,
    "latitude": -18.4745998,
    "pop": 224500,
    "longitude": -70.2979202,
    "name": "Arica y Parinacota",
    "country": "CL",
    "lastUpdated": "2020-05-08T12:41:05.718Z",
    "dead": 6,
    "id": "RBt9RiwP7WUbMnJfD0lo",
    "sick": 319,
    "invisible": false
  },
  {
    "pop": 1216000,
    "longitude": 13.8,
    "name": "Friuli Venezia Giulia",
    "country": "IT",
    "lastUpdated": "2020-05-08T12:31:01.923Z",
    "dead": 308,
    "id": "RCrDBCdBNYzgLNr0aB2H",
    "infected": 3107,
    "recovered": 1872,
    "latitude": 45.633331,
    "sick": 927,
    "invisible": false
  },
  {
    "id": "RX0KDu1AFrlCsrRso0nb",
    "infected": 11059,
    "recovered": 0,
    "latitude": 41.878,
    "pop": 3156000,
    "longitude": -93.0977,
    "name": "Iowa",
    "country": "US",
    "lastUpdated": "2020-05-08T12:39:01.257Z",
    "dead": 231,
    "sick": 10828,
    "invisible": false
  },
  {
    "pop": 7413000,
    "longitude": -74.063644,
    "name": "Bogotá D.C.",
    "country": "CO",
    "lastUpdated": "2020-05-08T12:41:08.939Z",
    "dead": 131,
    "id": "RZ6PCe5TZsO15JjDObwO",
    "infected": 3599,
    "recovered": 915,
    "latitude": 4.624335,
    "sick": 2553,
    "invisible": false
  },
  {
    "latitude": 26.3351002,
    "pop": 6846000,
    "longitude": 17.2283306,
    "name": "Libya",
    "country": "LY",
    "lastUpdated": "2020-05-08T12:40:02.467Z",
    "dead": 3,
    "id": "RaJxbzlnRFTuj4B8IbpC",
    "infected": 64,
    "recovered": 24,
    "sick": 37,
    "invisible": false
  },
  {
    "recovered": 0,
    "latitude": 39.0119,
    "pop": 2912000,
    "longitude": -98.4842,
    "name": "Kansas",
    "country": "US",
    "lastUpdated": "2020-05-08T12:39:01.258Z",
    "dead": 165,
    "id": "Rf4uvBfP3GRDSHdZElRd",
    "infected": 6332,
    "sick": 6167,
    "invisible": false
  },
  {
    "id": "RmEgf1xeclWt7XCF9oiR",
    "infected": 22105,
    "recovered": 8726,
    "latitude": 48.6998,
    "pop": 5518000,
    "longitude": 6.1878,
    "name": "Grand Est",
    "country": "FR",
    "lastUpdated": "2020-05-07T22:26:45.571Z",
    "dead": 3060,
    "sick": 10319,
    "invisible": false
  },
  {
    "infected": 16748,
    "recovered": 3767,
    "latitude": 50.4176,
    "pop": 3644000,
    "longitude": 4.451,
    "name": "Wallonia",
    "country": "BE",
    "lastUpdated": "2020-05-08T12:26:12.099Z",
    "dead": 2982,
    "id": "RryHraSohKQLAsdr1dHO",
    "sick": 9999,
    "invisible": false
  },
  {
    "lastUpdated": "2020-05-08T12:27:08.867Z",
    "dead": 1607,
    "id": "Rx4TuyMpfGb3S8wYJX0x",
    "infected": 20388,
    "recovered": 0,
    "latitude": 51.2538,
    "pop": 14570000,
    "longitude": -85.3232,
    "name": "Ontario",
    "country": "CA",
    "sick": 18781,
    "invisible": false
  },
  {
    "pop": 2408000,
    "longitude": -4.723611,
    "name": "Castilla y León",
    "country": "ES",
    "lastUpdated": "2020-05-08T12:32:11.252Z",
    "dead": 1876,
    "id": "S8ewN4zaYp8mjtuqqOTw",
    "infected": 22926,
    "recovered": 7231,
    "latitude": 41.652779,
    "sick": 13819,
    "invisible": false
  },
  {
    "infected": 183,
    "recovered": 83,
    "latitude": 14.652027,
    "pop": 376480,
    "longitude": -61.011715,
    "name": "Martinique",
    "country": "FR",
    "lastUpdated": "2020-05-08T12:40:02.465Z",
    "dead": 14,
    "id": "SDdefnq1bc3ZNr7SpEsW",
    "sick": 86,
    "invisible": false
  },
  {
    "infected": 3091,
    "recovered": 303,
    "latitude": 7.9465,
    "pop": 28830000,
    "longitude": -1.0232,
    "name": "Ghana",
    "country": "GH",
    "lastUpdated": "2020-05-08T12:40:02.455Z",
    "dead": 18,
    "id": "SG9VWLOV3x2JsTkXmVSz",
    "sick": 2770,
    "invisible": false
  },
  {
    "latitude": 46.818188,
    "pop": 8570000,
    "longitude": 8.227512,
    "name": "Switzerland",
    "country": "CH",
    "lastUpdated": "2020-05-08T12:40:02.452Z",
    "dead": 1810,
    "id": "SGe9sCPayMqh6RsGFaBA",
    "infected": 30207,
    "recovered": 25900,
    "sick": 2497,
    "invisible": false
  },
  {
    "infected": 437,
    "recovered": 66,
    "latitude": 66.7613,
    "pop": 964000,
    "longitude": 124.1238,
    "name": "Yakutia",
    "country": "RU",
    "lastUpdated": "2020-05-08T12:30:18.583Z",
    "dead": 4,
    "id": "SGhKBmmh5hss7hrNR8hK",
    "sick": 367,
    "invisible": false
  },
  {
    "latitude": 46.8139,
    "pop": 8485000,
    "longitude": -71.208,
    "name": "Quebec",
    "country": "CA",
    "lastUpdated": "2020-05-08T12:27:08.855Z",
    "dead": 2632,
    "id": "SHoOE3NiJgWAlDVBzwYH",
    "infected": 35249,
    "recovered": 0,
    "sick": 32617,
    "invisible": false
  },
  {
    "infected": 861,
    "recovered": 562,
    "latitude": 42.6026,
    "pop": 1831000,
    "longitude": 20.903,
    "name": "Kosovo",
    "country": "XK",
    "lastUpdated": "2020-05-08T12:10:07.935Z",
    "dead": 27,
    "id": "SMWvuMMuKp2QK7O2tNia",
    "sick": 272,
    "invisible": false
  },
  {
    "latitude": 45.0526,
    "pop": 1913000,
    "longitude": 135,
    "name": "Primorsky Krai",
    "country": "RU",
    "lastUpdated": "2020-05-08T12:30:18.577Z",
    "dead": 10,
    "id": "SNWCQwRwqYfxX8HZndTA",
    "infected": 763,
    "recovered": 150,
    "sick": 603,
    "invisible": false
  },
  {
    "lastUpdated": "2020-05-08T12:41:11.961Z",
    "dead": 0,
    "id": "SPcujsH2YlUaoAr8AiWF",
    "infected": 7,
    "recovered": 7,
    "latitude": 15.2993,
    "pop": 1817000,
    "longitude": 74.124,
    "name": "Goa",
    "country": "IN",
    "sick": 0,
    "invisible": false
  },
  {
    "recovered": 0,
    "latitude": -16.328547,
    "pop": 6921161,
    "longitude": -48.953403,
    "name": "Goiás",
    "country": "BR",
    "lastUpdated": "2020-05-08T12:38:01.631Z",
    "dead": 44,
    "id": "SV5AMF59J61Vt4cXWLgy",
    "infected": 1027,
    "sick": 983,
    "invisible": false
  },
  {
    "infected": 1125,
    "recovered": 403,
    "latitude": 39,
    "pop": 1957000,
    "longitude": 16.5,
    "name": "Calabria",
    "country": "IT",
    "lastUpdated": "2020-05-08T12:31:01.923Z",
    "dead": 89,
    "id": "SZdF624x0v1LlyzZjKFu",
    "sick": 633,
    "invisible": false
  },
  {
    "infected": 7190,
    "recovered": 0,
    "latitude": 41.4925,
    "pop": 1929000,
    "longitude": -99.9018,
    "name": "Nebraska",
    "country": "US",
    "lastUpdated": "2020-05-08T12:39:01.258Z",
    "dead": 90,
    "id": "SakhKQzKu1LRI8laqdQq",
    "sick": 7100,
    "invisible": false
  },
  {
    "latitude": -21.1151,
    "pop": 859959,
    "longitude": 55.5364,
    "name": "La Réunion",
    "country": "FR",
    "lastUpdated": "2020-05-08T12:40:02.462Z",
    "dead": 0,
    "id": "SgHzWAAYK1j2sipovxM6",
    "infected": 427,
    "recovered": 354,
    "sick": 73,
    "invisible": false
  },
  {
    "id": "SioMALgUbo7peXmbco2f",
    "infected": 122,
    "recovered": 120,
    "latitude": 12.565679,
    "pop": 16010000,
    "longitude": 104.990967,
    "name": "Cambodia",
    "country": "KH",
    "lastUpdated": "2020-05-08T12:40:02.466Z",
    "dead": 0,
    "sick": 2,
    "invisible": false
  },
  {
    "recovered": 0,
    "latitude": 13.4443,
    "pop": 164229,
    "longitude": 144.7937,
    "name": "Guam",
    "country": "GU",
    "lastUpdated": "2020-05-08T12:39:01.261Z",
    "dead": 5,
    "id": "SsWhuEElU7dCTTuH5fdQ",
    "infected": 151,
    "sick": 146,
    "invisible": false
  },
  {
    "latitude": 51.9189,
    "longitude": 19.1344,
    "name": "Unknown Poland region",
    "country": "PL",
    "lastUpdated": "2020-05-08T12:40:02.453Z",
    "dead": 0,
    "id": "SuCr5emUaJ9RHTll1P1p",
    "invisible": true,
    "infected": 0,
    "recovered": 5184,
    "sick": 0
  },
  {
    "latitude": 57.067,
    "pop": 1513000,
    "longitude": 53.0278,
    "name": "Udmurtia",
    "country": "RU",
    "lastUpdated": "2020-05-08T12:30:18.584Z",
    "dead": 11,
    "id": "Sx03z01BJCAbrYkWhEaD",
    "infected": 345,
    "recovered": 91,
    "sick": 243,
    "invisible": false
  },
  {
    "lastUpdated": "2020-05-08T12:40:02.458Z",
    "dead": 36,
    "id": "T3iRf8mTUTAzbKrORTap",
    "infected": 897,
    "recovered": 119,
    "latitude": -4.0383,
    "pop": 81340000,
    "longitude": 21.7587,
    "name": "DR Congo",
    "country": "CD",
    "sick": 742,
    "invisible": false
  },
  {
    "infected": 33731,
    "recovered": 7798,
    "latitude": 23.635796,
    "pop": 32940000,
    "longitude": 44.344334,
    "name": "Saudi Arabia",
    "country": "SA",
    "lastUpdated": "2020-05-08T12:40:02.452Z",
    "dead": 219,
    "id": "T7NffoeCgTUpAbOHvYwP",
    "sick": 25714,
    "invisible": false
  },
  {
    "infected": 5355,
    "recovered": 2526,
    "latitude": 42.2871,
    "pop": 315700,
    "longitude": -2.5396,
    "name": "La Rioja",
    "country": "ES",
    "lastUpdated": "2020-05-08T12:32:11.253Z",
    "dead": 342,
    "id": "TNDTapyb0k3l7Mds9q9R",
    "sick": 2487,
    "invisible": false
  },
  {
    "lastUpdated": "2020-05-08T12:32:01.611Z",
    "dead": 63,
    "id": "TQCWbhIpJQBQxBjhCGVJ",
    "infected": 735,
    "recovered": 0,
    "latitude": 20.400417,
    "pop": 2207200,
    "longitude": -89.134857,
    "name": "Yucatán",
    "country": "MX",
    "sick": 672,
    "invisible": false
  },
  {
    "infected": 141,
    "recovered": 132,
    "latitude": 4.506106,
    "pop": 428697,
    "longitude": 114.650692,
    "name": "Brunei",
    "country": "BN",
    "lastUpdated": "2020-05-08T12:40:02.466Z",
    "dead": 1,
    "id": "TQZmzsLhJqjtCSExAkCP",
    "sick": 8,
    "invisible": false
  },
  {
    "recovered": 5596,
    "latitude": 45.4471,
    "pop": 8027000,
    "longitude": 4.3853,
    "name": "Auvergne-Rhône-Alpes",
    "country": "FR",
    "lastUpdated": "2020-05-07T22:27:40.015Z",
    "dead": 1462,
    "id": "TT0MKODSjrxHvG19xZCa",
    "infected": 13396,
    "sick": 6338,
    "invisible": false
  },
  {
    "latitude": 38.5667,
    "pop": 758700,
    "longitude": -7.9,
    "name": "Alentejo",
    "country": "PT",
    "lastUpdated": "2020-05-08T12:34:01.630Z",
    "dead": 1,
    "id": "TeoNTu4aw5riC04sTd73",
    "infected": 220,
    "recovered": 0,
    "sick": 219,
    "invisible": false
  },
  {
    "infected": 18371,
    "recovered": 0,
    "latitude": 39.318928,
    "pop": 5696000,
    "longitude": -105.461392,
    "name": "Colorado",
    "country": "US",
    "lastUpdated": "2020-05-08T12:39:01.256Z",
    "dead": 944,
    "id": "Th4dlpXXmSDgi1OHs36P",
    "sick": 17427,
    "invisible": false
  },
  {
    "infected": 736,
    "recovered": 562,
    "latitude": 12.2383,
    "pop": 19190000,
    "longitude": -1.5616,
    "name": "Burkina Faso",
    "country": "BF",
    "lastUpdated": "2020-05-08T12:40:02.460Z",
    "dead": 48,
    "id": "Tup6oDCHj6DgqZR3nQ3x",
    "sick": 126,
    "invisible": false
  },
  {
    "infected": 21,
    "recovered": 13,
    "latitude": 12.104818,
    "pop": 112381,
    "longitude": -61.670761,
    "name": "Grenada",
    "country": "GD",
    "lastUpdated": "2020-05-08T12:40:02.469Z",
    "dead": 0,
    "id": "TvqURPN5xzVBXsmGP46N",
    "sick": 8,
    "invisible": false
  },
  {
    "pop": 5603000,
    "longitude": 12.56902,
    "name": "Denmark",
    "country": "DK",
    "lastUpdated": "2020-05-08T12:40:02.454Z",
    "dead": 522,
    "id": "Ty1AY3VLPJcRZgdBIERx",
    "infected": 10218,
    "recovered": 7927,
    "latitude": 55.675758,
    "sick": 1769,
    "invisible": false
  },
  {
    "lastUpdated": "2020-05-08T12:38:18.486Z",
    "dead": 0,
    "id": "U0N7cIPJXAc4T6uKV60c",
    "infected": 11749,
    "recovered": 0,
    "latitude": 53.9062,
    "pop": 5486000,
    "longitude": -1.0334,
    "name": "Yorkshire and The Humber",
    "country": "GB",
    "sick": 11749,
    "invisible": false
  },
  {
    "latitude": 36.395859,
    "pop": 100472400,
    "longitude": 118.769882,
    "name": "Shandong",
    "country": "CN",
    "lastUpdated": "2020-05-08T12:38:04.137Z",
    "dead": 7,
    "id": "U0tkTJ9CGsBuFJ2Gdoum",
    "infected": 788,
    "recovered": 776,
    "sick": 5,
    "invisible": false
  },
  {
    "latitude": 43.94236,
    "pop": 33400,
    "longitude": 12.457777,
    "name": "San Marino",
    "country": "SM",
    "lastUpdated": "2020-05-08T12:40:02.461Z",
    "dead": 41,
    "id": "U12rMD5GDW58Q0lIwrB1",
    "infected": 622,
    "recovered": 106,
    "sick": 475,
    "invisible": false
  },
  {
    "recovered": 4918,
    "latitude": 36.204823,
    "pop": 126800000,
    "longitude": 138.25293,
    "name": "Japan",
    "country": "JP",
    "lastUpdated": "2020-05-08T12:40:02.453Z",
    "dead": 577,
    "id": "U13Gy4BpRLAZ95bPmBXd",
    "infected": 15477,
    "sick": 9982,
    "invisible": false
  },
  {
    "id": "UCZXEgnHtxUoChWLR6fQ",
    "infected": 101,
    "recovered": 55,
    "latitude": 1.3733,
    "pop": 42860000,
    "longitude": 32.2903,
    "name": "Uganda",
    "country": "UG",
    "lastUpdated": "2020-05-08T12:40:02.467Z",
    "dead": 0,
    "sick": 46,
    "invisible": false
  },
  {
    "latitude": -11.2027,
    "pop": 29780000,
    "longitude": 17.8739,
    "name": "Angola",
    "country": "AO",
    "lastUpdated": "2020-05-08T12:40:02.468Z",
    "dead": 2,
    "id": "UIbrFy6kiTTF0D37Kqmp",
    "infected": 36,
    "recovered": 11,
    "sick": 23,
    "invisible": false
  },
  {
    "latitude": 56.3269,
    "pop": 1257000,
    "longitude": 44.0059,
    "name": "Nizhny Novgorod Oblast",
    "country": "RU",
    "lastUpdated": "2020-05-08T12:30:18.567Z",
    "dead": 23,
    "id": "UNiM5XWxcIc14zFA8zRS",
    "infected": 3886,
    "recovered": 510,
    "sick": 3353,
    "invisible": false
  },
  {
    "pop": 3329000,
    "longitude": -2.9326,
    "name": "Bretagne",
    "country": "FR",
    "lastUpdated": "2020-05-07T22:28:19.812Z",
    "dead": 224,
    "id": "URKMlJ7OTNldjpaxFbjE",
    "infected": 2136,
    "recovered": 914,
    "latitude": 48.202,
    "sick": 998,
    "invisible": false
  },