[
  {
    "longitude": -81.7006,
    "name": "San Andrés",
    "latitude": 12.5847,
    "dead": 0,
    "lastUpdated": "2020-07-21T10:21:12.607Z",
    "recovered": 23,
    "infected": 30,
    "id": "01b09TY4vmuZwzVuiRFK",
    "pop": 72600,
    "country": "CO",
    "sick": 7,
    "invisible": false
  },
  {
    "id": "0FOJefeLxQYXQ1CnJm9o",
    "pop": 63196,
    "country": "GG",
    "longitude": -2.5895,
    "name": "Guernsey",
    "alwaysShow": false,
    "latitude": 49.4482,
    "dead": 13,
    "lastUpdated": "2020-07-21T09:58:03.877Z",
    "recovered": 238,
    "infected": 252,
    "sick": 1,
    "invisible": false
  },
  {
    "lastUpdated": "2020-07-21T10:01:01.887Z",
    "recovered": 4104,
    "infected": 4833,
    "state": "72",
    "id": "0GJcws44NSPsDHAuxJhW",
    "pop": 5827000,
    "country": "IT",
    "longitude": 14.333333,
    "name": "Campania",
    "latitude": 41.066666,
    "dead": 433,
    "sick": 296,
    "invisible": false
  },
  {
    "country": "CL",
    "longitude": -70.14222,
    "name": "Tarapacá",
    "latitude": -20.2167,
    "dead": 141,
    "lastUpdated": "2020-07-21T10:20:04.371Z",
    "recovered": 0,
    "infected": 7627,
    "id": "0HDQbiHe462xMCUV5HiI",
    "pop": 383870,
    "sick": 7486,
    "invisible": false
  },
  {
    "name": "Odisha",
    "latitude": 20.9517,
    "dead": 133,
    "lastUpdated": "2020-07-21T10:11:01.665Z",
    "recovered": 12910,
    "infected": 18757,
    "id": "0VG7S6aaK4eSo59fL9JO",
    "pop": 45990000,
    "country": "IN",
    "longitude": 85.0985,
    "sick": 5714,
    "invisible": false
  },
  {
    "name": "Hidalgo",
    "latitude": 20.4737,
    "dead": 879,
    "lastUpdated": "2020-07-21T10:02:01.985Z",
    "recovered": 0,
    "infected": 5490,
    "id": "0XmCRqiK2ZaehoEJvfer",
    "pop": 2990300,
    "country": "MX",
    "longitude": -98.8582,
    "sick": 4611,
    "invisible": false
  },
  {
    "country": "IN",
    "longitude": 92.6586,
    "name": "Andaman and Nicobar Islands",
    "latitude": 11.7401,
    "dead": 0,
    "lastUpdated": "2020-07-21T10:11:01.667Z",
    "recovered": 151,
    "infected": 207,
    "id": "0jStOpTUNRaQYJqgmRoK",
    "pop": 427246,
    "sick": 56,
    "invisible": false
  },
  {
    "id": "0m4aECS0Z2DGFEr8ldgI",
    "pop": 2639000,
    "country": "QA",
    "longitude": 51.145517,
    "name": "Qatar",
    "latitude": 25.315058,
    "dead": 159,
    "lastUpdated": "2020-07-21T10:16:03.815Z",
    "recovered": 103782,
    "infected": 107037,
    "sick": 3096,
    "invisible": false
  },
  {
    "latitude": 22.9868,
    "dead": 1147,
    "lastUpdated": "2020-07-21T10:11:01.662Z",
    "recovered": 26418,
    "infected": 44769,
    "id": "0n54EMSDJcRoT1QEvw80",
    "pop": 90320000,
    "country": "IN",
    "longitude": 87.855,
    "name": "West Bengal",
    "sick": 17204,
    "invisible": false
  },
  {
    "latitude": 22.9734,
    "dead": 738,
    "lastUpdated": "2020-07-21T10:11:01.663Z",
    "recovered": 15684,
    "infected": 23310,
    "id": "0s18o5DrDAHjbu5MFcrj",
    "pop": 73340000,
    "country": "IN",
    "longitude": 78.6569,
    "name": "Madhya Pradesh",
    "sick": 6888,
    "invisible": false
  },
  {
    "recovered": 1850988,
    "infected": 0,
    "id": "0tFoopNTs6e4tOoaltu2",
    "country": "US",
    "longitude": -95.7129,
    "invisible": true,
    "name": "Unknown US state",
    "latitude": 37.0902,
    "dead": 0,
    "lastUpdated": "2020-07-21T10:16:03.813Z",
    "sick": 0
  },
  {
    "name": "Shaanxi",
    "latitude": 35.64249,
    "dead": 3,
    "lastUpdated": "2020-07-21T10:23:10.592Z",
    "recovered": 316,
    "infected": 322,
    "id": "0x2HLhr5z5xAtEdO4iZm",
    "pop": 37330000,
    "country": "CN",
    "longitude": 108.472214,
    "sick": 3,
    "invisible": false
  },
  {
    "recovered": 4871,
    "infected": 9249,
    "id": "19MvIhipqTyYv1H37Upw",
    "pop": 2077000,
    "country": "MK",
    "longitude": 21.668393,
    "name": "North Macedonia",
    "latitude": 41.643351,
    "dead": 432,
    "lastUpdated": "2020-07-21T10:16:03.821Z",
    "sick": 3946,
    "invisible": false
  },
  {
    "name": "Newfoundland and Labrador",
    "latitude": 53.1355,
    "dead": 3,
    "lastUpdated": "2020-07-21T10:07:08.668Z",
    "recovered": 259,
    "infected": 262,
    "state": "NL",
    "id": "1DOMOmCWDtva46OVSZLv",
    "pop": 521542,
    "country": "CA",
    "longitude": -57.6604,
    "sick": 0,
    "invisible": false
  },
  {
    "name": "Qinghai",
    "latitude": 35.801933,
    "dead": 0,
    "lastUpdated": "2020-07-21T10:23:10.594Z",
    "recovered": 18,
    "infected": 18,
    "id": "1Fap7rZu9SIRqf5TG9Dg",
    "pop": 5627000,
    "country": "CN",
    "longitude": 96.779286,
    "sick": 0,
    "invisible": false
  },
  {
    "longitude": -102.5528,
    "invisible": true,
    "name": "Unknown Mexico state",
    "latitude": 23.6345,
    "dead": 0,
    "lastUpdated": "2020-07-21T10:16:03.814Z",
    "recovered": 222068,
    "infected": 0,
    "id": "1YXQMlVL3fUeDZmcVfJw",
    "pop": 126200000,
    "country": "MX",
    "sick": 0
  },
  {
    "recovered": 3290,
    "infected": 5607,
    "id": "1at5nIap9H51v32otlQl",
    "pop": 1960000,
    "country": "RU",
    "longitude": 73.3167,
    "name": "Omsk Oblast",
    "latitude": 55.0555,
    "dead": 54,
    "lastUpdated": "2020-07-21T10:00:11.195Z",
    "sick": 2263,
    "invisible": false
  },
  {
    "state": "21",
    "id": "1eTSQyfp8RoDPeFrIwun",
    "pop": 4376000,
    "country": "IT",
    "longitude": 8.206944,
    "name": "Piemonte",
    "latitude": 44.9,
    "dead": 4120,
    "lastUpdated": "2020-07-21T10:01:01.890Z",
    "recovered": 26584,
    "infected": 31537,
    "sick": 833,
    "invisible": false
  },
  {
    "recovered": 0,
    "infected": 328,
    "id": "1j1OurxLTpZYuWIWwQ9F",
    "pop": 1003000,
    "country": "PL",
    "longitude": 15.461,
    "name": "Lubuskie",
    "latitude": 51.993,
    "dead": 1,
    "lastUpdated": "2020-07-21T10:03:01.386Z",
    "sick": 327,
    "invisible": false
  },
  {
    "recovered": 14599,
    "infected": 21115,
    "id": "1qTPB8X3tyLyIdsb5TN3",
    "pop": 3550000,
    "country": "MD",
    "longitude": 28.3699,
    "name": "Moldova",
    "latitude": 47.4116,
    "dead": 697,
    "lastUpdated": "2020-07-21T10:16:03.819Z",
    "sick": 5819,
    "invisible": false
  },
  {
    "name": "Federal Bureau of Prisons",
    "latitude": 37.0902,
    "dead": 98,
    "lastUpdated": "2020-07-21T10:17:02.501Z",
    "recovered": 0,
    "infected": 10649,
    "id": "22PJOAThcDFKgSbyQIkD",
    "country": "US",
    "longitude": -95.7129,
    "invisible": true,
    "sick": 10551
  },
  {
    "lastUpdated": "2020-07-21T10:23:10.594Z",
    "recovered": 1,
    "infected": 1,
    "id": "25qIBtsW2nfQj3pwBKg9",
    "pop": 3180000,
    "country": "CN",
    "longitude": 88.787865,
    "name": "Tibet",
    "latitude": 30.15336,
    "dead": 0,
    "sick": 0,
    "invisible": false
  },
  {
    "country": "ID",
    "longitude": 115.66779,
    "name": "Indonesia",
    "latitude": -1.572184,
    "dead": 4320,
    "lastUpdated": "2020-07-21T10:16:03.815Z",
    "recovered": 48466,
    "infected": 89869,
    "id": "2KHYUb5t3lwzVVmDjwNX",
    "pop": 264000000,
    "sick": 37083,
    "invisible": false
  },
  {
    "longitude": -120.585594,
    "name": "Oregon",
    "latitude": 43.807191,
    "dead": 262,
    "lastUpdated": "2020-07-21T10:17:02.496Z",
    "recovered": 0,
    "infected": 14847,
    "state": "OR",
    "id": "2OrsssmGUs4XCzaZzvTv",
    "pop": 4191000,
    "country": "US",
    "sick": 14585,
    "invisible": false
  },
  {
    "lastUpdated": "2020-07-21T10:20:04.371Z",
    "recovered": 0,
    "infected": 13109,
    "id": "2c5HBZ1ffkCVXnMYUWnY",
    "pop": 425000,
    "country": "CL",
    "longitude": -70.400002,
    "name": "Antofagasta",
    "latitude": -23.65,
    "dead": 280,
    "sick": 12829,
    "invisible": false
  },
  {
    "recovered": 0,
    "infected": 34145,
    "state": "AP",
    "id": "2dzhyWsBSPpENWlNew0b",
    "pop": 9029000,
    "country": "BR",
    "longitude": -51.070534,
    "name": "Amapá",
    "latitude": 0.035574,
    "dead": 515,
    "lastUpdated": "2020-07-21T09:57:01.983Z",
    "sick": 33630,
    "invisible": false
  },
  {
    "recovered": 153,
    "infected": 155,
    "id": "2jxHvSsxdnom0nPNvOT8",
    "pop": 27460000,
    "country": "CN",
    "longitude": 126.548103,
    "name": "Jilin",
    "latitude": 43.851921,
    "dead": 2,
    "lastUpdated": "2020-07-21T10:23:10.594Z",
    "sick": 0,
    "invisible": false
  },
  {
    "latitude": 36.1408,
    "dead": 0,
    "lastUpdated": "2020-07-21T10:16:03.832Z",
    "recovered": 180,
    "infected": 180,
    "id": "2p11BjSAs3wVyymgqBOe",
    "pop": 34571,
    "country": "GI",
    "longitude": -5.3536,
    "name": "Gibraltar",
    "sick": 0,
    "invisible": false
  },
  {
    "name": "Centre-Val de Loire",
    "latitude": 47.7516,
    "dead": 555,
    "lastUpdated": "2020-07-20T23:09:10.726Z",
    "recovered": 2054,
    "infected": 4622,
    "id": "2sLNkkHpyaHx7dD3aMDO",
    "pop": 2567000,
    "country": "FR",
    "longitude": 1.6751,
    "sick": 2013,
    "invisible": false
  },
  {
    "latitude": 42.565044,
    "dead": 80,
    "lastUpdated": "2020-07-21T10:01:01.890Z",
    "recovered": 1364,
    "infected": 1456,
    "state": "55",
    "id": "319tiZOMczx1y0DfvOib",
    "pop": 884640,
    "country": "IT",
    "longitude": 12.643751,
    "name": "Umbria",
    "sick": 12,
    "invisible": false
  },
  {
    "id": "38T96Q3XNjt5FSJygPed",
    "pop": 1355000,
    "country": "CO",
    "longitude": -76.6131592,
    "name": "Cauca",
    "latitude": 2.43823,
    "dead": 36,
    "lastUpdated": "2020-07-21T10:21:12.607Z",
    "recovered": 389,
    "infected": 1136,
    "sick": 711,
    "invisible": false
  },
  {
    "lastUpdated": "2020-07-21T10:16:03.824Z",
    "recovered": 1620,
    "infected": 3326,
    "id": "3IlPjAbP5qVMn1nlgLTJ",
    "pop": 17090000,
    "country": "ZM",
    "longitude": 27.849332,
    "name": "Zambia",
    "latitude": -13.133896,
    "dead": 128,
    "sick": 1578,
    "invisible": false
  },
  {
    "name": "Montenegro",
    "latitude": 42.7044,
    "dead": 35,
    "lastUpdated": "2020-07-21T10:16:03.825Z",
    "recovered": 387,
    "infected": 2283,
    "id": "3LstMSN5XMYBkxbe5HN7",
    "pop": 631219,
    "country": "ME",
    "longitude": 19.3958,
    "sick": 1861,
    "invisible": false
  },
  {
    "latitude": -35.4735,
    "dead": 3,
    "lastUpdated": "2020-07-21T09:43:28.672Z",
    "recovered": 107,
    "infected": 113,
    "state": "ACT",
    "id": "3OZoQsKrzxZ18EKyfGE6",
    "pop": 418440,
    "country": "AU",
    "longitude": 149.0124,
    "name": "Australian Capital Territory",
    "sick": 3,
    "invisible": false
  },
  {
    "lastUpdated": "2020-07-21T10:00:11.195Z",
    "recovered": 4933,
    "infected": 5637,
    "id": "3PfzjWjvOkfgxc672BHQ",
    "pop": 608000,
    "country": "RU",
    "longitude": 38.8389,
    "name": "Yaroslavl Oblast",
    "latitude": 57.8992,
    "dead": 24,
    "sick": 680,
    "invisible": false
  },
  {
    "id": "3PpqgIUJAtzxo1j7z56i",
    "pop": 321000,
    "country": "RU",
    "longitude": 95.626,
    "name": "Tuva",
    "latitude": 51.8873,
    "dead": 45,
    "lastUpdated": "2020-07-21T10:00:11.194Z",
    "recovered": 3038,
    "infected": 5777,
    "sick": 2694,
    "invisible": false
  },
  {
    "latitude": 26.2006,
    "dead": 63,
    "lastUpdated": "2020-07-21T10:11:01.664Z",
    "recovered": 17096,
    "infected": 25093,
    "id": "3cCbnJCsK7mKlTO08K1o",
    "pop": 30940000,
    "country": "IN",
    "longitude": 92.9376,
    "name": "Assam",
    "sick": 7934,
    "invisible": false
  },
  {
    "name": "Ohio",
    "latitude": 40.4173,
    "dead": 3192,
    "lastUpdated": "2020-07-21T10:17:02.493Z",
    "recovered": 0,
    "infected": 76196,
    "state": "OH",
    "id": "3fC3bAyIRUquOQOEnQNe",
    "pop": 11690000,
    "country": "US",
    "longitude": -82.9071,
    "sick": 73004,
    "invisible": false
  },
  {
    "country": "MX",
    "longitude": -107.5,
    "name": "Sinaloa",
    "latitude": 25,
    "dead": 1866,
    "lastUpdated": "2020-07-21T10:02:01.966Z",
    "recovered": 0,
    "infected": 11595,
    "id": "3kFCzJguabtBvXaHxgiu",
    "pop": 3066400,
    "sick": 9729,
    "invisible": false
  },
  {
    "latitude": 3.420556,
    "dead": 549,
    "lastUpdated": "2020-07-21T10:21:12.605Z",
    "recovered": 7902,
    "infected": 16057,
    "id": "3mC2LveOpXV8P1PmQGUj",
    "pop": 4708300,
    "country": "CO",
    "longitude": -76.522224,
    "name": "Valle del Cauca",
    "sick": 7606,
    "invisible": false
  },
  {
    "latitude": 21.0079,
    "dead": 155,
    "lastUpdated": "2020-07-21T10:16:03.823Z",
    "recovered": 3632,
    "infected": 5923,
    "id": "4NnFMekRK2m14IlnZZoj",
    "pop": 4420000,
    "country": "MR",
    "longitude": -10.9408,
    "name": "Mauritania",
    "sick": 2136,
    "invisible": false
  },
  {
    "state": "BC",
    "id": "4hfZRUoUgI4a3vrG0GBk",
    "pop": 5071000,
    "country": "CA",
    "longitude": -127.6476,
    "name": "British Columbia",
    "latitude": 53.7267,
    "dead": 189,
    "lastUpdated": "2020-07-21T10:07:08.666Z",
    "recovered": 2858,
    "infected": 3300,
    "sick": 253,
    "invisible": false
  },
  {
    "name": "Rio de Janeiro",
    "latitude": -22.908333,
    "dead": 12161,
    "lastUpdated": "2020-07-21T09:57:01.981Z",
    "recovered": 0,
    "infected": 141005,
    "state": "RJ",
    "id": "4kq0z3kh5zt3YAUWxvtE",
    "pop": 17159960,
    "country": "BR",
    "longitude": -43.196388,
    "sick": 128844,
    "invisible": false
  },
  {
    "longitude": -41.280857,
    "name": "Bahia",
    "latitude": -11.409874,
    "dead": 2891,
    "lastUpdated": "2020-07-21T09:57:01.981Z",
    "recovered": 0,
    "infected": 123292,
    "state": "BA",
    "id": "4yDbkEyqsNzZJjfrciYV",
    "pop": 14812617,
    "country": "BR",
    "sick": 120401,
    "invisible": false
  },
  {
    "latitude": 40.3426,
    "dead": 363,
    "lastUpdated": "2020-07-21T10:16:03.819Z",
    "recovered": 19490,
    "infected": 27890,
    "id": "4zqzRm2xHn0CDVOUQJ8p",
    "pop": 9898000,
    "country": "AZ",
    "longitude": 47.93802,
    "name": "Azerbaijan",
    "sick": 8037,
    "invisible": false
  },
  {
    "name": "Tamaulipas",
    "latitude": 22.233105,
    "dead": 818,
    "lastUpdated": "2020-07-21T10:02:01.984Z",
    "recovered": 0,
    "infected": 12857,
    "id": "54cfsdsRF76XVHWtZs19",
    "pop": 3672300,
    "country": "MX",
    "longitude": -97.861099,
    "sick": 12039,
    "invisible": false
  },
  {
    "country": "BE",
    "longitude": 3.7265,
    "name": "Flanders",
    "latitude": 51.0109,
    "dead": 4913,
    "lastUpdated": "2020-07-21T10:07:06.387Z",
    "recovered": 9524,
    "infected": 36182,
    "state": "VLG",
    "id": "57ydD48mLRD2YoyteJZj",
    "pop": 6596000,
    "sick": 21745,
    "invisible": false
  },
  {
    "longitude": -78.035889,
    "name": "Bahamas",
    "latitude": 25.025885,
    "dead": 11,
    "lastUpdated": "2020-07-21T10:16:03.832Z",
    "recovered": 91,
    "infected": 174,
    "id": "5MHegCUO9L3LiAU7DDey",
    "pop": 395361,
    "country": "BS",
    "sick": 72,
    "invisible": false
  },
  {
    "state": "NSW",
    "id": "5N16a2OXXRpsEFanw0TC",
    "pop": 7544000,
    "country": "AU",
    "longitude": 146.921097,
    "name": "New South Wales",
    "latitude": -31.253218,
    "dead": 49,
    "lastUpdated": "2020-07-21T09:43:28.678Z",
    "recovered": 2988,
    "infected": 3588,
    "sick": 551,
    "invisible": false
  },
  {
    "id": "5N4PRxsCDzzwk7R200V1",
    "pop": 12580000,
    "country": "SS",
    "longitude": 31.3069782,
    "name": "South Sudan",
    "latitude": 6.8769908,
    "dead": 45,
    "lastUpdated": "2020-07-21T10:16:03.825Z",
    "recovered": 1175,
    "infected": 2211,
    "sick": 991,
    "invisible": false
  },
  {
    "country": "ES",
    "longitude": -0.7533,
    "name": "C. Valenciana",
    "latitude": 39.484,
    "dead": 1433,
    "lastUpdated": "2020-07-20T23:03:32.169Z",
    "recovered": 9970,
    "infected": 15913,
    "state": "VC",
    "id": "5Va9A7CXR8AXdUz4HTJj",
    "pop": 4975000,
    "sick": 4510,
    "invisible": false
  },
  {
    "country": "NC",
    "longitude": 165.618042,
    "name": "New Caledonia",
    "latitude": -20.9043045,
    "dead": 0,
    "lastUpdated": "2020-07-21T10:16:03.834Z",
    "recovered": 21,
    "infected": 22,
    "id": "5fg04eyDwFw3kEXnrxez",
    "pop": 280460,
    "sick": 1,
    "invisible": false
  },
  {
    "name": "Nepal",
    "latitude": 28.394857,
    "dead": 40,
    "lastUpdated": "2020-07-21T10:16:03.819Z",
    "recovered": 11868,
    "infected": 17844,
    "id": "5gXZIjRgAvd6xWN1LOv8",
    "pop": 29300000,
    "country": "NP",
    "longitude": 84.124008,
    "sick": 5936,
    "invisible": false
  },
  {
    "latitude": 12.879721,
    "dead": 1837,
    "lastUpdated": "2020-07-21T10:16:03.816Z",
    "recovered": 23281,
    "infected": 70764,
    "id": "5pwmh7aSdGRKqRbnuyc0",
    "pop": 104900000,
    "country": "PH",
    "longitude": 121.774017,
    "name": "Philippines",
    "sick": 45646,
    "invisible": false
  },
  {
    "country": "ZW",
    "longitude": 31.053028,
    "name": "Zimbabwe",
    "latitude": -17.824858,
    "dead": 26,
    "lastUpdated": "2020-07-21T10:16:03.826Z",
    "recovered": 472,
    "infected": 1713,
    "id": "5qtR9nx4BLwu1ODTniaY",
    "pop": 14802190,
    "sick": 1215,
    "invisible": false
  },
  {
    "infected": 8617,
    "recovered": 0,
    "pop": 356890,
    "country": "US",
    "lastUpdated": "2020-07-21T10:17:02.501Z",
    "state": "NA",
    "id": "5vkKgxTaKq1IH0Go357L",
    "longitude": -109.188,
    "invisible": false,
    "name": "Navajo Nation",
    "dead": 422,
    "latitude": 36.0672,
    "sick": 8195
  },
  {
    "longitude": -99.177254,
    "name": "Ciudad de México",
    "latitude": 19.432241,
    "dead": 8253,
    "lastUpdated": "2020-07-21T10:02:01.984Z",
    "recovered": 0,
    "infected": 63527,
    "id": "61E7TGjUwAo9xu6Y6gAH",
    "pop": 8781300,
    "country": "MX",
    "sick": 55274,
    "invisible": false
  },
  {
    "latitude": 54.3873,
    "dead": 54,
    "lastUpdated": "2020-07-21T10:00:11.193Z",
    "recovered": 5423,
    "infected": 6957,
    "id": "63KYOuWe41mvqWQrJbr2",
    "pop": 1012000,
    "country": "RU",
    "longitude": 35.1889,
    "name": "Kaluga Oblast",
    "sick": 1480,
    "invisible": false
  },
  {
    "country": "LT",
    "longitude": 23.804991,
    "name": "Lithuania",
    "latitude": 55.621011,
    "dead": 80,
    "lastUpdated": "2020-07-21T10:16:03.826Z",
    "recovered": 1601,
    "infected": 1949,
    "id": "694ON7d0mRJDeM1gHBTR",
    "pop": 2794000,
    "sick": 268,
    "invisible": false
  },
  {
    "state": "EN",
    "id": "6IQAsvrmBv0HPdeTnh4x",
    "pop": 9175000,
    "country": "GB",
    "longitude": -0.5596,
    "name": "South East",
    "latitude": 51.1781,
    "dead": 0,
    "lastUpdated": "2020-07-21T10:13:17.699Z",
    "recovered": 0,
    "infected": 34694,
    "sick": 34694,
    "invisible": false
  },
  {
    "name": "Hong Kong",
    "latitude": 22.396427,
    "dead": 12,
    "lastUpdated": "2020-07-21T10:16:03.826Z",
    "recovered": 1302,
    "infected": 1959,
    "id": "6IcHIIH0zXpY0POmBZTv",
    "pop": 7392000,
    "country": "HK",
    "longitude": 114.109497,
    "sick": 645,
    "invisible": false
  },
  {
    "name": "Acre",
    "latitude": -8.65,
    "dead": 465,
    "lastUpdated": "2020-07-21T09:57:01.984Z",
    "recovered": 0,
    "infected": 17462,
    "state": "AC",
    "id": "6LQesrx5bHJsVUi1TXBp",
    "pop": 869265,
    "country": "BR",
    "longitude": -72.4,
    "sick": 16997,
    "invisible": false
  },
  {
    "recovered": 782,
    "infected": 1602,
    "id": "6SlpghTyB6lpMFvx3g9U",
    "pop": 11180000,
    "country": "BJ",
    "longitude": 2.3158,
    "name": "Benin",
    "latitude": 9.3077,
    "dead": 31,
    "lastUpdated": "2020-07-21T10:16:03.827Z",
    "sick": 789,
    "invisible": false
  },
  {
    "state": "25",
    "id": "6ZHcvMIzVWIaRnc4R3Qp",
    "pop": 10040000,
    "country": "IT",
    "longitude": 9.5,
    "name": "Lombardia",
    "latitude": 45.6667,
    "dead": 16796,
    "lastUpdated": "2020-07-21T10:01:01.889Z",
    "recovered": 71611,
    "infected": 95548,
    "sick": 7141,
    "invisible": false
  },
  {
    "latitude": 46.0569,
    "dead": 114,
    "lastUpdated": "2020-07-21T10:16:03.825Z",
    "recovered": 1625,
    "infected": 1977,
    "id": "6ahNiyKDSDAftCctgLH3",
    "pop": 2067000,
    "country": "SI",
    "longitude": 14.5058,
    "name": "Slovenia",
    "sick": 238,
    "invisible": false
  },
  {
    "id": "6nyns7UGGgkU7pxrHf8i",
    "pop": 300000,
    "country": "CL",
    "longitude": -70.331398,
    "name": "Atacama",
    "latitude": -27.3667908,
    "dead": 9,
    "lastUpdated": "2020-07-21T10:20:04.371Z",
    "recovered": 0,
    "infected": 1857,
    "sick": 1848,
    "invisible": false
  },
  {
    "latitude": -0.8037,
    "dead": 46,
    "lastUpdated": "2020-07-21T10:16:03.823Z",
    "recovered": 4034,
    "infected": 6433,
    "id": "6pBi38TUgYfFm0bry2uh",
    "pop": 2025000,
    "country": "GA",
    "longitude": 11.6094,
    "name": "Gabon",
    "sick": 2353,
    "invisible": false
  },
  {
    "lastUpdated": "2020-07-21T10:02:01.985Z",
    "recovered": 0,
    "infected": 6055,
    "id": "6vjIVg1gSANFZghV7xtS",
    "pop": 2831900,
    "country": "MX",
    "longitude": -100.9792,
    "name": "San Luis Potosí",
    "latitude": 22.1498,
    "dead": 357,
    "sick": 5698,
    "invisible": false
  },
  {
    "longitude": -62.818544,
    "name": "Saint-Barthélémy",
    "alwaysShow": true,
    "latitude": 17.901672,
    "dead": 0,
    "lastUpdated": "2020-07-21T10:16:03.834Z",
    "recovered": 6,
    "infected": 6,
    "id": "78Ox26bNHDA2Pk2b3Uwn",
    "pop": 9131,
    "country": "FR",
    "sick": 0,
    "invisible": false
  },
  {
    "lastUpdated": "2020-07-21T10:03:01.385Z",
    "recovered": 0,
    "infected": 761,
    "id": "7JDx6UJiwGSJyL1fChaJ",
    "pop": 2305000,
    "country": "PL",
    "longitude": 18.633,
    "name": "Pomorskie",
    "latitude": 54.367,
    "dead": 39,
    "sick": 722,
    "invisible": false
  },
  {
    "latitude": 35.2923,
    "dead": 2,
    "lastUpdated": "2020-07-20T23:06:12.942Z",
    "recovered": 125,
    "infected": 142,
    "state": "ML",
    "id": "7UASdZTZ1nPzzBwSTEA9",
    "pop": 84690,
    "country": "ES",
    "longitude": -2.9381,
    "name": "Melilla",
    "sick": 15,
    "invisible": false
  },
  {
    "recovered": 57,
    "infected": 76,
    "id": "7hVFcEV7nV0MrQr3LHrl",
    "pop": 102012,
    "country": "AG",
    "longitude": -61.7964,
    "name": "Antigua and Barbuda",
    "latitude": 17.0608,
    "dead": 3,
    "lastUpdated": "2020-07-21T10:16:03.833Z",
    "sick": 16,
    "invisible": false
  },
  {
    "lastUpdated": "2020-07-21T10:00:04.410Z",
    "recovered": 46327,
    "infected": 50137,
    "state": "BY",
    "id": "7kCrrlOBE3jN6FtOVNUB",
    "pop": 13000000,
    "country": "DE",
    "longitude": 11.4979,
    "name": "Bayern",
    "latitude": 48.7904,
    "dead": 2658,
    "sick": 1152,
    "invisible": false
  },
  {
    "longitude": 19.0402,
    "name": "Hungary",
    "latitude": 47.4979,
    "dead": 596,
    "lastUpdated": "2020-07-21T10:16:03.823Z",
    "recovered": 3257,
    "infected": 4347,
    "id": "7rYC2iFB50c55Ihgbs4Q",
    "pop": 9773000,
    "country": "HU",
    "sick": 494,
    "invisible": false
  },
  {
    "longitude": -74.7813,
    "name": "Barranquilla D.E.",
    "latitude": 10.9685,
    "dead": 1306,
    "lastUpdated": "2020-07-21T10:21:12.607Z",
    "recovered": 14735,
    "infected": 25583,
    "id": "7tqLvLyXcBDK808nJv0m",
    "pop": 1206000,
    "country": "CO",
    "sick": 9542,
    "invisible": false
  },
  {
    "lastUpdated": "2020-07-21T10:16:03.820Z",
    "recovered": 13728,
    "infected": 16157,
    "id": "8C0d7WVCjyUGtnc2gUAR",
    "pop": 24050000,
    "country": "CM",
    "longitude": 12.3547,
    "name": "Cameroon",
    "latitude": 7.3697,
    "dead": 373,
    "sick": 2056,
    "invisible": false
  },
  {
    "name": "Brussels",
    "latitude": 50.8503,
    "dead": 1497,
    "lastUpdated": "2020-07-21T10:07:06.387Z",
    "recovered": 2838,
    "infected": 6639,
    "state": "BRU",
    "id": "8DOZWbN6bDdgaLXVlUEu",
    "pop": 1209000,
    "country": "BE",
    "longitude": 4.3517,
    "sick": 2304,
    "invisible": false
  },
  {
    "name": "Bolivia",
    "latitude": -16.2902,
    "dead": 2218,
    "lastUpdated": "2020-07-21T10:16:03.816Z",
    "recovered": 18875,
    "infected": 60991,
    "id": "8RihJrXw4NQXPxaRxr1u",
    "pop": 11050000,
    "country": "BO",
    "longitude": -63.5887,
    "sick": 39898,
    "invisible": false
  },
  {
    "latitude": 12.9843,
    "dead": 0,
    "lastUpdated": "2020-07-21T10:16:03.833Z",
    "recovered": 29,
    "infected": 50,
    "id": "8ZTySQROQejkDAad0qxQ",
    "pop": 109897,
    "country": "VC",
    "longitude": -61.2872,
    "name": "St. Vincent Grenadines",
    "sick": 21,
    "invisible": false
  },
  {
    "latitude": 1.352083,
    "dead": 27,
    "lastUpdated": "2020-07-21T10:16:03.817Z",
    "recovered": 44371,
    "infected": 48434,
    "id": "8pA3fM4xC2c2wv1b4TnE",
    "pop": 5621000,
    "country": "SG",
    "longitude": 103.819839,
    "name": "Singapore",
    "sick": 4036,
    "invisible": false
  },
  {
    "id": "98hwAoohgWEOQVa3NlM5",
    "pop": 3787000,
    "country": "FR",
    "longitude": -1.5536,
    "name": "Pays de la Loire",
    "latitude": 47.2184,
    "dead": 470,
    "lastUpdated": "2020-07-20T23:09:56.328Z",
    "recovered": 2135,
    "infected": 4340,
    "sick": 1735,
    "invisible": false
  },
  {
    "recovered": 0,
    "infected": 3748,
    "id": "9DAvxOObTqIvMOU93nlY",
    "pop": 952300,
    "country": "MX",
    "longitude": -90.19885,
    "name": "Campeche",
    "latitude": 19.30754,
    "dead": 370,
    "lastUpdated": "2020-07-21T10:02:01.984Z",
    "sick": 3378,
    "invisible": false
  },
  {
    "recovered": 5707,
    "infected": 10992,
    "id": "9DPOkpIqrFy9mR4e9fuv",
    "pop": 40530000,
    "country": "SD",
    "longitude": 30.2176,
    "name": "Sudan",
    "latitude": 12.8628,
    "dead": 693,
    "lastUpdated": "2020-07-21T10:16:03.821Z",
    "sick": 4592,
    "invisible": false
  },
  {
    "id": "9JFYfvpcejMIgYlHpngA",
    "pop": 643000,
    "country": "RU",
    "longitude": 43.9541,
    "name": "Kostroma Oblast",
    "latitude": 58.5501,
    "dead": 24,
    "lastUpdated": "2020-07-21T10:00:11.198Z",
    "recovered": 1352,
    "infected": 2005,
    "sick": 629,
    "invisible": false
  },
  {
    "latitude": 45.943161,
    "dead": 2038,
    "lastUpdated": "2020-07-21T10:16:03.817Z",
    "recovered": 22747,
    "infected": 38139,
    "id": "9QcETqEcM2fTv9zRvx5T",
    "pop": 19530000,
    "country": "RO",
    "longitude": 24.966761,
    "name": "Romania",
    "sick": 13354,
    "invisible": false
  },
  {
    "latitude": 12.136389,
    "dead": 99,
    "lastUpdated": "2020-07-21T10:16:03.824Z",
    "recovered": 2282,
    "infected": 3147,
    "id": "9Y5wmCqNCC6ZrenM31uA",
    "pop": 6218000,
    "country": "NI",
    "longitude": -86.251389,
    "name": "Nicaragua",
    "sick": 766,
    "invisible": false
  },
  {
    "name": "Mali",
    "latitude": 17.5706921,
    "dead": 121,
    "lastUpdated": "2020-07-21T10:16:03.825Z",
    "recovered": 1851,
    "infected": 2475,
    "id": "9dIzxqDSVqPyINkHqwGv",
    "pop": 18540000,
    "country": "ML",
    "longitude": -3.996166,
    "sick": 503,
    "invisible": false
  },
  {
    "country": "FI",
    "longitude": 25.748152,
    "name": "Finland",
    "latitude": 61.92411,
    "dead": 328,
    "lastUpdated": "2020-07-21T10:16:03.822Z",
    "recovered": 6880,
    "infected": 7351,
    "id": "9p6OCdZbUUwBLA60Gk3W",
    "pop": 5513000,
    "sick": 143,
    "invisible": false
  },
  {
    "latitude": 64.248,
    "dead": 276,
    "lastUpdated": "2020-07-21T10:00:11.191Z",
    "recovered": 9118,
    "infected": 11655,
    "id": "A6Us0fpQVCc85SoIqzg3",
    "pop": 2876000,
    "country": "RU",
    "longitude": 95.1104,
    "name": "Krasnoyarsk Krai",
    "sick": 2261,
    "invisible": false
  },
  {
    "lastUpdated": "2020-07-21T10:17:02.496Z",
    "recovered": 0,
    "infected": 6249,
    "state": "NH",
    "id": "A84CwQ52kA46Hr7pn6Bm",
    "pop": 1356000,
    "country": "US",
    "longitude": -71.590315,
    "name": "New Hampshire",
    "latitude": 43.311643,
    "dead": 398,
    "sick": 5851,
    "invisible": false
  },
  {
    "name": "Rhode Island",
    "latitude": 41.823261,
    "dead": 995,
    "lastUpdated": "2020-07-21T10:17:02.495Z",
    "recovered": 0,
    "infected": 17904,
    "state": "RI",
    "id": "AEUWUHS65qvjEslew11c",
    "pop": 1057000,
    "country": "US",
    "longitude": -71.412257,
    "sick": 16909,
    "invisible": false
  },
  {
    "longitude": 11.327591,
    "name": "Emilia-Romagna",
    "latitude": 44.498955,
    "dead": 4277,
    "lastUpdated": "2020-07-21T10:01:01.887Z",
    "recovered": 23645,
    "infected": 29220,
    "state": "45",
    "id": "AJ9jQ0iyKsafsmf5yHAR",
    "pop": 4453000,
    "country": "IT",
    "sick": 1298,
    "invisible": false
  },
  {
    "latitude": 49.3964,
    "dead": 178,
    "lastUpdated": "2020-07-21T10:00:04.415Z",
    "recovered": 2629,
    "infected": 2857,
    "state": "SL",
    "id": "AKjFRQGnzuuZQhv5Qwx7",
    "pop": 990509,
    "country": "DE",
    "longitude": 7.023,
    "name": "Saarland",
    "sick": 50,
    "invisible": false
  },
  {
    "id": "AOapJ3gElQApd8Gnt8EL",
    "pop": 3493000,
    "country": "RU",
    "longitude": 60.8789,
    "name": "Chelyabinsk Oblast",
    "latitude": 54.4319,
    "dead": 88,
    "lastUpdated": "2020-07-21T10:00:11.192Z",
    "recovered": 5622,
    "infected": 9946,
    "sick": 4236,
    "invisible": false
  },
  {
    "latitude": -35.717,
    "dead": 127,
    "lastUpdated": "2020-07-21T10:20:04.448Z",
    "recovered": 0,
    "infected": 7817,
    "id": "APTPgjAsjFi0nsGyJV7M",
    "pop": 1125002,
    "country": "CL",
    "longitude": -71.167,
    "name": "Maule",
    "sick": 7690,
    "invisible": false
  },
  {
    "recovered": 13,
    "infected": 13,
    "id": "APaZzlGCEeuoLBtzTJMe",
    "pop": 56171,
    "country": "GL",
    "longitude": -42.6043,
    "name": "Greenland",
    "latitude": 71.7069,
    "dead": 0,
    "lastUpdated": "2020-07-21T10:16:03.834Z",
    "sick": 0,
    "invisible": false
  },
  {
    "id": "ATxF6ZoDJ2ibdE6ZRYIX",
    "pop": 984000,
    "country": "RU",
    "longitude": 112.4061,
    "name": "Buryatia",
    "latitude": 54.8331,
    "dead": 35,
    "lastUpdated": "2020-07-21T10:00:11.197Z",
    "recovered": 2860,
    "infected": 3729,
    "sick": 834,
    "invisible": false
  },
  {
    "latitude": 45.65107,
    "dead": 63,
    "lastUpdated": "2020-07-21T10:07:08.668Z",
    "recovered": 1003,
    "infected": 1067,
    "state": "NS",
    "id": "AVCpxeh0fuH2WrHWNDYH",
    "pop": 971395,
    "country": "CA",
    "longitude": -63.582687,
    "name": "Nova Scotia",
    "sick": 1,
    "invisible": false
  },
  {
    "latitude": 47.012918,
    "dead": 39,
    "lastUpdated": "2020-07-21T10:17:02.496Z",
    "recovered": 0,
    "infected": 2621,
    "state": "MT",
    "id": "AcULcZBozObOhwuRKMjJ",
    "pop": 1062000,
    "country": "US",
    "longitude": -109.128641,
    "name": "Montana",
    "sick": 2582,
    "invisible": false
  },
  {
    "latitude": 38.861,
    "dead": 57,
    "lastUpdated": "2020-07-21T10:16:03.822Z",
    "recovered": 5629,
    "infected": 6921,
    "id": "AiIGs3ybYZZhm1ytVopr",
    "pop": 9275000,
    "country": "TJ",
    "longitude": 71.2761,
    "name": "Tajikistan",
    "sick": 1235,
    "invisible": false
  },
  {
    "lastUpdated": "2020-07-21T10:23:10.593Z",
    "recovered": 931,
    "infected": 932,
    "id": "AmBYm5J6E9Cuez1FQjiN",
    "pop": 45200000,
    "country": "CN",
    "longitude": 116.01609,
    "name": "Jiangxi",
    "latitude": 27.285971,
    "dead": 1,
    "sick": 0,
    "invisible": false
  },
  {
    "longitude": -3.7837,
    "name": "Wales",
    "latitude": 52.1307,
    "dead": 1547,
    "lastUpdated": "2020-07-21T10:13:17.696Z",
    "recovered": 0,
    "infected": 16943,
    "state": "WA",
    "id": "AoLhHdTydeWTfmp9koEX",
    "pop": 3136000,
    "country": "GB",
    "sick": 15396,
    "invisible": false
  },
  {
    "lastUpdated": "2020-07-21T10:00:11.198Z",
    "recovered": 2139,
    "infected": 2649,
    "id": "Avls64fLKoEsBFH0Ol0b",
    "pop": 537000,
    "country": "RU",
    "longitude": 90.3982,
    "name": "Khakassia",
    "latitude": 53.0452,
    "dead": 27,
    "sick": 483,
    "invisible": false
  },
  {
    "name": "Algeria",
    "latitude": 28.033886,
    "dead": 1087,
    "lastUpdated": "2020-07-21T10:16:03.819Z",
    "recovered": 16400,
    "infected": 23691,
    "id": "AwN0CScPDApcLFgz6e3z",
    "pop": 41320000,
    "country": "DZ",
    "longitude": 1.659626,
    "sick": 6204,
    "invisible": false
  },
  {
    "latitude": 45.099998,
    "dead": 122,
    "lastUpdated": "2020-07-21T10:16:03.823Z",
    "recovered": 3101,
    "infected": 4370,
    "id": "B82Ef45M8cDu4q7VsSHF",
    "pop": 4076000,
    "country": "HR",
    "longitude": 15.2,
    "name": "Croatia",
    "sick": 1147,
    "invisible": false
  },
  {
    "longitude": 8.081666,
    "name": "Niger",
    "latitude": 17.6077881,
    "dead": 69,
    "lastUpdated": "2020-07-21T10:16:03.829Z",
    "recovered": 1014,
    "infected": 1105,
    "id": "BENubqQInFUJzhpZTsLT",
    "pop": 23716000,
    "country": "NE",
    "sick": 22,
    "invisible": false
  },
  {
    "latitude": 39.509109,
    "dead": 3382,
    "lastUpdated": "2020-07-21T10:17:02.493Z",
    "recovered": 0,
    "infected": 78685,
    "state": "MD",
    "id": "BF51mWl51fgEcyBpCSzb",
    "pop": 6043000,
    "country": "US",
    "longitude": -76.98432,
    "name": "Maryland",
    "sick": 75303,
    "invisible": false
  },
  {
    "lastUpdated": "2020-07-21T10:16:03.816Z",
    "recovered": 58290,
    "infected": 66213,
    "id": "BGg6yVU5VP71B8NXU0oh",
    "pop": 9508000,
    "country": "BY",
    "longitude": 27.953388,
    "name": "Belarus",
    "latitude": 53.709808,
    "dead": 503,
    "sick": 7420,
    "invisible": false
  },
  {
    "country": "FR",
    "longitude": 0.1713,
    "name": "Normandie",
    "latitude": 48.8799,
    "dead": 438,
    "lastUpdated": "2020-07-20T23:09:39.077Z",
    "recovered": 1718,
    "infected": 3716,
    "id": "BGtoyzb7y54LVlJ91rbf",
    "pop": 3319000,
    "sick": 1560,
    "invisible": false
  },
  {
    "recovered": 0,
    "infected": 12969,
    "state": "EN",
    "id": "BQqMOlPFD36ZEDTGd3WC",
    "pop": 5616000,
    "country": "GB",
    "longitude": -3.9995,
    "name": "South West",
    "latitude": 50.7772,
    "dead": 0,
    "lastUpdated": "2020-07-21T10:13:17.699Z",
    "sick": 12969,
    "invisible": false
  },
  {
    "latitude": 34.048927,
    "dead": 2784,
    "lastUpdated": "2020-07-21T10:17:02.493Z",
    "recovered": 0,
    "infected": 145183,
    "state": "AZ",
    "id": "BTEESCuD2ZbS1afunR2A",
    "pop": 7172000,
    "country": "US",
    "longitude": -111.093735,
    "name": "Arizona",
    "sick": 142399,
    "invisible": false
  },
  {
    "name": "Smolensk Oblast",
    "latitude": 54.9883,
    "dead": 88,
    "lastUpdated": "2020-07-21T10:00:11.195Z",
    "recovered": 3386,
    "infected": 5427,
    "id": "BUb7oDHcBM4lQ5cufNoG",
    "pop": 949000,
    "country": "RU",
    "longitude": 32.6677,
    "sick": 1953,
    "invisible": false
  },
  {
    "lastUpdated": "2020-07-21T10:00:11.197Z",
    "recovered": 3928,
    "infected": 4256,
    "id": "BWojXmuKU3szKlS7CE4k",
    "pop": 1283000,
    "country": "RU",
    "longitude": 50.2097,
    "name": "Kirov Oblast",
    "latitude": 58.4199,
    "dead": 54,
    "sick": 274,
    "invisible": false
  },
  {
    "id": "BZwZOAlDJ8AIiaRVLyC9",
    "pop": 1676000,
    "country": "PL",
    "longitude": 14.552812,
    "name": "Zachodniopomorskie",
    "latitude": 53.428543,
    "dead": 23,
    "lastUpdated": "2020-07-21T10:03:01.385Z",
    "recovered": 0,
    "infected": 667,
    "sick": 644,
    "invisible": false
  },
  {
    "name": "Unknown Chile region",
    "latitude": -33.4489,
    "dead": 0,
    "lastUpdated": "2020-07-21T10:16:03.814Z",
    "recovered": 303992,
    "infected": 0,
    "id": "BbiuZcm8oURX7cZwaa5U",
    "country": "CL",
    "longitude": -70.6693,
    "invisible": true,
    "sick": 0
  },
  {
    "id": "BfT8o5DaEixC6JIZ28kY",
    "pop": 18620000,
    "country": "MW",
    "longitude": 34.3015,
    "name": "Malawi",
    "latitude": -13.2543,
    "dead": 62,
    "lastUpdated": "2020-07-21T10:16:03.824Z",
    "recovered": 1153,
    "infected": 2992,
    "sick": 1777,
    "invisible": false
  },
  {
    "id": "BnpMamidC5yYzeK8tPUL",
    "pop": 10860000,
    "country": "BI",
    "longitude": 29.9188862,
    "name": "Burundi",
    "latitude": -3.3730559,
    "dead": 1,
    "lastUpdated": "2020-07-21T10:16:03.831Z",
    "recovered": 207,
    "infected": 322,
    "sick": 114,
    "invisible": false
  },
  {
    "latitude": 52.257,
    "dead": 369,
    "lastUpdated": "2020-07-21T10:03:01.384Z",
    "recovered": 0,
    "infected": 5763,
    "id": "BrToMzyq8y2xdwXn75kM",
    "pop": 5385000,
    "country": "PL",
    "longitude": 21.002,
    "name": "Mazowieckie",
    "sick": 5394,
    "invisible": false
  },
  {
    "latitude": -1.333845,
    "dead": 101,
    "lastUpdated": "2020-07-21T10:21:12.609Z",
    "recovered": 2276,
    "infected": 2458,
    "id": "C25xSDm4iYibX5RYML14",
    "pop": 74751,
    "country": "CO",
    "longitude": -71.347573,
    "name": "Amazonas (Colombia)",
    "sick": 81,
    "invisible": false
  },
  {
    "recovered": 0,
    "infected": 434871,
    "state": "NY",
    "id": "C3BCUzV80z9GfiuByIcr",
    "pop": 19540000,
    "country": "US",
    "longitude": -73.982597,
    "name": "New York",
    "latitude": 40.719042,
    "dead": 32584,
    "lastUpdated": "2020-07-21T10:17:02.489Z",
    "sick": 402287,
    "invisible": false
  },
  {
    "id": "C5YXFiytAc1w9swtVGLz",
    "pop": 42800,
    "country": "CO",
    "longitude": -67.92389,
    "name": "Guainía",
    "latitude": 3.86528,
    "dead": 1,
    "lastUpdated": "2020-07-21T10:21:12.609Z",
    "recovered": 13,
    "infected": 14,
    "sick": 0,
    "invisible": false
  },
  {
    "lastUpdated": "2020-07-21T10:16:03.820Z",
    "recovered": 8836,
    "infected": 14098,
    "id": "C6S76AggdWVU8G22jFHQ",
    "pop": 10650000,
    "country": "CZ",
    "longitude": 15.359413,
    "name": "Czechia",
    "latitude": 49.731626,
    "dead": 359,
    "sick": 4903,
    "invisible": false
  },
  {
    "latitude": 26.0667,
    "dead": 128,
    "lastUpdated": "2020-07-21T10:16:03.818Z",
    "recovered": 32965,
    "infected": 36936,
    "id": "C7cj4nwRITs13KnaJrQ2",
    "pop": 1493000,
    "country": "BH",
    "longitude": 50.557701,
    "name": "Bahrain",
    "sick": 3843,
    "invisible": false
  },
  {
    "name": "Magdalena",
    "latitude": 10.4113,
    "dead": 168,
    "lastUpdated": "2020-07-21T10:21:12.608Z",
    "recovered": 778,
    "infected": 1621,
    "id": "CA9LaAl3bNaeAqBuozn4",
    "pop": 1285400,
    "country": "CO",
    "longitude": -74.4057,
    "sick": 675,
    "invisible": false
  },
  {
    "latitude": 26.909979,
    "dead": 464,
    "lastUpdated": "2020-07-21T10:02:01.984Z",
    "recovered": 0,
    "infected": 9300,
    "id": "CCUFp4urvgXPo5unfMGy",
    "pop": 3073500,
    "country": "MX",
    "longitude": -101.430756,
    "name": "Coahuila",
    "sick": 8836,
    "invisible": false
  },
  {
    "lastUpdated": "2020-07-21T10:11:01.663Z",
    "recovered": 22299,
    "infected": 30741,
    "id": "CKZCZTPlrcq5fbfUPA9k",
    "pop": 68890000,
    "country": "IN",
    "longitude": 74.2179,
    "name": "Rajasthan",
    "latitude": 27.0238,
    "dead": 574,
    "sick": 7868,
    "invisible": false
  },
  {
    "recovered": 805,
    "infected": 1304,
    "id": "CX8z9U1iABNBhc1VK2Dy",
    "pop": 218000,
    "country": "RU",
    "longitude": 86.2199,
    "name": "Altai",
    "latitude": 50.6182,
    "dead": 1,
    "lastUpdated": "2020-07-21T10:00:11.199Z",
    "sick": 498,
    "invisible": false
  },
  {
    "country": "SV",
    "longitude": -88.9053,
    "name": "El Salvador",
    "latitude": 13.803,
    "dead": 352,
    "lastUpdated": "2020-07-21T10:16:03.820Z",
    "recovered": 6872,
    "infected": 12207,
    "id": "Cgvmtle61ehMvCzRzYx7",
    "pop": 6378000,
    "sick": 4983,
    "invisible": false
  },
  {
    "longitude": 153.915,
    "name": "Magadan Oblast",
    "latitude": 62.6643,
    "dead": 7,
    "lastUpdated": "2020-07-21T10:00:11.199Z",
    "recovered": 773,
    "infected": 1168,
    "id": "D4WkbqyUXY1pazbOxfKx",
    "pop": 144000,
    "country": "RU",
    "sick": 388,
    "invisible": false
  },
  {
    "recovered": 2034,
    "infected": 3608,
    "id": "DAp3PFow4BuCMYWWTo3i",
    "pop": 1078000,
    "country": "RU",
    "longitude": 82.6765,
    "name": "Tomsk Oblast",
    "latitude": 58.897,
    "dead": 27,
    "lastUpdated": "2020-07-21T10:00:11.198Z",
    "sick": 1547,
    "invisible": false
  },
  {
    "latitude": 40.259003,
    "dead": 662,
    "lastUpdated": "2020-07-21T10:16:03.818Z",
    "recovered": 24206,
    "infected": 35254,
    "id": "DCJCtZoBTWQ4mzdDNljD",
    "pop": 2973000,
    "country": "AM",
    "longitude": 44.818474,
    "name": "Armenia",
    "sick": 10386,
    "invisible": false
  },
  {
    "recovered": 335,
    "infected": 650,
    "id": "DJJraANgQbEqz1wBBtZz",
    "pop": 1278000,
    "country": "CO",
    "longitude": -73.368,
    "name": "Boyacá",
    "latitude": 5.535,
    "dead": 21,
    "lastUpdated": "2020-07-21T10:21:12.608Z",
    "sick": 294,
    "invisible": false
  },
  {
    "name": "Mordovia",
    "latitude": 54.2369,
    "dead": 32,
    "lastUpdated": "2020-07-21T10:00:11.197Z",
    "recovered": 3046,
    "infected": 4157,
    "id": "DKwy7USk22oXUQGEvO42",
    "pop": 834000,
    "country": "RU",
    "longitude": 44.0684,
    "sick": 1079,
    "invisible": false
  },
  {
    "latitude": 53.6221,
    "dead": 0,
    "lastUpdated": "2020-07-21T10:13:17.698Z",
    "recovered": 0,
    "infected": 44331,
    "state": "EN",
    "id": "DPwBt2aJuwF0O71vwfM9",
    "pop": 7300000,
    "country": "GB",
    "longitude": -2.5945,
    "name": "North West",
    "sick": 44331,
    "invisible": false
  },
  {
    "recovered": 137,
    "infected": 153,
    "id": "DZyTD0Mu5WIcK6yTcJ91",
    "pop": 65440,
    "country": "BM",
    "longitude": -64.75737,
    "name": "Bermuda",
    "latitude": 32.3213844,
    "dead": 9,
    "lastUpdated": "2020-07-21T10:16:03.832Z",
    "sick": 7,
    "invisible": false
  },
  {
    "name": "Turks and Caicos",
    "latitude": 21.694,
    "dead": 2,
    "lastUpdated": "2020-07-21T10:16:03.833Z",
    "recovered": 22,
    "infected": 81,
    "id": "DaMrRSIGJXIG36nW0Pnc",
    "pop": 35446,
    "country": "TC",
    "longitude": -71.7979,
    "sick": 57,
    "invisible": false
  },
  {
    "latitude": 39.2796,
    "dead": 3033,
    "lastUpdated": "2020-07-20T23:04:10.427Z",
    "recovered": 6392,
    "infected": 27114,
    "state": "CM",
    "id": "Dbng0NBTH41EEwBxhMzE",
    "pop": 2035000,
    "country": "ES",
    "longitude": -3.0977,
    "name": "Castilla La Mancha",
    "sick": 17689,
    "invisible": false
  },
  {
    "longitude": 20.006,
    "name": "Malopolskie",
    "latitude": 50.023,
    "dead": 49,
    "lastUpdated": "2020-07-21T10:03:01.384Z",
    "recovered": 0,
    "infected": 2596,
    "id": "DcQ3D0WkacXEbv6iznRB",
    "pop": 3361000,
    "country": "PL",
    "sick": 2547,
    "invisible": false
  },
  {
    "lastUpdated": "2020-07-21T10:16:03.833Z",
    "recovered": 46,
    "infected": 46,
    "id": "DdBt8qsG6A3g92oOR3ow",
    "pop": 622567,
    "country": "MO",
    "longitude": 113.551262,
    "name": "Macao",
    "latitude": 22.192039,
    "dead": 0,
    "sick": 0,
    "invisible": false
  },
  {
    "name": "Meghalaya",
    "latitude": 25.467,
    "dead": 4,
    "lastUpdated": "2020-07-21T10:11:01.667Z",
    "recovered": 70,
    "infected": 490,
    "id": "Dh0O1vmhrVfmsCsfZCUg",
    "pop": 2651000,
    "country": "IN",
    "longitude": 91.3662,
    "sick": 416,
    "invisible": false
  },
  {
    "latitude": 47.6853,
    "dead": 187,
    "lastUpdated": "2020-07-21T10:00:11.191Z",
    "recovered": 9152,
    "infected": 11657,
    "id": "DqzAhNFTJFQVm88ma21P",
    "pop": 4220000,
    "country": "RU",
    "longitude": 41.8259,
    "name": "Rostov Oblast",
    "sick": 2318,
    "invisible": false
  },
  {
    "name": "Wyoming",
    "latitude": 42.962334,
    "dead": 24,
    "lastUpdated": "2020-07-21T10:17:02.496Z",
    "recovered": 0,
    "infected": 2187,
    "state": "WY",
    "id": "DrGzziUglmBognCGY7R2",
    "pop": 577737,
    "country": "US",
    "longitude": -107.534868,
    "sick": 2163,
    "invisible": false
  },
  {
    "lastUpdated": "2020-07-21T10:16:03.823Z",
    "recovered": 1374,
    "infected": 4012,
    "id": "Dtr1lap1RpJpXJdXGJiW",
    "pop": 10740000,
    "country": "GR",
    "longitude": 23.7275,
    "name": "Greece",
    "latitude": 37.9838,
    "dead": 195,
    "sick": 2443,
    "invisible": false
  },
  {
    "longitude": 56.5872,
    "name": "Perm Krai",
    "latitude": 58.8232,
    "dead": 109,
    "lastUpdated": "2020-07-21T10:00:11.196Z",
    "recovered": 4051,
    "infected": 5142,
    "id": "E8vIyXLVNtcY9dxLHICp",
    "pop": 2623000,
    "country": "RU",
    "sick": 982,
    "invisible": false
  },
  {
    "longitude": 66.9483,
    "name": "Tyumen Oblast",
    "latitude": 56.9634,
    "dead": 22,
    "lastUpdated": "2020-07-21T10:00:11.196Z",
    "recovered": 3074,
    "infected": 4885,
    "id": "EHKZ6ivhrJUs3XqNDBOw",
    "pop": 3692000,
    "country": "RU",
    "sick": 1789,
    "invisible": false
  },
  {
    "latitude": 25.03841,
    "dead": 7,
    "lastUpdated": "2020-07-21T10:16:03.831Z",
    "recovered": 440,
    "infected": 455,
    "id": "EKTfs8e7M6DXzI1HqyyX",
    "pop": 23780000,
    "country": "TW",
    "longitude": 121.563698,
    "name": "Taiwan",
    "sick": 8,
    "invisible": false
  },
  {
    "latitude": 10.327273,
    "dead": 66,
    "lastUpdated": "2020-07-21T10:16:03.821Z",
    "recovered": 3019,
    "infected": 11534,
    "id": "EQzJvzVHKjs8kLmK7BMu",
    "pop": 4906000,
    "country": "CR",
    "longitude": -84.387618,
    "name": "Costa Rica",
    "sick": 8449,
    "invisible": false
  },
  {
    "recovered": 35760,
    "infected": 49439,
    "id": "ERwk9R9en4m9WbdoMbIg",
    "pop": 62700000,
    "country": "IN",
    "longitude": 71.1924,
    "name": "Gujarat",
    "latitude": 22.2587,
    "dead": 2166,
    "lastUpdated": "2020-07-21T10:11:01.657Z",
    "sick": 11513,
    "invisible": false
  },
  {
    "latitude": 63.2853,
    "dead": 132,
    "lastUpdated": "2020-07-21T10:00:11.192Z",
    "recovered": 5683,
    "infected": 7989,
    "id": "EVMBsgCJedjHy91mDYEC",
    "pop": 1155000,
    "country": "RU",
    "longitude": 42.5884,
    "name": "Arkhangelsk Oblast",
    "sick": 2174,
    "invisible": false
  },
  {
    "recovered": 518,
    "infected": 737,
    "id": "Esl5UlCVB9s8pmGB5Ofr",
    "pop": 1055000,
    "country": "IN",
    "longitude": 76.7794,
    "name": "Chandigarh",
    "latitude": 30.7333,
    "dead": 12,
    "lastUpdated": "2020-07-21T10:11:01.666Z",
    "sick": 207,
    "invisible": false
  },
  {
    "latitude": 51.24,
    "dead": 20,
    "lastUpdated": "2020-07-21T10:03:01.385Z",
    "recovered": 0,
    "infected": 884,
    "id": "Esy1La2CxwH5uB8bGVWZ",
    "pop": 2148000,
    "country": "PL",
    "longitude": 22.653,
    "name": "Lubelskie",
    "sick": 864,
    "invisible": false
  },
  {
    "name": "Puerto Rico",
    "alwaysShow": true,
    "dead": 180,
    "latitude": 18.200178,
    "infected": 12461,
    "recovered": 0,
    "pop": 3195000,
    "country": "US",
    "lastUpdated": "2020-07-21T10:17:02.497Z",
    "state": "PR",
    "id": "F4rPrEVGAIMM5rfPEMv4",
    "longitude": -66.664513,
    "sick": 12281,
    "invisible": false
  },
  {
    "longitude": -74.058655,
    "name": "Cundinamarca",
    "latitude": 4.862437,
    "dead": 138,
    "lastUpdated": "2020-07-21T10:21:12.607Z",
    "recovered": 2803,
    "infected": 6037,
    "id": "F7MED5VwEhi3JvJu6KjB",
    "pop": 2919000,
    "country": "CO",
    "sick": 3096,
    "invisible": false
  },
  {
    "country": "KM",
    "longitude": 43.3333,
    "name": "Comoros",
    "latitude": -11.6455,
    "dead": 7,
    "lastUpdated": "2020-07-21T10:16:03.831Z",
    "recovered": 313,
    "infected": 334,
    "id": "F8LnLqvuWoWh8awBqiw1",
    "pop": 832322,
    "sick": 14,
    "invisible": false
  },
  {
    "country": "AF",
    "longitude": 67.709953,
    "name": "Afghanistan",
    "latitude": 33.93911,
    "dead": 1186,
    "lastUpdated": "2020-07-21T10:16:03.818Z",
    "recovered": 23741,
    "infected": 35615,
    "id": "FCDmlmnIIswd8bQiUjfN",
    "pop": 35530000,
    "sick": 10688,
    "invisible": false
  },
  {
    "latitude": 29.431585,
    "dead": 6,
    "lastUpdated": "2020-07-21T10:23:10.593Z",
    "recovered": 576,
    "infected": 583,
    "id": "FErOU1m4Tj7jIkRam3vF",
    "pop": 30480000,
    "country": "CN",
    "longitude": 106.912254,
    "name": "Chongqing",
    "sick": 1,
    "invisible": false
  },
  {
    "longitude": 47.481766,
    "name": "Kuwait",
    "latitude": 29.311661,
    "dead": 408,
    "lastUpdated": "2020-07-21T10:16:03.816Z",
    "recovered": 50339,
    "infected": 59763,
    "id": "FZsUkhxBEgqsPb4eO0PN",
    "pop": 4137000,
    "country": "KW",
    "sick": 9016,
    "invisible": false
  },
  {
    "lastUpdated": "2020-07-21T09:57:01.982Z",
    "recovered": 0,
    "infected": 46059,
    "state": "SE",
    "id": "FboWeolpM62SZCLwdilT",
    "pop": 2278308,
    "country": "BR",
    "longitude": -37.0717,
    "name": "Sergipe",
    "latitude": -10.9111,
    "dead": 1156,
    "sick": 44903,
    "invisible": false
  },
  {
    "lastUpdated": "2020-07-21T10:11:01.657Z",
    "recovered": 121776,
    "infected": 175678,
    "id": "FeS45oMNC27pI17F0xEV",
    "pop": 67860000,
    "country": "IN",
    "longitude": 78.6569,
    "name": "Tamil Nadu",
    "latitude": 11.1271,
    "dead": 2551,
    "sick": 51351,
    "invisible": false
  },
  {
    "latitude": 18.947829,
    "dead": 993,
    "lastUpdated": "2020-07-21T10:16:03.817Z",
    "recovered": 25561,
    "infected": 53956,
    "id": "FuiVEJvWb0QMCpxJ3563",
    "pop": 10770000,
    "country": "DO",
    "longitude": -70.430399,
    "name": "Dominican Republic",
    "sick": 27402,
    "invisible": false
  },
  {
    "longitude": 79.0193,
    "name": "Telengana",
    "latitude": 18.1124,
    "dead": 422,
    "lastUpdated": "2020-07-21T10:11:01.661Z",
    "recovered": 34323,
    "infected": 46274,
    "id": "FyC551oNwmENxbr9Yght",
    "pop": 35190000,
    "country": "IN",
    "sick": 11529,
    "invisible": false
  },
  {
    "name": "Slovakia",
    "latitude": 48.669,
    "dead": 28,
    "lastUpdated": "2020-07-21T10:16:03.825Z",
    "recovered": 1538,
    "infected": 2021,
    "id": "FzIDXoqWnTI3nUfhPyT2",
    "pop": 5450000,
    "country": "SK",
    "longitude": 19.699,
    "sick": 455,
    "invisible": false
  },
  {
    "latitude": 30.37532,
    "dead": 5639,
    "lastUpdated": "2020-07-21T10:16:03.814Z",
    "recovered": 208030,
    "infected": 266096,
    "id": "GAp7Wb6IMhdgbvEtMza9",
    "pop": 197000000,
    "country": "PK",
    "longitude": 69.345116,
    "name": "Pakistan",
    "sick": 52427,
    "invisible": false
  },
  {
    "lastUpdated": "2020-07-21T10:11:01.665Z",
    "recovered": 7118,
    "infected": 10510,
    "id": "GGru8cG08mANO8XDDUtZ",
    "pop": 27980000,
    "country": "IN",
    "longitude": 75.3412,
    "name": "Punjab",
    "latitude": 31.1471,
    "dead": 262,
    "sick": 3130,
    "invisible": false
  },
  {
    "latitude": 23.424076,
    "dead": 340,
    "lastUpdated": "2020-07-21T10:16:03.817Z",
    "recovered": 49621,
    "infected": 57193,
    "id": "GHzBIsHy2GiBc5JV2HMs",
    "pop": 9400000,
    "country": "AE",
    "longitude": 53.847816,
    "name": "United Arab Emirates",
    "sick": 7232,
    "invisible": false
  },
  {
    "recovered": 0,
    "infected": 103,
    "id": "GLViSIjDjwvptOphedAu",
    "country": "US",
    "longitude": -95.7129,
    "invisible": true,
    "name": "Grand Princess",
    "latitude": 37.0902,
    "dead": 3,
    "lastUpdated": "2020-07-21T10:17:02.501Z",
    "sick": 100
  },
  {
    "latitude": 51.5074,
    "dead": 0,
    "lastUpdated": "2020-07-21T10:13:17.698Z",
    "recovered": 0,
    "infected": 34604,
    "state": "EN",
    "id": "GPtoS0Yy2EnNafpmmTqY",
    "pop": 10100000,
    "country": "GB",
    "longitude": -0.1278,
    "name": "London",
    "sick": 34604,
    "invisible": false
  },
  {
    "recovered": 0,
    "infected": 399898,
    "state": "CA",
    "id": "Gh46r6vuaY7fbGt3IboN",
    "pop": 39560000,
    "country": "US",
    "longitude": -119.339046,
    "name": "California",
    "latitude": 36.621981,
    "dead": 7769,
    "lastUpdated": "2020-07-21T10:17:02.492Z",
    "sick": 392129,
    "invisible": false
  },
  {
    "latitude": 20.4283,
    "dead": 2,
    "lastUpdated": "2020-07-21T10:11:01.666Z",
    "recovered": 465,
    "infected": 711,
    "id": "GljWeVnun6o9DeW6rlEm",
    "pop": 343709,
    "country": "IN",
    "longitude": 72.8397,
    "name": "Dadra and Nagar Haveli",
    "sick": 244,
    "invisible": false
  },
  {
    "latitude": 35.87189,
    "dead": 452,
    "lastUpdated": "2020-07-21T10:17:02.495Z",
    "recovered": 0,
    "infected": 25433,
    "state": "OK",
    "id": "GpF8ULuKOQiFDCUHN44h",
    "pop": 3943000,
    "country": "US",
    "longitude": -97.145514,
    "name": "Oklahoma",
    "sick": 24981,
    "invisible": false
  },
  {
    "latitude": 6.492,
    "dead": 0,
    "lastUpdated": "2020-07-21T10:21:12.609Z",
    "recovered": 85,
    "infected": 171,
    "id": "Gr09a1wn3BnMqjQbgEun",
    "pop": 256627,
    "country": "CO",
    "longitude": -71.557,
    "name": "Arauca",
    "sick": 86,
    "invisible": false
  },
  {
    "recovered": 4387,
    "infected": 6059,
    "id": "GsecjBfopdgTOnyRgtCA",
    "pop": 1014000,
    "country": "RU",
    "longitude": 41.483,
    "name": "Ivanovo Oblast",
    "latitude": 57.1057,
    "dead": 65,
    "lastUpdated": "2020-07-21T10:00:11.194Z",
    "sick": 1607,
    "invisible": false
  },
  {
    "state": "BA",
    "id": "Gzx6GX1qhBm714BkEC6l",
    "pop": 520891,
    "country": "IT",
    "longitude": 11.35,
    "name": "P.A. Bolzano",
    "latitude": 46.5,
    "dead": 292,
    "lastUpdated": "2020-07-21T10:01:01.890Z",
    "recovered": 2292,
    "infected": 2684,
    "sick": 100,
    "invisible": false
  },
  {
    "longitude": 113.750972,
    "name": "Inner Mongolia",
    "latitude": 42.83263,
    "dead": 1,
    "lastUpdated": "2020-07-21T10:23:10.591Z",
    "recovered": 237,
    "infected": 250,
    "id": "H3JeVigVbo5CSYfZG4WI",
    "pop": 24710000,
    "country": "CN",
    "sick": 12,
    "invisible": false
  },
  {
    "state": "NV",
    "id": "H3bDg4eV30up4WWrIDAS",
    "pop": 3034000,
    "country": "US",
    "longitude": -116.724977,
    "name": "Nevada",
    "latitude": 39.74536,
    "dead": 648,
    "lastUpdated": "2020-07-21T10:17:02.495Z",
    "recovered": 0,
    "infected": 36713,
    "sick": 36065,
    "invisible": false
  },
  {
    "country": "BR",
    "longitude": -38.526669,
    "name": "Ceará",
    "latitude": -3.731862,
    "dead": 7185,
    "lastUpdated": "2020-07-21T09:57:01.980Z",
    "recovered": 0,
    "infected": 147566,
    "state": "CE",
    "id": "HEMWNnFxeFEoeOCBOLJD",
    "pop": 9075649,
    "sick": 140381,
    "invisible": false
  },
  {
    "lastUpdated": "2020-07-21T10:11:01.657Z",
    "recovered": 23796,
    "infected": 67420,
    "id": "HN5mGmxlqlSeFSNeu1K5",
    "pop": 64060000,
    "country": "IN",
    "longitude": 75.7139,
    "name": "Karnataka",
    "latitude": 15.3173,
    "dead": 1408,
    "sick": 42216,
    "invisible": false
  },
  {
    "latitude": 27.5142,
    "dead": 0,
    "lastUpdated": "2020-07-21T10:16:03.833Z",
    "recovered": 83,
    "infected": 90,
    "id": "HRDpwyxpqW9RN0xLFyNu",
    "pop": 807610,
    "country": "BT",
    "longitude": 90.4336,
    "name": "Bhutan",
    "sick": 7,
    "invisible": false
  },
  {
    "recovered": 9463,
    "infected": 17590,
    "id": "HRTA10dtrruDEwjJEGMp",
    "pop": 32390000,
    "country": "UZ",
    "longitude": 64.5853,
    "name": "Uzbekistan",
    "latitude": 41.3775,
    "dead": 92,
    "lastUpdated": "2020-07-21T10:16:03.819Z",
    "sick": 8035,
    "invisible": false
  },
  {
    "lastUpdated": "2020-07-21T10:17:02.495Z",
    "recovered": 0,
    "infected": 17215,
    "state": "NM",
    "id": "HSSFomRju0doHhWgW8On",
    "pop": 2095000,
    "country": "US",
    "longitude": -105.576255,
    "name": "New Mexico",
    "latitude": 34.138916,
    "dead": 578,
    "sick": 16637,
    "invisible": false
  },
  {
    "longitude": -72.3311,
    "name": "Los Ríos",
    "latitude": -40.231,
    "dead": 13,
    "lastUpdated": "2020-07-21T10:20:04.448Z",
    "recovered": 0,
    "infected": 833,
    "id": "HZkACHjW7NlYjg8vEMj2",
    "pop": 412812,
    "country": "CL",
    "sick": 820,
    "invisible": false
  },
  {
    "longitude": 12.4296,
    "name": "Mecklenburg-Vorpommern",
    "latitude": 53.6127,
    "dead": 21,
    "lastUpdated": "2020-07-21T10:00:04.414Z",
    "recovered": 785,
    "infected": 813,
    "state": "MV",
    "id": "He1gSS1v50t06i3YrqvB",
    "pop": 1635000,
    "country": "DE",
    "sick": 7,
    "invisible": false
  },
  {
    "country": "IT",
    "longitude": 13.75,
    "name": "Abruzzo",
    "latitude": 42.25,
    "dead": 468,
    "lastUpdated": "2020-07-21T10:01:01.875Z",
    "recovered": 2753,
    "infected": 3342,
    "state": "65",
    "id": "I9EqrZfbPnkioNU4wZGz",
    "pop": 1315000,
    "sick": 121,
    "invisible": false
  },
  {
    "lastUpdated": "2020-07-21T10:23:10.591Z",
    "recovered": 1637,
    "infected": 1659,
    "id": "IAX0OQLVnUwU7FX0ENF1",
    "pop": 113460000,
    "country": "CN",
    "longitude": 113.373448,
    "name": "Guangdong",
    "latitude": 23.363855,
    "dead": 8,
    "sick": 14,
    "invisible": false
  },
  {
    "longitude": 113.484016,
    "name": "Henan",
    "latitude": 33.875408,
    "dead": 22,
    "lastUpdated": "2020-07-21T10:23:10.593Z",
    "recovered": 1254,
    "infected": 1276,
    "id": "IFuMrMvSjoiX5agYvllh",
    "pop": 94000000,
    "country": "CN",
    "sick": 0,
    "invisible": false
  },
  {
    "longitude": -8.16667,
    "name": "Algarve",
    "latitude": 37.2,
    "dead": 15,
    "lastUpdated": "2020-07-21T10:23:02.159Z",
    "recovered": 0,
    "infected": 790,
    "id": "IHqRHC8K3OZPN8gniM7V",
    "pop": 451000,
    "country": "PT",
    "sick": 775,
    "invisible": false
  },
  {
    "id": "IKWjRUo0SYgHQKdWjTvq",
    "pop": 333194,
    "country": "CO",
    "longitude": -77.0197,
    "name": "Buenaventura D.E.",
    "latitude": 3.883,
    "dead": 126,
    "lastUpdated": "2020-07-21T10:21:12.609Z",
    "recovered": 1301,
    "infected": 1857,
    "sick": 430,
    "invisible": false
  },
  {
    "lastUpdated": "2020-07-21T10:13:17.698Z",
    "recovered": 0,
    "infected": 22649,
    "state": "EN",
    "id": "INyu1R48Ppv8cfW4Nuz4",
    "pop": 4811000,
    "country": "GB",
    "longitude": -0.995,
    "name": "East Midlands",
    "latitude": 52.87,
    "dead": 0,
    "sick": 22649,
    "invisible": false
  },
  {
    "latitude": 22.017,
    "dead": 232,
    "lastUpdated": "2020-07-21T10:02:01.985Z",
    "recovered": 0,
    "infected": 4369,
    "id": "ISRKMzEDojyrZ9iyWwex",
    "pop": 1342600,
    "country": "MX",
    "longitude": -102.317,
    "name": "Aguascalientes",
    "sick": 4137,
    "invisible": false
  },
  {
    "recovered": 0,
    "infected": 24821,
    "id": "IdKbgzgKLpjBFh4UPOwu",
    "pop": 5321300,
    "country": "MX",
    "longitude": -100.316116,
    "name": "Nuevo León",
    "latitude": 25.686613,
    "dead": 793,
    "lastUpdated": "2020-07-21T10:02:01.985Z",
    "sick": 24028,
    "invisible": false
  },
  {
    "country": "MX",
    "longitude": -106.069099,
    "name": "Chihuahua",
    "latitude": 28.632996,
    "dead": 819,
    "lastUpdated": "2020-07-21T10:02:01.966Z",
    "recovered": 0,
    "infected": 6722,
    "id": "IhhiYI6T0TX4CYVPcnmH",
    "pop": 3826900,
    "sick": 5903,
    "invisible": false
  },
  {
    "latitude": -36.7,
    "dead": 53,
    "lastUpdated": "2020-07-21T10:20:04.448Z",
    "recovered": 0,
    "infected": 3222,
    "id": "ImnOiVx9Cb8Nw7cbRcQ7",
    "pop": 480600,
    "country": "CL",
    "longitude": -72.57,
    "name": "Ñuble",
    "sick": 3169,
    "invisible": false
  },
  {
    "name": "Haiti",
    "latitude": 19.0558,
    "dead": 151,
    "lastUpdated": "2020-07-21T10:16:03.822Z",
    "recovered": 4095,
    "infected": 7100,
    "id": "InZ38sIqyK7FN7XAOZoX",
    "pop": 10980000,
    "country": "HT",
    "longitude": -73.0513,
    "sick": 2854,
    "invisible": false
  },
  {
    "state": "GA",
    "id": "IvQkDJkTAsoIqPRAU25n",
    "pop": 10520000,
    "country": "US",
    "longitude": -83.280125,
    "name": "Georgia (US)",
    "latitude": 32.528564,
    "dead": 3176,
    "lastUpdated": "2020-07-21T10:17:02.493Z",
    "recovered": 0,
    "infected": 145575,
    "sick": 142399,
    "invisible": false
  },
  {
    "latitude": -42.8285,
    "dead": 22,
    "lastUpdated": "2020-07-21T10:16:03.827Z",
    "recovered": 1506,
    "infected": 1555,
    "id": "IvVhpOoGpH6JVkGyUhXN",
    "pop": 4794000,
    "country": "NZ",
    "longitude": 172.488081,
    "name": "New Zealand",
    "sick": 27,
    "invisible": false
  },
  {
    "id": "IwYKiIVY18NGwdGQFGWW",
    "pop": 1255000,
    "country": "IN",
    "longitude": 94.7278,
    "name": "Arunachal Pradesh",
    "latitude": 28.218,
    "dead": 3,
    "lastUpdated": "2020-07-21T10:11:01.666Z",
    "recovered": 285,
    "infected": 790,
    "sick": 502,
    "invisible": false
  },
  {
    "latitude": 6.4238,
    "dead": 116,
    "lastUpdated": "2020-07-21T03:33:24.312Z",
    "recovered": 8444,
    "infected": 12334,
    "id": "J3mZXlfEnnJx4CDZLvRG",
    "pop": 28870000,
    "country": "VE",
    "longitude": -66.5897,
    "name": "Venezuela",
    "sick": 3774,
    "invisible": false
  },
  {
    "latitude": 2.567,
    "dead": 0,
    "lastUpdated": "2020-07-21T10:21:12.609Z",
    "recovered": 39,
    "infected": 50,
    "id": "JEMCwkwXK39jd1lZ7VgJ",
    "pop": 107932,
    "country": "CO",
    "longitude": -72.633,
    "name": "Guaviare",
    "sick": 11,
    "invisible": false
  },
  {
    "latitude": 44.8229,
    "dead": 16,
    "lastUpdated": "2020-07-21T10:00:11.198Z",
    "recovered": 1930,
    "infected": 2411,
    "id": "JOJVBvOnsLDJPVeYJaI2",
    "pop": 453000,
    "country": "RU",
    "longitude": 40.1754,
    "name": "Adygea",
    "sick": 465,
    "invisible": false
  },
  {
    "lastUpdated": "2020-07-21T10:16:03.830Z",
    "recovered": 847,
    "infected": 1038,
    "id": "JQByE4l2OA6sGOqIcWrM",
    "pop": 1170000,
    "country": "CY",
    "longitude": 33.4299,
    "name": "Cyprus",
    "latitude": 35.1264,
    "dead": 19,
    "sick": 172,
    "invisible": false
  },
  {
    "latitude": 25.0961,
    "dead": 187,
    "lastUpdated": "2020-07-21T10:11:01.663Z",
    "recovered": 17535,
    "infected": 27455,
    "id": "JR7hOGked7CZtIs2nCV5",
    "pop": 99020000,
    "country": "IN",
    "longitude": 85.3131,
    "name": "Bihar",
    "sick": 9733,
    "invisible": false
  },
  {
    "id": "JUWE6bG3b5oL7fKQMSvv",
    "pop": 17250000,
    "country": "GT",
    "longitude": -90.522713,
    "name": "Guatemala",
    "latitude": 14.628434,
    "dead": 1502,
    "lastUpdated": "2020-07-21T10:16:03.817Z",
    "recovered": 25539,
    "infected": 39039,
    "sick": 11998,
    "invisible": false
  },
  {
    "longitude": 6.1296,
    "name": "Luxembourg",
    "latitude": 49.8153,
    "dead": 111,
    "lastUpdated": "2020-07-21T10:16:03.823Z",
    "recovered": 4464,
    "infected": 5639,
    "id": "JcFsHSn2WvZ5LJW42ovG",
    "pop": 602005,
    "country": "LU",
    "sick": 1064,
    "invisible": false
  },
  {
    "id": "JmOyaFe25yZCIV64JbZj",
    "pop": 2049000,
    "country": "CO",
    "longitude": -74.167,
    "name": "Bolívar",
    "latitude": 8.8,
    "dead": 84,
    "lastUpdated": "2020-07-21T10:21:12.608Z",
    "recovered": 933,
    "infected": 1755,
    "sick": 738,
    "invisible": false
  },
  {
    "id": "Jp9ePErcc8i1aOozEAMf",
    "pop": 3648100,
    "country": "MX",
    "longitude": -115.783,
    "name": "Baja California",
    "latitude": 31.4,
    "dead": 2397,
    "lastUpdated": "2020-07-21T10:02:01.956Z",
    "recovered": 0,
    "infected": 12053,
    "sick": 9656,
    "invisible": false
  },
  {
    "latitude": 8.7479801,
    "dead": 314,
    "lastUpdated": "2020-07-21T10:21:12.608Z",
    "recovered": 711,
    "infected": 2857,
    "id": "Jr8syCB0lydmPDXw8Q6N",
    "pop": 1786500,
    "country": "CO",
    "longitude": -75.8814316,
    "name": "Córdoba",
    "sick": 1832,
    "invisible": false
  },
  {
    "id": "JrBbirlBKGdWSdcDt7PF",
    "pop": 7798000,
    "country": "TG",
    "longitude": 0.8248,
    "name": "Togo",
    "latitude": 8.6195,
    "dead": 15,
    "lastUpdated": "2020-07-21T10:16:03.830Z",
    "recovered": 554,
    "infected": 783,
    "sick": 214,
    "invisible": false
  },
  {
    "latitude": 42.7339,
    "dead": 308,
    "lastUpdated": "2020-07-21T10:16:03.821Z",
    "recovered": 4205,
    "infected": 8929,
    "id": "JzZ8sbqzjutThVjkPKPL",
    "pop": 7050000,
    "country": "BG",
    "longitude": 25.4858,
    "name": "Bulgaria",
    "sick": 4416,
    "invisible": false
  },
  {
    "latitude": 50.823,
    "dead": 45,
    "lastUpdated": "2020-07-21T10:03:01.385Z",
    "recovered": 0,
    "infected": 919,
    "id": "KGrK7gafkeWjmU6sHQd2",
    "pop": 1263000,
    "country": "PL",
    "longitude": 20.709,
    "name": "Świętokrzyskie",
    "sick": 874,
    "invisible": false
  },
  {
    "lastUpdated": "2020-07-21T10:00:11.186Z",
    "recovered": 12496,
    "infected": 18250,
    "id": "KLBR5QHW6DePaGcFxlqH",
    "pop": 4325000,
    "country": "RU",
    "longitude": 61.9316,
    "name": "Sverdlovsk Oblast",
    "latitude": 59.0077,
    "dead": 205,
    "sick": 5549,
    "invisible": false
  },
  {
    "name": "Liguria",
    "latitude": 44.5,
    "dead": 1565,
    "lastUpdated": "2020-07-21T10:01:01.889Z",
    "recovered": 8355,
    "infected": 10105,
    "state": "42",
    "id": "KLXicxFogWnu0dLp4bNK",
    "pop": 1557000,
    "country": "IT",
    "longitude": 8.833,
    "sick": 185,
    "invisible": false
  },
  {
    "lastUpdated": "2020-07-21T10:00:11.198Z",
    "recovered": 2976,
    "infected": 3548,
    "id": "KUnAVGJH6fLwFetE8A2x",
    "pop": 682000,
    "country": "RU",
    "longitude": 47.9608,
    "name": "Mari El Republic",
    "latitude": 56.4385,
    "dead": 31,
    "sick": 541,
    "invisible": false
  },
  {
    "country": "CO",
    "longitude": -73.2532,
    "name": "Cesar",
    "latitude": 10.4631,
    "dead": 39,
    "lastUpdated": "2020-07-21T10:21:12.607Z",
    "recovered": 1137,
    "infected": 2115,
    "id": "KpOz3WmiZkrXUMlUJNlV",
    "pop": 1201000,
    "sick": 939,
    "invisible": false
  },
  {
    "latitude": 43.4167,
    "dead": 1130,
    "lastUpdated": "2020-07-21T10:01:01.890Z",
    "recovered": 8921,
    "infected": 10375,
    "state": "52",
    "id": "KrLrJbpDqqiXgUPGCCW9",
    "pop": 3737000,
    "country": "IT",
    "longitude": 11,
    "name": "Toscana",
    "sick": 324,
    "invisible": false
  },
  {
    "id": "KsWzJO06cf0d6LJ4ZNh9",
    "pop": 21440000,
    "country": "LK",
    "longitude": 80.771797,
    "name": "Sri Lanka",
    "latitude": 7.873054,
    "dead": 11,
    "lastUpdated": "2020-07-21T10:16:03.825Z",
    "recovered": 2048,
    "infected": 2730,
    "sick": 671,
    "invisible": false
  },
  {
    "recovered": 24228,
    "infected": 53724,
    "id": "KtQIo2DoqjELtPAlyDVO",
    "pop": 49670000,
    "country": "IN",
    "longitude": 79.74,
    "name": "Andhra Pradesh",
    "latitude": 15.9129,
    "dead": 696,
    "lastUpdated": "2020-07-21T10:11:01.662Z",
    "sick": 28800,
    "invisible": false
  },
  {
    "alwaysShow": true,
    "latitude": 18.0708,
    "dead": 3,
    "lastUpdated": "2020-07-21T10:16:03.833Z",
    "recovered": 39,
    "infected": 46,
    "id": "LBUtrLDKJiupXjlUNTUe",
    "pop": 32125,
    "country": "FR",
    "longitude": -63.0501,
    "name": "Saint-Martin",
    "sick": 4,
    "invisible": false
  },
  {
    "latitude": 52.7856,
    "dead": 78,
    "lastUpdated": "2020-07-21T10:00:11.196Z",
    "recovered": 3950,
    "infected": 5378,
    "id": "LD8TNScpLrLRvgpQAn9T",
    "pop": 747000,
    "country": "RU",
    "longitude": 36.9242,
    "name": "Oryol Oblast",
    "sick": 1350,
    "invisible": false
  },
  {
    "latitude": 47.166,
    "dead": 1,
    "lastUpdated": "2020-07-21T10:16:03.833Z",
    "recovered": 81,
    "infected": 86,
    "id": "LTGEU2E9MFkrCcFhZYVk",
    "pop": 38557,
    "country": "LI",
    "longitude": 9.5554,
    "name": "Liechtenstein",
    "sick": 4,
    "invisible": false
  },
  {
    "longitude": -9.6966,
    "name": "Guinea",
    "latitude": 9.9456,
    "dead": 40,
    "lastUpdated": "2020-07-21T10:16:03.822Z",
    "recovered": 5591,
    "infected": 6590,
    "id": "LU2QWt5ao8IJa8evNYVV",
    "pop": 12720000,
    "country": "GN",
    "sick": 959,
    "invisible": false
  },
  {
    "name": "Sonora",
    "latitude": 29.6667,
    "dead": 1494,
    "lastUpdated": "2020-07-21T10:02:01.967Z",
    "recovered": 0,
    "infected": 15381,
    "id": "LYCBHrA9ms6GcxpLGPCT",
    "pop": 3062000,
    "country": "MX",
    "longitude": -110.5,
    "sick": 13887,
    "invisible": false
  },
  {
    "id": "LglKINHyQpYpFxjckbQ6",
    "pop": 563402,
    "country": "SR",
    "longitude": -56.0277824,
    "name": "Suriname",
    "latitude": 3.9193051,
    "dead": 21,
    "lastUpdated": "2020-07-21T10:16:03.829Z",
    "recovered": 656,
    "infected": 1079,
    "sick": 402,
    "invisible": false
  },
  {
    "latitude": 52.9399,
    "dead": 15,
    "lastUpdated": "2020-07-21T10:07:08.667Z",
    "recovered": 802,
    "infected": 962,
    "state": "SK",
    "id": "LkIDKY0CMAqzbwBHyYCP",
    "pop": 1174000,
    "country": "CA",
    "longitude": -106.4509,
    "name": "Saskatchewan",
    "sick": 145,
    "invisible": false
  },
  {
    "lastUpdated": "2020-07-21T10:16:03.834Z",
    "recovered": 8,
    "infected": 10,
    "id": "LooNn6RuMiDhQnwa9svw",
    "pop": 636442,
    "country": "EH",
    "longitude": -12.8858,
    "name": "Western Sahara",
    "latitude": 24.2155,
    "dead": 1,
    "sick": 1,
    "invisible": false
  },
  {
    "country": "ES",
    "longitude": -5.951843,
    "name": "Principado de Asturias",
    "latitude": 43.363129,
    "dead": 334,
    "lastUpdated": "2020-07-20T23:06:30.321Z",
    "recovered": 1063,
    "infected": 3430,
    "state": "AS",
    "id": "Lsga7AvYNnY0qQ5gEfV8",
    "pop": 1022000,
    "sick": 2033,
    "invisible": false
  },
  {
    "state": "EX",
    "id": "LuEErlF7dVKI0eJsRjFm",
    "pop": 1065000,
    "country": "ES",
    "longitude": -6.0679,
    "name": "Extremadura",
    "latitude": 39.4937,
    "dead": 519,
    "lastUpdated": "2020-07-20T23:05:31.260Z",
    "recovered": 2652,
    "infected": 4267,
    "sick": 1096,
    "invisible": false
  },
  {
    "id": "M3wdiueFtwrUHiQ2rOXA",
    "pop": 5965000,
    "country": "MX",
    "longitude": -101.2591,
    "name": "Guanajuato",
    "latitude": 21.0186,
    "dead": 1007,
    "lastUpdated": "2020-07-21T10:02:01.984Z",
    "recovered": 0,
    "infected": 17015,
    "sick": 16008,
    "invisible": false
  },
  {
    "longitude": -84.27,
    "name": "Kentucky",
    "latitude": 37.8393,
    "dead": 671,
    "lastUpdated": "2020-07-21T10:17:02.495Z",
    "recovered": 0,
    "infected": 23414,
    "state": "KY",
    "id": "MC8MXFw9iXYybnF8v7e6",
    "pop": 4468000,
    "country": "US",
    "sick": 22743,
    "invisible": false
  },
  {
    "longitude": -3.436,
    "invisible": true,
    "name": "Unknown UK region or state",
    "latitude": 55.3781,
    "dead": 40718,
    "lastUpdated": "2020-07-21T10:13:17.700Z",
    "recovered": 0,
    "infected": 8357,
    "id": "MEjlm8VYdGA28TTTnQmf",
    "country": "GB",
    "sick": 0
  },
  {
    "name": "Norte",
    "latitude": 41.3006,
    "dead": 827,
    "lastUpdated": "2020-07-21T10:23:02.158Z",
    "recovered": 0,
    "infected": 18356,
    "id": "MG4e9tulLJ010SZJvbYN",
    "pop": 3689000,
    "country": "PT",
    "longitude": -7.7441,
    "sick": 17529,
    "invisible": false
  },
  {
    "longitude": -4.2026,
    "name": "Scotland",
    "latitude": 56.4907,
    "dead": 2491,
    "lastUpdated": "2020-07-21T10:13:17.697Z",
    "recovered": 0,
    "infected": 18452,
    "state": "SC",
    "id": "MObRYyIriHG337L8FyFC",
    "pop": 5450000,
    "country": "GB",
    "sick": 15961,
    "invisible": false
  },
  {
    "recovered": 0,
    "infected": 57206,
    "state": "IN",
    "id": "MOxDkmQ4wBi1CuAdVxDE",
    "pop": 6692000,
    "country": "US",
    "longitude": -86.1349,
    "name": "Indiana",
    "latitude": 40.2672,
    "dead": 2825,
    "lastUpdated": "2020-07-21T10:17:02.494Z",
    "sick": 54381,
    "invisible": false
  },
  {
    "longitude": -5.5471,
    "name": "Ivory Coast",
    "latitude": 7.54,
    "dead": 92,
    "lastUpdated": "2020-07-21T10:16:03.820Z",
    "recovered": 8659,
    "infected": 14312,
    "id": "MdQOfc1gNh2DOqwSP6UV",
    "pop": 24290000,
    "country": "CI",
    "sick": 5561,
    "invisible": false
  },
  {
    "latitude": 51.4332,
    "dead": 1730,
    "lastUpdated": "2020-07-21T10:00:04.414Z",
    "recovered": 42534,
    "infected": 46308,
    "state": "NW",
    "id": "MjpYq3zQyAvSQlVVYjD2",
    "pop": 17910000,
    "country": "DE",
    "longitude": 7.6616,
    "name": "Nordrhein-Westfalen",
    "sick": 2044,
    "invisible": false
  },
  {
    "lastUpdated": "2020-07-21T10:23:10.594Z",
    "recovered": 75,
    "infected": 75,
    "id": "MntmjjuHljarCdt6aIeE",
    "pop": 6301000,
    "country": "CN",
    "longitude": 105.977203,
    "name": "Ningxia",
    "latitude": 37.330509,
    "dead": 0,
    "sick": 0,
    "invisible": false
  },
  {
    "lastUpdated": "2020-07-21T09:57:01.981Z",
    "recovered": 0,
    "infected": 138396,
    "state": "PA",
    "id": "MuEB2UgkId5crsxi9zQT",
    "pop": 8513497,
    "country": "BR",
    "longitude": -52.203499186,
    "name": "Pará",
    "latitude": -3.20166586,
    "dead": 5538,
    "sick": 132858,
    "invisible": false
  },
  {
    "latitude": 52.5265,
    "dead": 20,
    "lastUpdated": "2020-07-21T10:00:11.197Z",
    "recovered": 3389,
    "infected": 4423,
    "id": "N0KGfqgROVOjAxWcd8wi",
    "pop": 1150000,
    "country": "RU",
    "longitude": 39.2032,
    "name": "Lipetsk Oblast",
    "sick": 1014,
    "invisible": false
  },
  {
    "lastUpdated": "2020-07-21T10:00:04.409Z",
    "recovered": 33998,
    "infected": 36885,
    "state": "BW",
    "id": "N3XsRBwJSsNclkEf7Zz5",
    "pop": 11020000,
    "country": "DE",
    "longitude": 9.3501,
    "name": "Baden-Württemberg",
    "latitude": 48.6616,
    "dead": 1895,
    "sick": 992,
    "invisible": false
  },
  {
    "recovered": 3755,
    "infected": 8479,
    "id": "N7c13sCQF0G789XAVazJ",
    "pop": 3507000,
    "country": "BA",
    "longitude": 17.824332,
    "name": "Bosnia and Herzegovina",
    "latitude": 44.696652,
    "dead": 255,
    "lastUpdated": "2020-07-21T10:16:03.821Z",
    "sick": 4469,
    "invisible": false
  },
  {
    "longitude": 111.856857,
    "name": "Shanxi",
    "latitude": 37.242565,
    "dead": 0,
    "lastUpdated": "2020-07-21T10:23:10.593Z",
    "recovered": 200,
    "infected": 201,
    "id": "NBRIGIRrJB1Ry8prDNAC",
    "pop": 36500000,
    "country": "CN",
    "sick": 1,
    "invisible": false
  },
  {
    "country": "US",
    "longitude": -79.0193,
    "name": "North Carolina",
    "latitude": 35.7596,
    "dead": 1680,
    "lastUpdated": "2020-07-21T10:17:02.493Z",
    "recovered": 0,
    "infected": 101294,
    "state": "NC",
    "id": "NC64Qp5kTqAfiTuR27k8",
    "pop": 10380000,
    "sick": 99614,
    "invisible": false
  },
  {
    "latitude": 52.4125,
    "dead": 177,
    "lastUpdated": "2020-07-21T10:00:04.411Z",
    "recovered": 3279,
    "infected": 3542,
    "state": "BB",
    "id": "NJjo2gfBvnbK4xatrsUz",
    "pop": 2504000,
    "country": "DE",
    "longitude": 12.5316,
    "name": "Brandenburg",
    "sick": 86,
    "invisible": false
  },
  {
    "country": "US",
    "lastUpdated": "2020-07-21T10:17:02.497Z",
    "state": "MP",
    "id": "NLLL6pJhJSw0lrDMD4uP",
    "longitude": 145.6739,
    "name": "Northern Mariana Islands",
    "alwaysShow": true,
    "dead": 2,
    "latitude": 15.0979,
    "infected": 38,
    "recovered": 0,
    "pop": 55144,
    "sick": 36,
    "invisible": false
  },
  {
    "latitude": 30.0668,
    "dead": 55,
    "lastUpdated": "2020-07-21T10:11:01.666Z",
    "recovered": 3212,
    "infected": 4642,
    "id": "NMeZEcGToxXfpi16PfFV",
    "pop": 10080000,
    "country": "IN",
    "longitude": 79.0193,
    "name": "Uttarakhand",
    "sick": 1375,
    "invisible": false
  },
  {
    "latitude": 50.6521,
    "dead": 522,
    "lastUpdated": "2020-07-21T10:00:04.414Z",
    "recovered": 10532,
    "infected": 11454,
    "state": "HE",
    "id": "Nk5vPgUIXsWVfbWZf15O",
    "pop": 6243000,
    "country": "DE",
    "longitude": 9.1624,
    "name": "Hessen",
    "sick": 400,
    "invisible": false
  },
  {
    "name": "Latvia",
    "latitude": 56.96776,
    "dead": 31,
    "lastUpdated": "2020-07-21T10:16:03.829Z",
    "recovered": 1045,
    "infected": 1193,
    "id": "NmmMKy0YqA8StHdGzB5N",
    "pop": 1920000,
    "country": "LV",
    "longitude": 25.837107,
    "sick": 117,
    "invisible": false
  },
  {
    "longitude": -37.946777,
    "name": "Pernambuco",
    "latitude": -8.472372,
    "dead": 6036,
    "lastUpdated": "2020-07-21T09:57:01.981Z",
    "recovered": 0,
    "infected": 80115,
    "state": "PE",
    "id": "NyGlFL1gATK1Omv9qtcC",
    "pop": 9496294,
    "country": "BR",
    "sick": 74079,
    "invisible": false
  },
  {
    "recovered": 547,
    "infected": 1107,
    "id": "O4g88K49HKEZLFXm5gxb",
    "pop": 4732000,
    "country": "LR",
    "longitude": -9.4295,
    "name": "Liberia",
    "latitude": 6.4281,
    "dead": 70,
    "lastUpdated": "2020-07-21T10:16:03.829Z",
    "sick": 490,
    "invisible": false
  },
  {
    "name": "Altai Krai",
    "latitude": 51.7936,
    "dead": 57,
    "lastUpdated": "2020-07-21T10:00:11.192Z",
    "recovered": 5041,
    "infected": 7758,
    "id": "O5fNOGWKosps6JTrzkpn",
    "pop": 2350000,
    "country": "RU",
    "longitude": 82.6759,
    "sick": 2660,
    "invisible": false
  },
  {
    "lastUpdated": "2020-07-21T10:00:11.197Z",
    "recovered": 3266,
    "infected": 3952,
    "id": "O6PDzAxKENYbLsLjPx2K",
    "pop": 1072000,
    "country": "RU",
    "longitude": 116.9677,
    "name": "Zabaykalsky Krai",
    "latitude": 53.0929,
    "dead": 47,
    "sick": 639,
    "invisible": false
  },
  {
    "recovered": 0,
    "infected": 71445,
    "state": "SC",
    "id": "ONU4CK8QjViFHKg2w5if",
    "pop": 5084000,
    "country": "US",
    "longitude": -80.525613,
    "name": "South Carolina",
    "latitude": 34.003307,
    "dead": 1164,
    "lastUpdated": "2020-07-21T10:17:02.494Z",
    "sick": 70281,
    "invisible": false
  },
  {
    "lastUpdated": "2020-07-21T10:17:02.494Z",
    "recovered": 0,
    "infected": 43889,
    "state": "MS",
    "id": "OYa0jFzdbAgo8zUsRv6q",
    "pop": 2987000,
    "country": "US",
    "longitude": -89.582775,
    "name": "Mississippi",
    "latitude": 33.51822,
    "dead": 1358,
    "sick": 42531,
    "invisible": false
  },
  {
    "longitude": -69.4455,
    "name": "Maine",
    "latitude": 45.2538,
    "dead": 117,
    "lastUpdated": "2020-07-21T10:17:02.496Z",
    "recovered": 0,
    "infected": 3711,
    "state": "ME",
    "id": "OcXNp9kNVSwrRlG3bNVN",
    "pop": 1338000,
    "country": "US",
    "sick": 3594,
    "invisible": false
  },
  {
    "lastUpdated": "2020-07-21T10:00:11.198Z",
    "recovered": 2607,
    "infected": 3459,
    "id": "OlKS5SPydHY2TedStFuf",
    "pop": 488000,
    "country": "RU",
    "longitude": 44.8203,
    "name": "Ingushetia",
    "latitude": 43.4052,
    "dead": 71,
    "sick": 781,
    "invisible": false
  },
  {
    "longitude": 146.725256,
    "name": "Tasmania",
    "latitude": -41.915264,
    "dead": 13,
    "lastUpdated": "2020-07-21T09:43:28.679Z",
    "recovered": 215,
    "infected": 228,
    "state": "TAS",
    "id": "OnOseaqWdnuP18oruABW",
    "pop": 515000,
    "country": "AU",
    "sick": 0,
    "invisible": false
  },
  {
    "state": "MT",
    "id": "P0GHFGUt1pkKTk5PM8uz",
    "pop": 3441998,
    "country": "BR",
    "longitude": -56.666668,
    "name": "Mato Grosso",
    "latitude": -16.35,
    "dead": 1384,
    "lastUpdated": "2020-07-21T09:57:01.983Z",
    "recovered": 0,
    "infected": 35639,
    "sick": 34255,
    "invisible": false
  },
  {
    "name": "Vladimir Oblast",
    "latitude": 56.1553,
    "dead": 113,
    "lastUpdated": "2020-07-21T10:00:11.196Z",
    "recovered": 4675,
    "infected": 5298,
    "id": "P2I90oqdFSoVk03AaGo4",
    "pop": 1378000,
    "country": "RU",
    "longitude": 40.5927,
    "sick": 510,
    "invisible": false
  },
  {
    "name": "Cayman Islands",
    "latitude": 19.3133,
    "dead": 1,
    "lastUpdated": "2020-07-21T10:16:03.832Z",
    "recovered": 200,
    "infected": 203,
    "id": "P4mwRFLbrvT0t75uD8Wo",
    "pop": 61559,
    "country": "KY",
    "longitude": -81.2546,
    "sick": 2,
    "invisible": false
  },
  {
    "latitude": 16.7424984,
    "dead": 1,
    "lastUpdated": "2020-07-21T10:16:03.834Z",
    "recovered": 10,
    "infected": 12,
    "id": "PEDkeFMTOZpvHiSVxBk7",
    "pop": 5900,
    "country": "MS",
    "longitude": -62.1873665,
    "name": "Montserrat",
    "sick": 1,
    "invisible": false
  },
  {
    "longitude": 29.8739,
    "name": "Rwanda",
    "latitude": -1.9403,
    "dead": 5,
    "lastUpdated": "2020-07-21T10:16:03.827Z",
    "recovered": 838,
    "infected": 1629,
    "id": "PEcgZGEkyhABztt1Ufgc",
    "pop": 12210000,
    "country": "RW",
    "sick": 786,
    "invisible": false
  },
  {
    "longitude": 56.1645,
    "name": "Bashkortostan",
    "latitude": 54.2312,
    "dead": 21,
    "lastUpdated": "2020-07-21T10:00:11.194Z",
    "recovered": 4697,
    "infected": 6386,
    "id": "PHlHdeqYd6KgxsJGfEz0",
    "pop": 4063000,
    "country": "RU",
    "sick": 1668,
    "invisible": false
  },
  {
    "latitude": 46.7296,
    "dead": 1585,
    "lastUpdated": "2020-07-21T10:17:02.494Z",
    "recovered": 0,
    "infected": 47107,
    "state": "MN",
    "id": "PJvVYosLIhbcRZYnKX1R",
    "pop": 5611000,
    "country": "US",
    "longitude": -94.6859,
    "name": "Minnesota",
    "sick": 45522,
    "invisible": false
  },
  {
    "longitude": -89.3985,
    "name": "Illinois",
    "latitude": 40.6331,
    "dead": 7494,
    "lastUpdated": "2020-07-21T10:17:02.492Z",
    "recovered": 0,
    "infected": 163923,
    "state": "IL",
    "id": "PTwQr9ijo0TBBsPH2sdJ",
    "pop": 12740000,
    "country": "US",
    "sick": 156429,
    "invisible": false
  },
  {
    "recovered": 19,
    "infected": 23,
    "id": "PjLqCeFdyzdZNcZxMkK1",
    "pop": 178844,
    "country": "LC",
    "longitude": -60.978893,
    "name": "Saint Lucia",
    "latitude": 13.909444,
    "dead": 0,
    "lastUpdated": "2020-07-21T10:16:03.834Z",
    "sick": 4,
    "invisible": false
  },
  {
    "longitude": -1.6761,
    "name": "Comunidad Foral de Navarra",
    "latitude": 42.6954,
    "dead": 529,
    "lastUpdated": "2020-07-20T23:05:09.083Z",
    "recovered": 3905,
    "infected": 9036,
    "state": "NC",
    "id": "PmUlsNx2uFLU797wwU39",
    "pop": 649900,
    "country": "ES",
    "sick": 4602,
    "invisible": false
  },
  {
    "id": "Pr76V4raf108uSRoEXac",
    "pop": 11530000,
    "country": "TN",
    "longitude": 9.460554,
    "name": "Tunisia",
    "latitude": 34.201507,
    "dead": 50,
    "lastUpdated": "2020-07-21T10:16:03.827Z",
    "recovered": 1099,
    "infected": 1381,
    "sick": 232,
    "invisible": false
  },
  {
    "lastUpdated": "2020-07-21T10:16:03.826Z",
    "recovered": 850,
    "infected": 1826,
    "id": "PuQgOd9KWiMzGZXm11sR",
    "pop": 1367000,
    "country": "SZ",
    "longitude": 31.4659,
    "name": "Eswatini",
    "latitude": -26.5225,
    "dead": 23,
    "sick": 953,
    "invisible": false
  },
  {
    "country": "AU",
    "longitude": 143.94853,
    "name": "Victoria",
    "latitude": -37.009609,
    "dead": 39,
    "lastUpdated": "2020-07-21T09:43:28.679Z",
    "recovered": 3078,
    "infected": 5942,
    "state": "VIC",
    "id": "Q18mrGvFWTLX2BU9SqhQ",
    "pop": 6359000,
    "sick": 2825,
    "invisible": false
  },
  {
    "state": "SH",
    "id": "Q39XkabIYxt15mHINzTa",
    "pop": 2890000,
    "country": "DE",
    "longitude": 9.6961,
    "name": "Schleswig-Holstein",
    "latitude": 54.2194,
    "dead": 159,
    "lastUpdated": "2020-07-21T10:00:04.416Z",
    "recovered": 3046,
    "infected": 3273,
    "sick": 68,
    "invisible": false
  },
  {
    "recovered": 0,
    "infected": 47449,
    "state": "RS",
    "id": "QGpQNhuoVTUPHXvS7qcu",
    "pop": 11329605,
    "country": "BR",
    "longitude": -52.031696,
    "name": "Rio Grande do Sul",
    "latitude": -27.953491,
    "dead": 1285,
    "lastUpdated": "2020-07-21T09:57:01.982Z",
    "sick": 46164,
    "invisible": false
  },
  {
    "country": "RU",
    "longitude": 46.9284,
    "name": "Chuvashia",
    "latitude": 55.5596,
    "dead": 50,
    "lastUpdated": "2020-07-21T10:00:11.194Z",
    "recovered": 3405,
    "infected": 6310,
    "id": "QGyuno7Bc4kwuvGFgMiO",
    "pop": 1231000,
    "sick": 2855,
    "invisible": false
  },
  {
    "name": "Estonia",
    "latitude": 58.595272,
    "dead": 69,
    "lastUpdated": "2020-07-21T10:16:03.825Z",
    "recovered": 1912,
    "infected": 2022,
    "id": "QR9go2hQKXjty7JHUYe4",
    "pop": 1328000,
    "country": "EE",
    "longitude": 25.013607,
    "sick": 41,
    "invisible": false
  },
  {
    "recovered": 2866,
    "infected": 4819,
    "id": "QTafh5fpbS8abcuyEjaL",
    "pop": 840000,
    "country": "RU",
    "longitude": 54.8313,
    "name": "Komi Republic",
    "latitude": 63.8631,
    "dead": 40,
    "lastUpdated": "2020-07-21T10:00:11.196Z",
    "sick": 1913,
    "invisible": false
  },
  {
    "latitude": -20.318,
    "dead": 2256,
    "lastUpdated": "2020-07-21T09:57:01.982Z",
    "recovered": 0,
    "infected": 71703,
    "state": "ES",
    "id": "QaWDLKH8SuwD0Qxq6c38",
    "pop": 3972388,
    "country": "BR",
    "longitude": -40.336,
    "name": "Espírito Santo",
    "sick": 69447,
    "invisible": false
  },
  {
    "name": "Murmansk Oblast",
    "latitude": 67.8443,
    "dead": 55,
    "lastUpdated": "2020-07-21T10:00:11.192Z",
    "recovered": 4471,
    "infected": 8616,
    "id": "Qh73PKA4KWeuPoqZfWXz",
    "pop": 795000,
    "country": "RU",
    "longitude": 35.0884,
    "sick": 4090,
    "invisible": false
  },
  {
    "latitude": 20.3333,
    "dead": 1240,
    "lastUpdated": "2020-07-21T10:02:01.985Z",
    "recovered": 0,
    "infected": 22264,
    "id": "Qkho455pBwx88Gohs3hL",
    "pop": 8222700,
    "country": "MX",
    "longitude": -103.6667,
    "name": "Jalisco",
    "sick": 21024,
    "invisible": false
  },
  {
    "id": "QlZrE4nosm5WfdA2aCDg",
    "pop": 8251000,
    "country": "PG",
    "longitude": 143.9555,
    "name": "Papua New Guinea",
    "latitude": -6.315,
    "dead": 1,
    "lastUpdated": "2020-07-21T10:16:03.834Z",
    "recovered": 8,
    "infected": 19,
    "sick": 10,
    "invisible": false
  },
  {
    "lastUpdated": "2020-07-21T10:17:02.500Z",
    "state": "VI",
    "id": "QqhD3YDMKXojvQY3Yu41",
    "longitude": -64.8963,
    "name": "U.S. Virgin Islands",
    "alwaysShow": true,
    "dead": 6,
    "latitude": 18.3358,
    "infected": 304,
    "recovered": 0,
    "pop": 107268,
    "country": "US",
    "sick": 298,
    "invisible": false
  },
  {
    "lastUpdated": "2020-07-21T10:16:03.834Z",
    "recovered": 18,
    "infected": 18,
    "id": "Qy2qW2ep5wltnYjPJBxh",
    "pop": 71937,
    "country": "DM",
    "longitude": -61.3709755,
    "name": "Dominica",
    "latitude": 15.414999,
    "dead": 0,
    "sick": 0,
    "invisible": false
  },
  {
    "lastUpdated": "2020-07-21T10:21:12.608Z",
    "recovered": 82,
    "infected": 173,
    "id": "R3IHMWqIUhOJJTlrmbUZ",
    "pop": 344027,
    "country": "CO",
    "longitude": -72.167,
    "name": "Casanare",
    "latitude": 5.167,
    "dead": 2,
    "sick": 89,
    "invisible": false
  },
  {
    "latitude": 8.538,
    "dead": 1127,
    "lastUpdated": "2020-07-21T10:16:03.817Z",
    "recovered": 29164,
    "infected": 54426,
    "id": "R8YCgephnxTufvcPWMgx",
    "pop": 4099000,
    "country": "PA",
    "longitude": -80.7821,
    "name": "Panama",
    "sick": 24135,
    "invisible": false
  },
  {
    "country": "HN",
    "longitude": -86.2419,
    "name": "Honduras",
    "latitude": 15.2,
    "dead": 935,
    "lastUpdated": "2020-07-21T10:16:03.818Z",
    "recovered": 3905,
    "infected": 34611,
    "id": "RA2SE0p2bVhqo0P2hzGY",
    "pop": 9265000,
    "sick": 29771,
    "invisible": false
  },
  {
    "country": "CL",
    "longitude": -70.2979202,
    "name": "Arica y Parinacota",
    "latitude": -18.4745998,
    "dead": 36,
    "lastUpdated": "2020-07-21T10:20:04.370Z",
    "recovered": 0,
    "infected": 3056,
    "id": "RBt9RiwP7WUbMnJfD0lo",
    "pop": 224500,
    "sick": 3020,
    "invisible": false
  },
  {
    "name": "Friuli Venezia Giulia",
    "latitude": 45.633331,
    "dead": 345,
    "lastUpdated": "2020-07-21T10:01:01.888Z",
    "recovered": 2912,
    "infected": 3356,
    "state": "36",
    "id": "RCrDBCdBNYzgLNr0aB2H",
    "pop": 1216000,
    "country": "IT",
    "longitude": 13.8,
    "sick": 99,
    "invisible": false
  },
  {
    "longitude": -93.0977,
    "name": "Iowa",
    "latitude": 41.878,
    "dead": 798,
    "lastUpdated": "2020-07-21T10:17:02.495Z",
    "recovered": 0,
    "infected": 39378,
    "state": "IA",
    "id": "RX0KDu1AFrlCsrRso0nb",
    "pop": 3156000,
    "country": "US",
    "sick": 38580,
    "invisible": false
  },
  {
    "lastUpdated": "2020-07-21T10:21:12.601Z",
    "recovered": 25614,
    "infected": 65594,
    "id": "RZ6PCe5TZsO15JjDObwO",
    "pop": 7413000,
    "country": "CO",
    "longitude": -74.063644,
    "name": "Bogotá D.C.",
    "latitude": 4.624335,
    "dead": 1627,
    "sick": 38353,
    "invisible": false
  },
  {
    "id": "RaJxbzlnRFTuj4B8IbpC",
    "pop": 6846000,
    "country": "LY",
    "longitude": 17.2283306,
    "name": "Libya",
    "latitude": 26.3351002,
    "dead": 49,
    "lastUpdated": "2020-07-21T10:16:03.825Z",
    "recovered": 441,
    "infected": 1980,
    "sick": 1490,
    "invisible": false
  },
  {
    "name": "Kansas",
    "latitude": 39.0119,
    "dead": 310,
    "lastUpdated": "2020-07-21T10:17:02.495Z",
    "recovered": 0,
    "infected": 23472,
    "state": "KS",
    "id": "Rf4uvBfP3GRDSHdZElRd",
    "pop": 2912000,
    "country": "US",
    "longitude": -98.4842,
    "sick": 23162,
    "invisible": false
  },
  {
    "id": "RmEgf1xeclWt7XCF9oiR",
    "pop": 5518000,
    "country": "FR",
    "longitude": 6.1878,
    "name": "Grand Est",
    "latitude": 48.6998,
    "dead": 3599,
    "lastUpdated": "2020-07-20T23:09:21.404Z",
    "recovered": 12473,
    "infected": 26788,
    "sick": 10716,
    "invisible": false
  },
  {
    "country": "BE",
    "longitude": 4.451,
    "name": "Wallonia",
    "latitude": 50.4176,
    "dead": 3395,
    "lastUpdated": "2020-07-21T10:07:06.388Z",
    "recovered": 4959,
    "infected": 19796,
    "state": "WAL",
    "id": "RryHraSohKQLAsdr1dHO",
    "pop": 3644000,
    "sick": 11442,
    "invisible": false
  },
  {
    "state": "ON",
    "id": "Rx4TuyMpfGb3S8wYJX0x",
    "pop": 14570000,
    "country": "CA",
    "longitude": -85.3232,
    "name": "Ontario",
    "latitude": 51.2538,
    "dead": 2752,
    "lastUpdated": "2020-07-21T10:07:08.659Z",
    "recovered": 33513,
    "infected": 37739,
    "sick": 1474,
    "invisible": false
  },
  {
    "country": "ES",
    "longitude": -4.723611,
    "name": "Castilla y León",
    "latitude": 41.652779,
    "dead": 2794,
    "lastUpdated": "2020-07-20T23:04:33.590Z",
    "recovered": 8716,
    "infected": 26197,
    "state": "CL",
    "id": "S8ewN4zaYp8mjtuqqOTw",
    "pop": 2408000,
    "sick": 14687,
    "invisible": false
  },
  {
    "lastUpdated": "2020-07-21T10:16:03.832Z",
    "recovered": 98,
    "infected": 262,
    "id": "SDdefnq1bc3ZNr7SpEsW",
    "pop": 376480,
    "country": "FR",
    "longitude": -61.011715,
    "name": "Martinique",
    "alwaysShow": true,
    "latitude": 14.652027,
    "dead": 15,
    "sick": 149,
    "invisible": false
  },
  {
    "latitude": 7.9465,
    "dead": 153,
    "lastUpdated": "2020-07-21T10:16:03.818Z",
    "recovered": 24901,
    "infected": 28430,
    "id": "SG9VWLOV3x2JsTkXmVSz",
    "pop": 28830000,
    "country": "GH",
    "longitude": -1.0232,
    "name": "Ghana",
    "sick": 3376,
    "invisible": false
  },
  {
    "name": "Switzerland",
    "latitude": 46.818188,
    "dead": 1971,
    "lastUpdated": "2020-07-21T10:16:03.818Z",
    "recovered": 30300,
    "infected": 33634,
    "id": "SGe9sCPayMqh6RsGFaBA",
    "pop": 8570000,
    "country": "CH",
    "longitude": 8.227512,
    "sick": 1363,
    "invisible": false
  },
  {
    "latitude": 66.7613,
    "dead": 40,
    "lastUpdated": "2020-07-21T10:00:11.196Z",
    "recovered": 4884,
    "infected": 5283,
    "id": "SGhKBmmh5hss7hrNR8hK",
    "pop": 964000,
    "country": "RU",
    "longitude": 124.1238,
    "name": "Yakutia",
    "sick": 359,
    "invisible": false
  },
  {
    "lastUpdated": "2020-07-21T10:07:08.667Z",
    "recovered": 50190,
    "infected": 57616,
    "state": "QC",
    "id": "SHoOE3NiJgWAlDVBzwYH",
    "pop": 8485000,
    "country": "CA",
    "longitude": -71.208,
    "name": "Quebec",
    "latitude": 46.8139,
    "dead": 5657,
    "sick": 1769,
    "invisible": false
  },
  {
    "latitude": 42.6026,
    "dead": 139,
    "lastUpdated": "2020-07-21T09:55:02.148Z",
    "recovered": 3069,
    "infected": 5877,
    "id": "SMWvuMMuKp2QK7O2tNia",
    "pop": 1831000,
    "country": "XK",
    "longitude": 20.903,
    "name": "Kosovo",
    "sick": 2669,
    "invisible": false
  },
  {
    "lastUpdated": "2020-07-21T10:00:11.195Z",
    "recovered": 4256,
    "infected": 5734,
    "id": "SNWCQwRwqYfxX8HZndTA",
    "pop": 1913000,
    "country": "RU",
    "longitude": 135,
    "name": "Primorsky Krai",
    "latitude": 45.0526,
    "dead": 65,
    "sick": 1413,
    "invisible": false
  },
  {
    "recovered": 2361,
    "infected": 3853,
    "id": "SPcujsH2YlUaoAr8AiWF",
    "pop": 1817000,
    "country": "IN",
    "longitude": 74.124,
    "name": "Goa",
    "latitude": 15.2993,
    "dead": 23,
    "lastUpdated": "2020-07-21T10:11:01.666Z",
    "sick": 1469,
    "invisible": false
  },
  {
    "lastUpdated": "2020-07-21T09:57:01.983Z",
    "recovered": 0,
    "infected": 40772,
    "state": "GO",
    "id": "SV5AMF59J61Vt4cXWLgy",
    "pop": 6921161,
    "country": "BR",
    "longitude": -48.953403,
    "name": "Goiás",
    "latitude": -16.328547,
    "dead": 1106,
    "sick": 39666,
    "invisible": false
  },
  {
    "country": "CO",
    "longitude": -68.436,
    "name": "Vichada",
    "latitude": 6.181,
    "dead": 0,
    "lastUpdated": "2020-07-21T10:21:12.609Z",
    "recovered": 1,
    "infected": 2,
    "id": "SYFarIS62W0EW9bOaJmN",
    "pop": 75500,
    "sick": 1,
    "invisible": false
  },
  {
    "country": "IT",
    "longitude": 16.5,
    "name": "Calabria",
    "latitude": 39,
    "dead": 97,
    "lastUpdated": "2020-07-21T10:01:01.877Z",
    "recovered": 1071,
    "infected": 1239,
    "state": "78",
    "id": "SZdF624x0v1LlyzZjKFu",
    "pop": 1957000,
    "sick": 71,
    "invisible": false
  },
  {
    "country": "US",
    "longitude": -99.9018,
    "name": "Nebraska",
    "latitude": 41.4925,
    "dead": 313,
    "lastUpdated": "2020-07-21T10:17:02.495Z",
    "recovered": 0,
    "infected": 22847,
    "state": "NE",
    "id": "SakhKQzKu1LRI8laqdQq",
    "pop": 1929000,
    "sick": 22534,
    "invisible": false
  },
  {
    "country": "FR",
    "longitude": 55.5364,
    "name": "La Réunion",
    "alwaysShow": true,
    "latitude": -21.1151,
    "dead": 3,
    "lastUpdated": "2020-07-21T10:16:03.831Z",
    "recovered": 472,
    "infected": 631,
    "id": "SgHzWAAYK1j2sipovxM6",
    "pop": 859959,
    "sick": 156,
    "invisible": false
  },
  {
    "id": "SioMALgUbo7peXmbco2f",
    "pop": 16010000,
    "country": "KH",
    "longitude": 104.990967,
    "name": "Cambodia",
    "latitude": 12.565679,
    "dead": 0,
    "lastUpdated": "2020-07-21T10:16:03.832Z",
    "recovered": 140,
    "infected": 197,
    "sick": 57,
    "invisible": false
  },
  {
    "lastUpdated": "2020-07-21T10:17:02.497Z",
    "state": "GU",
    "id": "SsWhuEElU7dCTTuH5fdQ",
    "longitude": 144.7937,
    "name": "Guam",
    "alwaysShow": true,
    "dead": 5,
    "latitude": 13.4443,
    "infected": 319,
    "recovered": 0,
    "pop": 164229,
    "country": "US",
    "sick": 314,
    "invisible": false
  },
  {
    "id": "SuCr5emUaJ9RHTll1P1p",
    "country": "PL",
    "longitude": 19.1344,
    "invisible": true,
    "name": "Unknown Poland region",
    "latitude": 51.9189,
    "dead": 0,
    "lastUpdated": "2020-07-21T10:16:03.817Z",
    "recovered": 30771,
    "infected": 0,
    "sick": 0
  },
  {
    "name": "Udmurtia",
    "latitude": 57.067,
    "dead": 22,
    "lastUpdated": "2020-07-21T10:00:11.198Z",
    "recovered": 1493,
    "infected": 2111,
    "id": "Sx03z01BJCAbrYkWhEaD",
    "pop": 1513000,
    "country": "RU",
    "longitude": 53.0278,
    "sick": 596,
    "invisible": false
  },
  {
    "latitude": -4.0383,
    "dead": 194,
    "lastUpdated": "2020-07-21T10:16:03.821Z",
    "recovered": 4335,
    "infected": 8443,
    "id": "T3iRf8mTUTAzbKrORTap",
    "pop": 84070000,
    "country": "CD",
    "longitude": 21.7587,
    "name": "DR Congo",
    "sick": 3914,
    "invisible": false
  },
  {
    "latitude": 23.635796,
    "dead": 2523,
    "lastUpdated": "2020-07-21T10:16:03.815Z",
    "recovered": 203259,
    "infected": 253349,
    "id": "T7NffoeCgTUpAbOHvYwP",
    "pop": 32940000,
    "country": "SA",
    "longitude": 44.344334,
    "name": "Saudi Arabia",
    "sick": 47567,
    "invisible": false
  },
  {
    "recovered": 3107,
    "infected": 5517,
    "state": "RI",
    "id": "TNDTapyb0k3l7Mds9q9R",
    "pop": 315700,
    "country": "ES",
    "longitude": -2.5396,
    "name": "La Rioja",
    "latitude": 42.2871,
    "dead": 366,
    "lastUpdated": "2020-07-20T23:06:06.577Z",
    "sick": 2044,
    "invisible": false
  },
  {
    "latitude": 20.400417,
    "dead": 831,
    "lastUpdated": "2020-07-21T10:02:01.984Z",
    "recovered": 0,
    "infected": 7475,
    "id": "TQCWbhIpJQBQxBjhCGVJ",
    "pop": 2207200,
    "country": "MX",
    "longitude": -89.134857,
    "name": "Yucatán",
    "sick": 6644,
    "invisible": false
  },
  {
    "longitude": 114.650692,
    "name": "Brunei",
    "latitude": 4.506106,
    "dead": 3,
    "lastUpdated": "2020-07-21T10:16:03.832Z",
    "recovered": 138,
    "infected": 141,
    "id": "TQZmzsLhJqjtCSExAkCP",
    "pop": 428697,
    "country": "BN",
    "sick": 0,
    "invisible": false
  },
  {
    "latitude": 45.4471,
    "dead": 1749,
    "lastUpdated": "2020-07-20T23:08:54.284Z",
    "recovered": 7856,
    "infected": 15886,
    "state": "",
    "id": "TT0MKODSjrxHvG19xZCa",
    "pop": 8027000,
    "country": "FR",
    "longitude": 4.3853,
    "name": "Auvergne-Rhône-Alpes",
    "sick": 6281,
    "invisible": false
  },