[
  {
    "infected": 6,
    "recovered": 1,
    "latitude": 12.5847,
    "pop": 72600,
    "longitude": -81.7006,
    "name": "San Andrés",
    "country": "CO",
    "lastUpdated": "2020-04-22T19:31:09.400Z",
    "dead": 0,
    "id": "01b09TY4vmuZwzVuiRFK",
    "sick": 5,
    "invisible": false
  },
  {
    "latitude": 49.4482,
    "pop": 67052,
    "longitude": -2.5895,
    "name": "Guernsey",
    "country": "GG",
    "lastUpdated": "2020-04-22T19:11:09.921Z",
    "dead": 10,
    "id": "0FOJefeLxQYXQ1CnJm9o",
    "infected": 243,
    "recovered": 134,
    "sick": 99,
    "invisible": false
  },
  {
    "infected": 4185,
    "recovered": 860,
    "latitude": 41.066666,
    "pop": 5827000,
    "longitude": 14.333333,
    "name": "Campania",
    "country": "IT",
    "lastUpdated": "2020-04-22T19:31:07.725Z",
    "dead": 327,
    "id": "0GJcws44NSPsDHAuxJhW",
    "sick": 2998,
    "invisible": false
  },
  {
    "latitude": -20.2167,
    "pop": 383870,
    "longitude": -70.14222,
    "name": "Tarapacá",
    "country": "CL",
    "lastUpdated": "2020-04-22T19:37:11.464Z",
    "dead": 0,
    "id": "0HDQbiHe462xMCUV5HiI",
    "infected": 114,
    "recovered": 0,
    "sick": 114,
    "invisible": false
  },
  {
    "id": "0VG7S6aaK4eSo59fL9JO",
    "infected": 83,
    "recovered": 32,
    "latitude": 20.9517,
    "pop": 45990000,
    "longitude": 85.0985,
    "name": "Odisha",
    "country": "IN",
    "lastUpdated": "2020-04-22T19:41:01.610Z",
    "dead": 1,
    "sick": 50,
    "invisible": false
  },
  {
    "infected": 106,
    "recovered": 0,
    "latitude": 20.4737,
    "pop": 2990300,
    "longitude": -98.8582,
    "name": "Hidalgo",
    "country": "MX",
    "lastUpdated": "2020-04-22T19:40:00.994Z",
    "dead": 16,
    "id": "0XmCRqiK2ZaehoEJvfer",
    "sick": 90,
    "invisible": false
  },
  {
    "latitude": 11.7401,
    "pop": 427246,
    "longitude": 92.6586,
    "name": "Andaman and Nicobar Islands",
    "country": "IN",
    "lastUpdated": "2020-04-22T19:41:01.611Z",
    "dead": 0,
    "id": "0jStOpTUNRaQYJqgmRoK",
    "infected": 18,
    "recovered": 11,
    "sick": 7,
    "invisible": false
  },
  {
    "infected": 7141,
    "recovered": 689,
    "latitude": 25.315058,
    "pop": 2639000,
    "longitude": 51.145517,
    "name": "Qatar",
    "country": "QA",
    "lastUpdated": "2020-04-22T19:38:08.633Z",
    "dead": 10,
    "id": "0m4aECS0Z2DGFEr8ldgI",
    "sick": 6442,
    "invisible": false
  },
  {
    "lastUpdated": "2020-04-22T19:41:01.609Z",
    "dead": 15,
    "id": "0n54EMSDJcRoT1QEvw80",
    "infected": 423,
    "recovered": 73,
    "latitude": 22.9868,
    "pop": 90320000,
    "longitude": 87.855,
    "name": "West Bengal",
    "country": "IN",
    "sick": 335,
    "invisible": false
  },
  {
    "infected": 1587,
    "recovered": 152,
    "latitude": 22.9734,
    "pop": 73340000,
    "longitude": 78.6569,
    "name": "Madhya Pradesh",
    "country": "IN",
    "lastUpdated": "2020-04-22T19:41:01.609Z",
    "dead": 80,
    "id": "0s18o5DrDAHjbu5MFcrj",
    "sick": 1355,
    "invisible": false
  },
  {
    "lastUpdated": "2020-04-22T19:38:08.626Z",
    "dead": 0,
    "id": "0tFoopNTs6e4tOoaltu2",
    "invisible": true,
    "infected": 0,
    "recovered": 83462,
    "latitude": 37.0902,
    "longitude": -95.7129,
    "name": "Unknown US state",
    "country": "US",
    "sick": 0
  },
  {
    "infected": 279,
    "recovered": 253,
    "latitude": 35.64249,
    "pop": 37330000,
    "longitude": 108.472214,
    "name": "Shaanxi",
    "country": "CN",
    "lastUpdated": "2020-04-22T19:38:10.166Z",
    "dead": 3,
    "id": "0x2HLhr5z5xAtEdO4iZm",
    "sick": 23,
    "invisible": false
  },
  {
    "lastUpdated": "2020-04-22T19:38:08.637Z",
    "dead": 56,
    "id": "19MvIhipqTyYv1H37Upw",
    "infected": 1259,
    "recovered": 272,
    "latitude": 41.643351,
    "pop": 2077000,
    "longitude": 21.668393,
    "name": "North Macedonia",
    "country": "MK",
    "sick": 931,
    "invisible": false
  },
  {
    "latitude": 53.1355,
    "pop": 521542,
    "longitude": -57.6604,
    "name": "Newfoundland and Labrador",
    "country": "CA",
    "lastUpdated": "2020-04-22T18:36:09.081Z",
    "dead": 3,
    "id": "1DOMOmCWDtva46OVSZLv",
    "infected": 257,
    "recovered": 0,
    "sick": 254,
    "invisible": false
  },
  {
    "latitude": 35.801933,
    "pop": 5627000,
    "longitude": 96.779286,
    "name": "Qinghai",
    "country": "CN",
    "lastUpdated": "2020-04-22T19:38:10.168Z",
    "dead": 0,
    "id": "1Fap7rZu9SIRqf5TG9Dg",
    "infected": 18,
    "recovered": 18,
    "sick": 0,
    "invisible": false
  },
  {
    "latitude": 23.6345,
    "pop": 126200000,
    "longitude": -102.5528,
    "name": "Unknown Mexico state",
    "country": "MX",
    "lastUpdated": "2020-04-22T19:38:08.632Z",
    "dead": 0,
    "id": "1YXQMlVL3fUeDZmcVfJw",
    "invisible": true,
    "infected": 0,
    "recovered": 2627,
    "sick": 0
  },
  {
    "id": "1eTSQyfp8RoDPeFrIwun",
    "infected": 22739,
    "recovered": 5058,
    "latitude": 44.9,
    "pop": 4376000,
    "longitude": 8.206944,
    "name": "Piemonte",
    "country": "IT",
    "lastUpdated": "2020-04-22T19:31:07.725Z",
    "dead": 2559,
    "sick": 15122,
    "invisible": false
  },
  {
    "recovered": 0,
    "latitude": 51.993,
    "pop": 1003000,
    "longitude": 15.461,
    "name": "Lubuskie",
    "country": "PL",
    "lastUpdated": "2020-04-22T19:33:08.390Z",
    "dead": 0,
    "id": "1j1OurxLTpZYuWIWwQ9F",
    "infected": 85,
    "sick": 85,
    "invisible": false
  },
  {
    "infected": 2778,
    "recovered": 560,
    "latitude": 47.4116,
    "pop": 3550000,
    "longitude": 28.3699,
    "name": "Moldova",
    "country": "MD",
    "lastUpdated": "2020-04-22T19:38:08.635Z",
    "dead": 75,
    "id": "1qTPB8X3tyLyIdsb5TN3",
    "sick": 2143,
    "invisible": false
  },
  {
    "latitude": 37.0902,
    "longitude": -95.7129,
    "name": "Federal Bureau of Prisons",
    "country": "US",
    "lastUpdated": "2020-04-22T19:26:19.292Z",
    "dead": 23,
    "id": "22PJOAThcDFKgSbyQIkD",
    "invisible": true,
    "infected": 863,
    "recovered": 0,
    "sick": 840
  },
  {
    "infected": 1,
    "recovered": 1,
    "latitude": 30.15336,
    "pop": 3180000,
    "longitude": 88.787865,
    "name": "Tibet",
    "country": "CN",
    "lastUpdated": "2020-04-22T19:38:10.169Z",
    "dead": 0,
    "id": "25qIBtsW2nfQj3pwBKg9",
    "sick": 0,
    "invisible": false
  },
  {
    "lastUpdated": "2020-04-22T19:38:08.632Z",
    "dead": 635,
    "id": "2KHYUb5t3lwzVVmDjwNX",
    "infected": 7418,
    "recovered": 913,
    "latitude": -1.572184,
    "pop": 264000000,
    "longitude": 115.66779,
    "name": "Indonesia",
    "country": "ID",
    "sick": 5870,
    "invisible": false
  },
  {
    "latitude": 43.807191,
    "pop": 4191000,
    "longitude": -120.585594,
    "name": "Oregon",
    "country": "US",
    "lastUpdated": "2020-04-22T19:26:19.291Z",
    "dead": 78,
    "id": "2OrsssmGUs4XCzaZzvTv",
    "infected": 2002,
    "recovered": 0,
    "sick": 1924,
    "invisible": false
  },
  {
    "infected": 326,
    "recovered": 0,
    "latitude": -23.65,
    "pop": 425000,
    "longitude": -70.400002,
    "name": "Antofagasta",
    "country": "CL",
    "lastUpdated": "2020-04-22T19:37:11.464Z",
    "dead": 2,
    "id": "2c5HBZ1ffkCVXnMYUWnY",
    "sick": 324,
    "invisible": false
  },
  {
    "latitude": 0.035574,
    "pop": 9029000,
    "longitude": -51.070534,
    "name": "Amapá",
    "country": "BR",
    "lastUpdated": "2020-04-22T19:16:01.649Z",
    "dead": 14,
    "id": "2dzhyWsBSPpENWlNew0b",
    "infected": 479,
    "recovered": 0,
    "sick": 465,
    "invisible": false
  },
  {
    "lastUpdated": "2020-04-22T19:38:10.166Z",
    "dead": 1,
    "id": "2jxHvSsxdnom0nPNvOT8",
    "infected": 106,
    "recovered": 98,
    "latitude": 43.851921,
    "pop": 27460000,
    "longitude": 126.548103,
    "name": "Jilin",
    "country": "CN",
    "sick": 7,
    "invisible": false
  },
  {
    "infected": 132,
    "recovered": 120,
    "latitude": 36.1408,
    "pop": 34571,
    "longitude": -5.3536,
    "name": "Gibraltar",
    "country": "GI",
    "lastUpdated": "2020-04-22T19:38:08.645Z",
    "dead": 0,
    "id": "2p11BjSAs3wVyymgqBOe",
    "sick": 12,
    "invisible": false
  },
  {
    "latitude": 47.7516,
    "pop": 2567000,
    "longitude": 1.6751,
    "name": "Centre-Val de Loire",
    "country": "FR",
    "lastUpdated": "2020-04-22T17:53:56.808Z",
    "dead": 328,
    "id": "2sLNkkHpyaHx7dD3aMDO",
    "infected": 3235,
    "recovered": 977,
    "sick": 1930,
    "invisible": false
  },
  {
    "id": "319tiZOMczx1y0DfvOib",
    "infected": 1357,
    "recovered": 925,
    "latitude": 42.565044,
    "pop": 884640,
    "longitude": 12.643751,
    "name": "Umbria",
    "country": "IT",
    "lastUpdated": "2020-04-22T19:31:07.726Z",
    "dead": 61,
    "sick": 371,
    "invisible": false
  },
  {
    "pop": 1355000,
    "longitude": -76.6131592,
    "name": "Cauca",
    "country": "CO",
    "lastUpdated": "2020-04-22T19:31:09.399Z",
    "dead": 3,
    "id": "38T96Q3XNjt5FSJygPed",
    "infected": 24,
    "recovered": 9,
    "latitude": 2.43823,
    "sick": 12,
    "invisible": false
  },
  {
    "id": "3IlPjAbP5qVMn1nlgLTJ",
    "infected": 74,
    "recovered": 35,
    "latitude": -13.133896,
    "pop": 17090000,
    "longitude": 27.849332,
    "name": "Zambia",
    "country": "ZM",
    "lastUpdated": "2020-04-22T19:38:08.648Z",
    "dead": 3,
    "sick": 36,
    "invisible": false
  },
  {
    "lastUpdated": "2020-04-22T19:38:08.643Z",
    "dead": 5,
    "id": "3LstMSN5XMYBkxbe5HN7",
    "infected": 315,
    "recovered": 116,
    "latitude": 42.7044,
    "pop": 631219,
    "longitude": 19.3958,
    "name": "Montenegro",
    "country": "ME",
    "sick": 194,
    "invisible": false
  },
  {
    "infected": 104,
    "recovered": 88,
    "latitude": -35.4735,
    "pop": 418440,
    "longitude": 149.0124,
    "name": "Australian Capital Territory",
    "country": "AU",
    "lastUpdated": "2020-04-22T19:36:01.611Z",
    "dead": 3,
    "id": "3OZoQsKrzxZ18EKyfGE6",
    "sick": 13,
    "invisible": false
  },
  {
    "infected": 35,
    "recovered": 19,
    "latitude": 26.2006,
    "pop": 30940000,
    "longitude": 92.9376,
    "name": "Assam",
    "country": "IN",
    "lastUpdated": "2020-04-22T19:41:01.610Z",
    "dead": 1,
    "id": "3cCbnJCsK7mKlTO08K1o",
    "sick": 15,
    "invisible": false
  },
  {
    "infected": 13887,
    "recovered": 0,
    "latitude": 40.4173,
    "pop": 11690000,
    "longitude": -82.9071,
    "name": "Ohio",
    "country": "US",
    "lastUpdated": "2020-04-22T19:26:19.289Z",
    "dead": 587,
    "id": "3fC3bAyIRUquOQOEnQNe",
    "sick": 13300,
    "invisible": false
  },
  {
    "latitude": 25,
    "pop": 3066400,
    "longitude": -107.5,
    "name": "Sinaloa",
    "country": "MX",
    "lastUpdated": "2020-04-22T19:40:00.992Z",
    "dead": 53,
    "id": "3kFCzJguabtBvXaHxgiu",
    "infected": 521,
    "recovered": 0,
    "sick": 468,
    "invisible": false
  },
  {
    "latitude": 3.420556,
    "pop": 4708300,
    "longitude": -76.522224,
    "name": "Valle del Cauca",
    "country": "CO",
    "lastUpdated": "2020-04-22T19:31:09.396Z",
    "dead": 40,
    "id": "3mC2LveOpXV8P1PmQGUj",
    "infected": 696,
    "recovered": 97,
    "sick": 559,
    "invisible": false
  },
  {
    "id": "4NnFMekRK2m14IlnZZoj",
    "infected": 7,
    "recovered": 6,
    "latitude": 21.0079,
    "pop": 4420000,
    "longitude": -10.9408,
    "name": "Mauritania",
    "country": "MR",
    "lastUpdated": "2020-04-22T19:38:08.657Z",
    "dead": 1,
    "sick": 0,
    "invisible": false
  },
  {
    "infected": 1724,
    "recovered": 0,
    "latitude": 53.7267,
    "pop": 5071000,
    "longitude": -127.6476,
    "name": "British Columbia",
    "country": "CA",
    "lastUpdated": "2020-04-22T19:36:01.608Z",
    "dead": 87,
    "id": "4hfZRUoUgI4a3vrG0GBk",
    "sick": 1637,
    "invisible": false
  },
  {
    "lastUpdated": "2020-04-22T19:16:01.651Z",
    "dead": 490,
    "id": "4kq0z3kh5zt3YAUWxvtE",
    "infected": 5552,
    "recovered": 0,
    "latitude": -22.908333,
    "pop": 17159960,
    "longitude": -43.196388,
    "name": "Rio de Janeiro",
    "country": "BR",
    "sick": 5062,
    "invisible": false
  },
  {
    "infected": 1644,
    "recovered": 0,
    "latitude": -11.409874,
    "pop": 14812617,
    "longitude": -41.280857,
    "name": "Bahia",
    "country": "BR",
    "lastUpdated": "2020-04-22T19:16:01.649Z",
    "dead": 50,
    "id": "4yDbkEyqsNzZJjfrciYV",
    "sick": 1594,
    "invisible": false
  },
  {
    "latitude": 40.3426,
    "pop": 9898000,
    "longitude": 47.93802,
    "name": "Azerbaijan",
    "country": "AZ",
    "lastUpdated": "2020-04-22T19:38:08.636Z",
    "dead": 20,
    "id": "4zqzRm2xHn0CDVOUQJ8p",
    "infected": 1518,
    "recovered": 907,
    "sick": 591,
    "invisible": false
  },
  {
    "recovered": 0,
    "latitude": 22.233105,
    "pop": 3672300,
    "longitude": -97.861099,
    "name": "Tamaulipas",
    "country": "MX",
    "lastUpdated": "2020-04-22T19:40:00.993Z",
    "dead": 9,
    "id": "54cfsdsRF76XVHWtZs19",
    "infected": 252,
    "sick": 243,
    "invisible": false
  },
  {
    "lastUpdated": "2020-04-22T19:29:10.176Z",
    "dead": 3082,
    "id": "57ydD48mLRD2YoyteJZj",
    "infected": 23733,
    "recovered": 5324,
    "latitude": 51.0109,
    "pop": 6596000,
    "longitude": 3.7265,
    "name": "Flanders",
    "country": "BE",
    "sick": 15327,
    "invisible": false
  },
  {
    "pop": 395361,
    "longitude": -78.035889,
    "name": "Bahamas",
    "country": "BS",
    "lastUpdated": "2020-04-22T19:38:08.648Z",
    "dead": 9,
    "id": "5MHegCUO9L3LiAU7DDey",
    "infected": 65,
    "recovered": 12,
    "latitude": 25.025885,
    "sick": 44,
    "invisible": false
  },
  {
    "infected": 2971,
    "recovered": 1379,
    "latitude": -31.253218,
    "pop": 7544000,
    "longitude": 146.921097,
    "name": "New South Wales",
    "country": "AU",
    "lastUpdated": "2020-04-22T19:36:01.608Z",
    "dead": 26,
    "id": "5N16a2OXXRpsEFanw0TC",
    "sick": 1566,
    "invisible": false
  },
  {
    "infected": 4,
    "recovered": 0,
    "latitude": 6.8769908,
    "pop": 12580000,
    "longitude": 31.3069782,
    "name": "South Sudan",
    "country": "SS",
    "lastUpdated": "2020-04-22T19:38:08.657Z",
    "dead": 0,
    "id": "5N4PRxsCDzzwk7R200V1",
    "sick": 4,
    "invisible": false
  },
  {
    "latitude": 39.484,
    "pop": 4975000,
    "longitude": -0.7533,
    "name": "C. Valenciana",
    "country": "ES",
    "lastUpdated": "2020-04-22T19:41:15.177Z",
    "dead": 1106,
    "id": "5Va9A7CXR8AXdUz4HTJj",
    "infected": 10538,
    "recovered": 5011,
    "sick": 4421,
    "invisible": false
  },
  {
    "recovered": 17,
    "latitude": -20.9043045,
    "pop": 280460,
    "longitude": 165.618042,
    "name": "New Caledonia",
    "country": "NC",
    "lastUpdated": "2020-04-22T19:38:08.654Z",
    "dead": 0,
    "id": "5fg04eyDwFw3kEXnrxez",
    "infected": 18,
    "sick": 1,
    "invisible": false
  },
  {
    "recovered": 7,
    "latitude": 28.394857,
    "pop": 29300000,
    "longitude": 84.124008,
    "name": "Nepal",
    "country": "NP",
    "lastUpdated": "2020-04-22T19:38:08.649Z",
    "dead": 0,
    "id": "5gXZIjRgAvd6xWN1LOv8",
    "infected": 45,
    "sick": 38,
    "invisible": false
  },
  {
    "infected": 6710,
    "recovered": 693,
    "latitude": 12.879721,
    "pop": 104900000,
    "longitude": 121.774017,
    "name": "Philippines",
    "country": "PH",
    "lastUpdated": "2020-04-22T19:38:08.633Z",
    "dead": 446,
    "id": "5pwmh7aSdGRKqRbnuyc0",
    "sick": 5571,
    "invisible": false
  },
  {
    "lastUpdated": "2020-04-22T19:38:08.651Z",
    "dead": 3,
    "id": "5qtR9nx4BLwu1ODTniaY",
    "infected": 28,
    "recovered": 2,
    "latitude": -17.824858,
    "pop": 14802190,
    "longitude": 31.053028,
    "name": "Zimbabwe",
    "country": "ZW",
    "sick": 23,
    "invisible": false
  },
  {
    "lastUpdated": "2020-04-22T19:26:19.291Z",
    "dead": 45,
    "id": "5vkKgxTaKq1IH0Go357L",
    "invisible": true,
    "infected": 1321,
    "recovered": 0,
    "latitude": 36.0672,
    "pop": 356890,
    "longitude": -109.188,
    "name": "Navajo Nation",
    "country": "US",
    "sick": 1276
  },
  {
    "longitude": -99.177254,
    "name": "Ciudad de México",
    "country": "MX",
    "lastUpdated": "2020-04-22T19:40:00.993Z",
    "dead": 224,
    "id": "61E7TGjUwAo9xu6Y6gAH",
    "infected": 2857,
    "recovered": 0,
    "latitude": 19.432241,
    "pop": 8781300,
    "sick": 2633,
    "invisible": false
  },
  {
    "id": "694ON7d0mRJDeM1gHBTR",
    "infected": 1370,
    "recovered": 357,
    "latitude": 55.621011,
    "pop": 2794000,
    "longitude": 23.804991,
    "name": "Lithuania",
    "country": "LT",
    "lastUpdated": "2020-04-22T19:38:08.636Z",
    "dead": 38,
    "sick": 975,
    "invisible": false
  },
  {
    "infected": 14053,
    "recovered": 0,
    "latitude": 51.1781,
    "pop": 9175000,
    "longitude": -0.5596,
    "name": "South East",
    "country": "GB",
    "lastUpdated": "2020-04-22T19:39:19.252Z",
    "dead": 0,
    "id": "6IQAsvrmBv0HPdeTnh4x",
    "sick": 14053,
    "invisible": false
  },
  {
    "lastUpdated": "2020-04-22T19:38:08.639Z",
    "dead": 4,
    "id": "6IcHIIH0zXpY0POmBZTv",
    "infected": 1034,
    "recovered": 678,
    "latitude": 22.396427,
    "pop": 7392000,
    "longitude": 114.109497,
    "name": "Hong Kong",
    "country": "HK",
    "sick": 352,
    "invisible": false
  },
  {
    "lastUpdated": "2020-04-22T19:16:01.647Z",
    "dead": 8,
    "id": "6LQesrx5bHJsVUi1TXBp",
    "infected": 214,
    "recovered": 0,
    "latitude": -8.65,
    "pop": 869265,
    "longitude": -72.4,
    "name": "Acre",
    "country": "BR",
    "sick": 206,
    "invisible": false
  },
  {
    "infected": 54,
    "recovered": 27,
    "latitude": 9.3077,
    "pop": 11180000,
    "longitude": 2.3158,
    "name": "Benin",
    "country": "BJ",
    "lastUpdated": "2020-04-22T19:38:08.649Z",
    "dead": 1,
    "id": "6SlpghTyB6lpMFvx3g9U",
    "sick": 26,
    "invisible": false
  },
  {
    "infected": 69092,
    "recovered": 22110,
    "latitude": 45.6667,
    "pop": 10040000,
    "longitude": 9.5,
    "name": "Lombardia",
    "country": "IT",
    "lastUpdated": "2020-04-22T19:31:07.725Z",
    "dead": 12740,
    "id": "6ZHcvMIzVWIaRnc4R3Qp",
    "sick": 34242,
    "invisible": false
  },
  {
    "infected": 1353,
    "recovered": 205,
    "latitude": 46.0569,
    "pop": 2067000,
    "longitude": 14.5058,
    "name": "Slovenia",
    "country": "SI",
    "lastUpdated": "2020-04-22T19:38:08.637Z",
    "dead": 79,
    "id": "6ahNiyKDSDAftCctgLH3",
    "sick": 1069,
    "invisible": false
  },
  {
    "pop": 300000,
    "longitude": -70.331398,
    "name": "Atacama",
    "country": "CL",
    "lastUpdated": "2020-04-22T19:37:11.464Z",
    "dead": 0,
    "id": "6nyns7UGGgkU7pxrHf8i",
    "infected": 13,
    "recovered": 0,
    "latitude": -27.3667908,
    "sick": 13,
    "invisible": false
  },
  {
    "id": "6pBi38TUgYfFm0bry2uh",
    "infected": 156,
    "recovered": 16,
    "latitude": -0.8037,
    "pop": 2025000,
    "longitude": 11.6094,
    "name": "Gabon",
    "country": "GA",
    "lastUpdated": "2020-04-22T19:38:08.644Z",
    "dead": 1,
    "sick": 139,
    "invisible": false
  },
  {
    "infected": 71,
    "recovered": 0,
    "latitude": 22.1498,
    "pop": 2831900,
    "longitude": -100.9792,
    "name": "San Luis Potosí",
    "country": "MX",
    "lastUpdated": "2020-04-22T19:40:00.994Z",
    "dead": 8,
    "id": "6vjIVg1gSANFZghV7xtS",
    "sick": 63,
    "invisible": false
  },
  {
    "lastUpdated": "2020-04-22T19:38:08.657Z",
    "dead": 0,
    "id": "78Ox26bNHDA2Pk2b3Uwn",
    "infected": 6,
    "recovered": 6,
    "latitude": 17.901672,
    "pop": 9131,
    "longitude": -62.818544,
    "name": "Saint-Barthélémy",
    "country": "FR",
    "sick": 0,
    "invisible": false
  },
  {
    "infected": 231,
    "recovered": 0,
    "latitude": 54.367,
    "pop": 2305000,
    "longitude": 18.633,
    "name": "Pomorskie",
    "country": "PL",
    "lastUpdated": "2020-04-22T19:33:08.390Z",
    "dead": 3,
    "id": "7JDx6UJiwGSJyL1fChaJ",
    "sick": 228,
    "invisible": false
  },
  {
    "lastUpdated": "2020-04-22T19:41:15.182Z",
    "dead": 2,
    "id": "7UASdZTZ1nPzzBwSTEA9",
    "infected": 105,
    "recovered": 50,
    "latitude": 35.2923,
    "pop": 84690,
    "longitude": -2.9381,
    "name": "Melilla",
    "country": "ES",
    "sick": 53,
    "invisible": false
  },
  {
    "recovered": 10,
    "latitude": 17.0608,
    "pop": 102012,
    "longitude": -61.7964,
    "name": "Antigua and Barbuda",
    "country": "AG",
    "lastUpdated": "2020-04-22T19:38:08.654Z",
    "dead": 3,
    "id": "7hVFcEV7nV0MrQr3LHrl",
    "infected": 24,
    "sick": 11,
    "invisible": false
  },
  {
    "infected": 39792,
    "recovered": 23860,
    "latitude": 48.7904,
    "pop": 13000000,
    "longitude": 11.4979,
    "name": "Bayern",
    "country": "DE",
    "lastUpdated": "2020-04-22T19:30:08.285Z",
    "dead": 1545,
    "id": "7kCrrlOBE3jN6FtOVNUB",
    "sick": 14387,
    "invisible": false
  },
  {
    "latitude": 47.4979,
    "pop": 9773000,
    "longitude": 19.0402,
    "name": "Hungary",
    "country": "HU",
    "lastUpdated": "2020-04-22T19:38:08.635Z",
    "dead": 225,
    "id": "7rYC2iFB50c55Ihgbs4Q",
    "infected": 2168,
    "recovered": 295,
    "sick": 1648,
    "invisible": false
  },
  {
    "latitude": 10.9685,
    "pop": 2400000,
    "longitude": -74.7813,
    "name": "Barranquilla D.E.",
    "country": "CO",
    "lastUpdated": "2020-04-22T19:31:09.399Z",
    "dead": 3,
    "id": "7tqLvLyXcBDK808nJv0m",
    "infected": 84,
    "recovered": 32,
    "sick": 49,
    "invisible": false
  },
  {
    "latitude": 7.3697,
    "pop": 24050000,
    "longitude": 12.3547,
    "name": "Cameroon",
    "country": "CM",
    "lastUpdated": "2020-04-22T19:38:08.639Z",
    "dead": 43,
    "id": "8C0d7WVCjyUGtnc2gUAR",
    "infected": 1163,
    "recovered": 331,
    "sick": 789,
    "invisible": false
  },
  {
    "infected": 4229,
    "recovered": 1549,
    "latitude": 50.8503,
    "pop": 1209000,
    "longitude": 4.3517,
    "name": "Brussels",
    "country": "BE",
    "lastUpdated": "2020-04-22T19:29:10.170Z",
    "dead": 980,
    "id": "8DOZWbN6bDdgaLXVlUEu",
    "sick": 1700,
    "invisible": false
  },
  {
    "latitude": -16.2902,
    "pop": 11050000,
    "longitude": -63.5887,
    "name": "Bolivia",
    "country": "BO",
    "lastUpdated": "2020-04-22T19:38:08.641Z",
    "dead": 37,
    "id": "8RihJrXw4NQXPxaRxr1u",
    "infected": 609,
    "recovered": 44,
    "sick": 528,
    "invisible": false
  },
  {
    "lastUpdated": "2020-04-22T19:38:08.655Z",
    "dead": 0,
    "id": "8ZTySQROQejkDAad0qxQ",
    "infected": 13,
    "recovered": 3,
    "latitude": 12.9843,
    "pop": 109897,
    "longitude": -61.2872,
    "name": "St. Vincent Grenadines",
    "country": "VC",
    "sick": 10,
    "invisible": false
  },
  {
    "infected": 10141,
    "recovered": 896,
    "latitude": 1.352083,
    "pop": 5621000,
    "longitude": 103.819839,
    "name": "Singapore",
    "country": "SG",
    "lastUpdated": "2020-04-22T19:38:08.632Z",
    "dead": 12,
    "id": "8pA3fM4xC2c2wv1b4TnE",
    "sick": 9233,
    "invisible": false
  },
  {
    "infected": 2923,
    "recovered": 1026,
    "latitude": 47.2184,
    "pop": 3787000,
    "longitude": -1.5536,
    "name": "Pays de la Loire",
    "country": "FR",
    "lastUpdated": "2020-04-22T17:53:18.310Z",
    "dead": 285,
    "id": "98hwAoohgWEOQVa3NlM5",
    "sick": 1612,
    "invisible": false
  },
  {
    "lastUpdated": "2020-04-22T19:40:00.993Z",
    "dead": 5,
    "id": "9DAvxOObTqIvMOU93nlY",
    "infected": 68,
    "recovered": 0,
    "latitude": 19.30754,
    "pop": 952300,
    "longitude": -90.19885,
    "name": "Campeche",
    "country": "MX",
    "sick": 63,
    "invisible": false
  },
  {
    "infected": 140,
    "recovered": 12,
    "latitude": 12.8628,
    "pop": 40530000,
    "longitude": 30.2176,
    "name": "Sudan",
    "country": "SD",
    "lastUpdated": "2020-04-22T19:38:08.645Z",
    "dead": 13,
    "id": "9DPOkpIqrFy9mR4e9fuv",
    "sick": 115,
    "invisible": false
  },
  {
    "infected": 9710,
    "recovered": 2406,
    "latitude": 45.943161,
    "pop": 19530000,
    "longitude": 24.966761,
    "name": "Romania",
    "country": "RO",
    "lastUpdated": "2020-04-22T19:38:08.632Z",
    "dead": 519,
    "id": "9QcETqEcM2fTv9zRvx5T",
    "sick": 6785,
    "invisible": false
  },
  {
    "id": "9Y5wmCqNCC6ZrenM31uA",
    "infected": 10,
    "recovered": 7,
    "latitude": 12.136389,
    "pop": 6218000,
    "longitude": -86.251389,
    "name": "Nicaragua",
    "country": "NI",
    "lastUpdated": "2020-04-22T19:38:08.656Z",
    "dead": 2,
    "sick": 1,
    "invisible": false
  },
  {
    "longitude": -3.996166,
    "name": "Mali",
    "country": "ML",
    "lastUpdated": "2020-04-22T19:38:08.643Z",
    "dead": 17,
    "id": "9dIzxqDSVqPyINkHqwGv",
    "infected": 293,
    "recovered": 73,
    "latitude": 17.5706921,
    "pop": 18540000,
    "sick": 203,
    "invisible": false
  },
  {
    "lastUpdated": "2020-04-22T19:38:08.634Z",
    "dead": 149,
    "id": "9p6OCdZbUUwBLA60Gk3W",
    "infected": 4129,
    "recovered": 2000,
    "latitude": 61.92411,
    "pop": 5513000,
    "longitude": 25.748152,
    "name": "Finland",
    "country": "FI",
    "sick": 1980,
    "invisible": false
  },
  {
    "lastUpdated": "2020-04-22T19:26:19.291Z",
    "dead": 42,
    "id": "A84CwQ52kA46Hr7pn6Bm",
    "infected": 1490,
    "recovered": 0,
    "latitude": 43.311643,
    "pop": 1356000,
    "longitude": -71.590315,
    "name": "New Hampshire",
    "country": "US",
    "sick": 1448,
    "invisible": false
  },
  {
    "recovered": 0,
    "latitude": 41.823261,
    "pop": 1057000,
    "longitude": -71.412257,
    "name": "Rhode Island",
    "country": "US",
    "lastUpdated": "2020-04-22T19:26:19.289Z",
    "dead": 181,
    "id": "AEUWUHS65qvjEslew11c",
    "infected": 5841,
    "sick": 5660,
    "invisible": false
  },
  {
    "latitude": 44.498955,
    "pop": 4453000,
    "longitude": 11.327591,
    "name": "Emilia-Romagna",
    "country": "IT",
    "lastUpdated": "2020-04-22T19:31:07.725Z",
    "dead": 3204,
    "id": "AJ9jQ0iyKsafsmf5yHAR",
    "infected": 23434,
    "recovered": 7146,
    "sick": 13084,
    "invisible": false
  },
  {
    "latitude": 49.3964,
    "pop": 990509,
    "longitude": 7.023,
    "name": "Saarland",
    "country": "DE",
    "lastUpdated": "2020-04-22T19:30:08.287Z",
    "dead": 108,
    "id": "AKjFRQGnzuuZQhv5Qwx7",
    "infected": 2381,
    "recovered": 1283,
    "sick": 990,
    "invisible": false
  },
  {
    "id": "APTPgjAsjFi0nsGyJV7M",
    "infected": 328,
    "recovered": 0,
    "latitude": -35.717,
    "pop": 1125002,
    "longitude": -71.167,
    "name": "Maule",
    "country": "CL",
    "lastUpdated": "2020-04-22T19:37:11.465Z",
    "dead": 10,
    "sick": 318,
    "invisible": false
  },
  {
    "lastUpdated": "2020-04-22T19:38:08.655Z",
    "dead": 0,
    "id": "APaZzlGCEeuoLBtzTJMe",
    "infected": 11,
    "recovered": 11,
    "latitude": 71.7069,
    "pop": 56171,
    "longitude": -42.6043,
    "name": "Greenland",
    "country": "GL",
    "sick": 0,
    "invisible": false
  },
  {
    "lastUpdated": "2020-04-22T19:36:01.609Z",
    "dead": 12,
    "id": "AVCpxeh0fuH2WrHWNDYH",
    "infected": 772,
    "recovered": 0,
    "latitude": 45.65107,
    "pop": 971395,
    "longitude": -63.582687,
    "name": "Nova Scotia",
    "country": "CA",
    "sick": 760,
    "invisible": false
  },
  {
    "latitude": 47.012918,
    "pop": 1062000,
    "longitude": -109.128641,
    "name": "Montana",
    "country": "US",
    "lastUpdated": "2020-04-22T19:26:19.292Z",
    "dead": 14,
    "id": "AcULcZBozObOhwuRKMjJ",
    "infected": 439,
    "recovered": 0,
    "sick": 425,
    "invisible": false
  },
  {
    "infected": 937,
    "recovered": 936,
    "latitude": 27.285971,
    "pop": 45200000,
    "longitude": 116.01609,
    "name": "Jiangxi",
    "country": "CN",
    "lastUpdated": "2020-04-22T19:38:10.167Z",
    "dead": 1,
    "id": "AmBYm5J6E9Cuez1FQjiN",
    "sick": 0,
    "invisible": false
  },
  {
    "infected": 8124,
    "recovered": 0,
    "latitude": 52.1307,
    "pop": 3136000,
    "longitude": -3.7837,
    "name": "Wales",
    "country": "GB",
    "lastUpdated": "2020-04-22T19:39:19.251Z",
    "dead": 624,
    "id": "AoLhHdTydeWTfmp9koEX",
    "sick": 7500,
    "invisible": false
  },
  {
    "infected": 2910,
    "recovered": 1204,
    "latitude": 28.033886,
    "pop": 41320000,
    "longitude": 1.659626,
    "name": "Algeria",
    "country": "DZ",
    "lastUpdated": "2020-04-22T19:38:08.635Z",
    "dead": 402,
    "id": "AwN0CScPDApcLFgz6e3z",
    "sick": 1304,
    "invisible": false
  },
  {
    "infected": 1950,
    "recovered": 869,
    "latitude": 45.099998,
    "pop": 4076000,
    "longitude": 15.2,
    "name": "Croatia",
    "country": "HR",
    "lastUpdated": "2020-04-22T19:38:08.635Z",
    "dead": 48,
    "id": "B82Ef45M8cDu4q7VsSHF",
    "sick": 1033,
    "invisible": false
  },
  {
    "id": "BENubqQInFUJzhpZTsLT",
    "infected": 657,
    "recovered": 127,
    "latitude": 17.6077881,
    "pop": 23716000,
    "longitude": 8.081666,
    "name": "Niger",
    "country": "NE",
    "lastUpdated": "2020-04-22T19:38:08.641Z",
    "dead": 20,
    "sick": 510,
    "invisible": false
  },
  {
    "infected": 14775,
    "recovered": 0,
    "latitude": 39.509109,
    "pop": 6043000,
    "longitude": -76.98432,
    "name": "Maryland",
    "country": "US",
    "lastUpdated": "2020-04-22T18:26:18.951Z",
    "dead": 710,
    "id": "BF51mWl51fgEcyBpCSzb",
    "sick": 14065,
    "invisible": false
  },
  {
    "latitude": 53.709808,
    "pop": 9508000,
    "longitude": 27.953388,
    "name": "Belarus",
    "country": "BY",
    "lastUpdated": "2020-04-22T19:38:08.633Z",
    "dead": 58,
    "id": "BGg6yVU5VP71B8NXU0oh",
    "infected": 7281,
    "recovered": 769,
    "sick": 6454,
    "invisible": false
  },
  {
    "infected": 2585,
    "recovered": 896,
    "latitude": 48.8799,
    "pop": 3319000,
    "longitude": 0.1713,
    "name": "Normandie",
    "country": "FR",
    "lastUpdated": "2020-04-22T17:53:34.556Z",
    "dead": 299,
    "id": "BGtoyzb7y54LVlJ91rbf",
    "sick": 1390,
    "invisible": false
  },
  {
    "latitude": 50.7772,
    "pop": 5616000,
    "longitude": -3.9995,
    "name": "South West",
    "country": "GB",
    "lastUpdated": "2020-04-22T19:39:19.252Z",
    "dead": 0,
    "id": "BQqMOlPFD36ZEDTGd3WC",
    "infected": 5229,
    "recovered": 0,
    "sick": 5229,
    "invisible": false
  },
  {
    "pop": 7172000,
    "longitude": -111.093735,
    "name": "Arizona",
    "country": "US",
    "lastUpdated": "2020-04-22T19:26:19.290Z",
    "dead": 231,
    "id": "BTEESCuD2ZbS1afunR2A",
    "infected": 5463,
    "recovered": 0,
    "latitude": 34.048927,
    "sick": 5232,
    "invisible": false
  },
  {
    "latitude": 53.428543,
    "pop": 1676000,
    "longitude": 14.552812,
    "name": "Zachodniopomorskie",
    "country": "PL",
    "lastUpdated": "2020-04-22T19:33:08.389Z",
    "dead": 4,
    "id": "BZwZOAlDJ8AIiaRVLyC9",
    "infected": 288,
    "recovered": 0,
    "sick": 284,
    "invisible": false
  },
  {
    "lastUpdated": "2020-04-22T19:37:11.466Z",
    "dead": 0,
    "id": "BbiuZcm8oURX7cZwaa5U",
    "invisible": true,
    "infected": 0,
    "recovered": 5386,
    "latitude": -33.4489,
    "longitude": -70.6693,
    "name": "Unknown Chile region",
    "country": "CL",
    "sick": 0
  },
  {
    "pop": 18620000,
    "longitude": 34.3015,
    "name": "Malawi",
    "country": "MW",
    "lastUpdated": "2020-04-22T19:38:08.654Z",
    "dead": 3,
    "id": "BfT8o5DaEixC6JIZ28kY",
    "infected": 23,
    "recovered": 3,
    "latitude": -13.2543,
    "sick": 17,
    "invisible": false
  },
  {
    "infected": 11,
    "recovered": 4,
    "latitude": -3.3730559,
    "pop": 10860000,
    "longitude": 29.9188862,
    "name": "Burundi",
    "country": "BI",
    "lastUpdated": "2020-04-22T19:38:08.655Z",
    "dead": 1,
    "id": "BnpMamidC5yYzeK8tPUL",
    "sick": 6,
    "invisible": false
  },
  {
    "latitude": 52.257,
    "pop": 5385000,
    "longitude": 21.002,
    "name": "Mazowieckie",
    "country": "PL",
    "lastUpdated": "2020-04-22T19:33:08.382Z",
    "dead": 132,
    "id": "BrToMzyq8y2xdwXn75kM",
    "infected": 2098,
    "recovered": 0,
    "sick": 1966,
    "invisible": false
  },
  {
    "latitude": -1.333845,
    "pop": 74751,
    "longitude": -71.347573,
    "name": "Amazonas (Colombia)",
    "country": "CO",
    "lastUpdated": "2020-04-22T19:31:09.401Z",
    "dead": 0,
    "id": "C25xSDm4iYibX5RYML14",
    "infected": 6,
    "recovered": 0,
    "sick": 6,
    "invisible": false
  },
  {
    "lastUpdated": "2020-04-22T19:26:19.281Z",
    "dead": 20208,
    "id": "C3BCUzV80z9GfiuByIcr",
    "infected": 263292,
    "recovered": 0,
    "latitude": 40.719042,
    "pop": 19540000,
    "longitude": -73.982597,
    "name": "New York",
    "country": "US",
    "sick": 243084,
    "invisible": false
  },
  {
    "longitude": 15.359413,
    "name": "Czechia",
    "country": "CZ",
    "lastUpdated": "2020-04-22T19:38:08.633Z",
    "dead": 208,
    "id": "C6S76AggdWVU8G22jFHQ",
    "infected": 7087,
    "recovered": 1989,
    "latitude": 49.731626,
    "pop": 10650000,
    "sick": 4890,
    "invisible": false
  },
  {
    "lastUpdated": "2020-04-22T19:38:08.635Z",
    "dead": 7,
    "id": "C7cj4nwRITs13KnaJrQ2",
    "infected": 2027,
    "recovered": 1026,
    "latitude": 26.0667,
    "pop": 1493000,
    "longitude": 50.557701,
    "name": "Bahrain",
    "country": "BH",
    "sick": 994,
    "invisible": false
  },
  {
    "latitude": 10.4113,
    "pop": 1285400,
    "longitude": -74.4057,
    "name": "Magdalena",
    "country": "CO",
    "lastUpdated": "2020-04-22T19:31:09.401Z",
    "dead": 2,
    "id": "CA9LaAl3bNaeAqBuozn4",
    "infected": 21,
    "recovered": 1,
    "sick": 18,
    "invisible": false
  },
  {
    "latitude": 26.909979,
    "pop": 3073500,
    "longitude": -101.430756,
    "name": "Coahuila",
    "country": "MX",
    "lastUpdated": "2020-04-22T19:40:00.993Z",
    "dead": 30,
    "id": "CCUFp4urvgXPo5unfMGy",
    "infected": 292,
    "recovered": 0,
    "sick": 262,
    "invisible": false
  },
  {
    "latitude": 27.0238,
    "pop": 68890000,
    "longitude": 74.2179,
    "name": "Rajasthan",
    "country": "IN",
    "lastUpdated": "2020-04-22T19:41:01.608Z",
    "dead": 27,
    "id": "CKZCZTPlrcq5fbfUPA9k",
    "infected": 1888,
    "recovered": 344,
    "sick": 1517,
    "invisible": false
  },
  {
    "latitude": 13.803,
    "pop": 6378000,
    "longitude": -88.9053,
    "name": "El Salvador",
    "country": "SV",
    "lastUpdated": "2020-04-22T19:38:08.644Z",
    "dead": 7,
    "id": "Cgvmtle61ehMvCzRzYx7",
    "infected": 237,
    "recovered": 63,
    "sick": 167,
    "invisible": false
  },
  {
    "pop": 2973000,
    "longitude": 44.818474,
    "name": "Armenia",
    "country": "AM",
    "lastUpdated": "2020-04-22T19:38:08.636Z",
    "dead": 24,
    "id": "DCJCtZoBTWQ4mzdDNljD",
    "infected": 1473,
    "recovered": 633,
    "latitude": 40.259003,
    "sick": 816,
    "invisible": false
  },
  {
    "lastUpdated": "2020-04-22T19:31:09.401Z",
    "dead": 1,
    "id": "DJJraANgQbEqz1wBBtZz",
    "infected": 33,
    "recovered": 7,
    "latitude": 5.535,
    "pop": 1278000,
    "longitude": -73.368,
    "name": "Boyacá",
    "country": "CO",
    "sick": 25,
    "invisible": false
  },
  {
    "lastUpdated": "2020-04-22T19:39:19.252Z",
    "dead": 0,
    "id": "DPwBt2aJuwF0O71vwfM9",
    "infected": 15209,
    "recovered": 0,
    "latitude": 53.6221,
    "pop": 7300000,
    "longitude": -2.5945,
    "name": "North West",
    "country": "GB",
    "sick": 15209,
    "invisible": false
  },
  {
    "pop": 65440,
    "longitude": -64.75737,
    "name": "Bermuda",
    "country": "BM",
    "lastUpdated": "2020-04-22T19:38:08.647Z",
    "dead": 5,
    "id": "DZyTD0Mu5WIcK6yTcJ91",
    "infected": 98,
    "recovered": 39,
    "latitude": 32.3213844,
    "sick": 54,
    "invisible": false
  },
  {
    "longitude": -71.7979,
    "name": "Turks and Caicos",
    "country": "TC",
    "lastUpdated": "2020-04-22T19:38:08.655Z",
    "dead": 1,
    "id": "DaMrRSIGJXIG36nW0Pnc",
    "infected": 11,
    "recovered": 4,
    "latitude": 21.694,
    "pop": 35446,
    "sick": 6,
    "invisible": false
  },
  {
    "infected": 17321,
    "recovered": 4337,
    "latitude": 39.2796,
    "pop": 2035000,
    "longitude": -3.0977,
    "name": "Castilla La Mancha",
    "country": "ES",
    "lastUpdated": "2020-04-22T19:41:15.177Z",
    "dead": 2140,
    "id": "Dbng0NBTH41EEwBxhMzE",
    "sick": 10844,
    "invisible": false
  },
  {
    "id": "DcQ3D0WkacXEbv6iznRB",
    "infected": 734,
    "recovered": 0,
    "latitude": 50.023,
    "pop": 3361000,
    "longitude": 20.006,
    "name": "Malopolskie",
    "country": "PL",
    "lastUpdated": "2020-04-22T19:33:08.389Z",
    "dead": 21,
    "sick": 713,
    "invisible": false
  },
  {
    "lastUpdated": "2020-04-22T19:38:08.649Z",
    "dead": 0,
    "id": "DdBt8qsG6A3g92oOR3ow",
    "infected": 45,
    "recovered": 26,
    "latitude": 22.192039,
    "pop": 622567,
    "longitude": 113.551262,
    "name": "Macao",
    "country": "MO",
    "sick": 19,
    "invisible": false
  },
  {
    "latitude": 25.467,
    "pop": 2651000,
    "longitude": 91.3662,
    "name": "Meghalaya",
    "country": "IN",
    "lastUpdated": "2020-04-22T19:41:01.611Z",
    "dead": 1,
    "id": "Dh0O1vmhrVfmsCsfZCUg",
    "infected": 12,
    "recovered": 0,
    "sick": 11,
    "invisible": false
  },
  {
    "latitude": 42.962334,
    "pop": 577737,
    "longitude": -107.534868,
    "name": "Wyoming",
    "country": "US",
    "lastUpdated": "2020-04-22T19:26:19.292Z",
    "dead": 6,
    "id": "DrGzziUglmBognCGY7R2",
    "infected": 441,
    "recovered": 0,
    "sick": 435,
    "invisible": false
  },
  {
    "lastUpdated": "2020-04-22T19:38:08.635Z",
    "dead": 121,
    "id": "Dtr1lap1RpJpXJdXGJiW",
    "infected": 2408,
    "recovered": 577,
    "latitude": 37.9838,
    "pop": 10740000,
    "longitude": 23.7275,
    "name": "Greece",
    "country": "GR",
    "sick": 1710,
    "invisible": false
  },
  {
    "infected": 426,
    "recovered": 236,
    "latitude": 25.03841,
    "pop": 23780000,
    "longitude": 121.563698,
    "name": "Taiwan",
    "country": "TW",
    "lastUpdated": "2020-04-22T19:38:08.642Z",
    "dead": 6,
    "id": "EKTfs8e7M6DXzI1HqyyX",
    "sick": 184,
    "invisible": false
  },
  {
    "id": "EQzJvzVHKjs8kLmK7BMu",
    "infected": 681,
    "recovered": 180,
    "latitude": 10.327273,
    "pop": 4906000,
    "longitude": -84.387618,
    "name": "Costa Rica",
    "country": "CR",
    "lastUpdated": "2020-04-22T19:38:08.640Z",
    "dead": 6,
    "sick": 495,
    "invisible": false
  },
  {
    "infected": 2407,
    "recovered": 179,
    "latitude": 22.2587,
    "pop": 62700000,
    "longitude": 71.1924,
    "name": "Gujarat",
    "country": "IN",
    "lastUpdated": "2020-04-22T19:41:01.608Z",
    "dead": 103,
    "id": "ERwk9R9en4m9WbdoMbIg",
    "sick": 2125,
    "invisible": false
  },
  {
    "recovered": 14,
    "latitude": 30.7333,
    "pop": 1055000,
    "longitude": 76.7794,
    "name": "Chandigarh",
    "country": "IN",
    "lastUpdated": "2020-04-22T19:41:01.610Z",
    "dead": 0,
    "id": "Esl5UlCVB9s8pmGB5Ofr",
    "infected": 27,
    "sick": 13,
    "invisible": false
  },
  {
    "recovered": 0,
    "latitude": 51.24,
    "pop": 2148000,
    "longitude": 22.653,
    "name": "Lubelskie",
    "country": "PL",
    "lastUpdated": "2020-04-22T19:33:08.389Z",
    "dead": 10,
    "id": "Esy1La2CxwH5uB8bGVWZ",
    "infected": 332,
    "sick": 322,
    "invisible": false
  },
  {
    "infected": 995,
    "recovered": 0,
    "latitude": 18.200178,
    "pop": 3195000,
    "longitude": -66.664513,
    "name": "Puerto Rico",
    "country": "PR",
    "lastUpdated": "2020-04-22T19:26:19.292Z",
    "dead": 67,
    "id": "F4rPrEVGAIMM5rfPEMv4",
    "sick": 928,
    "invisible": false
  },
  {
    "lastUpdated": "2020-04-22T19:31:09.399Z",
    "dead": 8,
    "id": "F7MED5VwEhi3JvJu6KjB",
    "infected": 173,
    "recovered": 40,
    "latitude": 4.862437,
    "pop": 2919000,
    "longitude": -74.058655,
    "name": "Cundinamarca",
    "country": "CO",
    "sick": 125,
    "invisible": false
  },
  {
    "infected": 1176,
    "recovered": 166,
    "latitude": 33.93911,
    "pop": 35530000,
    "longitude": 67.709953,
    "name": "Afghanistan",
    "country": "AF",
    "lastUpdated": "2020-04-22T19:38:08.639Z",
    "dead": 40,
    "id": "FCDmlmnIIswd8bQiUjfN",
    "sick": 970,
    "invisible": false
  },
  {
    "latitude": 29.431585,
    "pop": 30480000,
    "longitude": 106.912254,
    "name": "Chongqing",
    "country": "CN",
    "lastUpdated": "2020-04-22T19:38:10.167Z",
    "dead": 6,
    "id": "FErOU1m4Tj7jIkRam3vF",
    "infected": 579,
    "recovered": 570,
    "sick": 3,
    "invisible": false
  },
  {
    "infected": 2248,
    "recovered": 443,
    "latitude": 29.311661,
    "pop": 4137000,
    "longitude": 47.481766,
    "name": "Kuwait",
    "country": "KW",
    "lastUpdated": "2020-04-22T19:38:08.635Z",
    "dead": 13,
    "id": "FZsUkhxBEgqsPb4eO0PN",
    "sick": 1792,
    "invisible": false
  },
  {
    "id": "FboWeolpM62SZCLwdilT",
    "infected": 117,
    "recovered": 0,
    "latitude": -10.9111,
    "pop": 2278308,
    "longitude": -37.0717,
    "name": "Sergipe",
    "country": "BR",
    "lastUpdated": "2020-04-22T19:16:01.651Z",
    "dead": 7,
    "sick": 110,
    "invisible": false
  },
  {
    "id": "FeS45oMNC27pI17F0xEV",
    "infected": 1629,
    "recovered": 662,
    "latitude": 11.1271,
    "pop": 67860000,
    "longitude": 78.6569,
    "name": "Tamil Nadu",
    "country": "IN",
    "lastUpdated": "2020-04-22T19:41:01.608Z",
    "dead": 18,
    "sick": 949,
    "invisible": false
  },
  {
    "latitude": 18.947829,
    "pop": 10770000,
    "longitude": -70.430399,
    "name": "Dominican Republic",
    "country": "DO",
    "lastUpdated": "2020-04-22T19:38:08.634Z",
    "dead": 260,
    "id": "FuiVEJvWb0QMCpxJ3563",
    "infected": 5300,
    "recovered": 581,
    "sick": 4459,
    "invisible": false
  },
  {
    "infected": 943,
    "recovered": 194,
    "latitude": 18.1124,
    "pop": 35190000,
    "longitude": 79.0193,
    "name": "Telengana",
    "country": "IN",
    "lastUpdated": "2020-04-22T19:41:01.609Z",
    "dead": 24,
    "id": "FyC551oNwmENxbr9Yght",
    "sick": 725,
    "invisible": false
  },
  {
    "id": "FzIDXoqWnTI3nUfhPyT2",
    "infected": 1244,
    "recovered": 284,
    "latitude": 48.669,
    "pop": 5450000,
    "longitude": 19.699,
    "name": "Slovakia",
    "country": "SK",
    "lastUpdated": "2020-04-22T19:38:08.639Z",
    "dead": 14,
    "sick": 946,
    "invisible": false
  },
  {
    "latitude": 30.37532,
    "pop": 197000000,
    "longitude": 69.345116,
    "name": "Pakistan",
    "country": "PK",
    "lastUpdated": "2020-04-22T19:38:08.632Z",
    "dead": 212,
    "id": "GAp7Wb6IMhdgbvEtMza9",
    "infected": 10076,
    "recovered": 2156,
    "sick": 7708,
    "invisible": false
  },
  {
    "longitude": 75.3412,
    "name": "Punjab",
    "country": "IN",
    "lastUpdated": "2020-04-22T19:41:01.610Z",
    "dead": 16,
    "id": "GGru8cG08mANO8XDDUtZ",
    "infected": 278,
    "recovered": 53,
    "latitude": 31.1471,
    "pop": 27980000,
    "sick": 209,
    "invisible": false
  },
  {
    "recovered": 1546,
    "latitude": 23.424076,
    "pop": 9400000,
    "longitude": 53.847816,
    "name": "United Arab Emirates",
    "country": "AE",
    "lastUpdated": "2020-04-22T19:38:08.632Z",
    "dead": 52,
    "id": "GHzBIsHy2GiBc5JV2HMs",
    "infected": 8238,
    "sick": 6640,
    "invisible": false
  },
  {
    "infected": 103,
    "recovered": 0,
    "latitude": 37.0902,
    "longitude": -95.7129,
    "name": "Grand Princess",
    "country": "US",
    "lastUpdated": "2020-04-22T19:26:19.292Z",
    "dead": 3,
    "id": "GLViSIjDjwvptOphedAu",
    "invisible": true,
    "sick": 100
  },
  {
    "latitude": 51.5074,
    "pop": 10100000,
    "longitude": -0.1278,
    "name": "London",
    "country": "GB",
    "lastUpdated": "2020-04-22T19:39:19.251Z",
    "dead": 0,
    "id": "GPtoS0Yy2EnNafpmmTqY",
    "infected": 22352,
    "recovered": 0,
    "sick": 22352,
    "invisible": false
  },
  {
    "latitude": 36.621981,
    "pop": 39560000,
    "longitude": -119.339046,
    "name": "California",
    "country": "US",
    "lastUpdated": "2020-04-22T19:26:19.288Z",
    "dead": 1340,
    "id": "Gh46r6vuaY7fbGt3IboN",
    "infected": 35907,
    "recovered": 0,
    "sick": 34567,
    "invisible": false
  },
  {
    "longitude": -97.145514,
    "name": "Oklahoma",
    "country": "US",
    "lastUpdated": "2020-04-22T19:26:19.291Z",
    "dead": 170,
    "id": "GpF8ULuKOQiFDCUHN44h",
    "infected": 2894,
    "recovered": 0,
    "latitude": 35.87189,
    "pop": 3943000,
    "sick": 2724,
    "invisible": false
  },
  {
    "infected": 2416,
    "recovered": 648,
    "latitude": 46.5,
    "pop": 520891,
    "longitude": 11.35,
    "name": "P.A. Bolzano",
    "country": "IT",
    "lastUpdated": "2020-04-22T19:31:07.724Z",
    "dead": 256,
    "id": "Gzx6GX1qhBm714BkEC6l",
    "sick": 1512,
    "invisible": false
  },
  {
    "infected": 194,
    "recovered": 108,
    "latitude": 42.83263,
    "pop": 24710000,
    "longitude": 113.750972,
    "name": "Inner Mongolia",
    "country": "CN",
    "lastUpdated": "2020-04-22T19:38:10.165Z",
    "dead": 1,
    "id": "H3JeVigVbo5CSYfZG4WI",
    "sick": 85,
    "invisible": false
  },
  {
    "infected": 3937,
    "recovered": 0,
    "latitude": 39.74536,
    "pop": 3034000,
    "longitude": -116.724977,
    "name": "Nevada",
    "country": "US",
    "lastUpdated": "2020-04-22T19:26:19.290Z",
    "dead": 163,
    "id": "H3bDg4eV30up4WWrIDAS",
    "sick": 3774,
    "invisible": false
  },
  {
    "lastUpdated": "2020-04-22T19:16:01.649Z",
    "dead": 233,
    "id": "HEMWNnFxeFEoeOCBOLJD",
    "infected": 3910,
    "recovered": 0,
    "latitude": -3.731862,
    "pop": 9075649,
    "longitude": -38.526669,
    "name": "Ceará",
    "country": "BR",
    "sick": 3677,
    "invisible": false
  },
  {
    "infected": 427,
    "recovered": 131,
    "latitude": 15.3173,
    "pop": 64060000,
    "longitude": 75.7139,
    "name": "Karnataka",
    "country": "IN",
    "lastUpdated": "2020-04-22T19:41:01.609Z",
    "dead": 17,
    "id": "HN5mGmxlqlSeFSNeu1K5",
    "sick": 279,
    "invisible": false
  },
  {
    "id": "HRDpwyxpqW9RN0xLFyNu",
    "infected": 6,
    "recovered": 2,
    "latitude": 27.5142,
    "pop": 807610,
    "longitude": 90.4336,
    "name": "Bhutan",
    "country": "BT",
    "lastUpdated": "2020-04-22T19:38:08.657Z",
    "dead": 0,
    "sick": 4,
    "invisible": false
  },
  {
    "recovered": 450,
    "latitude": 41.3775,
    "pop": 32390000,
    "longitude": 64.5853,
    "name": "Uzbekistan",
    "country": "UZ",
    "lastUpdated": "2020-04-22T19:38:08.635Z",
    "dead": 7,
    "id": "HRTA10dtrruDEwjJEGMp",
    "infected": 1716,
    "sick": 1259,
    "invisible": false
  },
  {
    "latitude": 34.138916,
    "pop": 2095000,
    "longitude": -105.576255,
    "name": "New Mexico",
    "country": "US",
    "lastUpdated": "2020-04-22T19:26:19.291Z",
    "dead": 65,
    "id": "HSSFomRju0doHhWgW8On",
    "infected": 2072,
    "recovered": 0,
    "sick": 2007,
    "invisible": false
  },
  {
    "latitude": -40.231,
    "pop": 412812,
    "longitude": -72.3311,
    "name": "Los Ríos",
    "country": "CL",
    "lastUpdated": "2020-04-22T19:37:11.465Z",
    "dead": 3,
    "id": "HZkACHjW7NlYjg8vEMj2",
    "infected": 171,
    "recovered": 0,
    "sick": 168,
    "invisible": false
  },
  {
    "infected": 656,
    "recovered": 504,
    "latitude": 53.6127,
    "pop": 1635000,
    "longitude": 12.4296,
    "name": "Mecklenburg-Vorpommern",
    "country": "DE",
    "lastUpdated": "2020-04-22T19:30:08.286Z",
    "dead": 16,
    "id": "He1gSS1v50t06i3YrqvB",
    "sick": 136,
    "invisible": false
  },
  {
    "latitude": 42.25,
    "pop": 1315000,
    "longitude": 13.75,
    "name": "Abruzzo",
    "country": "IT",
    "lastUpdated": "2020-04-22T19:31:07.718Z",
    "dead": 276,
    "id": "I9EqrZfbPnkioNU4wZGz",
    "infected": 2733,
    "recovered": 349,
    "sick": 2108,
    "invisible": false
  },
  {
    "id": "IAX0OQLVnUwU7FX0ENF1",
    "infected": 1582,
    "recovered": 1511,
    "latitude": 23.363855,
    "pop": 113460000,
    "longitude": 113.373448,
    "name": "Guangdong",
    "country": "CN",
    "lastUpdated": "2020-04-22T19:38:10.166Z",
    "dead": 8,
    "sick": 63,
    "invisible": false
  },
  {
    "infected": 1276,
    "recovered": 1254,
    "latitude": 33.875408,
    "pop": 94000000,
    "longitude": 113.484016,
    "name": "Henan",
    "country": "CN",
    "lastUpdated": "2020-04-22T19:38:10.167Z",
    "dead": 22,
    "id": "IFuMrMvSjoiX5agYvllh",
    "sick": 0,
    "invisible": false
  },
  {
    "lastUpdated": "2020-04-22T19:34:02.057Z",
    "dead": 11,
    "id": "IHqRHC8K3OZPN8gniM7V",
    "infected": 316,
    "recovered": 0,
    "latitude": 37.2,
    "pop": 451000,
    "longitude": -8.16667,
    "name": "Algarve",
    "country": "PT",
    "sick": 305,
    "invisible": false
  },
  {
    "infected": 17,
    "recovered": 0,
    "latitude": 3.883,
    "pop": 333194,
    "longitude": -77.0197,
    "name": "Buenaventura D.E.",
    "country": "CO",
    "lastUpdated": "2020-04-22T19:31:09.401Z",
    "dead": 1,
    "id": "IKWjRUo0SYgHQKdWjTvq",
    "sick": 16,
    "invisible": false
  },
  {
    "lastUpdated": "2020-04-22T19:39:19.251Z",
    "dead": 0,
    "id": "INyu1R48Ppv8cfW4Nuz4",
    "infected": 5630,
    "recovered": 0,
    "latitude": 52.87,
    "pop": 4811000,
    "longitude": -0.995,
    "name": "East Midlands",
    "country": "GB",
    "sick": 5630,
    "invisible": false
  },
  {
    "infected": 105,
    "recovered": 0,
    "latitude": 22.017,
    "pop": 1342600,
    "longitude": -102.317,
    "name": "Aguascalientes",
    "country": "MX",
    "lastUpdated": "2020-04-22T19:40:00.994Z",
    "dead": 4,
    "id": "ISRKMzEDojyrZ9iyWwex",
    "sick": 101,
    "invisible": false
  },
  {
    "longitude": -100.316116,
    "name": "Nuevo León",
    "country": "MX",
    "lastUpdated": "2020-04-22T19:40:00.994Z",
    "dead": 8,
    "id": "IdKbgzgKLpjBFh4UPOwu",
    "infected": 301,
    "recovered": 0,
    "latitude": 25.686613,
    "pop": 5321300,
    "sick": 293,
    "invisible": false
  },
  {
    "recovered": 0,
    "latitude": 28.632996,
    "pop": 3826900,
    "longitude": -106.069099,
    "name": "Chihuahua",
    "country": "MX",
    "lastUpdated": "2020-04-22T19:40:00.992Z",
    "dead": 39,
    "id": "IhhiYI6T0TX4CYVPcnmH",
    "infected": 202,
    "sick": 163,
    "invisible": false
  },
  {
    "infected": 703,
    "recovered": 0,
    "latitude": -36.7,
    "pop": 480600,
    "longitude": -72.57,
    "name": "Ñuble",
    "country": "CL",
    "lastUpdated": "2020-04-22T19:37:11.465Z",
    "dead": 13,
    "id": "ImnOiVx9Cb8Nw7cbRcQ7",
    "sick": 690,
    "invisible": false
  },
  {
    "longitude": -73.0513,
    "name": "Haiti",
    "country": "HT",
    "lastUpdated": "2020-04-22T19:38:08.649Z",
    "dead": 4,
    "id": "InZ38sIqyK7FN7XAOZoX",
    "infected": 58,
    "recovered": 2,
    "latitude": 19.0558,
    "pop": 10980000,
    "sick": 52,
    "invisible": false
  },
  {
    "infected": 20740,
    "recovered": 0,
    "latitude": 32.528564,
    "pop": 10520000,
    "longitude": -83.280125,
    "name": "Georgia (US)",
    "country": "US",
    "lastUpdated": "2020-04-22T19:26:19.289Z",
    "dead": 838,
    "id": "IvQkDJkTAsoIqPRAU25n",
    "sick": 19902,
    "invisible": false
  },
  {
    "pop": 4794000,
    "longitude": 172.488081,
    "name": "New Zealand",
    "country": "NZ",
    "lastUpdated": "2020-04-22T19:38:08.636Z",
    "dead": 14,
    "id": "IvVhpOoGpH6JVkGyUhXN",
    "infected": 1451,
    "recovered": 1036,
    "latitude": -42.8285,
    "sick": 401,
    "invisible": false
  },
  {
    "id": "IwYKiIVY18NGwdGQFGWW",
    "infected": 1,
    "recovered": 1,
    "latitude": 28.218,
    "pop": 1255000,
    "longitude": 94.7278,
    "name": "Arunachal Pradesh",
    "country": "IN",
    "lastUpdated": "2020-04-22T19:41:01.611Z",
    "dead": 0,
    "sick": 0,
    "invisible": false
  },
  {
    "lastUpdated": "2020-04-22T19:38:08.643Z",
    "dead": 10,
    "id": "J3mZXlfEnnJx4CDZLvRG",
    "infected": 288,
    "recovered": 122,
    "latitude": 6.4238,
    "pop": 31980000,
    "longitude": -66.5897,
    "name": "Venezuela",
    "country": "VE",
    "sick": 156,
    "invisible": false
  },
  {
    "latitude": 35.1264,
    "pop": 1170000,
    "longitude": 33.4299,
    "name": "Cyprus",
    "country": "CY",
    "lastUpdated": "2020-04-22T19:38:08.640Z",
    "dead": 13,
    "id": "JQByE4l2OA6sGOqIcWrM",
    "infected": 790,
    "recovered": 98,
    "sick": 679,
    "invisible": false
  },
  {
    "id": "JR7hOGked7CZtIs2nCV5",
    "infected": 141,
    "recovered": 42,
    "latitude": 25.0961,
    "pop": 99020000,
    "longitude": 85.3131,
    "name": "Bihar",
    "country": "IN",
    "lastUpdated": "2020-04-22T19:41:01.610Z",
    "dead": 2,
    "sick": 97,
    "invisible": false
  },
  {
    "id": "JUWE6bG3b5oL7fKQMSvv",
    "infected": 316,
    "recovered": 24,
    "latitude": 14.628434,
    "pop": 17250000,
    "longitude": -90.522713,
    "name": "Guatemala",
    "country": "GT",
    "lastUpdated": "2020-04-22T19:38:08.643Z",
    "dead": 8,
    "sick": 284,
    "invisible": false
  },
  {
    "infected": 3654,
    "recovered": 711,
    "latitude": 49.8153,
    "pop": 602005,
    "longitude": 6.1296,
    "name": "Luxembourg",
    "country": "LU",
    "lastUpdated": "2020-04-22T19:38:08.634Z",
    "dead": 80,
    "id": "JcFsHSn2WvZ5LJW42ovG",
    "sick": 2863,
    "invisible": false
  },
  {
    "lastUpdated": "2020-04-22T19:31:09.401Z",
    "dead": 2,
    "id": "JmOyaFe25yZCIV64JbZj",
    "infected": 14,
    "recovered": 1,
    "latitude": 8.8,
    "pop": 2049000,
    "longitude": -74.167,
    "name": "Bolívar",
    "country": "CO",
    "sick": 11,
    "invisible": false
  },
  {
    "latitude": 31.4,
    "pop": 3648100,
    "longitude": -115.783,
    "name": "Baja California",
    "country": "MX",
    "lastUpdated": "2020-04-22T18:40:08.793Z",
    "dead": 133,
    "id": "Jp9ePErcc8i1aOozEAMf",
    "infected": 1205,
    "recovered": 0,
    "sick": 1072,
    "invisible": false
  },
  {
    "infected": 20,
    "recovered": 3,
    "latitude": 8.7479801,
    "pop": 1786500,
    "longitude": -75.8814316,
    "name": "Córdoba",
    "country": "CO",
    "lastUpdated": "2020-04-22T19:31:09.401Z",
    "dead": 2,
    "id": "Jr8syCB0lydmPDXw8Q6N",
    "sick": 15,
    "invisible": false
  },
  {
    "lastUpdated": "2020-04-22T19:38:08.647Z",
    "dead": 6,
    "id": "JrBbirlBKGdWSdcDt7PF",
    "infected": 88,
    "recovered": 56,
    "latitude": 8.6195,
    "pop": 7798000,
    "longitude": 0.8248,
    "name": "Togo",
    "country": "TG",
    "sick": 26,
    "invisible": false
  },
  {
    "longitude": 25.4858,
    "name": "Bulgaria",
    "country": "BG",
    "lastUpdated": "2020-04-22T19:38:08.639Z",
    "dead": 49,
    "id": "JzZ8sbqzjutThVjkPKPL",
    "infected": 1024,
    "recovered": 174,
    "latitude": 42.7339,
    "pop": 7050000,
    "sick": 801,
    "invisible": false
  },
  {
    "latitude": 50.823,
    "pop": 1263000,
    "longitude": 20.709,
    "name": "Świętokrzyskie",
    "country": "PL",
    "lastUpdated": "2020-04-22T19:33:08.389Z",
    "dead": 4,
    "id": "KGrK7gafkeWjmU6sHQd2",
    "infected": 247,
    "recovered": 0,
    "sick": 243,
    "invisible": false
  },
  {
    "lastUpdated": "2020-04-22T19:31:07.725Z",
    "dead": 1022,
    "id": "KLXicxFogWnu0dLp4bNK",
    "infected": 6918,
    "recovered": 2420,
    "latitude": 44.5,
    "pop": 1557000,
    "longitude": 8.833,
    "name": "Liguria",
    "country": "IT",
    "sick": 3476,
    "invisible": false
  },
  {
    "latitude": 10.4631,
    "pop": 1201000,
    "longitude": -73.2532,
    "name": "Cesar",
    "country": "CO",
    "lastUpdated": "2020-04-22T19:31:09.400Z",
    "dead": 0,
    "id": "KpOz3WmiZkrXUMlUJNlV",
    "infected": 35,
    "recovered": 17,
    "sick": 18,
    "invisible": false
  },
  {
    "infected": 8700,
    "recovered": 1828,
    "latitude": 43.4167,
    "pop": 3737000,
    "longitude": 11,
    "name": "Toscana",
    "country": "IT",
    "lastUpdated": "2020-04-22T19:31:07.726Z",
    "dead": 705,
    "id": "KrLrJbpDqqiXgUPGCCW9",
    "sick": 6167,
    "invisible": false
  },
  {
    "latitude": 7.873054,
    "pop": 21440000,
    "longitude": 80.771797,
    "name": "Sri Lanka",
    "country": "LK",
    "lastUpdated": "2020-04-22T19:38:08.642Z",
    "dead": 7,
    "id": "KsWzJO06cf0d6LJ4ZNh9",
    "infected": 330,
    "recovered": 105,
    "sick": 218,
    "invisible": false
  },
  {
    "infected": 813,
    "recovered": 120,
    "latitude": 15.9129,
    "pop": 49670000,
    "longitude": 79.74,
    "name": "Andhra Pradesh",
    "country": "IN",
    "lastUpdated": "2020-04-22T19:41:01.609Z",
    "dead": 24,
    "id": "KtQIo2DoqjELtPAlyDVO",
    "sick": 669,
    "invisible": false
  },
  {
    "infected": 57999,
    "recovered": 4420,
    "latitude": 61.52401,
    "pop": 144500000,
    "longitude": 105.318756,
    "name": "Russia",
    "country": "RU",
    "lastUpdated": "2020-04-22T19:38:08.630Z",
    "dead": 513,
    "id": "KwOuGBKSMRlmwftxAvLX",
    "sick": 53066,
    "invisible": false
  },
  {
    "id": "LBUtrLDKJiupXjlUNTUe",
    "infected": 38,
    "recovered": 19,
    "latitude": 18.0708,
    "pop": 32125,
    "longitude": -63.0501,
    "name": "Saint-Martin",
    "country": "FR",
    "lastUpdated": "2020-04-22T19:38:08.651Z",
    "dead": 2,
    "sick": 17,
    "invisible": false
  },
  {
    "infected": 81,
    "recovered": 55,
    "latitude": 47.166,
    "pop": 38557,
    "longitude": 9.5554,
    "name": "Liechtenstein",
    "country": "LI",
    "lastUpdated": "2020-04-22T19:38:08.648Z",
    "dead": 1,
    "id": "LTGEU2E9MFkrCcFhZYVk",
    "sick": 25,
    "invisible": false
  },
  {
    "recovered": 164,
    "latitude": 9.9456,
    "pop": 12720000,
    "longitude": -9.6966,
    "name": "Guinea",
    "country": "GN",
    "lastUpdated": "2020-04-22T19:38:08.640Z",
    "dead": 6,
    "id": "LU2QWt5ao8IJa8evNYVV",
    "infected": 761,
    "sick": 591,
    "invisible": false
  },
  {
    "infected": 165,
    "recovered": 0,
    "latitude": 29.6667,
    "pop": 3062000,
    "longitude": -110.5,
    "name": "Sonora",
    "country": "MX",
    "lastUpdated": "2020-04-22T19:40:00.992Z",
    "dead": 17,
    "id": "LYCBHrA9ms6GcxpLGPCT",
    "sick": 148,
    "invisible": false
  },
  {
    "infected": 10,
    "recovered": 6,
    "latitude": 3.9193051,
    "pop": 563402,
    "longitude": -56.0277824,
    "name": "Suriname",
    "country": "SR",
    "lastUpdated": "2020-04-22T19:38:08.656Z",
    "dead": 1,
    "id": "LglKINHyQpYpFxjckbQ6",
    "sick": 3,
    "invisible": false
  },
  {
    "longitude": -106.4509,
    "name": "Saskatchewan",
    "country": "CA",
    "lastUpdated": "2020-04-22T19:36:01.609Z",
    "dead": 4,
    "id": "LkIDKY0CMAqzbwBHyYCP",
    "infected": 320,
    "recovered": 0,
    "latitude": 52.9399,
    "pop": 1174000,
    "sick": 316,
    "invisible": false
  },
  {
    "latitude": 24.2155,
    "pop": 636442,
    "longitude": -12.8858,
    "name": "Western Sahara",
    "country": "EH",
    "lastUpdated": "2020-04-22T19:38:08.657Z",
    "dead": 0,
    "id": "LooNn6RuMiDhQnwa9svw",
    "infected": 6,
    "recovered": 0,
    "sick": 6,
    "invisible": false
  },
  {
    "lastUpdated": "2020-04-22T19:41:15.172Z",
    "dead": 211,
    "id": "Lsga7AvYNnY0qQ5gEfV8",
    "infected": 2419,
    "recovered": 642,
    "latitude": 43.363129,
    "pop": 1022000,
    "longitude": -5.951843,
    "name": "Principado de Asturias",
    "country": "ES",
    "sick": 1566,
    "invisible": false
  },
  {
    "longitude": -6.0679,
    "name": "Extremadura",
    "country": "ES",
    "lastUpdated": "2020-04-22T19:41:15.178Z",
    "dead": 404,
    "id": "LuEErlF7dVKI0eJsRjFm",
    "infected": 3230,
    "recovered": 1051,
    "latitude": 39.4937,
    "pop": 1065000,
    "sick": 1775,
    "invisible": false
  },
  {
    "lastUpdated": "2020-04-22T19:40:00.993Z",
    "dead": 10,
    "id": "M3wdiueFtwrUHiQ2rOXA",
    "infected": 198,
    "recovered": 0,
    "latitude": 21.0186,
    "pop": 5965000,
    "longitude": -101.2591,
    "name": "Guanajuato",
    "country": "MX",
    "sick": 188,
    "invisible": false
  },
  {
    "infected": 3192,
    "recovered": 0,
    "latitude": 37.8393,
    "pop": 4468000,
    "longitude": -84.27,
    "name": "Kentucky",
    "country": "US",
    "lastUpdated": "2020-04-22T19:26:19.291Z",
    "dead": 171,
    "id": "MC8MXFw9iXYybnF8v7e6",
    "sick": 3021,
    "invisible": false
  },
  {
    "latitude": 55.3781,
    "longitude": -3.436,
    "name": "Unknown UK region or state",
    "country": "GB",
    "lastUpdated": "2020-04-22T19:39:19.253Z",
    "dead": 16271,
    "id": "MEjlm8VYdGA28TTTnQmf",
    "invisible": true,
    "infected": 18528,
    "recovered": 0,
    "sick": 2257
  },
  {
    "longitude": -7.7441,
    "name": "Norte",
    "country": "PT",
    "lastUpdated": "2020-04-22T19:34:02.056Z",
    "dead": 454,
    "id": "MG4e9tulLJ010SZJvbYN",
    "infected": 13150,
    "recovered": 0,
    "latitude": 41.3006,
    "pop": 3689000,
    "sick": 12696,
    "invisible": false
  },
  {
    "pop": 5450000,
    "longitude": -4.2026,
    "name": "Scotland",
    "country": "GB",
    "lastUpdated": "2020-04-22T19:39:19.250Z",
    "dead": 985,
    "id": "MObRYyIriHG337L8FyFC",
    "infected": 9038,
    "recovered": 0,
    "latitude": 56.4907,
    "sick": 8053,
    "invisible": false
  },
  {
    "latitude": 40.2672,
    "pop": 6692000,
    "longitude": -86.1349,
    "name": "Indiana",
    "country": "US",
    "lastUpdated": "2020-04-22T19:26:19.289Z",
    "dead": 666,
    "id": "MOxDkmQ4wBi1CuAdVxDE",
    "infected": 12438,
    "recovered": 0,
    "sick": 11772,
    "invisible": false
  },
  {
    "lastUpdated": "2020-04-22T19:38:08.640Z",
    "dead": 13,
    "id": "MdQOfc1gNh2DOqwSP6UV",
    "infected": 916,
    "recovered": 303,
    "latitude": 7.54,
    "pop": 24290000,
    "longitude": -5.5471,
    "name": "Ivory Coast",
    "country": "CI",
    "sick": 600,
    "invisible": false
  },
  {
    "id": "MjpYq3zQyAvSQlVVYjD2",
    "infected": 30901,
    "recovered": 19049,
    "latitude": 51.4332,
    "pop": 17910000,
    "longitude": 7.6616,
    "name": "Nordrhein-Westfalen",
    "country": "DE",
    "lastUpdated": "2020-04-22T19:30:08.287Z",
    "dead": 996,
    "sick": 10856,
    "invisible": false
  },
  {
    "latitude": 37.330509,
    "pop": 6301000,
    "longitude": 105.977203,
    "name": "Ningxia",
    "country": "CN",
    "lastUpdated": "2020-04-22T19:38:10.168Z",
    "dead": 0,
    "id": "MntmjjuHljarCdt6aIeE",
    "infected": 75,
    "recovered": 75,
    "sick": 0,
    "invisible": false
  },
  {
    "lastUpdated": "2020-04-22T19:16:01.650Z",
    "dead": 43,
    "id": "MuEB2UgkId5crsxi9zQT",
    "infected": 1195,
    "recovered": 0,
    "latitude": -3.20166586,
    "pop": 8513497,
    "longitude": -52.203499186,
    "name": "Pará",
    "country": "BR",
    "sick": 1152,
    "invisible": false
  },
  {
    "latitude": 48.6616,
    "pop": 11020000,
    "longitude": 9.3501,
    "name": "Baden-Württemberg",
    "country": "DE",
    "lastUpdated": "2020-04-22T19:30:08.280Z",
    "dead": 1156,
    "id": "N3XsRBwJSsNclkEf7Zz5",
    "infected": 30314,
    "recovered": 17807,
    "sick": 11351,
    "invisible": false
  },
  {
    "infected": 1368,
    "recovered": 460,
    "latitude": 44.696652,
    "pop": 3507000,
    "longitude": 17.824332,
    "name": "Bosnia and Herzegovina",
    "country": "BA",
    "lastUpdated": "2020-04-22T19:38:08.636Z",
    "dead": 53,
    "id": "N7c13sCQF0G789XAVazJ",
    "sick": 855,
    "invisible": false
  },
  {
    "latitude": 37.242565,
    "pop": 36500000,
    "longitude": 111.856857,
    "name": "Shanxi",
    "country": "CN",
    "lastUpdated": "2020-04-22T19:38:10.166Z",
    "dead": 0,
    "id": "NBRIGIRrJB1Ry8prDNAC",
    "infected": 197,
    "recovered": 140,
    "sick": 57,
    "invisible": false
  },
  {
    "infected": 7261,
    "recovered": 0,
    "latitude": 35.7596,
    "pop": 10380000,
    "longitude": -79.0193,
    "name": "North Carolina",
    "country": "US",
    "lastUpdated": "2020-04-22T19:26:19.289Z",
    "dead": 253,
    "id": "NC64Qp5kTqAfiTuR27k8",
    "sick": 7008,
    "invisible": false
  },
  {
    "latitude": 52.4125,
    "pop": 2504000,
    "longitude": 12.5316,
    "name": "Brandenburg",
    "country": "DE",
    "lastUpdated": "2020-04-22T19:30:08.286Z",
    "dead": 106,
    "id": "NJjo2gfBvnbK4xatrsUz",
    "infected": 2480,
    "recovered": 1490,
    "sick": 884,
    "invisible": false
  },
  {
    "lastUpdated": "2020-04-22T19:26:19.293Z",
    "dead": 2,
    "id": "NLLL6pJhJSw0lrDMD4uP",
    "infected": 14,
    "recovered": 0,
    "latitude": 15.0979,
    "pop": 55144,
    "longitude": -145.6739,
    "name": "Northern Mariana Islands",
    "country": "MP",
    "sick": 12,
    "invisible": false
  },
  {
    "latitude": 30.0668,
    "pop": 10080000,
    "longitude": 79.0193,
    "name": "Uttarakhand",
    "country": "IN",
    "lastUpdated": "2020-04-22T19:41:01.610Z",
    "dead": 0,
    "id": "NMeZEcGToxXfpi16PfFV",
    "infected": 46,
    "recovered": 23,
    "sick": 23,
    "invisible": false
  },
  {
    "latitude": 50.6521,
    "pop": 6243000,
    "longitude": 9.1624,
    "name": "Hessen",
    "country": "DE",
    "lastUpdated": "2020-04-22T19:30:08.286Z",
    "dead": 279,
    "id": "Nk5vPgUIXsWVfbWZf15O",
    "infected": 7396,
    "recovered": 3230,
    "sick": 3887,
    "invisible": false
  },
  {
    "id": "NmmMKy0YqA8StHdGzB5N",
    "infected": 761,
    "recovered": 133,
    "latitude": 56.96776,
    "pop": 1920000,
    "longitude": 25.837107,
    "name": "Latvia",
    "country": "LV",
    "lastUpdated": "2020-04-22T19:38:08.640Z",
    "dead": 11,
    "sick": 617,
    "invisible": false
  },
  {
    "latitude": -8.472372,
    "pop": 9496294,
    "longitude": -37.946777,
    "name": "Pernambuco",
    "country": "BR",
    "lastUpdated": "2020-04-22T19:16:01.651Z",
    "dead": 282,
    "id": "NyGlFL1gATK1Omv9qtcC",
    "infected": 3298,
    "recovered": 0,
    "sick": 3016,
    "invisible": false
  },
  {
    "latitude": 6.4281,
    "pop": 4732000,
    "longitude": -9.4295,
    "name": "Liberia",
    "country": "LR",
    "lastUpdated": "2020-04-22T19:38:08.646Z",
    "dead": 8,
    "id": "O4g88K49HKEZLFXm5gxb",
    "infected": 101,
    "recovered": 20,
    "sick": 73,
    "invisible": false
  },
  {
    "latitude": 34.003307,
    "pop": 5084000,
    "longitude": -80.525613,
    "name": "South Carolina",
    "country": "US",
    "lastUpdated": "2020-04-22T19:26:19.290Z",
    "dead": 135,
    "id": "ONU4CK8QjViFHKg2w5if",
    "infected": 4608,
    "recovered": 0,
    "sick": 4473,
    "invisible": false
  },
  {
    "infected": 4848,
    "recovered": 0,
    "latitude": 33.51822,
    "pop": 2987000,
    "longitude": -89.582775,
    "name": "Mississippi",
    "country": "US",
    "lastUpdated": "2020-04-22T19:26:19.290Z",
    "dead": 183,
    "id": "OYa0jFzdbAgo8zUsRv6q",
    "sick": 4665,
    "invisible": false
  },
  {
    "lastUpdated": "2020-04-22T19:26:19.292Z",
    "dead": 39,
    "id": "OcXNp9kNVSwrRlG3bNVN",
    "infected": 907,
    "recovered": 0,
    "latitude": 45.2538,
    "pop": 1338000,
    "longitude": -69.4455,
    "name": "Maine",
    "country": "US",
    "sick": 868,
    "invisible": false
  },
  {
    "infected": 203,
    "recovered": 67,
    "latitude": -41.915264,
    "pop": 515000,
    "longitude": 146.725256,
    "name": "Tasmania",
    "country": "AU",
    "lastUpdated": "2020-04-22T19:36:01.610Z",
    "dead": 7,
    "id": "OnOseaqWdnuP18oruABW",
    "sick": 129,
    "invisible": false
  },
  {
    "infected": 183,
    "recovered": 0,
    "latitude": -16.35,
    "pop": 3441998,
    "longitude": -56.666668,
    "name": "Mato Grosso",
    "country": "BR",
    "lastUpdated": "2020-04-22T19:16:01.650Z",
    "dead": 6,
    "id": "P0GHFGUt1pkKTk5PM8uz",
    "sick": 177,
    "invisible": false
  },
  {
    "pop": 61559,
    "longitude": -81.2546,
    "name": "Cayman Islands",
    "country": "KY",
    "lastUpdated": "2020-04-22T19:38:08.648Z",
    "dead": 1,
    "id": "P4mwRFLbrvT0t75uD8Wo",
    "infected": 66,
    "recovered": 7,
    "latitude": 19.3133,
    "sick": 58,
    "invisible": false
  },
  {
    "lastUpdated": "2020-04-22T19:38:08.656Z",
    "dead": 0,
    "id": "PEDkeFMTOZpvHiSVxBk7",
    "infected": 11,
    "recovered": 2,
    "latitude": 16.7424984,
    "pop": 5900,
    "longitude": -62.1873665,
    "name": "Montserrat",
    "country": "MS",
    "sick": 9,
    "invisible": false
  },
  {
    "infected": 153,
    "recovered": 84,
    "latitude": -1.9403,
    "pop": 12210000,
    "longitude": 29.8739,
    "name": "Rwanda",
    "country": "RW",
    "lastUpdated": "2020-04-22T19:38:08.644Z",
    "dead": 0,
    "id": "PEcgZGEkyhABztt1Ufgc",
    "sick": 69,
    "invisible": false
  },
  {
    "latitude": 46.7296,
    "pop": 5611000,
    "longitude": -94.6859,
    "name": "Minnesota",
    "country": "US",
    "lastUpdated": "2020-04-22T19:26:19.291Z",
    "dead": 179,
    "id": "PJvVYosLIhbcRZYnKX1R",
    "infected": 2722,
    "recovered": 0,
    "sick": 2543,
    "invisible": false
  },
  {
    "pop": 12740000,
    "longitude": -89.3985,
    "name": "Illinois",
    "country": "US",
    "lastUpdated": "2020-04-22T19:26:19.288Z",
    "dead": 1468,
    "id": "PTwQr9ijo0TBBsPH2sdJ",
    "infected": 33059,
    "recovered": 0,
    "latitude": 40.6331,
    "sick": 31591,
    "invisible": false
  },
  {
    "id": "PjLqCeFdyzdZNcZxMkK1",
    "infected": 15,
    "recovered": 15,
    "latitude": 13.909444,
    "pop": 178844,
    "longitude": -60.978893,
    "name": "Saint Lucia",
    "country": "LC",
    "lastUpdated": "2020-04-22T19:38:08.655Z",
    "dead": 0,
    "sick": 0,
    "invisible": false
  },
  {
    "latitude": 42.6954,
    "pop": 649900,
    "longitude": -1.6761,
    "name": "Comunidad Foral de Navarra",
    "country": "ES",
    "lastUpdated": "2020-04-22T19:41:15.182Z",
    "dead": 401,
    "id": "PmUlsNx2uFLU797wwU39",
    "infected": 4899,
    "recovered": 1316,
    "sick": 3182,
    "invisible": false
  },
  {
    "longitude": 9.460554,
    "name": "Tunisia",
    "country": "TN",
    "lastUpdated": "2020-04-22T19:38:08.640Z",
    "dead": 38,
    "id": "Pr76V4raf108uSRoEXac",
    "infected": 901,
    "recovered": 170,
    "latitude": 34.201507,
    "pop": 11530000,
    "sick": 693,
    "invisible": false
  },
  {
    "lastUpdated": "2020-04-22T19:38:08.651Z",
    "dead": 1,
    "id": "PuQgOd9KWiMzGZXm11sR",
    "infected": 31,
    "recovered": 8,
    "latitude": -26.5225,
    "pop": 1367000,
    "longitude": 31.4659,
    "name": "Eswatini",
    "country": "SZ",
    "sick": 22,
    "invisible": false
  },
  {
    "lastUpdated": "2020-04-22T19:36:01.608Z",
    "dead": 14,
    "id": "Q18mrGvFWTLX2BU9SqhQ",
    "infected": 1336,
    "recovered": 1172,
    "latitude": -37.009609,
    "pop": 6359000,
    "longitude": 143.94853,
    "name": "Victoria",
    "country": "AU",
    "sick": 150,
    "invisible": false
  },
  {
    "latitude": 54.2194,
    "pop": 2890000,
    "longitude": 9.6961,
    "name": "Schleswig-Holstein",
    "country": "DE",
    "lastUpdated": "2020-04-22T19:30:08.287Z",
    "dead": 84,
    "id": "Q39XkabIYxt15mHINzTa",
    "infected": 2490,
    "recovered": 1800,
    "sick": 606,
    "invisible": false
  },
  {
    "pop": 11329605,
    "longitude": -52.031696,
    "name": "Rio Grande do Sul",
    "country": "BR",
    "lastUpdated": "2020-04-22T19:16:01.651Z",
    "dead": 27,
    "id": "QGpQNhuoVTUPHXvS7qcu",
    "infected": 923,
    "recovered": 0,
    "latitude": -27.953491,
    "sick": 896,
    "invisible": false
  },
  {
    "infected": 1559,
    "recovered": 184,
    "latitude": 58.595272,
    "pop": 1328000,
    "longitude": 25.013607,
    "name": "Estonia",
    "country": "EE",
    "lastUpdated": "2020-04-22T19:38:08.636Z",
    "dead": 44,
    "id": "QR9go2hQKXjty7JHUYe4",
    "sick": 1331,
    "invisible": false
  },
  {
    "latitude": -20.318,
    "pop": 3972388,
    "longitude": -40.336,
    "name": "Espírito Santo",
    "country": "BR",
    "lastUpdated": "2020-04-22T19:16:01.650Z",
    "dead": 34,
    "id": "QaWDLKH8SuwD0Qxq6c38",
    "infected": 1313,
    "recovered": 0,
    "sick": 1279,
    "invisible": false
  },
  {
    "latitude": 20.3333,
    "pop": 8222700,
    "longitude": -103.6667,
    "name": "Jalisco",
    "country": "MX",
    "lastUpdated": "2020-04-22T19:40:00.994Z",
    "dead": 15,
    "id": "Qkho455pBwx88Gohs3hL",
    "infected": 253,
    "recovered": 0,
    "sick": 238,
    "invisible": false
  },
  {
    "id": "QlZrE4nosm5WfdA2aCDg",
    "infected": 8,
    "recovered": 0,
    "latitude": -6.315,
    "pop": 8251000,
    "longitude": 143.9555,
    "name": "Papua New Guinea",
    "country": "PG",
    "lastUpdated": "2020-04-22T19:38:08.657Z",
    "dead": 0,
    "sick": 8,
    "invisible": false
  },
  {
    "infected": 54,
    "recovered": 0,
    "latitude": 18.3358,
    "pop": 107268,
    "longitude": -64.8963,
    "name": "U.S. Virgin Islands",
    "country": "US",
    "lastUpdated": "2020-04-22T19:26:19.293Z",
    "dead": 3,
    "id": "QqhD3YDMKXojvQY3Yu41",
    "sick": 51,
    "invisible": false
  },
  {
    "latitude": 15.414999,
    "pop": 71937,
    "longitude": -61.3709755,
    "name": "Dominica",
    "country": "DM",
    "lastUpdated": "2020-04-22T19:38:08.654Z",
    "dead": 0,
    "id": "Qy2qW2ep5wltnYjPJBxh",
    "infected": 16,
    "recovered": 9,
    "sick": 7,
    "invisible": false
  },
  {
    "infected": 10,
    "recovered": 2,
    "latitude": 5.167,
    "pop": 344027,
    "longitude": -72.167,
    "name": "Casanare",
    "country": "CO",
    "lastUpdated": "2020-04-22T19:31:09.400Z",
    "dead": 0,
    "id": "R3IHMWqIUhOJJTlrmbUZ",
    "sick": 8,
    "invisible": false
  },
  {
    "lastUpdated": "2020-04-22T19:38:08.634Z",
    "dead": 141,
    "id": "R8YCgephnxTufvcPWMgx",
    "infected": 4821,
    "recovered": 231,
    "latitude": 8.538,
    "pop": 4099000,
    "longitude": -80.7821,
    "name": "Panama",
    "country": "PA",
    "sick": 4449,
    "invisible": false
  },
  {
    "lastUpdated": "2020-04-22T19:38:08.641Z",
    "dead": 46,
    "id": "RA2SE0p2bVhqo0P2hzGY",
    "infected": 510,
    "recovered": 30,
    "latitude": 15.2,
    "pop": 9265000,
    "longitude": -86.2419,
    "name": "Honduras",
    "country": "HN",
    "sick": 434,
    "invisible": false
  },
  {
    "latitude": -18.4745998,
    "pop": 224500,
    "longitude": -70.2979202,
    "name": "Arica y Parinacota",
    "country": "CL",
    "lastUpdated": "2020-04-22T19:37:11.459Z",
    "dead": 2,
    "id": "RBt9RiwP7WUbMnJfD0lo",
    "infected": 180,
    "recovered": 0,
    "sick": 178,
    "invisible": false
  },
  {
    "longitude": 13.8,
    "name": "Friuli Venezia Giulia",
    "country": "IT",
    "lastUpdated": "2020-04-22T19:31:07.725Z",
    "dead": 246,
    "id": "RCrDBCdBNYzgLNr0aB2H",
    "infected": 2817,
    "recovered": 1263,
    "latitude": 45.633331,
    "pop": 1216000,
    "sick": 1308,
    "invisible": false
  },
  {
    "lastUpdated": "2020-04-22T19:26:19.290Z",
    "dead": 90,
    "id": "RX0KDu1AFrlCsrRso0nb",
    "infected": 3748,
    "recovered": 0,
    "latitude": 41.878,
    "pop": 3156000,
    "longitude": -93.0977,
    "name": "Iowa",
    "country": "US",
    "sick": 3658,
    "invisible": false
  },
  {
    "infected": 1752,
    "recovered": 266,
    "latitude": 4.624335,
    "pop": 7413000,
    "longitude": -74.063644,
    "name": "Bogotá D.C.",
    "country": "CO",
    "lastUpdated": "2020-04-22T19:31:09.383Z",
    "dead": 74,
    "id": "RZ6PCe5TZsO15JjDObwO",
    "sick": 1412,
    "invisible": false
  },
  {
    "lastUpdated": "2020-04-22T19:38:08.649Z",
    "dead": 1,
    "id": "RaJxbzlnRFTuj4B8IbpC",
    "infected": 59,
    "recovered": 15,
    "latitude": 26.3351002,
    "pop": 6846000,
    "longitude": 17.2283306,
    "name": "Libya",
    "country": "LY",
    "sick": 43,
    "invisible": false
  },
  {
    "longitude": -98.4842,
    "name": "Kansas",
    "country": "US",
    "lastUpdated": "2020-04-22T19:26:19.291Z",
    "dead": 110,
    "id": "Rf4uvBfP3GRDSHdZElRd",
    "infected": 2320,
    "recovered": 0,
    "latitude": 39.0119,
    "pop": 2912000,
    "sick": 2210,
    "invisible": false
  },
  {
    "pop": 5518000,
    "longitude": 6.1878,
    "name": "Grand Est",
    "country": "FR",
    "lastUpdated": "2020-04-22T17:49:53.645Z",
    "dead": 2612,
    "id": "RmEgf1xeclWt7XCF9oiR",
    "infected": 19557,
    "recovered": 6672,
    "latitude": 48.6998,
    "sick": 10273,
    "invisible": false
  },
  {
    "latitude": 50.4176,
    "pop": 3644000,
    "longitude": 4.451,
    "name": "Wallonia",
    "country": "BE",
    "lastUpdated": "2020-04-22T19:29:10.176Z",
    "dead": 2200,
    "id": "RryHraSohKQLAsdr1dHO",
    "infected": 13330,
    "recovered": 2560,
    "sick": 8570,
    "invisible": false
  },
  {
    "infected": 13163,
    "recovered": 0,
    "latitude": 51.2538,
    "pop": 14570000,
    "longitude": -85.3232,
    "name": "Ontario",
    "country": "CA",
    "lastUpdated": "2020-04-22T19:36:01.607Z",
    "dead": 715,
    "id": "Rx4TuyMpfGb3S8wYJX0x",
    "sick": 12448,
    "invisible": false
  },
  {
    "lastUpdated": "2020-04-22T19:41:15.177Z",
    "dead": 1554,
    "id": "S8ewN4zaYp8mjtuqqOTw",
    "infected": 16839,
    "recovered": 5614,
    "latitude": 41.652779,
    "pop": 2408000,
    "longitude": -4.723611,
    "name": "Castilla y León",
    "country": "ES",
    "sick": 9671,
    "invisible": false
  },
  {
    "infected": 164,
    "recovered": 73,
    "latitude": 14.652027,
    "pop": 376480,
    "longitude": -61.011715,
    "name": "Martinique",
    "country": "FR",
    "lastUpdated": "2020-04-22T19:38:08.644Z",
    "dead": 14,
    "id": "SDdefnq1bc3ZNr7SpEsW",
    "sick": 77,
    "invisible": false
  },
  {
    "latitude": 7.9465,
    "pop": 28830000,
    "longitude": -1.0232,
    "name": "Ghana",
    "country": "GH",
    "lastUpdated": "2020-04-22T19:38:08.639Z",
    "dead": 9,
    "id": "SG9VWLOV3x2JsTkXmVSz",
    "infected": 1154,
    "recovered": 99,
    "sick": 1046,
    "invisible": false
  },
  {
    "infected": 28268,
    "recovered": 19400,
    "latitude": 46.818188,
    "pop": 8570000,
    "longitude": 8.227512,
    "name": "Switzerland",
    "country": "CH",
    "lastUpdated": "2020-04-22T19:38:08.630Z",
    "dead": 1509,
    "id": "SGe9sCPayMqh6RsGFaBA",
    "sick": 7359,
    "invisible": false
  },
  {
    "longitude": -71.208,
    "name": "Quebec",
    "country": "CA",
    "lastUpdated": "2020-04-22T19:36:01.606Z",
    "dead": 1134,
    "id": "SHoOE3NiJgWAlDVBzwYH",
    "infected": 20965,
    "recovered": 0,
    "latitude": 46.8139,
    "pop": 8485000,
    "sick": 19831,
    "invisible": false
  },
  {
    "lastUpdated": "2020-04-22T19:40:00.901Z",
    "dead": 18,
    "id": "SMWvuMMuKp2QK7O2tNia",
    "infected": 604,
    "recovered": 128,
    "latitude": 42.6026,
    "pop": 1831000,
    "longitude": 20.903,
    "name": "Kosovo",
    "country": "XK",
    "sick": 458,
    "invisible": false
  },
  {
    "infected": 7,
    "recovered": 7,
    "latitude": 15.2993,
    "pop": 1817000,
    "longitude": 74.124,
    "name": "Goa",
    "country": "IN",
    "lastUpdated": "2020-04-22T19:41:01.611Z",
    "dead": 0,
    "id": "SPcujsH2YlUaoAr8AiWF",
    "sick": 0,
    "invisible": false
  },
  {
    "infected": 438,
    "recovered": 0,
    "latitude": -16.328547,
    "pop": 6921161,
    "longitude": -48.953403,
    "name": "Goiás",
    "country": "BR",
    "lastUpdated": "2020-04-22T19:16:01.650Z",
    "dead": 21,
    "id": "SV5AMF59J61Vt4cXWLgy",
    "sick": 417,
    "invisible": false
  },
  {
    "pop": 1957000,
    "longitude": 16.5,
    "name": "Calabria",
    "country": "IT",
    "lastUpdated": "2020-04-22T19:31:07.724Z",
    "dead": 76,
    "id": "SZdF624x0v1LlyzZjKFu",
    "infected": 1060,
    "recovered": 163,
    "latitude": 39,
    "sick": 821,
    "invisible": false
  },
  {
    "infected": 1722,
    "recovered": 0,
    "latitude": 41.4925,
    "pop": 1929000,
    "longitude": -99.9018,
    "name": "Nebraska",
    "country": "US",
    "lastUpdated": "2020-04-22T19:26:19.291Z",
    "dead": 38,
    "id": "SakhKQzKu1LRI8laqdQq",
    "sick": 1684,
    "invisible": false
  },
  {
    "latitude": -21.1151,
    "pop": 859959,
    "longitude": 55.5364,
    "name": "La Réunion",
    "country": "FR",
    "lastUpdated": "2020-04-22T19:38:08.642Z",
    "dead": 0,
    "id": "SgHzWAAYK1j2sipovxM6",
    "infected": 410,
    "recovered": 238,
    "sick": 172,
    "invisible": false
  },
  {
    "latitude": 12.565679,
    "pop": 16010000,
    "longitude": 104.990967,
    "name": "Cambodia",
    "country": "KH",
    "lastUpdated": "2020-04-22T19:38:08.645Z",
    "dead": 0,
    "id": "SioMALgUbo7peXmbco2f",
    "infected": 122,
    "recovered": 110,
    "sick": 12,
    "invisible": false
  },
  {
    "latitude": 13.4443,
    "pop": 164229,
    "longitude": 144.7937,
    "name": "Guam",
    "country": "GU",
    "lastUpdated": "2020-04-22T19:26:19.292Z",
    "dead": 5,
    "id": "SsWhuEElU7dCTTuH5fdQ",
    "infected": 136,
    "recovered": 0,
    "sick": 131,
    "invisible": false
  },
  {
    "infected": 0,
    "recovered": 1513,
    "latitude": 51.9189,
    "longitude": 19.1344,
    "name": "Unknown Poland region",
    "country": "PL",
    "lastUpdated": "2020-04-22T19:38:08.631Z",
    "dead": 0,
    "id": "SuCr5emUaJ9RHTll1P1p",
    "invisible": true,
    "sick": 0
  },
  {
    "latitude": -4.0383,
    "pop": 81340000,
    "longitude": 21.7587,
    "name": "DR Congo",
    "country": "CD",
    "lastUpdated": "2020-04-22T19:38:08.642Z",
    "dead": 25,
    "id": "T3iRf8mTUTAzbKrORTap",
    "infected": 359,
    "recovered": 45,
    "sick": 289,
    "invisible": false
  },
  {
    "latitude": 23.635796,
    "pop": 32940000,
    "longitude": 44.344334,
    "name": "Saudi Arabia",
    "country": "SA",
    "lastUpdated": "2020-04-22T19:38:08.631Z",
    "dead": 114,
    "id": "T7NffoeCgTUpAbOHvYwP",
    "infected": 12772,
    "recovered": 1812,
    "sick": 10846,
    "invisible": false
  },
  {
    "infected": 3792,
    "recovered": 1899,
    "latitude": 42.2871,
    "pop": 315700,
    "longitude": -2.5396,
    "name": "La Rioja",
    "country": "ES",
    "lastUpdated": "2020-04-22T19:41:15.185Z",
    "dead": 298,
    "id": "TNDTapyb0k3l7Mds9q9R",
    "sick": 1595,
    "invisible": false
  },
  {
    "id": "TQCWbhIpJQBQxBjhCGVJ",
    "infected": 202,
    "recovered": 0,
    "latitude": 20.400417,
    "pop": 2207200,
    "longitude": -89.134857,
    "name": "Yucatán",
    "country": "MX",
    "lastUpdated": "2020-04-22T19:40:00.993Z",
    "dead": 15,
    "sick": 187,
    "invisible": false
  },
  {
    "latitude": 4.506106,
    "pop": 428697,
    "longitude": 114.650692,
    "name": "Brunei",
    "country": "BN",
    "lastUpdated": "2020-04-22T19:38:08.645Z",
    "dead": 1,
    "id": "TQZmzsLhJqjtCSExAkCP",
    "infected": 138,
    "recovered": 117,
    "sick": 20,
    "invisible": false
  },
  {
    "lastUpdated": "2020-04-22T17:50:57.037Z",
    "dead": 1133,
    "id": "TT0MKODSjrxHvG19xZCa",
    "infected": 11648,
    "recovered": 4253,
    "latitude": 45.4471,
    "pop": 8027000,
    "longitude": 4.3853,
    "name": "Auvergne-Rhône-Alpes",
    "country": "FR",
    "sick": 6262,
    "invisible": false
  },
  {
    "recovered": 0,
    "latitude": 38.5667,
    "pop": 758700,
    "longitude": -7.9,
    "name": "Alentejo",
    "country": "PT",
    "lastUpdated": "2020-04-22T19:34:02.058Z",
    "dead": 1,
    "id": "TeoNTu4aw5riC04sTd73",
    "infected": 176,
    "sick": 175,
    "invisible": false
  },
  {
    "recovered": 0,
    "latitude": 39.318928,
    "pop": 5696000,
    "longitude": -105.461392,
    "name": "Colorado",
    "country": "US",
    "lastUpdated": "2020-04-22T19:26:19.289Z",
    "dead": 486,
    "id": "Th4dlpXXmSDgi1OHs36P",
    "infected": 10460,
    "sick": 9974,
    "invisible": false
  },
  {
    "infected": 609,
    "recovered": 389,
    "latitude": 12.2383,
    "pop": 19190000,
    "longitude": -1.5616,
    "name": "Burkina Faso",
    "country": "BF",
    "lastUpdated": "2020-04-22T19:38:08.641Z",
    "dead": 39,
    "id": "Tup6oDCHj6DgqZR3nQ3x",
    "sick": 181,
    "invisible": false
  },
  {
    "latitude": 12.104818,
    "pop": 112381,
    "longitude": -61.670761,
    "name": "Grenada",
    "country": "GD",
    "lastUpdated": "2020-04-22T19:38:08.655Z",
    "dead": 0,
    "id": "TvqURPN5xzVBXsmGP46N",
    "infected": 14,
    "recovered": 6,
    "sick": 8,
    "invisible": false
  },
  {
    "latitude": 55.675758,
    "pop": 5603000,
    "longitude": 12.56902,
    "name": "Denmark",
    "country": "DK",
    "lastUpdated": "2020-04-22T19:38:08.632Z",
    "dead": 384,
    "id": "Ty1AY3VLPJcRZgdBIERx",
    "infected": 7912,
    "recovered": 5087,
    "sick": 2441,
    "invisible": false
  },
  {
    "infected": 7682,
    "recovered": 0,
    "latitude": 53.9062,
    "pop": 5486000,
    "longitude": -1.0334,
    "name": "Yorkshire and The Humber",
    "country": "GB",
    "lastUpdated": "2020-04-22T19:39:19.252Z",
    "dead": 0,
    "id": "U0N7cIPJXAc4T6uKV60c",
    "sick": 7682,
    "invisible": false
  },
  {
    "id": "U0tkTJ9CGsBuFJ2Gdoum",
    "infected": 787,
    "recovered": 766,
    "latitude": 36.395859,
    "pop": 100472400,
    "longitude": 118.769882,
    "name": "Shandong",
    "country": "CN",
    "lastUpdated": "2020-04-22T19:38:10.166Z",
    "dead": 7,
    "sick": 14,
    "invisible": false
  },
  {
    "id": "U12rMD5GDW58Q0lIwrB1",
    "infected": 488,
    "recovered": 62,
    "latitude": 43.94236,
    "pop": 33400,
    "longitude": 12.457777,
    "name": "San Marino",
    "country": "SM",
    "lastUpdated": "2020-04-22T19:38:08.642Z",
    "dead": 40,
    "sick": 386,
    "invisible": false
  },
  {
    "infected": 11512,
    "recovered": 1356,
    "latitude": 36.204823,
    "pop": 126800000,
    "longitude": 138.25293,
    "name": "Japan",
    "country": "JP",
    "lastUpdated": "2020-04-22T19:38:08.631Z",
    "dead": 281,
    "id": "U13Gy4BpRLAZ95bPmBXd",
    "sick": 9875,
    "invisible": false
  },
  {
    "lastUpdated": "2020-04-22T19:38:08.649Z",
    "dead": 0,
    "id": "UCZXEgnHtxUoChWLR6fQ",
    "infected": 61,
    "recovered": 45,
    "latitude": 1.3733,
    "pop": 42860000,
    "longitude": 32.2903,
    "name": "Uganda",
    "country": "UG",
    "sick": 16,
    "invisible": false
  },
  {
    "recovered": 6,
    "latitude": -11.2027,
    "pop": 29780000,
    "longitude": 17.8739,
    "name": "Angola",
    "country": "AO",
    "lastUpdated": "2020-04-22T19:38:08.652Z",
    "dead": 2,
    "id": "UIbrFy6kiTTF0D37Kqmp",
    "infected": 25,
    "sick": 17,
    "invisible": false
  },
  {
    "infected": 1882,
    "recovered": 702,
    "latitude": 48.202,
    "pop": 3329000,
    "longitude": -2.9326,
    "name": "Bretagne",
    "country": "FR",
    "lastUpdated": "2020-04-22T17:51:40.505Z",
    "dead": 193,
    "id": "URKMlJ7OTNldjpaxFbjE",
    "sick": 987,
    "invisible": false
  },
  {
    "lastUpdated": "2020-04-22T19:30:08.286Z",
    "dead": 95,
    "id": "UfFaUECHINUutv1M9tzq",
    "infected": 4449,
    "recovered": 2800,
    "latitude": 53.5511,
    "pop": 1822000,
    "longitude": 9.9937,
    "name": "Hamburg",
    "country": "DE",
    "sick": 1554,
    "invisible": false
  },
  {
    "recovered": 0,
    "latitude": 22.774916,
    "pop": 1615000,
    "longitude": -102.586899,
    "name": "Zacatecas",
    "country": "MX",
    "lastUpdated": "2020-04-22T19:40:00.993Z",
    "dead": 3,
    "id": "UflxTAb4FnAwve7c5MbY",
    "infected": 46,
    "sick": 43,
    "invisible": false
  },
  {
    "lastUpdated": "2020-04-22T19:16:01.650Z",
    "dead": 6,
    "id": "UlA1ubOUhPtf9jjKxxhF",
    "infected": 175,
    "recovered": 0,
    "latitude": -20.4427795,
    "pop": 2748023,
    "longitude": -54.646389,
    "name": "Mato Grosso do Sul",
    "country": "BR",
    "sick": 169,
    "invisible": false
  },
  {
    "infected": 27,
    "recovered": 11,
    "latitude": -19.4914,
    "pop": 211945,
    "longitude": 132.551,
    "name": "Northern Territory",
    "country": "AU",
    "lastUpdated": "2020-04-22T19:36:01.611Z",
    "dead": 0,
    "id": "UrF45V1VqMo6YBib2KlL",
    "sick": 16,
    "invisible": false
  },
  {
    "recovered": 22,
    "latitude": 18.0424805,
    "pop": 41109,
    "longitude": -63.0548286,
    "name": "Sint Maarten",
    "country": "SX",
    "lastUpdated": "2020-04-22T19:38:08.648Z",
    "dead": 11,
    "id": "UsxgpiuFCtlR2CW1UUFm",
    "infected": 71,
    "sick": 38,
    "invisible": false
  },
  {
    "infected": 10463,
    "recovered": 0,
    "latitude": 52.4751,
    "pop": 5908000,
    "longitude": -1.8298,
    "name": "West Midlands",
    "country": "GB",
    "lastUpdated": "2020-04-22T19:39:19.252Z",
    "dead": 0,
    "id": "UzOGOMitJmaFTdh2FbvI",
    "sick": 10463,
    "invisible": false
  },
  {
    "latitude": 11.943179,
    "pop": 241773,
    "longitude": 79.808206,
    "name": "Puducherry",
    "country": "IN",
    "lastUpdated": "2020-04-22T19:41:01.611Z",
    "dead": 0,
    "id": "V1qE740s3EUGyKGr6SVv",
    "infected": 7,
    "recovered": 4,
    "sick": 3,
    "invisible": false
  },
  {
    "infected": 7,
    "recovered": 0,
    "latitude": -45.5687,
    "pop": 25569,
    "longitude": -72.0597,
    "name": "Aysén",
    "country": "CL",
    "lastUpdated": "2020-04-22T19:37:11.465Z",
    "dead": 0,
    "id": "V9QxUhV4DyYK7iElEhXV",
    "sick": 7,
    "invisible": false
  },
  {
    "lastUpdated": "2020-04-22T19:38:08.639Z",
    "dead": 40,
    "id": "VAG9AcMABTf8oIAfELPh",
    "infected": 1189,
    "recovered": 341,
    "latitude": 21.5218,
    "pop": 11480000,
    "longitude": -77.7812,
    "name": "Cuba",
    "country": "CU",
    "sick": 808,
    "invisible": false
  },
  {
    "infected": 184,
    "recovered": 178,
    "latitude": 25.181129,
    "pop": 45970000,
    "longitude": 101.864143,
    "name": "Yunnan",
    "country": "CN",
    "lastUpdated": "2020-04-22T19:38:10.167Z",
    "dead": 2,
    "id": "VIf8T8PD3ZzlzAm5eBCX",
    "sick": 4,
    "invisible": false
  },
  {
    "infected": 2479,
    "recovered": 0,
    "latitude": -3.4653,
    "pop": 4080611,
    "longitude": -62.2159,
    "name": "Amazonas",
    "country": "BR",
    "lastUpdated": "2020-04-22T19:16:01.649Z",
    "dead": 207,
    "id": "VZQiSdZ7cUHgUZWgpNTP",
    "sick": 2272,
    "invisible": false
  },
  {
    "pop": 204200000,
    "longitude": 80.9462,
    "name": "Uttar Pradesh",
    "country": "IN",
    "lastUpdated": "2020-04-22T19:41:01.609Z",
    "dead": 21,
    "id": "VcKcLdCkC6YpPfIDnRVD",
    "infected": 1449,
    "recovered": 173,
    "latitude": 26.8467,
    "sick": 1255,
    "invisible": false
  },
  {
    "id": "Vd3lLgrNsr81plzTgZkz",
    "infected": 5,
    "recovered": 0,
    "latitude": 64.8255,
    "pop": 44826,
    "longitude": -124.8457,
    "name": "Northwest Territories",
    "country": "CA",
    "lastUpdated": "2020-04-22T19:36:01.611Z",
    "dead": 0,
    "sick": 5,
    "invisible": false
  },
  {
    "lastUpdated": "2020-04-22T19:41:15.174Z",
    "dead": 164,
    "id": "VyW0IR9vLMdgnKz1cC7j",
    "infected": 1836,
    "recovered": 1017,
    "latitude": 39.999079,
    "pop": 1188000,
    "longitude": 3.838942,
    "name": "Islas Baleares",
    "country": "ES",
    "sick": 655,
    "invisible": false
  },
  {
    "latitude": 43.8927,
    "pop": 5893000,
    "longitude": 3.2828,
    "name": "Occitanie",
    "country": "FR",
    "lastUpdated": "2020-04-22T17:52:21.812Z",
    "dead": 328,
    "id": "WAnbFrEjtZDTCIYBt8rz",
    "infected": 4276,
    "recovered": 1826,
    "sick": 2122,
    "invisible": false
  },
  {
    "longitude": 16.5,
    "name": "Basilicata",
    "country": "IT",
    "lastUpdated": "2020-04-22T19:31:07.723Z",
    "dead": 24,
    "id": "WD502XimGXnWzqYg7zxL",
    "infected": 354,
    "recovered": 98,
    "latitude": 40.5,
    "pop": 567118,
    "sick": 232,
    "invisible": false
  },
  {
    "infected": 2,
    "recovered": 2,
    "latitude": 24.6637,
    "pop": 2722000,
    "longitude": 93.9063,
    "name": "Manipur",
    "country": "IN",
    "lastUpdated": "2020-04-22T19:41:01.611Z",
    "dead": 0,
    "id": "WKsJQmcpWKxnp0nCwN77",
    "sick": 0,
    "invisible": false
  },
  {
    "lastUpdated": "2020-04-22T19:16:01.651Z",
    "dead": 5,
    "id": "WRqKCfMIJFjrjXLMud70",
    "infected": 223,
    "recovered": 0,
    "latitude": -9.933,
    "pop": 1757589,
    "longitude": -63.067,
    "name": "Rondônia",
    "country": "BR",
    "sick": 218,
    "invisible": false
  },
  {
    "latitude": -30.5595,
    "pop": 56720000,
    "longitude": 22.9375,
    "name": "South Africa",
    "country": "ZA",
    "lastUpdated": "2020-04-22T19:38:08.634Z",
    "dead": 65,
    "id": "Whrue10NtwIObLvFFyBr",
    "infected": 3635,
    "recovered": 1055,
    "sick": 2515,
    "invisible": false
  },
  {
    "latitude": 13.443182,
    "pop": 2101000,
    "longitude": -15.3101387,
    "name": "Gambia",
    "country": "GM",
    "lastUpdated": "2020-04-22T19:38:08.656Z",
    "dead": 1,
    "id": "Wk811YwpQxsOCfz8As86",
    "infected": 10,
    "recovered": 2,
    "sick": 7,
    "invisible": false
  },
  {
    "longitude": -99.625164,
    "name": "Estado de México",
    "country": "MX",
    "lastUpdated": "2020-04-22T19:40:00.994Z",
    "dead": 102,
    "id": "WpCXuQjYFLbozSpEhbrZ",
    "infected": 1381,
    "recovered": 0,
    "latitude": 19.352498,
    "pop": 17666800,
    "sick": 1279,
    "invisible": false
  },
  {
    "infected": 3772,
    "recovered": 92,
    "latitude": 23.685,
    "pop": 164700000,
    "longitude": 90.3563,
    "name": "Bangladesh",
    "country": "BD",
    "lastUpdated": "2020-04-22T19:38:08.634Z",
    "dead": 120,
    "id": "WpLayPPLIJ7VcHZdQaoM",
    "sick": 3560,
    "invisible": false
  },
  {
    "id": "Wt97UDm6jfYef6WBrS2w",
    "infected": 91,
    "recovered": 0,
    "latitude": 20.836,
    "pop": 2100000,
    "longitude": -99.8508,
    "name": "Querétaro",
    "country": "MX",
    "lastUpdated": "2020-04-22T19:40:00.992Z",
    "dead": 6,
    "sick": 85,
    "invisible": false
  },
  {
    "id": "X2iRhHF6f9pUnJcxPc3J",
    "infected": 16738,
    "recovered": 5566,
    "latitude": 45.5,
    "pop": 4905000,
    "longitude": 11.75,
    "name": "Veneto",
    "country": "IT",
    "lastUpdated": "2020-04-22T19:31:07.726Z",
    "dead": 1181,
    "sick": 9991,
    "invisible": false
  },
  {
    "infected": 23,
    "recovered": 1,
    "latitude": -8.556856,
    "pop": 1311000,
    "longitude": 125.56031,
    "name": "Timor-Leste",
    "country": "TL",
    "lastUpdated": "2020-04-22T19:38:08.654Z",
    "dead": 0,
    "id": "X3GMAVINj2GDzIRVfo7n",
    "sick": 22,
    "invisible": false
  },
  {
    "latitude": 34.152588,
    "pop": 274289,
    "longitude": 77.577049,
    "name": "Ladakh",
    "country": "IN",
    "lastUpdated": "2020-04-22T19:41:01.611Z",
    "dead": 0,
    "id": "X3PZqaJxtnlxcgP4tzya",
    "infected": 18,
    "recovered": 14,
    "sick": 4,
    "invisible": false
  },
  {
    "pop": 38560000,
    "longitude": 118.278992,
    "name": "Fujian",
    "country": "CN",
    "lastUpdated": "2020-04-22T19:38:10.166Z",
    "dead": 1,
    "id": "XBBw0iMPrmiEu3qogkbi",
    "infected": 355,
    "recovered": 342,
    "latitude": 25.92448,
    "sick": 12,
    "invisible": false
  },
  {
    "latitude": -52.368,
    "pop": 166533,
    "longitude": -70.9863,
    "name": "Magallanes",
    "country": "CL",
    "lastUpdated": "2020-04-22T19:37:11.466Z",
    "dead": 7,
    "id": "XIYUg6ShQvWyEAJfyJzC",
    "infected": 605,
    "recovered": 0,
    "sick": 598,
    "invisible": false
  },
  {
    "lastUpdated": "2020-04-22T19:34:02.058Z",
    "dead": 6,
    "id": "XhM7BCQK50gGQ2wIUtDq",
    "infected": 109,
    "recovered": 0,
    "latitude": 37.794597,
    "pop": 246746,
    "longitude": -25.506134,
    "name": "Açores",
    "country": "PT",
    "sick": 103,
    "invisible": false
  },
  {
    "lastUpdated": "2020-04-22T19:38:08.641Z",
    "dead": 12,
    "id": "XrsuLstdybIqIvv0E0aJ",
    "infected": 543,
    "recovered": 324,
    "latitude": -32.5228,
    "pop": 3457000,
    "longitude": -55.7658,
    "name": "Uruguay",
    "country": "UY",
    "sick": 207,
    "invisible": false
  },
  {
    "lastUpdated": "2020-04-22T17:52:38.286Z",
    "dead": 49,
    "id": "YGXgIObKVabP2CYEdcb9",
    "infected": 398,
    "recovered": 162,
    "latitude": 42.0396,
    "pop": 339178,
    "longitude": 9.0129,
    "name": "Corse",
    "country": "FR",
    "sick": 187,
    "invisible": false
  },
  {
    "latitude": 2.916112,
    "pop": 1126000,
    "longitude": -75.28344,
    "name": "Huila",
    "country": "CO",
    "lastUpdated": "2020-04-22T19:31:09.398Z",
    "dead": 5,
    "id": "YI9zIOUXJqAcgc0T80yb",
    "infected": 81,
    "recovered": 25,
    "sick": 51,
    "invisible": false
  },
  {
    "infected": 474,
    "recovered": 71,
    "latitude": 31.9522,
    "pop": 5052000,
    "longitude": 35.2332,
    "name": "Palestine",
    "country": "PS",
    "lastUpdated": "2020-04-22T19:38:08.642Z",
    "dead": 4,
    "id": "YMzKw0SnXG71VT7H1jff",
    "sick": 399,
    "invisible": false
  },
  {
    "latitude": 17.97,
    "pop": 2460900,
    "longitude": -92.5867,
    "name": "Tabasco",
    "country": "MX",
    "lastUpdated": "2020-04-22T19:40:00.990Z",
    "dead": 55,
    "id": "YP3nlz6AKyrnCWYb5mHA",
    "infected": 467,
    "recovered": 0,
    "sick": 412,
    "invisible": false
  },
  {
    "longitude": -15.1804132,
    "name": "Guinea-Bissau",
    "country": "GW",
    "lastUpdated": "2020-04-22T19:38:08.649Z",
    "dead": 0,
    "id": "YZoy8ReFucvC3IFnWZHn",
    "infected": 50,
    "recovered": 3,
    "latitude": 11.8037491,
    "pop": 1955000,
    "sick": 47,
    "invisible": false
  },
  {
    "longitude": -149.4937,
    "name": "Alaska",
    "country": "US",
    "lastUpdated": "2020-04-22T19:26:19.292Z",
    "dead": 9,
    "id": "YaCODTMD1KKRnrAlkg2u",
    "infected": 335,
    "recovered": 0,
    "latitude": 64.2008,
    "pop": 737438,
    "sick": 326,
    "invisible": false
  },
  {
    "lastUpdated": "2020-04-22T19:41:15.182Z",
    "dead": 1124,
    "id": "YfA7o2lZP1DhV4JB6Umh",
    "infected": 13044,
    "recovered": 7651,
    "latitude": 42.9896,
    "pop": 2178000,
    "longitude": -2.6189,
    "name": "País Vasco",
    "country": "ES",
    "sick": 4269,
    "invisible": false
  },
  {
    "latitude": 16.8922,
    "pop": 4091400,
    "longitude": -96.4085,
    "name": "Oaxaca",
    "country": "MX",
    "lastUpdated": "2020-04-22T19:40:00.989Z",
    "dead": 8,
    "id": "YidRsOGDERjtbaIBGCdu",
    "infected": 72,
    "recovered": 0,
    "sick": 64,
    "invisible": false
  },
  {
    "infected": 10694,
    "recovered": 8277,
    "latitude": 37.568291,
    "pop": 51470000,
    "longitude": 126.99778,
    "name": "South Korea",
    "country": "KR",
    "lastUpdated": "2020-04-22T19:38:08.631Z",
    "dead": 238,
    "id": "Yw9uBekNlefXBcOCNMfP",
    "sick": 2179,
    "invisible": false
  },
  {
    "latitude": 13.193887,
    "pop": 285719,
    "longitude": -59.543198,
    "name": "Barbados",
    "country": "BB",
    "lastUpdated": "2020-04-22T19:38:08.648Z",
    "dead": 5,
    "id": "YzZqZMJGvG6joQCdiuXC",
    "infected": 75,
    "recovered": 25,
    "sick": 45,
    "invisible": false
  },