[
  {
    "longitude": 51.145517,
    "name": "Qatar",
    "country": "QA",
    "dead": 0,
    "lastUpdated": "2020-03-17T09:53:02.999Z",
    "id": "0m4aECS0Z2DGFEr8ldgI",
    "infected": 439,
    "recovered": 4,
    "latitude": 25.315058,
    "sick": 435
  },
  {
    "recovered": 233,
    "latitude": 35.64249,
    "longitude": 108.472214,
    "name": "Shaanxi",
    "country": "CN",
    "dead": 3,
    "lastUpdated": "2020-03-17T08:00:30.268Z",
    "id": "0x2HLhr5z5xAtEdO4iZm",
    "infected": 246,
    "sick": 10
  },
  {
    "longitude": 21.668393,
    "name": "North Macedonia",
    "country": "MK",
    "dead": 0,
    "lastUpdated": "2020-03-17T09:53:02.917Z",
    "id": "19MvIhipqTyYv1H37Upw",
    "infected": 24,
    "recovered": 1,
    "latitude": 41.643351,
    "sick": 23
  },
  {
    "id": "1DOMOmCWDtva46OVSZLv",
    "infected": 1,
    "recovered": 0,
    "latitude": 53.1355,
    "longitude": -57.6604,
    "name": "Newfoundland and Labrador",
    "country": "CA",
    "dead": 0,
    "lastUpdated": "2020-03-17T08:04:22.193Z",
    "sick": 1
  },
  {
    "recovered": 18,
    "latitude": 35.801933,
    "longitude": 96.779286,
    "name": "Qinghai",
    "country": "CN",
    "dead": 0,
    "lastUpdated": "2020-03-17T07:59:59.073Z",
    "id": "1Fap7rZu9SIRqf5TG9Dg",
    "infected": 18,
    "sick": 0
  },
  {
    "latitude": -14.235004,
    "longitude": -51.925282,
    "name": "Brazil",
    "country": "BR",
    "dead": 0,
    "lastUpdated": "2020-03-17T09:53:02.981Z",
    "id": "1f0YoV0vAcexEhpESyZc",
    "infected": 234,
    "recovered": 2,
    "sick": 232
  },
  {
    "infected": 29,
    "recovered": 1,
    "latitude": 47.4116,
    "longitude": 28.3699,
    "name": "Moldova",
    "country": "MD",
    "dead": 0,
    "lastUpdated": "2020-03-17T09:53:02.859Z",
    "id": "1qTPB8X3tyLyIdsb5TN3",
    "sick": 28
  },
  {
    "latitude": 30.15336,
    "longitude": 88.787865,
    "name": "Tibet",
    "country": "CN",
    "dead": 0,
    "lastUpdated": "2020-03-17T08:01:34.518Z",
    "id": "25qIBtsW2nfQj3pwBKg9",
    "infected": 1,
    "recovered": 1,
    "sick": 0
  },
  {
    "id": "2KHYUb5t3lwzVVmDjwNX",
    "infected": 172,
    "recovered": 8,
    "latitude": -1.572184,
    "longitude": 115.66779,
    "name": "Indonesia",
    "country": "ID",
    "dead": 5,
    "lastUpdated": "2020-03-17T09:53:02.872Z",
    "sick": 159
  },
  {
    "latitude": 43.807191,
    "longitude": -120.585594,
    "name": "Oregon",
    "country": "US",
    "dead": 1,
    "lastUpdated": "2020-03-17T09:43:03.451Z",
    "id": "2OrsssmGUs4XCzaZzvTv",
    "infected": 36,
    "recovered": 0,
    "sick": 35
  },
  {
    "longitude": 126.548103,
    "name": "Jilin",
    "country": "CN",
    "dead": 1,
    "lastUpdated": "2020-03-17T07:59:49.316Z",
    "id": "2jxHvSsxdnom0nPNvOT8",
    "infected": 93,
    "recovered": 92,
    "latitude": 43.851921,
    "sick": 0
  },
  {
    "longitude": -5.3536,
    "name": "Gibraltar",
    "country": "GI",
    "dead": 0,
    "lastUpdated": "2020-03-17T09:53:03.284Z",
    "id": "2p11BjSAs3wVyymgqBOe",
    "infected": 3,
    "recovered": 1,
    "latitude": 36.1408,
    "sick": 2
  },
  {
    "longitude": 1.6751,
    "name": "Centre-Val de Loire",
    "country": "FR",
    "dead": 0,
    "lastUpdated": "2020-03-17T09:47:10.249Z",
    "id": "2sLNkkHpyaHx7dD3aMDO",
    "infected": 90,
    "recovered": 0,
    "latitude": 47.7516,
    "sick": 90
  },
  {
    "id": "3OZoQsKrzxZ18EKyfGE6",
    "infected": 2,
    "recovered": 0,
    "latitude": -35.4735,
    "longitude": 149.0124,
    "name": "Australian Capital Territory",
    "country": "AU",
    "dead": 0,
    "lastUpdated": "2020-03-17T09:45:09.664Z",
    "sick": 2
  },
  {
    "latitude": 40.4173,
    "longitude": -82.9071,
    "name": "Ohio",
    "country": "US",
    "dead": 0,
    "lastUpdated": "2020-03-17T09:43:03.387Z",
    "id": "3fC3bAyIRUquOQOEnQNe",
    "infected": 50,
    "recovered": 0,
    "sick": 50
  },
  {
    "longitude": -10.9408,
    "name": "Mauritania",
    "country": "MR",
    "dead": 0,
    "lastUpdated": "2020-03-17T09:53:03.269Z",
    "id": "4NnFMekRK2m14IlnZZoj",
    "infected": 1,
    "recovered": 0,
    "latitude": 21.0079,
    "sick": 1
  },
  {
    "infected": 103,
    "recovered": 4,
    "latitude": 53.7267,
    "longitude": -127.6476,
    "name": "British Columbia",
    "country": "CA",
    "dead": 4,
    "lastUpdated": "2020-03-17T08:01:50.486Z",
    "id": "4hfZRUoUgI4a3vrG0GBk",
    "sick": 95
  },
  {
    "infected": 331,
    "recovered": 3,
    "latitude": 41.065877,
    "longitude": -7.920053,
    "name": "Portugal",
    "country": "PT",
    "dead": 1,
    "lastUpdated": "2020-03-17T09:53:02.822Z",
    "id": "4rQLxUCMmQLpbi6E9tbH",
    "sick": 327
  },
  {
    "id": "4zqzRm2xHn0CDVOUQJ8p",
    "infected": 28,
    "recovered": 6,
    "latitude": 40.3426,
    "longitude": 47.93802,
    "name": "Azerbaijan",
    "country": "AZ",
    "dead": 1,
    "lastUpdated": "2020-03-17T09:53:02.947Z",
    "sick": 21
  },
  {
    "dead": 2,
    "lastUpdated": "2020-03-17T01:47:22.583Z",
    "id": "5N16a2OXXRpsEFanw0TC",
    "infected": 171,
    "recovered": 4,
    "latitude": -31.253218,
    "longitude": 146.921097,
    "name": "New South Wales",
    "country": "AU",
    "sick": 165
  },
  {
    "longitude": 84.124008,
    "name": "Nepal",
    "country": "NP",
    "dead": 0,
    "lastUpdated": "2020-03-17T09:53:03.198Z",
    "id": "5gXZIjRgAvd6xWN1LOv8",
    "infected": 1,
    "recovered": 1,
    "latitude": 28.394857,
    "sick": 0
  },
  {
    "longitude": 121.774017,
    "name": "Philippines",
    "country": "PH",
    "dead": 12,
    "lastUpdated": "2020-03-17T09:53:02.924Z",
    "id": "5pwmh7aSdGRKqRbnuyc0",
    "infected": 187,
    "recovered": 5,
    "latitude": 12.879721,
    "sick": 170
  },
  {
    "infected": 18,
    "recovered": 1,
    "latitude": 55.621011,
    "longitude": 23.804991,
    "name": "Lithuania",
    "country": "LT",
    "dead": 0,
    "lastUpdated": "2020-03-17T09:53:02.931Z",
    "id": "694ON7d0mRJDeM1gHBTR",
    "sick": 17
  },
  {
    "recovered": 81,
    "latitude": 22.396427,
    "longitude": 114.109497,
    "name": "Hong Kong",
    "country": "HK",
    "dead": 4,
    "lastUpdated": "2020-03-17T09:53:02.868Z",
    "id": "6IcHIIH0zXpY0POmBZTv",
    "infected": 162,
    "sick": 77
  },
  {
    "id": "6SlpghTyB6lpMFvx3g9U",
    "infected": 1,
    "recovered": 0,
    "latitude": 9.3077,
    "longitude": 2.3158,
    "name": "Benin",
    "country": "BJ",
    "dead": 0,
    "lastUpdated": "2020-03-17T09:53:03.129Z",
    "sick": 1
  },
  {
    "recovered": 0,
    "latitude": 46.0569,
    "longitude": 14.5058,
    "name": "Slovenia",
    "country": "SI",
    "dead": 1,
    "lastUpdated": "2020-03-17T09:53:02.786Z",
    "id": "6ahNiyKDSDAftCctgLH3",
    "infected": 253,
    "sick": 252
  },
  {
    "latitude": -0.8037,
    "longitude": 11.6094,
    "name": "Gabon",
    "country": "GA",
    "dead": 0,
    "lastUpdated": "2020-03-17T09:53:03.289Z",
    "id": "6pBi38TUgYfFm0bry2uh",
    "infected": 1,
    "recovered": 0,
    "sick": 1
  },
  {
    "longitude": -62.818544,
    "name": "Saint-Barthélemy",
    "country": "FR",
    "dead": 0,
    "lastUpdated": "2020-03-17T01:37:55.874Z",
    "id": "78Ox26bNHDA2Pk2b3Uwn",
    "infected": 3,
    "recovered": 0,
    "latitude": 17.901672,
    "sick": 3
  },
  {
    "recovered": 0,
    "latitude": 17.0608,
    "longitude": -61.7964,
    "name": "Antigua and Barbuda",
    "country": "AG",
    "dead": 0,
    "lastUpdated": "2020-03-17T09:53:03.290Z",
    "id": "7hVFcEV7nV0MrQr3LHrl",
    "infected": 1,
    "sick": 1
  },
  {
    "recovered": 2,
    "latitude": 47.4979,
    "longitude": 19.0402,
    "name": "Hungary",
    "country": "HU",
    "dead": 1,
    "lastUpdated": "2020-03-17T09:53:03.006Z",
    "id": "7rYC2iFB50c55Ihgbs4Q",
    "infected": 50,
    "sick": 47
  },
  {
    "infected": 5,
    "recovered": 0,
    "latitude": 7.3697,
    "longitude": 12.3547,
    "name": "Cameroon",
    "country": "CM",
    "dead": 0,
    "lastUpdated": "2020-03-17T09:53:03.278Z",
    "id": "8C0d7WVCjyUGtnc2gUAR",
    "sick": 5
  },
  {
    "latitude": -16.2902,
    "longitude": -63.5887,
    "name": "Bolivia",
    "country": "BO",
    "dead": 0,
    "lastUpdated": "2020-03-17T09:53:02.861Z",
    "id": "8RihJrXw4NQXPxaRxr1u",
    "infected": 11,
    "recovered": 0,
    "sick": 11
  },
  {
    "infected": 1,
    "recovered": 0,
    "latitude": 12.9843,
    "longitude": -61.2872,
    "name": "St. Vincent Grenadines",
    "country": "VC",
    "dead": 0,
    "lastUpdated": "2020-03-17T09:53:03.186Z",
    "id": "8ZTySQROQejkDAad0qxQ",
    "sick": 1
  },
  {
    "infected": 243,
    "recovered": 109,
    "latitude": 1.352083,
    "longitude": 103.819839,
    "name": "Singapore",
    "country": "SG",
    "dead": 0,
    "lastUpdated": "2020-03-17T09:53:03.036Z",
    "id": "8pA3fM4xC2c2wv1b4TnE",
    "sick": 134
  },
  {
    "longitude": -1.5536,
    "name": "Pays de la Loire",
    "country": "FR",
    "dead": 0,
    "lastUpdated": "2020-03-17T09:47:10.262Z",
    "id": "98hwAoohgWEOQVa3NlM5",
    "infected": 108,
    "recovered": 4,
    "latitude": 47.2184,
    "sick": 104
  },
  {
    "infected": 1,
    "recovered": 0,
    "latitude": 12.8628,
    "longitude": 30.2176,
    "name": "Sudan",
    "country": "SD",
    "dead": 1,
    "lastUpdated": "2020-03-17T09:53:03.124Z",
    "id": "9DPOkpIqrFy9mR4e9fuv",
    "sick": 0
  },
  {
    "longitude": 24.966761,
    "name": "Romania",
    "country": "RO",
    "dead": 0,
    "lastUpdated": "2020-03-17T09:53:02.856Z",
    "id": "9QcETqEcM2fTv9zRvx5T",
    "infected": 184,
    "recovered": 16,
    "latitude": 45.943161,
    "sick": 168
  },
  {
    "id": "9p6OCdZbUUwBLA60Gk3W",
    "infected": 294,
    "recovered": 10,
    "latitude": 61.92411,
    "longitude": 25.748152,
    "name": "Finland",
    "country": "FI",
    "dead": 0,
    "lastUpdated": "2020-03-17T09:53:03.024Z",
    "sick": 284
  },
  {
    "id": "A84CwQ52kA46Hr7pn6Bm",
    "infected": 7,
    "recovered": 0,
    "latitude": 43.311643,
    "longitude": -71.590315,
    "name": "New Hampshire",
    "country": "US",
    "dead": 0,
    "lastUpdated": "2020-03-17T09:43:03.377Z",
    "sick": 7
  },
  {
    "latitude": 41.823261,
    "longitude": -71.412257,
    "name": "Rhode Island",
    "country": "US",
    "dead": 0,
    "lastUpdated": "2020-03-17T09:43:03.386Z",
    "id": "AEUWUHS65qvjEslew11c",
    "infected": 21,
    "recovered": 0,
    "sick": 21
  },
  {
    "infected": 1,
    "recovered": 0,
    "latitude": 71.7069,
    "longitude": -42.6043,
    "name": "Greenland",
    "country": "GL",
    "dead": 0,
    "lastUpdated": "2020-03-17T09:53:03.281Z",
    "id": "APaZzlGCEeuoLBtzTJMe",
    "sick": 1
  },
  {
    "id": "AVCpxeh0fuH2WrHWNDYH",
    "infected": 5,
    "recovered": 0,
    "latitude": 45.65107,
    "longitude": -63.582687,
    "name": "Nova Scotia",
    "country": "CA",
    "dead": 0,
    "lastUpdated": "2020-03-17T08:04:41.631Z",
    "sick": 5
  },
  {
    "latitude": 47.012918,
    "longitude": -109.128641,
    "name": "Montana",
    "country": "US",
    "dead": 0,
    "lastUpdated": "2020-03-17T09:43:03.467Z",
    "id": "AcULcZBozObOhwuRKMjJ",
    "infected": 4,
    "recovered": 0,
    "sick": 4
  },
  {
    "longitude": 116.01609,
    "name": "Jiangxi",
    "country": "CN",
    "dead": 1,
    "lastUpdated": "2020-03-17T07:56:10.848Z",
    "id": "AmBYm5J6E9Cuez1FQjiN",
    "infected": 935,
    "recovered": 934,
    "latitude": 27.285971,
    "sick": 0
  },
  {
    "dead": 4,
    "lastUpdated": "2020-03-17T09:53:03.016Z",
    "id": "AwN0CScPDApcLFgz6e3z",
    "infected": 60,
    "recovered": 10,
    "latitude": 28.033886,
    "longitude": 1.659626,
    "name": "Algeria",
    "country": "DZ",
    "sick": 46
  },
  {
    "longitude": 15.2,
    "name": "Croatia",
    "country": "HR",
    "dead": 0,
    "lastUpdated": "2020-03-17T09:53:02.920Z",
    "id": "B82Ef45M8cDu4q7VsSHF",
    "infected": 65,
    "recovered": 4,
    "latitude": 45.099998,
    "sick": 61
  },
  {
    "dead": 0,
    "lastUpdated": "2020-03-17T09:43:03.420Z",
    "id": "BF51mWl51fgEcyBpCSzb",
    "infected": 33,
    "recovered": 3,
    "latitude": 39.509109,
    "longitude": -76.98432,
    "name": "Maryland",
    "country": "US",
    "sick": 30
  },
  {
    "infected": 36,
    "recovered": 3,
    "latitude": 53.709808,
    "longitude": 27.953388,
    "name": "Belarus",
    "country": "BY",
    "dead": 0,
    "lastUpdated": "2020-03-17T09:53:02.914Z",
    "id": "BGg6yVU5VP71B8NXU0oh",
    "sick": 33
  },
  {
    "infected": 156,
    "recovered": 0,
    "latitude": 48.8799,
    "longitude": 0.1713,
    "name": "Normandie",
    "country": "FR",
    "dead": 1,
    "lastUpdated": "2020-03-17T09:47:10.227Z",
    "id": "BGtoyzb7y54LVlJ91rbf",
    "sick": 155
  },
  {
    "infected": 13,
    "recovered": 1,
    "latitude": 34.048927,
    "longitude": -111.093735,
    "name": "Arizona",
    "country": "US",
    "dead": 0,
    "lastUpdated": "2020-03-17T09:43:03.316Z",
    "id": "BTEESCuD2ZbS1afunR2A",
    "sick": 12
  },
  {
    "recovered": 0,
    "latitude": 40.719042,
    "longitude": -73.982597,
    "name": "New York",
    "country": "US",
    "dead": 10,
    "lastUpdated": "2020-03-17T07:43:28.716Z",
    "id": "C3BCUzV80z9GfiuByIcr",
    "infected": 950,
    "sick": 940
  },
  {
    "dead": 0,
    "lastUpdated": "2020-03-17T09:53:02.809Z",
    "id": "C6S76AggdWVU8G22jFHQ",
    "infected": 383,
    "recovered": 3,
    "latitude": 49.731626,
    "longitude": 15.359413,
    "name": "Czechia",
    "country": "CZ",
    "sick": 380
  },
  {
    "latitude": 26.0667,
    "longitude": 50.557701,
    "name": "Bahrain",
    "country": "BH",
    "dead": 1,
    "lastUpdated": "2020-03-17T09:53:02.796Z",
    "id": "C7cj4nwRITs13KnaJrQ2",
    "infected": 228,
    "recovered": 81,
    "sick": 146
  },
  {
    "latitude": 27.0238,
    "longitude": 74.2179,
    "name": "Rajasthan",
    "country": "IN",
    "dead": 0,
    "lastUpdated": "2020-03-17T09:49:03.043Z",
    "id": "CKZCZTPlrcq5fbfUPA9k",
    "infected": 4,
    "recovered": 3,
    "sick": 1
  },
  {
    "longitude": -1.17432,
    "name": "United Kingdom",
    "country": "GB",
    "dead": 55,
    "lastUpdated": "2020-03-17T09:53:02.899Z",
    "id": "CrXu6i5Sqx11iwdfHfBs",
    "infected": 1543,
    "recovered": 52,
    "latitude": 52.355518,
    "sick": 1436
  },
  {
    "id": "DCJCtZoBTWQ4mzdDNljD",
    "infected": 52,
    "recovered": 1,
    "latitude": 40.259003,
    "longitude": 44.818474,
    "name": "Armenia",
    "country": "AM",
    "dead": 0,
    "lastUpdated": "2020-03-17T09:53:03.023Z",
    "sick": 51
  },
  {
    "id": "DdBt8qsG6A3g92oOR3ow",
    "infected": 12,
    "recovered": 10,
    "latitude": 22.192039,
    "longitude": 113.551262,
    "name": "Macao",
    "country": "MO",
    "dead": 0,
    "lastUpdated": "2020-03-17T09:53:03.187Z",
    "sick": 2
  },
  {
    "latitude": 42.962334,
    "longitude": -107.534868,
    "name": "Wyoming",
    "country": "US",
    "dead": 0,
    "lastUpdated": "2020-03-17T09:43:03.401Z",
    "id": "DrGzziUglmBognCGY7R2",
    "infected": 2,
    "recovered": 0,
    "sick": 2
  },
  {
    "dead": 4,
    "lastUpdated": "2020-03-17T09:53:02.820Z",
    "id": "Dtr1lap1RpJpXJdXGJiW",
    "infected": 352,
    "recovered": 10,
    "latitude": 40.6401,
    "longitude": 22.9444,
    "name": "Greece",
    "country": "GR",
    "sick": 338
  },
  {
    "longitude": 121.563698,
    "name": "Taiwan",
    "country": "TW",
    "dead": 1,
    "lastUpdated": "2020-03-17T09:53:02.970Z",
    "id": "EKTfs8e7M6DXzI1HqyyX",
    "infected": 77,
    "recovered": 20,
    "latitude": 25.03841,
    "sick": 56
  },
  {
    "infected": 41,
    "recovered": 0,
    "latitude": 10.327273,
    "longitude": -84.387618,
    "name": "Costa Rica",
    "country": "CR",
    "dead": 0,
    "lastUpdated": "2020-03-17T09:53:02.936Z",
    "id": "EQzJvzVHKjs8kLmK7BMu",
    "sick": 41
  },
  {
    "longitude": -66.664513,
    "name": "Puerto Rico",
    "country": "PR",
    "dead": 0,
    "lastUpdated": "2020-03-17T09:53:03.276Z",
    "id": "F4rPrEVGAIMM5rfPEMv4",
    "infected": 5,
    "recovered": 0,
    "latitude": 18.200178,
    "sick": 5
  },
  {
    "dead": 0,
    "lastUpdated": "2020-03-17T09:53:02.998Z",
    "id": "FCDmlmnIIswd8bQiUjfN",
    "infected": 22,
    "recovered": 1,
    "latitude": 33.93911,
    "longitude": 67.709953,
    "name": "Afghanistan",
    "country": "AF",
    "sick": 21
  },
  {
    "recovered": 570,
    "latitude": 29.431585,
    "longitude": 106.912254,
    "name": "Chongqing",
    "country": "CN",
    "dead": 6,
    "lastUpdated": "2020-03-17T07:54:57.887Z",
    "id": "FErOU1m4Tj7jIkRam3vF",
    "infected": 576,
    "sick": 0
  },
  {
    "latitude": 29.311661,
    "longitude": 47.481766,
    "name": "Kuwait",
    "country": "KW",
    "dead": 0,
    "lastUpdated": "2020-03-17T09:53:02.915Z",
    "id": "FZsUkhxBEgqsPb4eO0PN",
    "infected": 130,
    "recovered": 12,
    "sick": 118
  },
  {
    "latitude": 11.1271,
    "longitude": 78.6569,
    "name": "Tamil Nadu",
    "country": "IN",
    "dead": 0,
    "lastUpdated": "2020-03-17T09:49:02.991Z",
    "id": "FeS45oMNC27pI17F0xEV",
    "infected": 1,
    "recovered": 0,
    "sick": 1
  },
  {
    "latitude": 18.947829,
    "longitude": -70.430399,
    "name": "Dominican Republic",
    "country": "DO",
    "dead": 1,
    "lastUpdated": "2020-03-17T09:53:02.918Z",
    "id": "FuiVEJvWb0QMCpxJ3563",
    "infected": 21,
    "recovered": 0,
    "sick": 20
  },
  {
    "recovered": 1,
    "latitude": 18.1124,
    "longitude": 79.0193,
    "name": "Telangana",
    "country": "IN",
    "dead": 0,
    "lastUpdated": "2020-03-17T09:49:03.024Z",
    "id": "FyC551oNwmENxbr9Yght",
    "infected": 4,
    "sick": 3
  },
  {
    "latitude": 48.669,
    "longitude": 19.699,
    "name": "Slovakia",
    "country": "SK",
    "dead": 0,
    "lastUpdated": "2020-03-17T09:23:04.628Z",
    "id": "FzIDXoqWnTI3nUfhPyT2",
    "infected": 78,
    "recovered": 0,
    "sick": 78
  },
  {
    "longitude": 69.345116,
    "name": "Pakistan",
    "country": "PK",
    "dead": 1,
    "lastUpdated": "2020-03-17T09:53:02.985Z",
    "id": "GAp7Wb6IMhdgbvEtMza9",
    "infected": 194,
    "recovered": 2,
    "latitude": 30.37532,
    "sick": 191
  },
  {
    "longitude": 75.3412,
    "name": "Punjab",
    "country": "IN",
    "dead": 0,
    "lastUpdated": "2020-03-17T09:49:03.005Z",
    "id": "GGru8cG08mANO8XDDUtZ",
    "infected": 1,
    "recovered": 0,
    "latitude": 31.1471,
    "sick": 1
  },
  {
    "latitude": 23.424076,
    "longitude": 53.847816,
    "name": "United Arab Emirates",
    "country": "AE",
    "dead": 0,
    "lastUpdated": "2020-03-17T09:53:02.858Z",
    "id": "GHzBIsHy2GiBc5JV2HMs",
    "infected": 98,
    "recovered": 23,
    "sick": 75
  },
  {
    "dead": 6,
    "lastUpdated": "2020-03-17T09:43:03.475Z",
    "id": "Gh46r6vuaY7fbGt3IboN",
    "infected": 454,
    "recovered": 6,
    "latitude": 36.621981,
    "longitude": -119.339046,
    "name": "California",
    "country": "US",
    "sick": 442
  },
  {
    "infected": 10,
    "recovered": 0,
    "latitude": 35.87189,
    "longitude": -97.145514,
    "name": "Oklahoma",
    "country": "US",
    "dead": 0,
    "lastUpdated": "2020-03-17T09:43:03.404Z",
    "id": "GpF8ULuKOQiFDCUHN44h",
    "sick": 10
  },
  {
    "longitude": 113.750972,
    "name": "Inner Mongolia",
    "country": "CN",
    "dead": 1,
    "lastUpdated": "2020-03-17T08:00:52.758Z",
    "id": "H3JeVigVbo5CSYfZG4WI",
    "infected": 75,
    "recovered": 73,
    "latitude": 42.83263,
    "sick": 1
  },
  {
    "id": "H3bDg4eV30up4WWrIDAS",
    "infected": 19,
    "recovered": 0,
    "latitude": 39.74536,
    "longitude": -116.724977,
    "name": "Nevada",
    "country": "US",
    "dead": 1,
    "lastUpdated": "2020-03-17T07:44:02.385Z",
    "sick": 18
  },
  {
    "dead": 1,
    "lastUpdated": "2020-03-17T09:49:03.021Z",
    "id": "HN5mGmxlqlSeFSNeu1K5",
    "infected": 8,
    "recovered": 0,
    "latitude": 15.3173,
    "longitude": 75.7139,
    "name": "Karnataka",
    "country": "IN",
    "sick": 7
  },
  {
    "infected": 1,
    "recovered": 0,
    "latitude": 27.5142,
    "longitude": 90.4336,
    "name": "Bhutan",
    "country": "BT",
    "dead": 0,
    "lastUpdated": "2020-03-17T09:53:02.910Z",
    "id": "HRDpwyxpqW9RN0xLFyNu",
    "sick": 1
  },
  {
    "longitude": -105.576255,
    "name": "New Mexico",
    "country": "US",
    "dead": 0,
    "lastUpdated": "2020-03-17T09:43:03.410Z",
    "id": "HSSFomRju0doHhWgW8On",
    "infected": 10,
    "recovered": 0,
    "latitude": 34.138916,
    "sick": 10
  },
  {
    "latitude": 23.634501,
    "longitude": -102.552788,
    "name": "Mexico",
    "country": "MX",
    "dead": 0,
    "lastUpdated": "2020-03-17T09:53:02.828Z",
    "id": "I4OJ6z9Vjs1byOcbsJrd",
    "infected": 82,
    "recovered": 4,
    "sick": 78
  },
  {
    "infected": 1364,
    "recovered": 1307,
    "latitude": 23.363855,
    "longitude": 113.373448,
    "name": "Guangdong",
    "country": "CN",
    "dead": 8,
    "lastUpdated": "2020-03-17T07:56:24.548Z",
    "id": "IAX0OQLVnUwU7FX0ENF1",
    "sick": 49
  },
  {
    "dead": 22,
    "lastUpdated": "2020-03-17T07:55:10.868Z",
    "id": "IFuMrMvSjoiX5agYvllh",
    "infected": 1273,
    "recovered": 1250,
    "latitude": 33.875408,
    "longitude": 113.484016,
    "name": "Henan",
    "country": "CN",
    "sick": 1
  },
  {
    "latitude": 32.528564,
    "longitude": -83.280125,
    "name": "Georgia (US)",
    "country": "US",
    "dead": 1,
    "lastUpdated": "2020-03-17T09:43:03.419Z",
    "id": "IvQkDJkTAsoIqPRAU25n",
    "infected": 121,
    "recovered": 0,
    "sick": 120
  },
  {
    "latitude": -42.8285,
    "longitude": 172.488081,
    "name": "New Zealand",
    "country": "NZ",
    "dead": 0,
    "lastUpdated": "2020-03-17T09:53:03.249Z",
    "id": "IvVhpOoGpH6JVkGyUhXN",
    "infected": 12,
    "recovered": 0,
    "sick": 12
  },
  {
    "infected": 33,
    "recovered": 0,
    "latitude": 6.4238,
    "longitude": -66.5897,
    "name": "Venezuela",
    "country": "VE",
    "dead": 0,
    "lastUpdated": "2020-03-17T09:53:03.028Z",
    "id": "J3mZXlfEnnJx4CDZLvRG",
    "sick": 33
  },
  {
    "infected": 46,
    "recovered": 0,
    "latitude": 35.1264,
    "longitude": 33.4299,
    "name": "Cyprus",
    "country": "CY",
    "dead": 0,
    "lastUpdated": "2020-03-17T09:53:02.995Z",
    "id": "JQByE4l2OA6sGOqIcWrM",
    "sick": 46
  },
  {
    "infected": 8,
    "recovered": 0,
    "latitude": 14.628434,
    "longitude": -90.522713,
    "name": "Guatemala",
    "country": "GT",
    "dead": 1,
    "lastUpdated": "2020-03-17T09:53:03.206Z",
    "id": "JUWE6bG3b5oL7fKQMSvv",
    "sick": 7
  },
  {
    "latitude": 49.8153,
    "longitude": 6.1296,
    "name": "Luxembourg",
    "country": "LU",
    "dead": 1,
    "lastUpdated": "2020-03-17T09:53:02.897Z",
    "id": "JcFsHSn2WvZ5LJW42ovG",
    "infected": 94,
    "recovered": 0,
    "sick": 93
  },
  {
    "longitude": 0.8248,
    "name": "Togo",
    "country": "TG",
    "dead": 0,
    "lastUpdated": "2020-03-17T09:53:03.234Z",
    "id": "JrBbirlBKGdWSdcDt7PF",
    "infected": 1,
    "recovered": 0,
    "latitude": 8.6195,
    "sick": 1
  },
  {
    "longitude": 25.4858,
    "name": "Bulgaria",
    "country": "BG",
    "dead": 2,
    "lastUpdated": "2020-03-17T09:53:03.018Z",
    "id": "JzZ8sbqzjutThVjkPKPL",
    "infected": 67,
    "recovered": 0,
    "latitude": 42.7339,
    "sick": 65
  },
  {
    "dead": 0,
    "lastUpdated": "2020-03-17T09:53:02.793Z",
    "id": "KsWzJO06cf0d6LJ4ZNh9",
    "infected": 29,
    "recovered": 2,
    "latitude": 7.873054,
    "longitude": 80.771797,
    "name": "Sri Lanka",
    "country": "LK",
    "sick": 27
  },
  {
    "latitude": 15.9129,
    "longitude": 79.74,
    "name": "Andhra Pradesh",
    "country": "IN",
    "dead": 0,
    "lastUpdated": "2020-03-17T09:49:03.074Z",
    "id": "KtQIo2DoqjELtPAlyDVO",
    "infected": 1,
    "recovered": 0,
    "sick": 1
  },
  {
    "latitude": 61.52401,
    "longitude": 105.318756,
    "name": "Russia",
    "country": "RU",
    "dead": 0,
    "lastUpdated": "2020-03-17T09:53:02.854Z",
    "id": "KwOuGBKSMRlmwftxAvLX",
    "infected": 93,
    "recovered": 8,
    "sick": 85
  },
  {
    "infected": 2,
    "recovered": 0,
    "latitude": 18.0708,
    "longitude": -63.0501,
    "name": "Saint-Martin",
    "country": "FR",
    "dead": 0,
    "lastUpdated": "2020-03-17T09:47:10.243Z",
    "id": "LBUtrLDKJiupXjlUNTUe",
    "sick": 2
  },
  {
    "infected": 7,
    "recovered": 0,
    "latitude": 47.166,
    "longitude": 9.5554,
    "name": "Liechtenstein",
    "country": "LI",
    "dead": 0,
    "lastUpdated": "2020-03-17T09:53:03.201Z",
    "id": "LTGEU2E9MFkrCcFhZYVk",
    "sick": 7
  },
  {
    "longitude": -9.6966,
    "name": "Guinea",
    "country": "GN",
    "dead": 0,
    "lastUpdated": "2020-03-17T09:53:03.120Z",
    "id": "LU2QWt5ao8IJa8evNYVV",
    "infected": 1,
    "recovered": 0,
    "latitude": 9.9456,
    "sick": 1
  },
  {
    "infected": 1,
    "recovered": 0,
    "latitude": 3.9193051,
    "longitude": -56.0277824,
    "name": "Suriname",
    "country": "SR",
    "dead": 0,
    "lastUpdated": "2020-03-17T09:53:03.204Z",
    "id": "LglKINHyQpYpFxjckbQ6",
    "sick": 1
  },
  {
    "recovered": 0,
    "latitude": 52.9399,
    "longitude": -106.4509,
    "name": "Saskatchewan",
    "country": "CA",
    "dead": 0,
    "lastUpdated": "2020-03-17T08:03:38.500Z",
    "id": "LkIDKY0CMAqzbwBHyYCP",
    "infected": 7,
    "sick": 7
  },
  {
    "id": "MC8MXFw9iXYybnF8v7e6",
    "infected": 22,
    "recovered": 1,
    "latitude": 37.8393,
    "longitude": -84.27,
    "name": "Kentucky",
    "country": "US",
    "dead": 1,
    "lastUpdated": "2020-03-17T09:43:03.438Z",
    "sick": 20
  },
  {
    "latitude": 40.2672,
    "longitude": -86.1349,
    "name": "Indiana",
    "country": "US",
    "dead": 1,
    "lastUpdated": "2020-03-17T07:52:14.261Z",
    "id": "MOxDkmQ4wBi1CuAdVxDE",
    "infected": 24,
    "recovered": 0,
    "sick": 23
  },
  {
    "infected": 4,
    "recovered": 0,
    "latitude": 7.54,
    "longitude": -5.5471,
    "name": "Ivory Coast",
    "country": "CI",
    "dead": 0,
    "lastUpdated": "2020-03-17T09:53:03.225Z",
    "id": "MdQOfc1gNh2DOqwSP6UV",
    "sick": 4
  },
  {
    "infected": 75,
    "recovered": 75,
    "latitude": 37.330509,
    "longitude": 105.977203,
    "name": "Ningxia",
    "country": "CN",
    "dead": 0,
    "lastUpdated": "2020-03-17T08:01:13.860Z",
    "id": "MntmjjuHljarCdt6aIeE",
    "sick": 0
  },
  {
    "infected": 25,
    "recovered": 2,
    "latitude": 44.696652,
    "longitude": 17.824332,
    "name": "Bosnia and Herzegovina",
    "country": "BA",
    "dead": 0,
    "lastUpdated": "2020-03-17T09:53:02.907Z",
    "id": "N7c13sCQF0G789XAVazJ",
    "sick": 23
  },
  {
    "latitude": 37.242565,
    "longitude": 111.856857,
    "name": "Shanxi",
    "country": "CN",
    "dead": 0,
    "lastUpdated": "2020-03-17T08:00:40.248Z",
    "id": "NBRIGIRrJB1Ry8prDNAC",
    "infected": 133,
    "recovered": 133,
    "sick": 0
  },
  {
    "longitude": -79.0193,
    "name": "North Carolina",
    "country": "US",
    "dead": 0,
    "lastUpdated": "2020-03-17T09:43:03.383Z",
    "id": "NC64Qp5kTqAfiTuR27k8",
    "infected": 37,
    "recovered": 0,
    "latitude": 35.7596,
    "sick": 37
  },
  {
    "dead": 0,
    "lastUpdated": "2020-03-17T09:49:02.995Z",
    "id": "NMeZEcGToxXfpi16PfFV",
    "infected": 1,
    "recovered": 0,
    "latitude": 30.0668,
    "longitude": 79.0193,
    "name": "Uttarakhand",
    "country": "IN",
    "sick": 1
  },
  {
    "dead": 0,
    "lastUpdated": "2020-03-17T09:53:02.826Z",
    "id": "NmmMKy0YqA8StHdGzB5N",
    "infected": 49,
    "recovered": 1,
    "latitude": 56.96776,
    "longitude": 25.837107,
    "name": "Latvia",
    "country": "LV",
    "sick": 48
  },
  {
    "infected": 1,
    "recovered": 0,
    "latitude": 6.4281,
    "longitude": -9.4295,
    "name": "Liberia",
    "country": "LR",
    "dead": 0,
    "lastUpdated": "2020-03-17T09:53:02.937Z",
    "id": "O4g88K49HKEZLFXm5gxb",
    "sick": 1
  },
  {
    "infected": 28,
    "recovered": 0,
    "latitude": 34.003307,
    "longitude": -80.525613,
    "name": "South Carolina",
    "country": "US",
    "dead": 1,
    "lastUpdated": "2020-03-17T09:43:03.347Z",
    "id": "ONU4CK8QjViFHKg2w5if",
    "sick": 27
  },
  {
    "infected": 6,
    "recovered": 0,
    "latitude": 33.51822,
    "longitude": -89.582775,
    "name": "Mississippi",
    "country": "US",
    "dead": 0,
    "lastUpdated": "2020-03-17T09:43:03.400Z",
    "id": "OYa0jFzdbAgo8zUsRv6q",
    "sick": 6
  },
  {
    "infected": 3,
    "recovered": 0,
    "latitude": 45.2538,
    "longitude": -69.4455,
    "name": "Maine",
    "country": "US",
    "dead": 0,
    "lastUpdated": "2020-03-17T09:43:03.331Z",
    "id": "OcXNp9kNVSwrRlG3bNVN",
    "sick": 3
  },
  {
    "id": "OnOseaqWdnuP18oruABW",
    "infected": 7,
    "recovered": 0,
    "latitude": -41.915264,
    "longitude": 146.725256,
    "name": "Tasmania",
    "country": "AU",
    "dead": 0,
    "lastUpdated": "2020-03-17T09:45:09.611Z",
    "sick": 7
  },
  {
    "latitude": 19.3133,
    "longitude": -81.2546,
    "name": "Cayman Islands",
    "country": "KY",
    "dead": 1,
    "lastUpdated": "2020-03-17T09:53:03.280Z",
    "id": "P4mwRFLbrvT0t75uD8Wo",
    "infected": 1,
    "recovered": 0,
    "sick": 0
  },
  {
    "infected": 7,
    "recovered": 0,
    "latitude": -1.9403,
    "longitude": 29.8739,
    "name": "Rwanda",
    "country": "RW",
    "dead": 0,
    "lastUpdated": "2020-03-17T09:53:03.282Z",
    "id": "PEcgZGEkyhABztt1Ufgc",
    "sick": 7
  },
  {
    "dead": 0,
    "lastUpdated": "2020-03-17T09:43:03.360Z",
    "id": "PJvVYosLIhbcRZYnKX1R",
    "infected": 54,
    "recovered": 0,
    "latitude": 46.7296,
    "longitude": -94.6859,
    "name": "Minnesota",
    "country": "US",
    "sick": 54
  },
  {
    "id": "PTwQr9ijo0TBBsPH2sdJ",
    "infected": 105,
    "recovered": 2,
    "latitude": 40.6331,
    "longitude": -89.3985,
    "name": "Illinois",
    "country": "US",
    "dead": 0,
    "lastUpdated": "2020-03-17T09:43:03.344Z",
    "sick": 103
  },
  {
    "latitude": 13.909444,
    "longitude": -60.978893,
    "name": "Saint Lucia",
    "country": "LC",
    "dead": 0,
    "lastUpdated": "2020-03-17T09:53:03.194Z",
    "id": "PjLqCeFdyzdZNcZxMkK1",
    "infected": 2,
    "recovered": 0,
    "sick": 2
  },
  {
    "infected": 24,
    "recovered": 0,
    "latitude": 34.201507,
    "longitude": 9.460554,
    "name": "Tunisia",
    "country": "TN",
    "dead": 0,
    "lastUpdated": "2020-03-17T09:53:02.885Z",
    "id": "Pr76V4raf108uSRoEXac",
    "sick": 24
  },
  {
    "latitude": -26.5225,
    "longitude": 31.4659,
    "name": "Eswatini",
    "country": "SZ",
    "dead": 0,
    "lastUpdated": "2020-03-17T09:53:03.208Z",
    "id": "PuQgOd9KWiMzGZXm11sR",
    "infected": 1,
    "recovered": 0,
    "sick": 1
  },
  {
    "dead": 0,
    "lastUpdated": "2020-03-17T08:06:08.006Z",
    "id": "PxDu1tj8voGfRMpDyOWK",
    "infected": 1,
    "recovered": 0,
    "latitude": -19.810776,
    "longitude": 133.639248,
    "name": "Northern Territory",
    "country": "AU",
    "sick": 1
  },
  {
    "latitude": -37.009609,
    "longitude": 143.94853,
    "name": "Victoria",
    "country": "AU",
    "dead": 0,
    "lastUpdated": "2020-03-17T09:45:09.585Z",
    "id": "Q18mrGvFWTLX2BU9SqhQ",
    "infected": 71,
    "recovered": 8,
    "sick": 63
  },
  {
    "longitude": 25.013607,
    "name": "Estonia",
    "country": "EE",
    "dead": 0,
    "lastUpdated": "2020-03-17T09:53:02.838Z",
    "id": "QR9go2hQKXjty7JHUYe4",
    "infected": 225,
    "recovered": 1,
    "latitude": 58.595272,
    "sick": 224
  },
  {
    "latitude": 18.3358,
    "longitude": -64.8963,
    "name": "U.S. Virgin Islands",
    "country": "VI",
    "dead": 0,
    "lastUpdated": "2020-03-17T09:53:03.261Z",
    "id": "QqhD3YDMKXojvQY3Yu41",
    "infected": 2,
    "recovered": 0,
    "sick": 2
  },
  {
    "infected": 69,
    "recovered": 0,
    "latitude": 8.538,
    "longitude": -80.7821,
    "name": "Panama",
    "country": "PA",
    "dead": 1,
    "lastUpdated": "2020-03-17T09:53:02.882Z",
    "id": "R8YCgephnxTufvcPWMgx",
    "sick": 68
  },
  {
    "infected": 8,
    "recovered": 0,
    "latitude": 15.2,
    "longitude": -86.2419,
    "name": "Honduras",
    "country": "HN",
    "dead": 0,
    "lastUpdated": "2020-03-17T09:53:03.241Z",
    "id": "RA2SE0p2bVhqo0P2hzGY",
    "sick": 8
  },
  {
    "recovered": 0,
    "latitude": 41.878,
    "longitude": -93.0977,
    "name": "Iowa",
    "country": "US",
    "dead": 0,
    "lastUpdated": "2020-03-17T09:43:03.432Z",
    "id": "RX0KDu1AFrlCsrRso0nb",
    "infected": 17,
    "sick": 17
  },
  {
    "recovered": 0,
    "latitude": 39.0119,
    "longitude": -98.4842,
    "name": "Kansas",
    "country": "US",
    "dead": 1,
    "lastUpdated": "2020-03-17T09:43:03.380Z",
    "id": "Rf4uvBfP3GRDSHdZElRd",
    "infected": 6,
    "sick": 5
  },
  {
    "infected": 1543,
    "recovered": 0,
    "latitude": 48.6998,
    "longitude": 6.1878,
    "name": "Grand Est",
    "country": "FR",
    "dead": 9,
    "lastUpdated": "2020-03-17T09:47:10.247Z",
    "id": "RmEgf1xeclWt7XCF9oiR",
    "sick": 1534
  },
  {
    "latitude": 51.2538,
    "longitude": -85.3232,
    "name": "Ontario",
    "country": "CA",
    "dead": 0,
    "lastUpdated": "2020-03-17T08:02:01.702Z",
    "id": "Rx4TuyMpfGb3S8wYJX0x",
    "infected": 177,
    "recovered": 5,
    "sick": 172
  },
  {
    "latitude": 14.652027,
    "longitude": -61.011715,
    "name": "Martinique",
    "country": "FR",
    "dead": 1,
    "lastUpdated": "2020-03-17T09:47:10.225Z",
    "id": "SDdefnq1bc3ZNr7SpEsW",
    "infected": 16,
    "recovered": 0,
    "sick": 15
  },
  {
    "dead": 0,
    "lastUpdated": "2020-03-17T09:53:02.956Z",
    "id": "SG9VWLOV3x2JsTkXmVSz",
    "infected": 6,
    "recovered": 0,
    "latitude": 7.9465,
    "longitude": -1.0232,
    "name": "Ghana",
    "country": "GH",
    "sick": 6
  },
  {
    "latitude": 46.818188,
    "longitude": 8.227512,
    "name": "Switzerland",
    "country": "CH",
    "dead": 21,
    "lastUpdated": "2020-03-17T09:53:02.967Z",
    "id": "SGe9sCPayMqh6RsGFaBA",
    "infected": 2354,
    "recovered": 4,
    "sick": 2329
  },
  {
    "infected": 50,
    "recovered": 0,
    "latitude": 46.8139,
    "longitude": -71.208,
    "name": "Quebec",
    "country": "CA",
    "dead": 0,
    "lastUpdated": "2020-03-17T08:03:17.413Z",
    "id": "SHoOE3NiJgWAlDVBzwYH",
    "sick": 50
  },
  {
    "id": "SMWvuMMuKp2QK7O2tNia",
    "infected": 16,
    "recovered": 0,
    "latitude": 42.6026,
    "longitude": 20.903,
    "name": "Kosovo",
    "country": "XK",
    "dead": 0,
    "lastUpdated": "2020-03-17T07:33:06.262Z",
    "sick": 16
  },
  {
    "latitude": 41.4925,
    "longitude": -99.9018,
    "name": "Nebraska",
    "country": "US",
    "dead": 0,
    "lastUpdated": "2020-03-17T09:43:03.334Z",
    "id": "SakhKQzKu1LRI8laqdQq",
    "infected": 14,
    "recovered": 0,
    "sick": 14
  },
  {
    "latitude": -21.1151,
    "longitude": 55.5364,
    "name": "La Réunion",
    "country": "FR",
    "dead": 0,
    "lastUpdated": "2020-03-17T09:47:10.252Z",
    "id": "SgHzWAAYK1j2sipovxM6",
    "infected": 9,
    "recovered": 0,
    "sick": 9
  },
  {
    "infected": 24,
    "recovered": 1,
    "latitude": 12.565679,
    "longitude": 104.990967,
    "name": "Cambodia",
    "country": "KH",
    "dead": 0,
    "lastUpdated": "2020-03-17T09:53:02.790Z",
    "id": "SioMALgUbo7peXmbco2f",
    "sick": 23
  },
  {
    "id": "T3iRf8mTUTAzbKrORTap",
    "infected": 3,
    "recovered": 0,
    "latitude": -4.0383,
    "longitude": 21.7587,
    "name": "DR Congo",
    "country": "CD",
    "dead": 0,
    "lastUpdated": "2020-03-17T09:53:03.266Z",
    "sick": 3
  },
  {
    "longitude": 44.344334,
    "name": "Saudi Arabia",
    "country": "SA",
    "dead": 0,
    "lastUpdated": "2020-03-17T09:53:02.835Z",
    "id": "T7NffoeCgTUpAbOHvYwP",
    "infected": 133,
    "recovered": 6,
    "latitude": 23.635796,
    "sick": 127
  },
  {
    "recovered": 0,
    "latitude": 4.506106,
    "longitude": 114.650692,
    "name": "Brunei",
    "country": "BN",
    "dead": 0,
    "lastUpdated": "2020-03-17T09:53:02.816Z",
    "id": "TQZmzsLhJqjtCSExAkCP",
    "infected": 54,
    "sick": 54
  },
  {
    "dead": 7,
    "lastUpdated": "2020-03-17T09:47:10.202Z",
    "id": "TT0MKODSjrxHvG19xZCa",
    "infected": 618,
    "recovered": 8,
    "latitude": 45.4471,
    "longitude": 4.3853,
    "name": "Auvergne-Rhône-Alpes",
    "country": "FR",
    "sick": 603
  },
  {
    "dead": 1,
    "lastUpdated": "2020-03-17T09:43:03.363Z",
    "id": "Th4dlpXXmSDgi1OHs36P",
    "infected": 160,
    "recovered": 0,
    "latitude": 39.318928,
    "longitude": -105.461392,
    "name": "Colorado",
    "country": "US",
    "sick": 159
  },
  {
    "dead": 0,
    "lastUpdated": "2020-03-17T09:53:02.988Z",
    "id": "Tup6oDCHj6DgqZR3nQ3x",
    "infected": 15,
    "recovered": 0,
    "latitude": 12.2383,
    "longitude": -1.5616,
    "name": "Burkina Faso",
    "country": "BF",
    "sick": 15
  },
  {
    "recovered": 1,
    "latitude": 55.675758,
    "longitude": 12.56902,
    "name": "Denmark",
    "country": "DK",
    "dead": 4,
    "lastUpdated": "2020-03-17T09:53:02.969Z",
    "id": "Ty1AY3VLPJcRZgdBIERx",
    "infected": 960,
    "sick": 955
  },
  {
    "infected": 761,
    "recovered": 746,
    "latitude": 36.395859,
    "longitude": 118.769882,
    "name": "Shandong",
    "country": "CN",
    "dead": 7,
    "lastUpdated": "2020-03-17T08:00:09.650Z",
    "id": "U0tkTJ9CGsBuFJ2Gdoum",
    "sick": 8
  },
  {
    "latitude": 43.94236,
    "longitude": 12.457777,
    "name": "San Marino",
    "country": "SM",
    "dead": 7,
    "lastUpdated": "2020-03-17T09:53:02.906Z",
    "id": "U12rMD5GDW58Q0lIwrB1",
    "infected": 109,
    "recovered": 4,
    "sick": 98
  },
  {
    "dead": 28,
    "lastUpdated": "2020-03-17T09:53:02.963Z",
    "id": "U13Gy4BpRLAZ95bPmBXd",
    "infected": 843,
    "recovered": 144,
    "latitude": 36.204823,
    "longitude": 138.25293,
    "name": "Japan",
    "country": "JP",
    "sick": 671
  },
  {
    "latitude": 48.202,
    "longitude": -2.9326,
    "name": "Bretagne",
    "country": "FR",
    "dead": 3,
    "lastUpdated": "2020-03-17T09:47:10.255Z",
    "id": "URKMlJ7OTNldjpaxFbjE",
    "infected": 233,
    "recovered": 0,
    "sick": 230
  },
  {
    "dead": 0,
    "lastUpdated": "2020-03-17T09:53:02.800Z",
    "id": "VAAmtxtDuCY0o55zRsOh",
    "infected": 57,
    "recovered": 1,
    "latitude": 3.527606,
    "longitude": -72.998674,
    "name": "Colombia",
    "country": "CO",
    "sick": 56
  },
  {
    "recovered": 0,
    "latitude": 21.5218,
    "longitude": -77.7812,
    "name": "Cuba",
    "country": "CU",
    "dead": 0,
    "lastUpdated": "2020-03-17T09:53:03.226Z",
    "id": "VAG9AcMABTf8oIAfELPh",
    "infected": 4,
    "sick": 4
  },
  {
    "longitude": 101.864143,
    "name": "Yunnan",
    "country": "CN",
    "dead": 2,
    "lastUpdated": "2020-03-17T07:57:47.928Z",
    "id": "VIf8T8PD3ZzlzAm5eBCX",
    "infected": 176,
    "recovered": 172,
    "latitude": 25.181129,
    "sick": 2
  },
  {
    "infected": 13,
    "recovered": 4,
    "latitude": 26.8467,
    "longitude": 80.9462,
    "name": "Uttar Pradesh",
    "country": "IN",
    "dead": 0,
    "lastUpdated": "2020-03-17T09:49:03.036Z",
    "id": "VcKcLdCkC6YpPfIDnRVD",
    "sick": 9
  },
  {
    "recovered": 0,
    "latitude": 43.8927,
    "longitude": 3.2828,
    "name": "Occitanie",
    "country": "FR",
    "dead": 0,
    "lastUpdated": "2020-03-17T09:47:10.250Z",
    "id": "WAnbFrEjtZDTCIYBt8rz",
    "infected": 262,
    "sick": 262
  },
  {
    "longitude": 22.9375,
    "name": "South Africa",
    "country": "ZA",
    "dead": 0,
    "lastUpdated": "2020-03-17T09:38:07.600Z",
    "id": "Whrue10NtwIObLvFFyBr",
    "infected": 64,
    "recovered": 0,
    "latitude": -30.5595,
    "sick": 64
  },
  {
    "infected": 10,
    "recovered": 3,
    "latitude": 23.685,
    "longitude": 90.3563,
    "name": "Bangladesh",
    "country": "BD",
    "dead": 0,
    "lastUpdated": "2020-03-17T09:53:02.911Z",
    "id": "WpLayPPLIJ7VcHZdQaoM",
    "sick": 7
  },
  {
    "latitude": 34.2996,
    "longitude": 78.2932,
    "name": "Ladakh",
    "country": "IN",
    "dead": 0,
    "lastUpdated": "2020-03-17T09:49:03.053Z",
    "id": "X3PZqaJxtnlxcgP4tzya",
    "infected": 4,
    "recovered": 0,
    "sick": 4
  },
  {
    "longitude": 118.278992,
    "name": "Fujian",
    "country": "CN",
    "dead": 1,
    "lastUpdated": "2020-03-17T07:56:33.760Z",
    "id": "XBBw0iMPrmiEu3qogkbi",
    "infected": 296,
    "recovered": 295,
    "latitude": 25.92448,
    "sick": 0
  },
  {
    "latitude": 51.165691,
    "longitude": 10.451526,
    "name": "Germany",
    "country": "DE",
    "dead": 17,
    "lastUpdated": "2020-03-17T09:53:02.798Z",
    "id": "XWtMdKtp2HAFy68kPZLa",
    "infected": 7588,
    "recovered": 67,
    "sick": 7504
  },
  {
    "id": "XdekMZcw1lJK2MWpBlNK",
    "infected": 27980,
    "recovered": 2749,
    "latitude": 41.871941,
    "longitude": 12.56738,
    "name": "Italy",
    "country": "IT",
    "dead": 2158,
    "lastUpdated": "2020-03-17T09:53:02.932Z",
    "sick": 23073
  },
  {
    "infected": 29,
    "recovered": 0,
    "latitude": -32.5228,
    "longitude": -55.7658,
    "name": "Uruguay",
    "country": "UY",
    "dead": 0,
    "lastUpdated": "2020-03-17T09:53:03.004Z",
    "id": "XrsuLstdybIqIvv0E0aJ",
    "sick": 29
  },
  {
    "infected": 126,
    "recovered": 0,
    "latitude": 42.0396,
    "longitude": 9.0129,
    "name": "Corse",
    "country": "FR",
    "dead": 5,
    "lastUpdated": "2020-03-17T09:47:10.266Z",
    "id": "YGXgIObKVabP2CYEdcb9",
    "sick": 121
  },
  {
    "infected": 40,
    "recovered": 0,
    "latitude": 31.9522,
    "longitude": 35.2332,
    "name": "Palestine",
    "country": "PS",
    "dead": 0,
    "lastUpdated": "2020-03-17T09:53:02.989Z",
    "id": "YMzKw0SnXG71VT7H1jff",
    "sick": 40
  },
  {
    "latitude": 64.2008,
    "longitude": -149.4937,
    "name": "Alaska",
    "country": "US",
    "dead": 0,
    "lastUpdated": "2020-03-17T09:43:03.388Z",
    "id": "YaCODTMD1KKRnrAlkg2u",
    "infected": 1,
    "recovered": 0,
    "sick": 1
  },
  {
    "id": "Yw9uBekNlefXBcOCNMfP",
    "infected": 8320,
    "recovered": 1401,
    "latitude": 37.568291,
    "longitude": 126.99778,
    "name": "South Korea",
    "country": "KR",
    "dead": 81,
    "lastUpdated": "2020-03-17T09:53:02.776Z",
    "sick": 6838
  },
  {
    "id": "ZAZNuCK1VweBaTLCFzCk",
    "infected": 205,
    "recovered": 0,
    "latitude": 52.2297,
    "longitude": 21.0122,
    "name": "Poland",
    "country": "PL",
    "dead": 5,
    "lastUpdated": "2020-03-17T09:53:03.012Z",
    "sick": 200
  },
  {
    "recovered": 0,
    "latitude": 41.6032,
    "longitude": -73.0877,
    "name": "Connecticut",
    "country": "US",
    "dead": 0,
    "lastUpdated": "2020-03-17T09:43:03.374Z",
    "id": "Zqy0gftQzocR49jEJNMl",
    "infected": 41,
    "sick": 41
  },
  {
    "recovered": 3,
    "latitude": -30.000233,
    "longitude": 136.209152,
    "name": "South Australia",
    "country": "AU",
    "dead": 0,
    "lastUpdated": "2020-03-17T09:45:09.658Z",
    "id": "a9p9pAOsjg1WAjPGc2a6",
    "infected": 29,
    "sick": 26
  },
  {
    "longitude": -91.8318,
    "name": "Missouri",
    "country": "US",
    "dead": 0,
    "lastUpdated": "2020-03-17T09:43:03.362Z",
    "id": "aPubGfQ8ToSEuKJldKRT",
    "infected": 4,
    "recovered": 0,
    "latitude": 37.9643,
    "sick": 4
  },
  {
    "recovered": 248,
    "latitude": 23.64407,
    "longitude": 108.26651,
    "name": "Guangxi",
    "country": "CN",
    "dead": 2,
    "lastUpdated": "2020-03-17T07:57:02.372Z",
    "id": "aTa8MiBjtH3iY0SRs2HQ",
    "infected": 253,
    "sick": 3
  },
  {
    "id": "adcBUeAYp6ey0ZXCzKNs",
    "infected": 1,
    "recovered": 0,
    "latitude": 6.6111,
    "longitude": 20.9394,
    "name": "CAR",
    "country": "CF",
    "dead": 0,
    "lastUpdated": "2020-03-17T09:53:03.270Z",
    "sick": 1
  },
  {
    "infected": 45,
    "recovered": 0,
    "latitude": 37.4316,
    "longitude": -78.6569,
    "name": "Virginia",
    "country": "US",
    "dead": 1,
    "lastUpdated": "2020-03-17T09:43:03.453Z",
    "id": "afeZTVC1J1SMMNFxkrcc",
    "sick": 44
  },
  {
    "dead": 8,
    "lastUpdated": "2020-03-17T07:58:47.700Z",
    "id": "alj4hkxg9cjrTxOzwFKt",
    "infected": 456,
    "recovered": 368,
    "latitude": 39.904202,
    "longitude": 116.407394,
    "name": "Beijing",
    "country": "CN",
    "sick": 80
  },
  {
    "infected": 133,
    "recovered": 32,
    "latitude": 33.22319,
    "longitude": 43.679291,
    "name": "Iraq",
    "country": "IQ",
    "dead": 10,
    "lastUpdated": "2020-03-17T09:53:02.878Z",
    "id": "b7TwXX46FA0EmH1CjHET",
    "sick": 91
  },
  {
    "recovered": 2,
    "latitude": 14.457474,
    "longitude": -14.358636,
    "name": "Senegal",
    "country": "SN",
    "dead": 0,
    "lastUpdated": "2020-03-17T09:53:02.925Z",
    "id": "b9p1JhVml3GGC7iiPmKv",
    "infected": 27,
    "sick": 25
  },
  {
    "infected": 3,
    "recovered": 0,
    "latitude": -0.0236,
    "longitude": 37.9062,
    "name": "Kenya",
    "country": "KE",
    "dead": 0,
    "lastUpdated": "2020-03-17T09:53:03.176Z",
    "id": "bVHiTolbUJGHIeVht3eG",
    "sick": 3
  },
  {
    "dead": 3,
    "lastUpdated": "2020-03-17T07:45:37.176Z",
    "id": "bYp4RRHv19M7lYtSzQeV",
    "infected": 178,
    "recovered": 2,
    "latitude": 39.561889,
    "longitude": -74.672169,
    "name": "New Jersey",
    "country": "US",
    "sick": 173
  },
  {
    "latitude": 3.139,
    "longitude": 101.6869,
    "name": "Malaysia",
    "country": "MY",
    "dead": 1,
    "lastUpdated": "2020-03-17T09:53:02.904Z",
    "id": "bdqD4kpdqGgUaX70Tm2Q",
    "infected": 566,
    "recovered": 42,
    "sick": 523
  },
  {
    "infected": 1121,
    "recovered": 1,
    "latitude": 60.128162,
    "longitude": 18.643501,
    "name": "Sweden",
    "country": "SE",
    "dead": 7,
    "lastUpdated": "2020-03-17T09:53:02.813Z",
    "id": "bignnyt2A8BBx8VNo32p",
    "sick": 1113
  },
  {
    "longitude": 20.010162,
    "name": "Albania",
    "country": "AL",
    "dead": 1,
    "lastUpdated": "2020-03-17T09:53:02.780Z",
    "id": "cCGmFmwHOoBrEpvG3qBP",
    "infected": 51,
    "recovered": 0,
    "latitude": 40.973765,
    "sick": 50
  },
  {
    "latitude": 46.8625,
    "longitude": 103.8467,
    "name": "Mongolia",
    "country": "MN",
    "dead": 0,
    "lastUpdated": "2020-03-17T09:53:02.909Z",
    "id": "cPxONYsVo6BgvCW9HUeQ",
    "infected": 4,
    "recovered": 0,
    "sick": 4
  },
  {
    "dead": 0,
    "lastUpdated": "2020-03-17T09:53:02.818Z",
    "id": "cPxe7nsRnOf6aOPqHElJ",
    "infected": 199,
    "recovered": 0,
    "latitude": 64.963051,
    "longitude": -19.020836,
    "name": "Iceland",
    "country": "IS",
    "sick": 199
  },
  {
    "recovered": 5,
    "latitude": 31.046051,
    "longitude": 34.851612,
    "name": "Israel",
    "country": "IL",
    "dead": 0,
    "lastUpdated": "2020-03-17T09:53:02.959Z",
    "id": "cX891t0ONLNFj0MYq6La",
    "infected": 304,
    "sick": 299
  },
  {
    "dead": 0,
    "lastUpdated": "2020-03-17T09:47:10.258Z",
    "id": "cc7s6hYGQ2MovBBBgkKb",
    "infected": 11,
    "recovered": 0,
    "latitude": 4.749531,
    "longitude": -53.112909,
    "name": "Guyane",
    "country": "FR",
    "sick": 11
  },
  {
    "infected": 47,
    "recovered": 0,
    "latitude": 61.8926,
    "longitude": -6.9118,
    "name": "Faeroe Islands",
    "country": "FO",
    "dead": 0,
    "lastUpdated": "2020-03-17T09:53:02.869Z",
    "id": "cgzd5EM8PZv5ziJtTz1w",
    "sick": 47
  },
  {
    "dead": 0,
    "lastUpdated": "2020-03-17T09:43:03.465Z",
    "id": "chj2FF3zb4Xxcop9RHre",
    "infected": 63,
    "recovered": 0,
    "latitude": 41.2033,
    "longitude": -77.1945,
    "name": "Pennsylvania",
    "country": "US",
    "sick": 63
  },
  {
    "infected": 178,
    "recovered": 2,
    "latitude": 45.7087,
    "longitude": 0.6269,
    "name": "Nouvelle-Aquitaine",
    "country": "FR",
    "dead": 0,
    "lastUpdated": "2020-03-17T09:47:10.216Z",
    "id": "cpf3Y5PQTYywIm3PrpIQ",
    "sick": 176
  },
  {
    "recovered": 530,
    "latitude": 40.463669,
    "longitude": -3.74922,
    "name": "Spain",
    "country": "ES",
    "dead": 342,
    "lastUpdated": "2020-03-17T09:53:02.922Z",
    "id": "d0ExINgPaWUBm3l4ioJL",
    "infected": 9942,
    "sick": 9070
  },
  {
    "recovered": 0,
    "latitude": 42.50837,
    "longitude": 1.517155,
    "name": "Andorra",
    "country": "AD",
    "dead": 0,
    "lastUpdated": "2020-03-17T09:53:02.902Z",
    "id": "dedMXSYR2k92wkSXNZqn",
    "infected": 14,
    "sick": 14
  },
  {
    "latitude": 38.831163,
    "longitude": -75.375673,
    "name": "Delaware",
    "country": "US",
    "dead": 0,
    "lastUpdated": "2020-03-17T09:43:03.444Z",
    "id": "dzCgqYduzyncjNKU9z6G",
    "infected": 8,
    "recovered": 0,
    "sick": 8
  },
  {
    "infected": 47,
    "recovered": 0,
    "latitude": 38.9637,
    "longitude": 35.2433,
    "name": "Turkey",
    "country": "TR",
    "dead": 0,
    "lastUpdated": "2020-03-17T09:53:02.866Z",
    "id": "dzIcCaUZlbIXuRw0SyDE",
    "sick": 47
  },
  {
    "latitude": 47.516232,
    "longitude": 14.550072,
    "name": "Austria",
    "country": "AT",
    "dead": 3,
    "lastUpdated": "2020-03-17T09:53:02.901Z",
    "id": "e3BtI12qbqhE8jypOoZu",
    "infected": 1211,
    "recovered": 8,
    "sick": 1200
  },
  {
    "latitude": 41.097481,
    "longitude": 122.310669,
    "name": "Liaoning",
    "country": "CN",
    "dead": 1,
    "lastUpdated": "2020-03-17T07:59:07.368Z",
    "id": "e7P83iImanpd9r36oXK3",
    "infected": 125,
    "recovered": 119,
    "sick": 5
  },
  {
    "latitude": 31.230391,
    "longitude": 121.473701,
    "name": "Shanghai",
    "country": "CN",
    "dead": 3,
    "lastUpdated": "2020-03-17T07:57:15.133Z",
    "id": "e9pQqQa7CEblCYoDtfKo",
    "infected": 358,
    "recovered": 325,
    "sick": 30
  },
  {
    "latitude": 42.407211,
    "longitude": -71.382439,
    "name": "Massachusetts",
    "country": "US",
    "dead": 0,
    "lastUpdated": "2020-03-17T09:43:03.393Z",
    "id": "eCKDGssww4pF7NrxOySu",
    "infected": 197,
    "recovered": 1,
    "sick": 196
  },
  {
    "id": "eLgKPNUwYM5MNDAtF6ql",
    "infected": 9,
    "recovered": 0,
    "latitude": 43.740451,
    "longitude": 7.432032,
    "name": "Monaco",
    "country": "MC",
    "dead": 0,
    "lastUpdated": "2020-03-17T09:53:03.189Z",
    "sick": 9
  },
  {
    "infected": 507,
    "recovered": 8,
    "latitude": 47.2805,
    "longitude": 4.9994,
    "name": "Bourgogne-Franche-Comté",
    "country": "FR",
    "dead": 5,
    "lastUpdated": "2020-03-17T09:47:10.220Z",
    "id": "ejrjMKfHexGnK52FS9Aa",
    "sick": 494
  },
  {
    "longitude": 66.9237,
    "name": "Kazakhstan",
    "country": "KZ",
    "dead": 0,
    "lastUpdated": "2020-03-17T09:53:03.027Z",
    "id": "etrmrftkQg6Kbd9seAga",
    "infected": 27,
    "recovered": 0,
    "latitude": 48.0196,
    "sick": 27
  },
  {
    "id": "eyK5bxFkwdoAouIBvLFM",
    "infected": 539,
    "recovered": 520,
    "latitude": 30.14208,
    "longitude": 102.960701,
    "name": "Sichuan",
    "country": "CN",
    "dead": 3,
    "lastUpdated": "2020-03-17T07:57:27.611Z",
    "sick": 16
  },
  {
    "latitude": 21.473534,
    "longitude": 55.975414,
    "name": "Oman",
    "country": "OM",
    "dead": 0,
    "lastUpdated": "2020-03-17T09:53:02.879Z",
    "id": "f9kmlhYtc3WA3kjbWszW",
    "infected": 24,
    "recovered": 12,
    "sick": 12
  },
  {
    "longitude": 2,
    "name": "Région non communiquée",
    "country": "FR",
    "dead": 91,
    "lastUpdated": "2020-03-16T23:38:50.675Z",
    "id": "fIp76gl05LhZ0aOxUbhz",
    "infected": 0,
    "recovered": 0,
    "latitude": 47,
    "sick": 0
  },
  {
    "dead": 0,
    "lastUpdated": "2020-03-17T09:53:03.021Z",
    "id": "fK06AziL8wyrcoz7rsmJ",
    "infected": 34,
    "recovered": 1,
    "latitude": 31.295929,
    "longitude": 36.691952,
    "name": "Jordan",
    "country": "JO",
    "sick": 33
  },
  {
    "dead": 5,
    "lastUpdated": "2020-03-17T09:43:03.314Z",
    "id": "fNganaGVPifA4QahEQPS",
    "infected": 142,
    "recovered": 0,
    "latitude": 27.716933,
    "longitude": -81.555239,
    "name": "Florida",
    "country": "US",
    "sick": 137
  },
  {
    "longitude": 139.664285,
    "name": "Diamond Princess (Cruise)",
    "country": "ZZ",
    "dead": 7,
    "lastUpdated": "2020-03-17T07:27:31.227Z",
    "id": "fNnE9CD0SttEVrCUo1Ym",
    "infected": 696,
    "recovered": 325,
    "latitude": 35.452016,
    "sick": 364
  },
  {
    "latitude": 31.160629,
    "longitude": 112.255402,
    "name": "Hubei",
    "country": "CN",
    "dead": 3111,
    "lastUpdated": "2020-03-17T07:55:28.129Z",
    "id": "fiJ14DCxw15e3SMemh8R",
    "infected": 67799,
    "recovered": 55987,
    "sick": 8701
  },
  {
    "id": "flbZ2kaR5kBuV8XZ2Nsu",
    "infected": 7,
    "recovered": 0,
    "latitude": 50.4501,
    "longitude": 30.5234,
    "name": "Ukraine",
    "country": "UA",
    "dead": 1,
    "lastUpdated": "2020-03-17T09:53:03.118Z",
    "sick": 6
  },
  {
    "longitude": 5.291266,
    "name": "Netherlands",
    "country": "NL",
    "dead": 24,
    "lastUpdated": "2020-03-17T09:53:03.032Z",
    "id": "g0lRMtEJbucWIGqSPn0I",
    "infected": 1413,
    "recovered": 2,
    "latitude": 52.132633,
    "sick": 1387
  },
  {
    "latitude": 34.69522,
    "longitude": -92.288012,
    "name": "Arkansas",
    "country": "US",
    "dead": 0,
    "lastUpdated": "2020-03-17T09:43:03.425Z",
    "id": "gIdgxJZfTl2QOSYEwMAz",
    "infected": 22,
    "recovered": 0,
    "sick": 22
  },
  {
    "latitude": 43.9695,
    "longitude": -99.9018,
    "name": "South Dakota",
    "country": "US",
    "dead": 1,
    "lastUpdated": "2020-03-17T09:43:03.415Z",
    "id": "gYDsNgvuvtbg8t77w6FS",
    "infected": 10,
    "recovered": 0,
    "sick": 9
  },
  {
    "id": "h9UqxYZ5xC4JZrmdDz0q",
    "infected": 30,
    "recovered": 2,
    "latitude": 35.894231,
    "longitude": 14.432846,
    "name": "Malta",
    "country": "MT",
    "dead": 0,
    "lastUpdated": "2020-03-17T09:53:02.894Z",
    "sick": 28
  },
  {
    "recovered": 2,
    "latitude": 28.7041,
    "longitude": 77.1025,
    "name": "Delhi",
    "country": "IN",
    "dead": 1,
    "lastUpdated": "2020-03-17T09:49:03.012Z",
    "id": "hqwsh1rmvkWI3LFUVuMk",
    "infected": 7,
    "sick": 4
  },
  {
    "longitude": 104.28611,
    "name": "Gansu",
    "country": "CN",
    "dead": 2,
    "lastUpdated": "2020-03-17T07:57:57.829Z",
    "id": "iGkTscdD0XyHFSP23Qrp",
    "infected": 133,
    "recovered": 91,
    "latitude": 35.751835,
    "sick": 40
  },
  {
    "recovered": 3,
    "latitude": 10.8505,
    "longitude": 76.2711,
    "name": "Kerala",
    "country": "IN",
    "dead": 0,
    "lastUpdated": "2020-03-17T09:49:03.002Z",
    "id": "idymmgoqLHImnBdyC7r7",
    "infected": 27,
    "sick": 24
  },
  {
    "infected": 18,
    "recovered": 0,
    "latitude": 16.265,
    "longitude": -61.551,
    "name": "Guadeloupe",
    "country": "FR",
    "dead": 0,
    "lastUpdated": "2020-03-17T09:47:10.264Z",
    "id": "j8eMjjqNAqHAJhAKdBYN",
    "sick": 18
  },
  {
    "latitude": 39.343357,
    "longitude": 117.361649,
    "name": "Tianjin",
    "country": "CN",
    "dead": 3,
    "lastUpdated": "2020-03-17T07:59:27.196Z",
    "id": "jMlHjIOb7eMPSxFBrmG1",
    "infected": 136,
    "recovered": 133,
    "sick": 0
  },
  {
    "id": "jPC0eOG50FWknCDe3K6P",
    "infected": 4,
    "recovered": 0,
    "latitude": 44.5588,
    "longitude": -72.5778,
    "name": "Vermont",
    "country": "US",
    "dead": 0,
    "lastUpdated": "2020-03-17T09:43:03.379Z",
    "sick": 4
  },
  {
    "infected": 223,
    "recovered": 5,
    "latitude": 53.3498,
    "longitude": -6.2603,
    "name": "Ireland",
    "country": "IE",
    "dead": 2,
    "lastUpdated": "2020-03-17T09:53:02.788Z",
    "id": "jpVXEDCyfyq26gPoCtHL",
    "sick": 216
  },
  {
    "infected": 5,
    "recovered": 0,
    "latitude": 44.0682,
    "longitude": -114.742,
    "name": "Idaho",
    "country": "US",
    "dead": 0,
    "lastUpdated": "2020-03-17T09:43:03.430Z",
    "id": "l7fHSKOmcaRX3tq9FCT6",
    "sick": 5
  },
  {
    "infected": 5,
    "recovered": 0,
    "latitude": 10.6918,
    "longitude": -61.2225,
    "name": "Trinidad and Tobago",
    "country": "TT",
    "dead": 0,
    "lastUpdated": "2020-03-17T09:53:03.252Z",
    "id": "lfLdfRP7hyiA6MVnQqqn",
    "sick": 5
  },
  {
    "latitude": 42.524635,
    "longitude": 87.539589,
    "name": "Xinjiang",
    "country": "CN",
    "dead": 3,
    "lastUpdated": "2020-03-17T08:01:23.093Z",
    "id": "lhPjpn6CzqTRDN0RW8uE",
    "infected": 76,
    "recovered": 73,
    "sick": 0
  },
  {
    "recovered": 0,
    "latitude": 3.2028,
    "longitude": 73.2207,
    "name": "Maldives",
    "country": "MV",
    "dead": 0,
    "lastUpdated": "2020-03-17T09:53:03.292Z",
    "id": "m45gI2UbWMuTrOnTtp9k",
    "infected": 13,
    "sick": 13
  },
  {
    "infected": 1,
    "recovered": 0,
    "latitude": 41.9029,
    "longitude": 12.4534,
    "name": "Vatican City",
    "country": "VA",
    "dead": 0,
    "lastUpdated": "2020-03-17T09:53:03.182Z",
    "id": "mF7rVMdVnazAuw8G22xs",
    "sick": 1
  },
  {
    "longitude": 75.7139,
    "name": "Maharashtra",
    "country": "IN",
    "dead": 1,
    "lastUpdated": "2020-03-17T09:49:02.972Z",
    "id": "mJtdLs4ub6CkcAOeMWUm",
    "infected": 39,
    "recovered": 0,
    "latitude": 19.7515,
    "sick": 38
  },
  {
    "recovered": 0,
    "latitude": -33.4489,
    "longitude": -70.6693,
    "name": "Chile",
    "country": "CL",
    "dead": 0,
    "lastUpdated": "2020-03-17T09:53:02.952Z",
    "id": "mSACWVbCy5QE7ciLA93J",
    "infected": 156,
    "sick": 156
  },
  {
    "infected": 1,
    "recovered": 0,
    "latitude": -6.369,
    "longitude": 34.8888,
    "name": "Tanzania",
    "country": "TZ",
    "dead": 0,
    "lastUpdated": "2020-03-17T09:53:03.211Z",
    "id": "mnew3ojzmWV0dWSPfCQ9",
    "sick": 1
  },
  {
    "infected": 39,
    "recovered": 0,
    "latitude": 35.693323,
    "longitude": -86.605748,
    "name": "Tennessee",
    "country": "US",
    "dead": 0,
    "lastUpdated": "2020-03-17T09:43:03.332Z",
    "id": "nLhJXE2apq8yNNj363ai",
    "sick": 39
  },
  {
    "dead": 0,
    "lastUpdated": "2020-03-17T09:53:03.286Z",
    "id": "oB5fSyjWJ0FbNAkssuci",
    "infected": 4,
    "recovered": 0,
    "latitude": -4.6796,
    "longitude": 55.492,
    "name": "Seychelles",
    "country": "SC",
    "sick": 4
  },
  {
    "infected": 37,
    "recovered": 1,
    "latitude": 31.893778,
    "longitude": -6.196132,
    "name": "Morocco",
    "country": "MA",
    "dead": 1,
    "lastUpdated": "2020-03-17T09:53:03.026Z",
    "id": "oJ5vSDE9vgXC2PG8LElp",
    "sick": 35
  },
  {
    "recovered": 0,
    "latitude": 50.4801,
    "longitude": 2.7937,
    "name": "Hauts-de-France",
    "country": "FR",
    "dead": 21,
    "lastUpdated": "2020-03-17T09:47:10.259Z",
    "id": "ofWLu9EuQoK2nHjwU1mA",
    "infected": 585,
    "sick": 564
  },
  {
    "infected": 68,
    "recovered": 8,
    "latitude": -20.917574,
    "longitude": 142.702789,
    "name": "Queensland",
    "country": "AU",
    "dead": 0,
    "lastUpdated": "2020-03-17T09:45:09.601Z",
    "id": "oxz2l1rJipCsfMfy8Mmk",
    "sick": 60
  },
  {
    "latitude": 47.121647,
    "longitude": 128.738235,
    "name": "Heilongjiang",
    "country": "CN",
    "dead": 13,
    "lastUpdated": "2020-03-17T07:59:17.311Z",
    "id": "p1aZboN4BtRJe7hPl8cw",
    "infected": 482,
    "recovered": 456,
    "sick": 13
  },
  {
    "infected": 990,
    "recovered": 984,
    "latitude": 32.026379,
    "longitude": 117.252747,
    "name": "Anhui",
    "country": "CN",
    "dead": 6,
    "lastUpdated": "2020-03-17T07:55:40.087Z",
    "id": "pFhBwPnGGpQ6DLppJ6YS",
    "sick": 0
  },
  {
    "latitude": 38.9072,
    "longitude": -77.0369,
    "name": "Washington, D.C.",
    "country": "US",
    "dead": 0,
    "lastUpdated": "2020-03-17T09:43:03.318Z",
    "id": "q5cfvHprVTraL1yXnhDx",
    "infected": 10,
    "recovered": 0,
    "sick": 10
  },
  {
    "dead": 1,
    "lastUpdated": "2020-03-17T09:45:09.604Z",
    "id": "qnQ0dkxAxnDP01YpdZgk",
    "infected": 28,
    "recovered": 0,
    "latitude": -26.190439,
    "longitude": 123.325947,
    "name": "Western Australia",
    "country": "AU",
    "sick": 27
  },
  {
    "infected": 1058,
    "recovered": 1,
    "latitude": 50.503887,
    "longitude": 4.469936,
    "name": "Belgium",
    "country": "BE",
    "dead": 10,
    "lastUpdated": "2020-03-17T09:53:02.958Z",
    "id": "qpAxVz0garcS0gNZxtOw",
    "sick": 1047
  },
  {
    "recovered": 0,
    "latitude": 31,
    "longitude": -100,
    "name": "Texas",
    "country": "US",
    "dead": 0,
    "lastUpdated": "2020-03-17T09:43:03.449Z",
    "id": "qsrWiq0qCmIG66hpWojP",
    "infected": 57,
    "sick": 57
  },
  {
    "id": "qyX9xXEuKg3co8yKe3Fl",
    "infected": 405,
    "recovered": 1,
    "latitude": 43.9352,
    "longitude": 6.0679,
    "name": "Provence-Alpes-Côte d'Azur",
    "country": "FR",
    "dead": 1,
    "lastUpdated": "2020-03-17T01:36:42.971Z",
    "sick": 403
  },
  {
    "latitude": 30.9843,
    "longitude": -91.9623,
    "name": "Louisiana",
    "country": "US",
    "dead": 3,
    "lastUpdated": "2020-03-17T09:43:03.369Z",
    "id": "qzuktS0qQVU4PEookjss",
    "infected": 136,
    "recovered": 0,
    "sick": 133
  },
  {
    "longitude": -69.9683,
    "name": "Aruba",
    "country": "AW",
    "dead": 0,
    "lastUpdated": "2020-03-17T09:53:02.864Z",
    "id": "rKbrli0DkAmp1UpbrqHQ",
    "infected": 3,
    "recovered": 0,
    "latitude": 12.5211,
    "sick": 3
  },
  {
    "longitude": 108.277199,
    "name": "Vietnam",
    "country": "VN",
    "dead": 0,
    "lastUpdated": "2020-03-17T09:53:03.002Z",
    "id": "rKnSEyG03ak4YmGzonlg",
    "infected": 61,
    "recovered": 16,
    "latitude": 14.058324,
    "sick": 45
  },
  {
    "infected": 1,
    "recovered": 0,
    "latitude": -12.8275,
    "longitude": 45.1662,
    "name": "Mayotte",
    "country": "FR",
    "dead": 0,
    "lastUpdated": "2020-03-17T09:53:03.230Z",
    "id": "rUQ6Z3pmWTPVlqEUSmN7",
    "sick": 1
  },
  {
    "latitude": 29.159849,
    "longitude": 120.326447,
    "name": "Zhejiang",
    "country": "CN",
    "dead": 1,
    "lastUpdated": "2020-03-17T07:57:38.511Z",
    "id": "rgBVJ4hPofqjjchnroiY",
    "infected": 1232,
    "recovered": 1216,
    "sick": 15
  },
  {
    "latitude": 60.472023,
    "longitude": 8.468946,
    "name": "Norway",
    "country": "NO",
    "dead": 3,
    "lastUpdated": "2020-03-17T09:53:02.977Z",
    "id": "rxSafpWsyKhfkV0HTtb4",
    "infected": 1359,
    "recovered": 1,
    "sick": 1355
  },
  {
    "infected": 74,
    "recovered": 0,
    "latitude": 53.9333,
    "longitude": -116.5765,
    "name": "Alberta",
    "country": "CA",
    "dead": 0,
    "lastUpdated": "2020-03-17T08:03:29.545Z",
    "id": "sBFMOzZJdrdXdyLZpweO",
    "sick": 74
  },
  {
    "latitude": 19.566395,
    "longitude": 109.949684,
    "name": "Hainan",
    "country": "CN",
    "dead": 6,
    "lastUpdated": "2020-03-17T07:58:57.904Z",
    "id": "sKNhMvgXeyivpNFg02RA",
    "infected": 168,
    "recovered": 161,
    "sick": 1
  },
  {
    "infected": 86,
    "recovered": 1,
    "latitude": -10.33755,
    "longitude": -75.630295,
    "name": "Peru",
    "country": "PE",
    "dead": 0,
    "lastUpdated": "2020-03-17T09:53:02.926Z",
    "id": "sLL1jETcJYjT6g5bfcEG",
    "sick": 85
  },
  {
    "latitude": 37.89566,
    "longitude": 114.904221,
    "name": "Hebei",
    "country": "CN",
    "dead": 6,
    "lastUpdated": "2020-03-17T07:59:38.092Z",
    "id": "sgsBhTwHxF1VVnqXbXXp",
    "infected": 318,
    "recovered": 310,
    "sick": 2
  },
  {
    "latitude": 42.3154,
    "longitude": 43.3569,
    "name": "Georgia",
    "country": "GE",
    "dead": 0,
    "lastUpdated": "2020-03-17T09:53:02.933Z",
    "id": "sjW9OwjFqrOvjVHRXWoR",
    "infected": 34,
    "recovered": 1,
    "sick": 33
  },
  {
    "recovered": 0,
    "latitude": -23.4425,
    "longitude": -58.4438,
    "name": "Paraguay",
    "country": "PY",
    "dead": 0,
    "lastUpdated": "2020-03-17T09:53:03.107Z",
    "id": "t2fq7L9UcXfhuXfQNVRj",
    "infected": 9,
    "sick": 9
  },
  {
    "recovered": 0,
    "latitude": 39.147061,
    "longitude": -111.596466,
    "name": "Utah",
    "country": "US",
    "dead": 0,
    "lastUpdated": "2020-03-17T09:43:03.396Z",
    "id": "tSmr8vNsiDhhpXMSBsms",
    "infected": 29,
    "sick": 29
  },
  {
    "latitude": 27.3818,
    "longitude": 111.510681,
    "name": "Hunan",
    "country": "CN",
    "dead": 4,
    "lastUpdated": "2020-03-17T07:55:56.539Z",
    "id": "tdNRDDrgvBQqqwzdFGh4",
    "infected": 1018,
    "recovered": 1014,
    "sick": 0
  },
  {
    "latitude": 26.842964,
    "longitude": 107.290283,
    "name": "Guizhou",
    "country": "CN",
    "dead": 2,
    "lastUpdated": "2020-03-17T08:01:04.021Z",
    "id": "tyY4QSHWG9sXqSO9jm0Y",
    "infected": 147,
    "recovered": 144,
    "sick": 1
  },
  {
    "dead": 0,
    "lastUpdated": "2020-03-17T09:49:02.977Z",
    "id": "ubUuY89n0cXVgahI4Ytp",
    "infected": 15,
    "recovered": 0,
    "latitude": 29.0588,
    "longitude": 76.0856,
    "name": "Haryana",
    "country": "IN",
    "sick": 15
  },
  {
    "recovered": 631,
    "latitude": 32.93708,
    "longitude": 119.151932,
    "name": "Jiangsu",
    "country": "CN",
    "dead": 0,
    "lastUpdated": "2020-03-17T08:00:21.504Z",
    "id": "uvxN28EpGmRq3K9REtBP",
    "infected": 631,
    "sick": 0
  },
  {
    "infected": 3,
    "recovered": 0,
    "latitude": 33.7782,
    "longitude": 76.5762,
    "name": "Jammu and Kashmir",
    "country": "IN",
    "dead": 0,
    "lastUpdated": "2020-03-17T09:49:03.061Z",
    "id": "v5wfBhxjYTpTMaKko6AW",
    "sick": 3
  },
  {
    "longitude": 30.802498,
    "name": "Egypt",
    "country": "EG",
    "dead": 4,
    "lastUpdated": "2020-03-17T09:53:02.832Z",
    "id": "v8JcH4FHH7BDpJlNNHjv",
    "infected": 166,
    "recovered": 32,
    "latitude": 26.820553,
    "sick": 130
  },
  {
    "latitude": 47.288374,
    "longitude": -119.928431,
    "name": "Washington",
    "country": "US",
    "dead": 48,
    "lastUpdated": "2020-03-17T09:43:03.446Z",
    "id": "vCUVQn7RK8pkw5y2rvYN",
    "infected": 904,
    "recovered": 1,
    "sick": 855
  },
  {
    "dead": 0,
    "lastUpdated": "2020-03-17T09:53:03.273Z",
    "id": "vMGALmMJbagxGIbLyFfS",
    "infected": 12,
    "recovered": 2,
    "latitude": 18.1096,
    "longitude": -77.2975,
    "name": "Jamaica",
    "country": "JM",
    "sick": 10
  },
  {
    "latitude": 32.3182,
    "longitude": -86.9023,
    "name": "Alabama",
    "country": "US",
    "dead": 0,
    "lastUpdated": "2020-03-17T09:43:03.462Z",
    "id": "vSMJR4m49MZM15umlC9B",
    "infected": 29,
    "recovered": 0,
    "sick": 29
  },
  {
    "dead": 4,
    "lastUpdated": "2020-03-17T01:37:24.831Z",
    "id": "vSwFXxTSLgzsG25zOJUy",
    "infected": 1762,
    "recovered": 5,
    "latitude": 48.8499,
    "longitude": 2.637,
    "name": "Île-de-France",
    "country": "FR",
    "sick": 1753
  },
  {
    "longitude": -63.4168,
    "name": "Prince Edward Island",
    "country": "CA",
    "dead": 0,
    "lastUpdated": "2020-03-17T08:04:10.578Z",
    "id": "vjK6292ALJl5wq8XHw3P",
    "infected": 1,
    "recovered": 0,
    "latitude": 46.5107,
    "sick": 1
  },
  {
    "infected": 14991,
    "recovered": 4996,
    "latitude": 32.42791,
    "longitude": 53.688046,
    "name": "Iran",
    "country": "IR",
    "dead": 853,
    "lastUpdated": "2020-03-17T09:53:03.034Z",
    "id": "vkkXVaqUswO5JsMZx0mX",
    "sick": 9142
  },
  {
    "latitude": 53.7609,
    "longitude": -98.8139,
    "name": "Manitoba",
    "country": "CA",
    "dead": 0,
    "lastUpdated": "2020-03-17T08:03:47.485Z",
    "id": "wCnlOr8oX3DlF0otQrFc",
    "infected": 7,
    "recovered": 0,
    "sick": 7
  },
  {
    "infected": 65,
    "recovered": 3,
    "latitude": -34.6037,
    "longitude": -58.3816,
    "name": "Argentina",
    "country": "AR",
    "dead": 2,
    "lastUpdated": "2020-03-17T09:53:02.849Z",
    "id": "wEl0cjiA6OcZiI9kaSsF",
    "sick": 60
  },
  {
    "latitude": 44.3148,
    "longitude": -85.6024,
    "name": "Michigan",
    "country": "US",
    "dead": 0,
    "lastUpdated": "2020-03-17T09:43:03.413Z",
    "id": "wgRwpPMGBaKLAl1xo1C7",
    "infected": 54,
    "recovered": 0,
    "sick": 54
  },
  {
    "dead": 0,
    "lastUpdated": "2020-03-17T09:43:03.327Z",
    "id": "wi47s9vKxiMqxfgurj3B",
    "infected": 4,
    "recovered": 0,
    "latitude": 21.287261,
    "longitude": -157.838954,
    "name": "Hawaii",
    "country": "US",
    "sick": 4
  },
  {
    "dead": 3,
    "lastUpdated": "2020-03-17T09:53:02.896Z",
    "id": "xFgM48q8JxVPfvQLQDNb",
    "infected": 120,
    "recovered": 3,
    "latitude": 34.08267,
    "longitude": 35.918113,
    "name": "Lebanon",
    "country": "LB",
    "sick": 114
  },
  {
    "latitude": 9.081999,
    "longitude": 8.675277,
    "name": "Nigeria",
    "country": "NG",
    "dead": 0,
    "lastUpdated": "2020-03-17T09:38:08.367Z",
    "id": "xHWPTTpNHEwWv6MqfxP5",
    "infected": 2,
    "recovered": 1,
    "sick": 1
  },
  {
    "longitude": -101.002,
    "name": "North Dakota",
    "country": "US",
    "dead": 0,
    "lastUpdated": "2020-03-17T09:43:03.398Z",
    "id": "xQpNodSQfHNHAtG9Onnj",
    "infected": 1,
    "recovered": 0,
    "latitude": 47.5515,
    "sick": 1
  },
  {
    "dead": 0,
    "lastUpdated": "2020-03-17T09:43:03.427Z",
    "id": "xSHgaJlyPxHFWB6hhyng",
    "infected": 47,
    "recovered": 1,
    "latitude": 44.5,
    "longitude": -89.5,
    "name": "Wisconsin",
    "country": "US",
    "sick": 46
  },
  {
    "infected": 5,
    "recovered": 0,
    "latitude": 9.145,
    "longitude": 40.4897,
    "name": "Ethiopia",
    "country": "ET",
    "dead": 0,
    "lastUpdated": "2020-03-17T09:53:03.122Z",
    "id": "xY69Nr3VSiZCwD2Qp0SD",
    "sick": 5
  },
  {
    "latitude": -22.95763,
    "longitude": 18.4904,
    "name": "Namibia",
    "country": "NA",
    "dead": 0,
    "lastUpdated": "2020-03-17T09:53:03.114Z",
    "id": "xtX46kxBlEapOMdD1Emh",
    "infected": 2,
    "recovered": 0,
    "sick": 2
  },
  {
    "latitude": -17.6797,
    "longitude": -149.4068,
    "name": "Polynésie française",
    "country": "FR",
    "dead": 0,
    "lastUpdated": "2020-03-17T01:40:32.808Z",
    "id": "yOfFKDRrscqcZ85WMRqF",
    "infected": 3,
    "recovered": 0,
    "sick": 3
  },
  {
    "latitude": 12.1696,
    "longitude": -68.99,
    "name": "Curaçao",
    "country": "CW",
    "dead": 0,
    "lastUpdated": "2020-03-17T09:53:03.253Z",
    "id": "z0KDu61I2qPILneW2Lih",
    "infected": 2,
    "recovered": 0,
    "sick": 2
  },
  {
    "recovered": 0,
    "latitude": 46.5653,
    "longitude": -66.4619,
    "name": "New Brunswick",
    "country": "CA",
    "dead": 0,
    "lastUpdated": "2020-03-17T08:04:00.863Z",
    "id": "z1Vx0y33oMGoeJSuS8Ui",
    "infected": 6,
    "sick": 6
  },
  {
    "dead": 2,
    "lastUpdated": "2020-03-17T09:53:02.913Z",
    "id": "zC03Urt1iJJb2Tf6p0jd",
    "infected": 58,
    "recovered": 0,
    "latitude": -1.831239,
    "longitude": -78.183403,
    "name": "Ecuador",
    "country": "EC",
    "sick": 56
  },
  {
    "recovered": 41,
    "latitude": 15.870032,
    "longitude": 100.992538,
    "name": "Thailand",
    "country": "TH",
    "dead": 1,
    "lastUpdated": "2020-03-17T09:53:03.003Z",
    "id": "zvdC0u72Bk5YKNaazZFZ",
    "infected": 177,
    "sick": 135
  },
  {
    "longitude": 21.0059,
    "name": "Serbia",
    "country": "RS",
    "dead": 0,
    "lastUpdated": "2020-03-17T09:53:02.973Z",
    "id": "zyxFwuiyCJHhRyNEg60C",
    "infected": 65,
    "recovered": 1,
    "latitude": 44.0165,
    "sick": 64
  }
]