[
  {
    "name": "San Andrés",
    "latitude": 12.5847,
    "dead": 0,
    "lastUpdated": "2020-07-24T04:21:49.191Z",
    "recovered": 24,
    "infected": 33,
    "id": "01b09TY4vmuZwzVuiRFK",
    "pop": 72600,
    "country": "CO",
    "longitude": -81.7006,
    "sick": 9,
    "invisible": false
  },
  {
    "lastUpdated": "2020-07-24T03:51:03.479Z",
    "recovered": 238,
    "infected": 252,
    "id": "0FOJefeLxQYXQ1CnJm9o",
    "pop": 63196,
    "country": "GG",
    "longitude": -2.5895,
    "name": "Guernsey",
    "alwaysShow": false,
    "latitude": 49.4482,
    "dead": 13,
    "sick": 1,
    "invisible": false
  },
  {
    "state": "72",
    "id": "0GJcws44NSPsDHAuxJhW",
    "pop": 5827000,
    "country": "IT",
    "longitude": 14.333333,
    "name": "Campania",
    "latitude": 41.066666,
    "dead": 434,
    "lastUpdated": "2020-07-24T04:31:02.432Z",
    "recovered": 4111,
    "infected": 4874,
    "sick": 329,
    "invisible": false
  },
  {
    "name": "Tarapacá",
    "latitude": -20.2167,
    "dead": 144,
    "lastUpdated": "2020-07-24T04:20:12.016Z",
    "recovered": 0,
    "infected": 7820,
    "id": "0HDQbiHe462xMCUV5HiI",
    "pop": 383870,
    "country": "CL",
    "longitude": -70.14222,
    "sick": 7676,
    "invisible": false
  },
  {
    "recovered": 14393,
    "infected": 21099,
    "id": "0VG7S6aaK4eSo59fL9JO",
    "pop": 45990000,
    "country": "IN",
    "longitude": 85.0985,
    "name": "Odisha",
    "latitude": 20.9517,
    "dead": 145,
    "lastUpdated": "2020-07-24T04:41:01.442Z",
    "sick": 6561,
    "invisible": false
  },
  {
    "name": "Hidalgo",
    "latitude": 20.4737,
    "dead": 924,
    "lastUpdated": "2020-07-24T04:32:17.071Z",
    "recovered": 0,
    "infected": 5898,
    "id": "0XmCRqiK2ZaehoEJvfer",
    "pop": 2990300,
    "country": "MX",
    "longitude": -98.8582,
    "sick": 4974,
    "invisible": false
  },
  {
    "country": "IN",
    "longitude": 92.6586,
    "name": "Andaman and Nicobar Islands",
    "latitude": 11.7401,
    "dead": 0,
    "lastUpdated": "2020-07-24T04:41:01.453Z",
    "recovered": 170,
    "infected": 240,
    "id": "0jStOpTUNRaQYJqgmRoK",
    "pop": 427246,
    "sick": 70,
    "invisible": false
  },
  {
    "country": "QA",
    "longitude": 51.145517,
    "name": "Qatar",
    "latitude": 25.315058,
    "dead": 164,
    "lastUpdated": "2020-07-24T04:46:05.170Z",
    "recovered": 105018,
    "infected": 108244,
    "id": "0m4aECS0Z2DGFEr8ldgI",
    "pop": 2639000,
    "sick": 3062,
    "invisible": false
  },
  {
    "longitude": 87.855,
    "name": "West Bengal",
    "latitude": 22.9868,
    "dead": 1255,
    "lastUpdated": "2020-07-24T04:41:01.442Z",
    "recovered": 31656,
    "infected": 51757,
    "id": "0n54EMSDJcRoT1QEvw80",
    "pop": 90320000,
    "country": "IN",
    "sick": 18846,
    "invisible": false
  },
  {
    "latitude": 22.9734,
    "dead": 780,
    "lastUpdated": "2020-07-24T04:41:01.442Z",
    "recovered": 17359,
    "infected": 25474,
    "id": "0s18o5DrDAHjbu5MFcrj",
    "pop": 73340000,
    "country": "IN",
    "longitude": 78.6569,
    "name": "Madhya Pradesh",
    "sick": 7335,
    "invisible": false
  },
  {
    "lastUpdated": "2020-07-24T04:46:05.138Z",
    "recovered": 1979617,
    "infected": 0,
    "id": "0tFoopNTs6e4tOoaltu2",
    "country": "US",
    "longitude": -95.7129,
    "invisible": true,
    "name": "Unknown US state",
    "latitude": 37.0902,
    "dead": 0,
    "sick": 0
  },
  {
    "id": "0x2HLhr5z5xAtEdO4iZm",
    "pop": 37330000,
    "country": "CN",
    "longitude": 108.472214,
    "name": "Shaanxi",
    "latitude": 35.64249,
    "dead": 3,
    "lastUpdated": "2020-07-24T04:23:13.867Z",
    "recovered": 317,
    "infected": 323,
    "sick": 3,
    "invisible": false
  },
  {
    "longitude": 21.668393,
    "name": "North Macedonia",
    "latitude": 41.643351,
    "dead": 445,
    "lastUpdated": "2020-07-24T04:46:05.220Z",
    "recovered": 5071,
    "infected": 9669,
    "id": "19MvIhipqTyYv1H37Upw",
    "pop": 2077000,
    "country": "MK",
    "sick": 4153,
    "invisible": false
  },
  {
    "latitude": 53.1355,
    "dead": 3,
    "lastUpdated": "2020-07-24T04:37:02.518Z",
    "recovered": 259,
    "infected": 264,
    "state": "NL",
    "id": "1DOMOmCWDtva46OVSZLv",
    "pop": 521542,
    "country": "CA",
    "longitude": -57.6604,
    "name": "Newfoundland and Labrador",
    "sick": 2,
    "invisible": false
  },
  {
    "recovered": 18,
    "infected": 18,
    "id": "1Fap7rZu9SIRqf5TG9Dg",
    "pop": 5627000,
    "country": "CN",
    "longitude": 96.779286,
    "name": "Qinghai",
    "latitude": 35.801933,
    "dead": 0,
    "lastUpdated": "2020-07-24T04:23:13.881Z",
    "sick": 0,
    "invisible": false
  },
  {
    "longitude": -102.5528,
    "invisible": true,
    "name": "Unknown Mexico state",
    "latitude": 23.6345,
    "dead": 0,
    "lastUpdated": "2020-07-24T04:46:05.150Z",
    "recovered": 236209,
    "infected": 0,
    "id": "1YXQMlVL3fUeDZmcVfJw",
    "pop": 126200000,
    "country": "MX",
    "sick": 0
  },
  {
    "country": "RU",
    "longitude": 73.3167,
    "name": "Omsk Oblast",
    "latitude": 55.0555,
    "dead": 56,
    "lastUpdated": "2020-07-24T04:30:06.578Z",
    "recovered": 3572,
    "infected": 5854,
    "id": "1at5nIap9H51v32otlQl",
    "pop": 1960000,
    "sick": 2226,
    "invisible": false
  },
  {
    "state": "21",
    "id": "1eTSQyfp8RoDPeFrIwun",
    "pop": 4376000,
    "country": "IT",
    "longitude": 8.206944,
    "name": "Piemonte",
    "latitude": 44.9,
    "dead": 4123,
    "lastUpdated": "2020-07-24T04:31:02.433Z",
    "recovered": 26659,
    "infected": 31567,
    "sick": 785,
    "invisible": false
  },
  {
    "recovered": 0,
    "infected": 341,
    "id": "1j1OurxLTpZYuWIWwQ9F",
    "pop": 1003000,
    "country": "PL",
    "longitude": 15.461,
    "name": "Lubuskie",
    "latitude": 51.993,
    "dead": 2,
    "lastUpdated": "2020-07-24T04:33:09.065Z",
    "sick": 339,
    "invisible": false
  },
  {
    "country": "MD",
    "longitude": 28.3699,
    "name": "Moldova",
    "latitude": 47.4116,
    "dead": 719,
    "lastUpdated": "2020-07-24T04:46:05.199Z",
    "recovered": 15174,
    "infected": 22105,
    "id": "1qTPB8X3tyLyIdsb5TN3",
    "pop": 3550000,
    "sick": 6212,
    "invisible": false
  },
  {
    "latitude": 37.0902,
    "dead": 100,
    "lastUpdated": "2020-07-24T04:47:02.284Z",
    "recovered": 0,
    "infected": 11174,
    "id": "22PJOAThcDFKgSbyQIkD",
    "country": "US",
    "longitude": -95.7129,
    "invisible": true,
    "name": "Federal Bureau of Prisons",
    "sick": 11074
  },
  {
    "name": "Tibet",
    "latitude": 30.15336,
    "dead": 0,
    "lastUpdated": "2020-07-24T04:23:13.881Z",
    "recovered": 1,
    "infected": 1,
    "id": "25qIBtsW2nfQj3pwBKg9",
    "pop": 3180000,
    "country": "CN",
    "longitude": 88.787865,
    "sick": 0,
    "invisible": false
  },
  {
    "recovered": 52164,
    "infected": 93657,
    "id": "2KHYUb5t3lwzVVmDjwNX",
    "pop": 264000000,
    "country": "ID",
    "longitude": 115.66779,
    "name": "Indonesia",
    "latitude": -1.572184,
    "dead": 4576,
    "lastUpdated": "2020-07-24T04:46:05.170Z",
    "sick": 36917,
    "invisible": false
  },
  {
    "latitude": 43.807191,
    "dead": 273,
    "lastUpdated": "2020-07-24T04:47:02.281Z",
    "recovered": 0,
    "infected": 15713,
    "state": "OR",
    "id": "2OrsssmGUs4XCzaZzvTv",
    "pop": 4191000,
    "country": "US",
    "longitude": -120.585594,
    "name": "Oregon",
    "sick": 15440,
    "invisible": false
  },
  {
    "country": "CL",
    "longitude": -70.400002,
    "name": "Antofagasta",
    "latitude": -23.65,
    "dead": 293,
    "lastUpdated": "2020-07-24T04:20:12.019Z",
    "recovered": 0,
    "infected": 13309,
    "id": "2c5HBZ1ffkCVXnMYUWnY",
    "pop": 425000,
    "sick": 13016,
    "invisible": false
  },
  {
    "longitude": -51.070534,
    "name": "Amapá",
    "latitude": 0.035574,
    "dead": 548,
    "lastUpdated": "2020-07-24T04:27:08.509Z",
    "recovered": 0,
    "infected": 34838,
    "state": "AP",
    "id": "2dzhyWsBSPpENWlNew0b",
    "pop": 9029000,
    "country": "BR",
    "sick": 34290,
    "invisible": false
  },
  {
    "recovered": 153,
    "infected": 155,
    "id": "2jxHvSsxdnom0nPNvOT8",
    "pop": 27460000,
    "country": "CN",
    "longitude": 126.548103,
    "name": "Jilin",
    "latitude": 43.851921,
    "dead": 2,
    "lastUpdated": "2020-07-24T04:23:13.881Z",
    "sick": 0,
    "invisible": false
  },
  {
    "recovered": 180,
    "infected": 184,
    "id": "2p11BjSAs3wVyymgqBOe",
    "pop": 34571,
    "country": "GI",
    "longitude": -5.3536,
    "name": "Gibraltar",
    "latitude": 36.1408,
    "dead": 0,
    "lastUpdated": "2020-07-24T04:46:05.251Z",
    "sick": 4,
    "invisible": false
  },
  {
    "lastUpdated": "2020-07-23T23:46:20.611Z",
    "recovered": 2080,
    "infected": 4720,
    "id": "2sLNkkHpyaHx7dD3aMDO",
    "pop": 2567000,
    "country": "FR",
    "longitude": 1.6751,
    "name": "Centre-Val de Loire",
    "latitude": 47.7516,
    "dead": 557,
    "sick": 2083,
    "invisible": false
  },
  {
    "lastUpdated": "2020-07-24T04:31:02.434Z",
    "recovered": 1366,
    "infected": 1463,
    "state": "55",
    "id": "319tiZOMczx1y0DfvOib",
    "pop": 884640,
    "country": "IT",
    "longitude": 12.643751,
    "name": "Umbria",
    "latitude": 42.565044,
    "dead": 80,
    "sick": 17,
    "invisible": false
  },
  {
    "lastUpdated": "2020-07-24T04:21:49.191Z",
    "recovered": 488,
    "infected": 1393,
    "id": "38T96Q3XNjt5FSJygPed",
    "pop": 1355000,
    "country": "CO",
    "longitude": -76.6131592,
    "name": "Cauca",
    "latitude": 2.43823,
    "dead": 40,
    "sick": 865,
    "invisible": false
  },
  {
    "country": "ZM",
    "longitude": 27.849332,
    "name": "Zambia",
    "latitude": -13.133896,
    "dead": 134,
    "lastUpdated": "2020-07-24T04:46:05.223Z",
    "recovered": 1677,
    "infected": 3789,
    "id": "3IlPjAbP5qVMn1nlgLTJ",
    "pop": 17090000,
    "sick": 1978,
    "invisible": false
  },
  {
    "latitude": 42.7044,
    "dead": 40,
    "lastUpdated": "2020-07-24T04:46:05.230Z",
    "recovered": 538,
    "infected": 2569,
    "id": "3LstMSN5XMYBkxbe5HN7",
    "pop": 631219,
    "country": "ME",
    "longitude": 19.3958,
    "name": "Montenegro",
    "sick": 1991,
    "invisible": false
  },
  {
    "longitude": 149.0124,
    "name": "Australian Capital Territory",
    "latitude": -35.4735,
    "dead": 3,
    "lastUpdated": "2020-07-24T04:28:26.004Z",
    "recovered": 109,
    "infected": 113,
    "state": "ACT",
    "id": "3OZoQsKrzxZ18EKyfGE6",
    "pop": 418440,
    "country": "AU",
    "sick": 1,
    "invisible": false
  },
  {
    "lastUpdated": "2020-07-24T04:30:06.578Z",
    "recovered": 5095,
    "infected": 5719,
    "id": "3PfzjWjvOkfgxc672BHQ",
    "pop": 608000,
    "country": "RU",
    "longitude": 38.8389,
    "name": "Yaroslavl Oblast",
    "latitude": 57.8992,
    "dead": 24,
    "sick": 600,
    "invisible": false
  },
  {
    "country": "RU",
    "longitude": 95.626,
    "name": "Tuva",
    "latitude": 51.8873,
    "dead": 46,
    "lastUpdated": "2020-07-24T04:30:06.578Z",
    "recovered": 3236,
    "infected": 5847,
    "id": "3PpqgIUJAtzxo1j7z56i",
    "pop": 321000,
    "sick": 2565,
    "invisible": false
  },
  {
    "latitude": 26.2006,
    "dead": 70,
    "lastUpdated": "2020-07-24T04:41:01.442Z",
    "recovered": 20700,
    "infected": 28792,
    "id": "3cCbnJCsK7mKlTO08K1o",
    "pop": 30940000,
    "country": "IN",
    "longitude": 92.9376,
    "name": "Assam",
    "sick": 8022,
    "invisible": false
  },
  {
    "name": "Ohio",
    "latitude": 40.4173,
    "dead": 3268,
    "lastUpdated": "2020-07-24T04:47:02.276Z",
    "recovered": 0,
    "infected": 80229,
    "state": "OH",
    "id": "3fC3bAyIRUquOQOEnQNe",
    "pop": 11690000,
    "country": "US",
    "longitude": -82.9071,
    "sick": 76961,
    "invisible": false
  },
  {
    "name": "Sinaloa",
    "latitude": 25,
    "dead": 1964,
    "lastUpdated": "2020-07-24T04:32:17.069Z",
    "recovered": 0,
    "infected": 11964,
    "id": "3kFCzJguabtBvXaHxgiu",
    "pop": 3066400,
    "country": "MX",
    "longitude": -107.5,
    "sick": 10000,
    "invisible": false
  },
  {
    "longitude": -76.522224,
    "name": "Valle del Cauca",
    "latitude": 3.420556,
    "dead": 626,
    "lastUpdated": "2020-07-24T04:21:49.184Z",
    "recovered": 8894,
    "infected": 17950,
    "id": "3mC2LveOpXV8P1PmQGUj",
    "pop": 4708300,
    "country": "CO",
    "sick": 8430,
    "invisible": false
  },
  {
    "longitude": -10.9408,
    "name": "Mauritania",
    "latitude": 21.0079,
    "dead": 156,
    "lastUpdated": "2020-07-24T04:46:05.222Z",
    "recovered": 4086,
    "infected": 6067,
    "id": "4NnFMekRK2m14IlnZZoj",
    "pop": 4420000,
    "country": "MR",
    "sick": 1825,
    "invisible": false
  },
  {
    "recovered": 2898,
    "infected": 3392,
    "state": "BC",
    "id": "4hfZRUoUgI4a3vrG0GBk",
    "pop": 5071000,
    "country": "CA",
    "longitude": -127.6476,
    "name": "British Columbia",
    "latitude": 53.7267,
    "dead": 190,
    "lastUpdated": "2020-07-24T04:37:02.517Z",
    "sick": 304,
    "invisible": false
  },
  {
    "latitude": -22.908333,
    "dead": 12535,
    "lastUpdated": "2020-07-24T04:27:08.506Z",
    "recovered": 0,
    "infected": 151549,
    "state": "RJ",
    "id": "4kq0z3kh5zt3YAUWxvtE",
    "pop": 17159960,
    "country": "BR",
    "longitude": -43.196388,
    "name": "Rio de Janeiro",
    "sick": 139014,
    "invisible": false
  },
  {
    "recovered": 0,
    "infected": 138358,
    "state": "BA",
    "id": "4yDbkEyqsNzZJjfrciYV",
    "pop": 14812617,
    "country": "BR",
    "longitude": -41.280857,
    "name": "Bahia",
    "latitude": -11.409874,
    "dead": 3044,
    "lastUpdated": "2020-07-24T04:27:08.507Z",
    "sick": 135314,
    "invisible": false
  },
  {
    "id": "4zqzRm2xHn0CDVOUQJ8p",
    "pop": 9898000,
    "country": "AZ",
    "longitude": 47.93802,
    "name": "Azerbaijan",
    "latitude": 40.3426,
    "dead": 391,
    "lastUpdated": "2020-07-24T04:46:05.195Z",
    "recovered": 20974,
    "infected": 28980,
    "sick": 7615,
    "invisible": false
  },
  {
    "latitude": 22.233105,
    "dead": 855,
    "lastUpdated": "2020-07-24T04:32:17.071Z",
    "recovered": 0,
    "infected": 13856,
    "id": "54cfsdsRF76XVHWtZs19",
    "pop": 3672300,
    "country": "MX",
    "longitude": -97.861099,
    "name": "Tamaulipas",
    "sick": 13001,
    "invisible": false
  },
  {
    "latitude": 51.0109,
    "dead": 4918,
    "lastUpdated": "2020-07-24T04:37:13.125Z",
    "recovered": 9563,
    "infected": 36684,
    "state": "VLG",
    "id": "57ydD48mLRD2YoyteJZj",
    "pop": 6596000,
    "country": "BE",
    "longitude": 3.7265,
    "name": "Flanders",
    "sick": 22203,
    "invisible": false
  },
  {
    "longitude": -78.035889,
    "name": "Bahamas",
    "latitude": 25.025885,
    "dead": 11,
    "lastUpdated": "2020-07-24T04:46:05.249Z",
    "recovered": 91,
    "infected": 274,
    "id": "5MHegCUO9L3LiAU7DDey",
    "pop": 395361,
    "country": "BS",
    "sick": 172,
    "invisible": false
  },
  {
    "state": "NSW",
    "id": "5N16a2OXXRpsEFanw0TC",
    "pop": 7544000,
    "country": "AU",
    "longitude": 146.921097,
    "name": "New South Wales",
    "latitude": -31.253218,
    "dead": 49,
    "lastUpdated": "2020-07-24T04:28:26.010Z",
    "recovered": 2988,
    "infected": 3633,
    "sick": 596,
    "invisible": false
  },
  {
    "name": "South Sudan",
    "latitude": 6.8769908,
    "dead": 45,
    "lastUpdated": "2020-07-24T04:46:05.231Z",
    "recovered": 1175,
    "infected": 2239,
    "id": "5N4PRxsCDzzwk7R200V1",
    "pop": 12580000,
    "country": "SS",
    "longitude": 31.3069782,
    "sick": 1019,
    "invisible": false
  },
  {
    "recovered": 9970,
    "infected": 16135,
    "state": "VC",
    "id": "5Va9A7CXR8AXdUz4HTJj",
    "pop": 4975000,
    "country": "ES",
    "longitude": -0.7533,
    "name": "C. Valenciana",
    "latitude": 39.484,
    "dead": 1433,
    "lastUpdated": "2020-07-23T23:34:30.788Z",
    "sick": 4732,
    "invisible": false
  },
  {
    "lastUpdated": "2020-07-24T04:46:05.256Z",
    "recovered": 22,
    "infected": 22,
    "id": "5fg04eyDwFw3kEXnrxez",
    "pop": 280460,
    "country": "NC",
    "longitude": 165.618042,
    "name": "New Caledonia",
    "latitude": -20.9043045,
    "dead": 0,
    "sick": 0,
    "invisible": false
  },
  {
    "latitude": 28.394857,
    "dead": 43,
    "lastUpdated": "2020-07-24T04:46:05.200Z",
    "recovered": 12840,
    "infected": 18241,
    "id": "5gXZIjRgAvd6xWN1LOv8",
    "pop": 29300000,
    "country": "NP",
    "longitude": 84.124008,
    "name": "Nepal",
    "sick": 5358,
    "invisible": false
  },
  {
    "name": "Philippines",
    "latitude": 12.879721,
    "dead": 1871,
    "lastUpdated": "2020-07-24T04:46:05.179Z",
    "recovered": 24383,
    "infected": 74390,
    "id": "5pwmh7aSdGRKqRbnuyc0",
    "pop": 104900000,
    "country": "PH",
    "longitude": 121.774017,
    "sick": 48136,
    "invisible": false
  },
  {
    "longitude": 31.053028,
    "name": "Zimbabwe",
    "latitude": -17.824858,
    "dead": 28,
    "lastUpdated": "2020-07-24T04:46:05.231Z",
    "recovered": 510,
    "infected": 2124,
    "id": "5qtR9nx4BLwu1ODTniaY",
    "pop": 14802190,
    "country": "ZW",
    "sick": 1586,
    "invisible": false
  },
  {
    "state": "NA",
    "id": "5vkKgxTaKq1IH0Go357L",
    "longitude": -109.188,
    "invisible": false,
    "name": "Navajo Nation",
    "dead": 432,
    "latitude": 36.0672,
    "infected": 8734,
    "recovered": 0,
    "pop": 356890,
    "country": "US",
    "lastUpdated": "2020-07-24T04:47:02.284Z",
    "sick": 8302
  },
  {
    "lastUpdated": "2020-07-24T04:32:17.070Z",
    "recovered": 0,
    "infected": 66444,
    "id": "61E7TGjUwAo9xu6Y6gAH",
    "pop": 8781300,
    "country": "MX",
    "longitude": -99.177254,
    "name": "Ciudad de México",
    "latitude": 19.432241,
    "dead": 8529,
    "sick": 57915,
    "invisible": false
  },
  {
    "latitude": 54.3873,
    "dead": 56,
    "lastUpdated": "2020-07-24T04:30:06.577Z",
    "recovered": 5603,
    "infected": 7020,
    "id": "63KYOuWe41mvqWQrJbr2",
    "pop": 1012000,
    "country": "RU",
    "longitude": 35.1889,
    "name": "Kaluga Oblast",
    "sick": 1361,
    "invisible": false
  },
  {
    "name": "Lithuania",
    "latitude": 55.621011,
    "dead": 80,
    "lastUpdated": "2020-07-24T04:46:05.231Z",
    "recovered": 1611,
    "infected": 1960,
    "id": "694ON7d0mRJDeM1gHBTR",
    "pop": 2794000,
    "country": "LT",
    "longitude": 23.804991,
    "sick": 269,
    "invisible": false
  },
  {
    "recovered": 0,
    "infected": 34873,
    "state": "EN",
    "id": "6IQAsvrmBv0HPdeTnh4x",
    "pop": 9175000,
    "country": "GB",
    "longitude": -0.5596,
    "name": "South East",
    "latitude": 51.1781,
    "dead": 0,
    "lastUpdated": "2020-07-24T04:43:24.373Z",
    "sick": 34873,
    "invisible": false
  },
  {
    "id": "6IcHIIH0zXpY0POmBZTv",
    "pop": 7392000,
    "country": "HK",
    "longitude": 114.109497,
    "name": "Hong Kong",
    "latitude": 22.396427,
    "dead": 15,
    "lastUpdated": "2020-07-24T04:46:05.230Z",
    "recovered": 1379,
    "infected": 2250,
    "sick": 856,
    "invisible": false
  },
  {
    "lastUpdated": "2020-07-24T04:27:08.509Z",
    "recovered": 0,
    "infected": 18157,
    "state": "AC",
    "id": "6LQesrx5bHJsVUi1TXBp",
    "pop": 869265,
    "country": "BR",
    "longitude": -72.4,
    "name": "Acre",
    "latitude": -8.65,
    "dead": 474,
    "sick": 17683,
    "invisible": false
  },
  {
    "name": "Benin",
    "latitude": 9.3077,
    "dead": 34,
    "lastUpdated": "2020-07-24T04:46:05.240Z",
    "recovered": 918,
    "infected": 1694,
    "id": "6SlpghTyB6lpMFvx3g9U",
    "pop": 11180000,
    "country": "BJ",
    "longitude": 2.3158,
    "sick": 742,
    "invisible": false
  },
  {
    "latitude": 45.6667,
    "dead": 16801,
    "lastUpdated": "2020-07-24T04:31:02.432Z",
    "recovered": 71973,
    "infected": 95715,
    "state": "25",
    "id": "6ZHcvMIzVWIaRnc4R3Qp",
    "pop": 10040000,
    "country": "IT",
    "longitude": 9.5,
    "name": "Lombardia",
    "sick": 6941,
    "invisible": false
  },
  {
    "lastUpdated": "2020-07-24T04:46:05.231Z",
    "recovered": 1661,
    "infected": 2033,
    "id": "6ahNiyKDSDAftCctgLH3",
    "pop": 2067000,
    "country": "SI",
    "longitude": 14.5058,
    "name": "Slovenia",
    "latitude": 46.0569,
    "dead": 115,
    "sick": 257,
    "invisible": false
  },
  {
    "latitude": -27.3667908,
    "dead": 9,
    "lastUpdated": "2020-07-24T04:20:12.020Z",
    "recovered": 0,
    "infected": 1958,
    "id": "6nyns7UGGgkU7pxrHf8i",
    "pop": 300000,
    "country": "CL",
    "longitude": -70.331398,
    "name": "Atacama",
    "sick": 1949,
    "invisible": false
  },
  {
    "latitude": -0.8037,
    "dead": 47,
    "lastUpdated": "2020-07-24T04:46:05.222Z",
    "recovered": 4235,
    "infected": 6588,
    "id": "6pBi38TUgYfFm0bry2uh",
    "pop": 2025000,
    "country": "GA",
    "longitude": 11.6094,
    "name": "Gabon",
    "sick": 2306,
    "invisible": false
  },
  {
    "id": "6vjIVg1gSANFZghV7xtS",
    "pop": 2831900,
    "country": "MX",
    "longitude": -100.9792,
    "name": "San Luis Potosí",
    "latitude": 22.1498,
    "dead": 392,
    "lastUpdated": "2020-07-24T04:32:17.071Z",
    "recovered": 0,
    "infected": 6726,
    "sick": 6334,
    "invisible": false
  },
  {
    "id": "78Ox26bNHDA2Pk2b3Uwn",
    "pop": 9131,
    "country": "FR",
    "longitude": -62.818544,
    "name": "Saint-Barthélémy",
    "alwaysShow": true,
    "latitude": 17.901672,
    "dead": 0,
    "lastUpdated": "2020-07-24T04:46:05.264Z",
    "recovered": 6,
    "infected": 6,
    "sick": 0,
    "invisible": false
  },
  {
    "name": "Pomorskie",
    "latitude": 54.367,
    "dead": 39,
    "lastUpdated": "2020-07-24T04:33:09.065Z",
    "recovered": 0,
    "infected": 778,
    "id": "7JDx6UJiwGSJyL1fChaJ",
    "pop": 2305000,
    "country": "PL",
    "longitude": 18.633,
    "sick": 739,
    "invisible": false
  },
  {
    "latitude": 35.2923,
    "dead": 2,
    "lastUpdated": "2020-07-23T23:36:37.598Z",
    "recovered": 125,
    "infected": 142,
    "state": "ML",
    "id": "7UASdZTZ1nPzzBwSTEA9",
    "pop": 84690,
    "country": "ES",
    "longitude": -2.9381,
    "name": "Melilla",
    "sick": 15,
    "invisible": false
  },
  {
    "latitude": 17.0608,
    "dead": 3,
    "lastUpdated": "2020-07-24T04:46:05.253Z",
    "recovered": 58,
    "infected": 76,
    "id": "7hVFcEV7nV0MrQr3LHrl",
    "pop": 102012,
    "country": "AG",
    "longitude": -61.7964,
    "name": "Antigua and Barbuda",
    "sick": 15,
    "invisible": false
  },
  {
    "latitude": 48.7904,
    "dead": 2661,
    "lastUpdated": "2020-07-24T04:30:03.144Z",
    "recovered": 46554,
    "infected": 50374,
    "state": "BY",
    "id": "7kCrrlOBE3jN6FtOVNUB",
    "pop": 13000000,
    "country": "DE",
    "longitude": 11.4979,
    "name": "Bayern",
    "sick": 1159,
    "invisible": false
  },
  {
    "lastUpdated": "2020-07-24T04:46:05.223Z",
    "recovered": 3300,
    "infected": 4380,
    "id": "7rYC2iFB50c55Ihgbs4Q",
    "pop": 9773000,
    "country": "HU",
    "longitude": 19.0402,
    "name": "Hungary",
    "latitude": 47.4979,
    "dead": 596,
    "sick": 484,
    "invisible": false
  },
  {
    "country": "CO",
    "longitude": -74.7813,
    "name": "Barranquilla D.E.",
    "latitude": 10.9685,
    "dead": 1359,
    "lastUpdated": "2020-07-24T04:21:49.189Z",
    "recovered": 16553,
    "infected": 26586,
    "id": "7tqLvLyXcBDK808nJv0m",
    "pop": 1206000,
    "sick": 8674,
    "invisible": false
  },
  {
    "longitude": 12.3547,
    "name": "Cameroon",
    "latitude": 7.3697,
    "dead": 382,
    "lastUpdated": "2020-07-24T04:46:05.200Z",
    "recovered": 13728,
    "infected": 16522,
    "id": "8C0d7WVCjyUGtnc2gUAR",
    "pop": 24050000,
    "country": "CM",
    "sick": 2412,
    "invisible": false
  },
  {
    "lastUpdated": "2020-07-24T04:37:13.129Z",
    "recovered": 2842,
    "infected": 6697,
    "state": "BRU",
    "id": "8DOZWbN6bDdgaLXVlUEu",
    "pop": 1209000,
    "country": "BE",
    "longitude": 4.3517,
    "name": "Brussels",
    "latitude": 50.8503,
    "dead": 1498,
    "sick": 2357,
    "invisible": false
  },
  {
    "lastUpdated": "2020-07-24T04:46:05.180Z",
    "recovered": 20030,
    "infected": 65252,
    "id": "8RihJrXw4NQXPxaRxr1u",
    "pop": 11050000,
    "country": "BO",
    "longitude": -63.5887,
    "name": "Bolivia",
    "latitude": -16.2902,
    "dead": 2407,
    "sick": 42815,
    "invisible": false
  },
  {
    "recovered": 37,
    "infected": 52,
    "id": "8ZTySQROQejkDAad0qxQ",
    "pop": 109897,
    "country": "VC",
    "longitude": -61.2872,
    "name": "St. Vincent Grenadines",
    "latitude": 12.9843,
    "dead": 0,
    "lastUpdated": "2020-07-24T04:46:05.253Z",
    "sick": 15,
    "invisible": false
  },
  {
    "lastUpdated": "2020-07-24T04:46:05.190Z",
    "recovered": 45015,
    "infected": 49098,
    "id": "8pA3fM4xC2c2wv1b4TnE",
    "pop": 5621000,
    "country": "SG",
    "longitude": 103.819839,
    "name": "Singapore",
    "latitude": 1.352083,
    "dead": 27,
    "sick": 4056,
    "invisible": false
  },
  {
    "id": "98hwAoohgWEOQVa3NlM5",
    "pop": 3787000,
    "country": "FR",
    "longitude": -1.5536,
    "name": "Pays de la Loire",
    "latitude": 47.2184,
    "dead": 475,
    "lastUpdated": "2020-07-23T23:48:09.810Z",
    "recovered": 2193,
    "infected": 4466,
    "sick": 1798,
    "invisible": false
  },
  {
    "latitude": 19.30754,
    "dead": 396,
    "lastUpdated": "2020-07-24T04:32:17.071Z",
    "recovered": 0,
    "infected": 3987,
    "id": "9DAvxOObTqIvMOU93nlY",
    "pop": 952300,
    "country": "MX",
    "longitude": -90.19885,
    "name": "Campeche",
    "sick": 3591,
    "invisible": false
  },
  {
    "latitude": 12.8628,
    "dead": 708,
    "lastUpdated": "2020-07-24T04:46:05.220Z",
    "recovered": 5835,
    "infected": 11237,
    "id": "9DPOkpIqrFy9mR4e9fuv",
    "pop": 40530000,
    "country": "SD",
    "longitude": 30.2176,
    "name": "Sudan",
    "sick": 4694,
    "invisible": false
  },
  {
    "longitude": 43.9541,
    "name": "Kostroma Oblast",
    "latitude": 58.5501,
    "dead": 26,
    "lastUpdated": "2020-07-24T04:30:06.582Z",
    "recovered": 1410,
    "infected": 2028,
    "id": "9JFYfvpcejMIgYlHpngA",
    "pop": 643000,
    "country": "RU",
    "sick": 592,
    "invisible": false
  },
  {
    "name": "Romania",
    "latitude": 45.943161,
    "dead": 2126,
    "lastUpdated": "2020-07-24T04:46:05.193Z",
    "recovered": 24862,
    "infected": 41275,
    "id": "9QcETqEcM2fTv9zRvx5T",
    "pop": 19530000,
    "country": "RO",
    "longitude": 24.966761,
    "sick": 14287,
    "invisible": false
  },
  {
    "name": "Nicaragua",
    "latitude": 12.136389,
    "dead": 108,
    "lastUpdated": "2020-07-24T04:46:05.223Z",
    "recovered": 2492,
    "infected": 3439,
    "id": "9Y5wmCqNCC6ZrenM31uA",
    "pop": 6218000,
    "country": "NI",
    "longitude": -86.251389,
    "sick": 839,
    "invisible": false
  },
  {
    "name": "Mali",
    "latitude": 17.5706921,
    "dead": 123,
    "lastUpdated": "2020-07-24T04:46:05.230Z",
    "recovered": 1889,
    "infected": 2494,
    "id": "9dIzxqDSVqPyINkHqwGv",
    "pop": 18540000,
    "country": "ML",
    "longitude": -3.996166,
    "sick": 482,
    "invisible": false
  },
  {
    "id": "9p6OCdZbUUwBLA60Gk3W",
    "pop": 5513000,
    "country": "FI",
    "longitude": 25.748152,
    "name": "Finland",
    "latitude": 61.92411,
    "dead": 328,
    "lastUpdated": "2020-07-24T04:46:05.221Z",
    "recovered": 6920,
    "infected": 7372,
    "sick": 124,
    "invisible": false
  },
  {
    "country": "RU",
    "longitude": 95.1104,
    "name": "Krasnoyarsk Krai",
    "latitude": 64.248,
    "dead": 299,
    "lastUpdated": "2020-07-24T04:30:06.575Z",
    "recovered": 9926,
    "infected": 11923,
    "id": "A6Us0fpQVCc85SoIqzg3",
    "pop": 2876000,
    "sick": 1698,
    "invisible": false
  },
  {
    "recovered": 0,
    "infected": 6318,
    "state": "NH",
    "id": "A84CwQ52kA46Hr7pn6Bm",
    "pop": 1356000,
    "country": "US",
    "longitude": -71.590315,
    "name": "New Hampshire",
    "latitude": 43.311643,
    "dead": 405,
    "lastUpdated": "2020-07-24T04:47:02.282Z",
    "sick": 5913,
    "invisible": false
  },
  {
    "latitude": 41.823261,
    "dead": 1001,
    "lastUpdated": "2020-07-24T04:47:02.281Z",
    "recovered": 0,
    "infected": 18148,
    "state": "RI",
    "id": "AEUWUHS65qvjEslew11c",
    "pop": 1057000,
    "country": "US",
    "longitude": -71.412257,
    "name": "Rhode Island",
    "sick": 17147,
    "invisible": false
  },
  {
    "latitude": 44.498955,
    "dead": 4281,
    "lastUpdated": "2020-07-24T04:31:02.432Z",
    "recovered": 23719,
    "infected": 29350,
    "state": "45",
    "id": "AJ9jQ0iyKsafsmf5yHAR",
    "pop": 4453000,
    "country": "IT",
    "longitude": 11.327591,
    "name": "Emilia-Romagna",
    "sick": 1350,
    "invisible": false
  },
  {
    "recovered": 2640,
    "infected": 2865,
    "state": "SL",
    "id": "AKjFRQGnzuuZQhv5Qwx7",
    "pop": 990509,
    "country": "DE",
    "longitude": 7.023,
    "name": "Saarland",
    "latitude": 49.3964,
    "dead": 178,
    "lastUpdated": "2020-07-24T04:30:03.147Z",
    "sick": 47,
    "invisible": false
  },
  {
    "lastUpdated": "2020-07-24T04:30:06.575Z",
    "recovered": 5890,
    "infected": 10208,
    "id": "AOapJ3gElQApd8Gnt8EL",
    "pop": 3493000,
    "country": "RU",
    "longitude": 60.8789,
    "name": "Chelyabinsk Oblast",
    "latitude": 54.4319,
    "dead": 89,
    "sick": 4229,
    "invisible": false
  },
  {
    "id": "APTPgjAsjFi0nsGyJV7M",
    "pop": 1125002,
    "country": "CL",
    "longitude": -71.167,
    "name": "Maule",
    "latitude": -35.717,
    "dead": 131,
    "lastUpdated": "2020-07-24T04:20:12.021Z",
    "recovered": 0,
    "infected": 8009,
    "sick": 7878,
    "invisible": false
  },
  {
    "latitude": 71.7069,
    "dead": 0,
    "lastUpdated": "2020-07-24T04:46:05.257Z",
    "recovered": 13,
    "infected": 13,
    "id": "APaZzlGCEeuoLBtzTJMe",
    "pop": 56171,
    "country": "GL",
    "longitude": -42.6043,
    "name": "Greenland",
    "sick": 0,
    "invisible": false
  },
  {
    "latitude": 54.8331,
    "dead": 36,
    "lastUpdated": "2020-07-24T04:30:06.581Z",
    "recovered": 2952,
    "infected": 3786,
    "id": "ATxF6ZoDJ2ibdE6ZRYIX",
    "pop": 984000,
    "country": "RU",
    "longitude": 112.4061,
    "name": "Buryatia",
    "sick": 798,
    "invisible": false
  },
  {
    "longitude": -63.582687,
    "name": "Nova Scotia",
    "latitude": 45.65107,
    "dead": 63,
    "lastUpdated": "2020-07-24T04:37:02.518Z",
    "recovered": 1003,
    "infected": 1067,
    "state": "NS",
    "id": "AVCpxeh0fuH2WrHWNDYH",
    "pop": 971395,
    "country": "CA",
    "sick": 1,
    "invisible": false
  },
  {
    "country": "US",
    "longitude": -109.128641,
    "name": "Montana",
    "latitude": 47.012918,
    "dead": 43,
    "lastUpdated": "2020-07-24T04:47:02.283Z",
    "recovered": 0,
    "infected": 2910,
    "state": "MT",
    "id": "AcULcZBozObOhwuRKMjJ",
    "pop": 1062000,
    "sick": 2867,
    "invisible": false
  },
  {
    "name": "Tajikistan",
    "latitude": 38.861,
    "dead": 58,
    "lastUpdated": "2020-07-24T04:46:05.221Z",
    "recovered": 5793,
    "infected": 7060,
    "id": "AiIGs3ybYZZhm1ytVopr",
    "pop": 9275000,
    "country": "TJ",
    "longitude": 71.2761,
    "sick": 1209,
    "invisible": false
  },
  {
    "longitude": 116.01609,
    "name": "Jiangxi",
    "latitude": 27.285971,
    "dead": 1,
    "lastUpdated": "2020-07-24T04:23:13.879Z",
    "recovered": 931,
    "infected": 932,
    "id": "AmBYm5J6E9Cuez1FQjiN",
    "pop": 45200000,
    "country": "CN",
    "sick": 0,
    "invisible": false
  },
  {
    "country": "GB",
    "longitude": -3.7837,
    "name": "Wales",
    "latitude": 52.1307,
    "dead": 1548,
    "lastUpdated": "2020-07-24T04:43:24.368Z",
    "recovered": 0,
    "infected": 17030,
    "state": "WA",
    "id": "AoLhHdTydeWTfmp9koEX",
    "pop": 3136000,
    "sick": 15482,
    "invisible": false
  },
  {
    "name": "Khakassia",
    "latitude": 53.0452,
    "dead": 29,
    "lastUpdated": "2020-07-24T04:30:06.582Z",
    "recovered": 2212,
    "infected": 2689,
    "id": "Avls64fLKoEsBFH0Ol0b",
    "pop": 537000,
    "country": "RU",
    "longitude": 90.3982,
    "sick": 448,
    "invisible": false
  },
  {
    "id": "AwN0CScPDApcLFgz6e3z",
    "pop": 41320000,
    "country": "DZ",
    "longitude": 1.659626,
    "name": "Algeria",
    "latitude": 28.033886,
    "dead": 1124,
    "lastUpdated": "2020-07-24T04:46:05.195Z",
    "recovered": 17369,
    "infected": 25484,
    "sick": 6991,
    "invisible": false
  },
  {
    "recovered": 3394,
    "infected": 4634,
    "id": "B82Ef45M8cDu4q7VsSHF",
    "pop": 4076000,
    "country": "HR",
    "longitude": 15.2,
    "name": "Croatia",
    "latitude": 45.099998,
    "dead": 128,
    "lastUpdated": "2020-07-24T04:46:05.222Z",
    "sick": 1112,
    "invisible": false
  },
  {
    "latitude": 17.6077881,
    "dead": 69,
    "lastUpdated": "2020-07-24T04:46:05.241Z",
    "recovered": 1022,
    "infected": 1124,
    "id": "BENubqQInFUJzhpZTsLT",
    "pop": 23716000,
    "country": "NE",
    "longitude": 8.081666,
    "name": "Niger",
    "sick": 33,
    "invisible": false
  },
  {
    "name": "Maryland",
    "latitude": 39.509109,
    "dead": 3409,
    "lastUpdated": "2020-07-24T04:47:02.276Z",
    "recovered": 0,
    "infected": 80836,
    "state": "MD",
    "id": "BF51mWl51fgEcyBpCSzb",
    "pop": 6043000,
    "country": "US",
    "longitude": -76.98432,
    "sick": 77427,
    "invisible": false
  },
  {
    "latitude": 53.709808,
    "dead": 519,
    "lastUpdated": "2020-07-24T04:46:05.179Z",
    "recovered": 59439,
    "infected": 66688,
    "id": "BGg6yVU5VP71B8NXU0oh",
    "pop": 9508000,
    "country": "BY",
    "longitude": 27.953388,
    "name": "Belarus",
    "sick": 6730,
    "invisible": false
  },
  {
    "latitude": 48.8799,
    "dead": 438,
    "lastUpdated": "2020-07-23T23:47:27.894Z",
    "recovered": 1766,
    "infected": 3810,
    "id": "BGtoyzb7y54LVlJ91rbf",
    "pop": 3319000,
    "country": "FR",
    "longitude": 0.1713,
    "name": "Normandie",
    "sick": 1606,
    "invisible": false
  },
  {
    "country": "GB",
    "longitude": -3.9995,
    "name": "South West",
    "latitude": 50.7772,
    "dead": 0,
    "lastUpdated": "2020-07-24T04:43:24.373Z",
    "recovered": 0,
    "infected": 13020,
    "state": "EN",
    "id": "BQqMOlPFD36ZEDTGd3WC",
    "pop": 5616000,
    "sick": 13020,
    "invisible": false
  },
  {
    "recovered": 0,
    "infected": 152944,
    "state": "AZ",
    "id": "BTEESCuD2ZbS1afunR2A",
    "pop": 7172000,
    "country": "US",
    "longitude": -111.093735,
    "name": "Arizona",
    "latitude": 34.048927,
    "dead": 3063,
    "lastUpdated": "2020-07-24T04:47:02.275Z",
    "sick": 149881,
    "invisible": false
  },
  {
    "recovered": 3489,
    "infected": 5485,
    "id": "BUb7oDHcBM4lQ5cufNoG",
    "pop": 949000,
    "country": "RU",
    "longitude": 32.6677,
    "name": "Smolensk Oblast",
    "latitude": 54.9883,
    "dead": 91,
    "lastUpdated": "2020-07-24T04:30:06.579Z",
    "sick": 1905,
    "invisible": false
  },
  {
    "id": "BWojXmuKU3szKlS7CE4k",
    "pop": 1283000,
    "country": "RU",
    "longitude": 50.2097,
    "name": "Kirov Oblast",
    "latitude": 58.4199,
    "dead": 57,
    "lastUpdated": "2020-07-24T04:30:06.580Z",
    "recovered": 4175,
    "infected": 4349,
    "sick": 117,
    "invisible": false
  },
  {
    "latitude": 53.428543,
    "dead": 23,
    "lastUpdated": "2020-07-24T04:33:09.065Z",
    "recovered": 0,
    "infected": 683,
    "id": "BZwZOAlDJ8AIiaRVLyC9",
    "pop": 1676000,
    "country": "PL",
    "longitude": 14.552812,
    "name": "Zachodniopomorskie",
    "sick": 660,
    "invisible": false
  },
  {
    "country": "CL",
    "longitude": -70.6693,
    "invisible": true,
    "name": "Unknown Chile region",
    "latitude": -33.4489,
    "dead": 0,
    "lastUpdated": "2020-07-24T04:46:05.150Z",
    "recovered": 311431,
    "infected": 0,
    "id": "BbiuZcm8oURX7cZwaa5U",
    "sick": 0
  },
  {
    "latitude": -13.2543,
    "dead": 76,
    "lastUpdated": "2020-07-24T04:46:05.223Z",
    "recovered": 1282,
    "infected": 3302,
    "id": "BfT8o5DaEixC6JIZ28kY",
    "pop": 18620000,
    "country": "MW",
    "longitude": 34.3015,
    "name": "Malawi",
    "sick": 1944,
    "invisible": false
  },
  {
    "country": "BI",
    "longitude": 29.9188862,
    "name": "Burundi",
    "latitude": -3.3730559,
    "dead": 1,
    "lastUpdated": "2020-07-24T04:46:05.245Z",
    "recovered": 270,
    "infected": 345,
    "id": "BnpMamidC5yYzeK8tPUL",
    "pop": 10860000,
    "sick": 74,
    "invisible": false
  },
  {
    "name": "Mazowieckie",
    "latitude": 52.257,
    "dead": 370,
    "lastUpdated": "2020-07-24T04:33:09.063Z",
    "recovered": 0,
    "infected": 5913,
    "id": "BrToMzyq8y2xdwXn75kM",
    "pop": 5385000,
    "country": "PL",
    "longitude": 21.002,
    "sick": 5543,
    "invisible": false
  },
  {
    "name": "Amazonas (Colombia)",
    "latitude": -1.333845,
    "dead": 101,
    "lastUpdated": "2020-07-24T04:21:49.194Z",
    "recovered": 2285,
    "infected": 2470,
    "id": "C25xSDm4iYibX5RYML14",
    "pop": 74751,
    "country": "CO",
    "longitude": -71.347573,
    "sick": 84,
    "invisible": false
  },
  {
    "latitude": 40.719042,
    "dead": 32656,
    "lastUpdated": "2020-07-24T04:47:02.275Z",
    "recovered": 0,
    "infected": 437529,
    "state": "NY",
    "id": "C3BCUzV80z9GfiuByIcr",
    "pop": 19540000,
    "country": "US",
    "longitude": -73.982597,
    "name": "New York",
    "sick": 404873,
    "invisible": false
  },
  {
    "latitude": 3.86528,
    "dead": 1,
    "lastUpdated": "2020-07-24T04:21:49.195Z",
    "recovered": 13,
    "infected": 14,
    "id": "C5YXFiytAc1w9swtVGLz",
    "pop": 42800,
    "country": "CO",
    "longitude": -67.92389,
    "name": "Guainía",
    "sick": 0,
    "invisible": false
  },
  {
    "recovered": 9328,
    "infected": 14800,
    "id": "C6S76AggdWVU8G22jFHQ",
    "pop": 10650000,
    "country": "CZ",
    "longitude": 15.359413,
    "name": "Czechia",
    "latitude": 49.731626,
    "dead": 365,
    "lastUpdated": "2020-07-24T04:46:05.200Z",
    "sick": 5107,
    "invisible": false
  },
  {
    "longitude": 50.557701,
    "name": "Bahrain",
    "latitude": 26.0667,
    "dead": 134,
    "lastUpdated": "2020-07-24T04:46:05.193Z",
    "recovered": 34412,
    "infected": 37996,
    "id": "C7cj4nwRITs13KnaJrQ2",
    "pop": 1493000,
    "country": "BH",
    "sick": 3450,
    "invisible": false
  },
  {
    "longitude": -74.4057,
    "name": "Magdalena",
    "latitude": 10.4113,
    "dead": 171,
    "lastUpdated": "2020-07-24T04:21:49.193Z",
    "recovered": 866,
    "infected": 1793,
    "id": "CA9LaAl3bNaeAqBuozn4",
    "pop": 1285400,
    "country": "CO",
    "sick": 756,
    "invisible": false
  },
  {
    "id": "CCUFp4urvgXPo5unfMGy",
    "pop": 3073500,
    "country": "MX",
    "longitude": -101.430756,
    "name": "Coahuila",
    "latitude": 26.909979,
    "dead": 525,
    "lastUpdated": "2020-07-24T04:32:17.071Z",
    "recovered": 0,
    "infected": 10404,
    "sick": 9879,
    "invisible": false
  },
  {
    "recovered": 23815,
    "infected": 33220,
    "id": "CKZCZTPlrcq5fbfUPA9k",
    "pop": 68890000,
    "country": "IN",
    "longitude": 74.2179,
    "name": "Rajasthan",
    "latitude": 27.0238,
    "dead": 594,
    "lastUpdated": "2020-07-24T04:41:01.442Z",
    "sick": 8811,
    "invisible": false
  },
  {
    "recovered": 884,
    "infected": 1351,
    "id": "CX8z9U1iABNBhc1VK2Dy",
    "pop": 218000,
    "country": "RU",
    "longitude": 86.2199,
    "name": "Altai",
    "latitude": 50.6182,
    "dead": 1,
    "lastUpdated": "2020-07-24T04:30:06.583Z",
    "sick": 466,
    "invisible": false
  },
  {
    "name": "El Salvador",
    "latitude": 13.803,
    "dead": 372,
    "lastUpdated": "2020-07-24T04:46:05.219Z",
    "recovered": 7276,
    "infected": 13377,
    "id": "Cgvmtle61ehMvCzRzYx7",
    "pop": 6378000,
    "country": "SV",
    "longitude": -88.9053,
    "sick": 5729,
    "invisible": false
  },
  {
    "recovered": 816,
    "infected": 1203,
    "id": "D4WkbqyUXY1pazbOxfKx",
    "pop": 144000,
    "country": "RU",
    "longitude": 153.915,
    "name": "Magadan Oblast",
    "latitude": 62.6643,
    "dead": 7,
    "lastUpdated": "2020-07-24T04:30:06.583Z",
    "sick": 380,
    "invisible": false
  },
  {
    "latitude": 58.897,
    "dead": 28,
    "lastUpdated": "2020-07-24T04:30:06.581Z",
    "recovered": 2156,
    "infected": 3717,
    "id": "DAp3PFow4BuCMYWWTo3i",
    "pop": 1078000,
    "country": "RU",
    "longitude": 82.6765,
    "name": "Tomsk Oblast",
    "sick": 1533,
    "invisible": false
  },
  {
    "latitude": 40.259003,
    "dead": 688,
    "lastUpdated": "2020-07-24T04:46:05.194Z",
    "recovered": 25244,
    "infected": 36162,
    "id": "DCJCtZoBTWQ4mzdDNljD",
    "pop": 2973000,
    "country": "AM",
    "longitude": 44.818474,
    "name": "Armenia",
    "sick": 10230,
    "invisible": false
  },
  {
    "recovered": 371,
    "infected": 718,
    "id": "DJJraANgQbEqz1wBBtZz",
    "pop": 1278000,
    "country": "CO",
    "longitude": -73.368,
    "name": "Boyacá",
    "latitude": 5.535,
    "dead": 23,
    "lastUpdated": "2020-07-24T04:21:49.193Z",
    "sick": 324,
    "invisible": false
  },
  {
    "name": "Mordovia",
    "latitude": 54.2369,
    "dead": 32,
    "lastUpdated": "2020-07-24T04:30:06.580Z",
    "recovered": 3132,
    "infected": 4227,
    "id": "DKwy7USk22oXUQGEvO42",
    "pop": 834000,
    "country": "RU",
    "longitude": 44.0684,
    "sick": 1063,
    "invisible": false
  },
  {
    "name": "North West",
    "latitude": 53.6221,
    "dead": 0,
    "lastUpdated": "2020-07-24T04:43:24.373Z",
    "recovered": 0,
    "infected": 44678,
    "state": "EN",
    "id": "DPwBt2aJuwF0O71vwfM9",
    "pop": 7300000,
    "country": "GB",
    "longitude": -2.5945,
    "sick": 44678,
    "invisible": false
  },
  {
    "name": "Bermuda",
    "latitude": 32.3213844,
    "dead": 9,
    "lastUpdated": "2020-07-24T04:46:05.251Z",
    "recovered": 139,
    "infected": 153,
    "id": "DZyTD0Mu5WIcK6yTcJ91",
    "pop": 65440,
    "country": "BM",
    "longitude": -64.75737,
    "sick": 5,
    "invisible": false
  },
  {
    "country": "TC",
    "longitude": -71.7979,
    "name": "Turks and Caicos",
    "latitude": 21.694,
    "dead": 2,
    "lastUpdated": "2020-07-24T04:46:05.253Z",
    "recovered": 26,
    "infected": 90,
    "id": "DaMrRSIGJXIG36nW0Pnc",
    "pop": 35446,
    "sick": 62,
    "invisible": false
  },
  {
    "lastUpdated": "2020-07-23T23:34:58.986Z",
    "recovered": 6392,
    "infected": 27161,
    "state": "CM",
    "id": "Dbng0NBTH41EEwBxhMzE",
    "pop": 2035000,
    "country": "ES",
    "longitude": -3.0977,
    "name": "Castilla La Mancha",
    "latitude": 39.2796,
    "dead": 3033,
    "sick": 17736,
    "invisible": false
  },
  {
    "latitude": 50.023,
    "dead": 49,
    "lastUpdated": "2020-07-24T04:33:09.064Z",
    "recovered": 0,
    "infected": 2721,
    "id": "DcQ3D0WkacXEbv6iznRB",
    "pop": 3361000,
    "country": "PL",
    "longitude": 20.006,
    "name": "Malopolskie",
    "sick": 2672,
    "invisible": false
  },
  {
    "name": "Macao",
    "latitude": 22.192039,
    "dead": 0,
    "lastUpdated": "2020-07-24T04:46:05.254Z",
    "recovered": 46,
    "infected": 46,
    "id": "DdBt8qsG6A3g92oOR3ow",
    "pop": 622567,
    "country": "MO",
    "longitude": 113.551262,
    "sick": 0,
    "invisible": false
  },
  {
    "id": "Dh0O1vmhrVfmsCsfZCUg",
    "pop": 2651000,
    "country": "IN",
    "longitude": 91.3662,
    "name": "Meghalaya",
    "latitude": 25.467,
    "dead": 4,
    "lastUpdated": "2020-07-24T04:41:01.452Z",
    "recovered": 82,
    "infected": 534,
    "sick": 448,
    "invisible": false
  },
  {
    "lastUpdated": "2020-07-24T04:30:06.575Z",
    "recovered": 9444,
    "infected": 11898,
    "id": "DqzAhNFTJFQVm88ma21P",
    "pop": 4220000,
    "country": "RU",
    "longitude": 41.8259,
    "name": "Rostov Oblast",
    "latitude": 47.6853,
    "dead": 197,
    "sick": 2257,
    "invisible": false
  },
  {
    "lastUpdated": "2020-07-24T04:47:02.283Z",
    "recovered": 0,
    "infected": 2346,
    "state": "WY",
    "id": "DrGzziUglmBognCGY7R2",
    "pop": 577737,
    "country": "US",
    "longitude": -107.534868,
    "name": "Wyoming",
    "latitude": 42.962334,
    "dead": 25,
    "sick": 2321,
    "invisible": false
  },
  {
    "recovered": 1374,
    "infected": 4110,
    "id": "Dtr1lap1RpJpXJdXGJiW",
    "pop": 10740000,
    "country": "GR",
    "longitude": 23.7275,
    "name": "Greece",
    "latitude": 37.9838,
    "dead": 201,
    "lastUpdated": "2020-07-24T04:46:05.223Z",
    "sick": 2535,
    "invisible": false
  },
  {
    "longitude": 56.5872,
    "name": "Perm Krai",
    "latitude": 58.8232,
    "dead": 123,
    "lastUpdated": "2020-07-24T04:30:06.579Z",
    "recovered": 4090,
    "infected": 5283,
    "id": "E8vIyXLVNtcY9dxLHICp",
    "pop": 2623000,
    "country": "RU",
    "sick": 1070,
    "invisible": false
  },
  {
    "latitude": 56.9634,
    "dead": 23,
    "lastUpdated": "2020-07-24T04:30:06.579Z",
    "recovered": 3535,
    "infected": 5090,
    "id": "EHKZ6ivhrJUs3XqNDBOw",
    "pop": 3692000,
    "country": "RU",
    "longitude": 66.9483,
    "name": "Tyumen Oblast",
    "sick": 1532,
    "invisible": false
  },
  {
    "longitude": 121.563698,
    "name": "Taiwan",
    "latitude": 25.03841,
    "dead": 7,
    "lastUpdated": "2020-07-24T04:46:05.245Z",
    "recovered": 440,
    "infected": 455,
    "id": "EKTfs8e7M6DXzI1HqyyX",
    "pop": 23780000,
    "country": "TW",
    "sick": 8,
    "invisible": false
  },
  {
    "name": "Costa Rica",
    "latitude": 10.327273,
    "dead": 81,
    "lastUpdated": "2020-07-24T00:31:07.321Z",
    "recovered": 3448,
    "infected": 13129,
    "id": "EQzJvzVHKjs8kLmK7BMu",
    "pop": 4906000,
    "country": "CR",
    "longitude": -84.387618,
    "sick": 9600,
    "invisible": false
  },
  {
    "latitude": 22.2587,
    "dead": 2256,
    "lastUpdated": "2020-07-24T04:41:01.442Z",
    "recovered": 38059,
    "infected": 52563,
    "id": "ERwk9R9en4m9WbdoMbIg",
    "pop": 62700000,
    "country": "IN",
    "longitude": 71.1924,
    "name": "Gujarat",
    "sick": 12248,
    "invisible": false
  },
  {
    "longitude": 42.5884,
    "name": "Arkhangelsk Oblast",
    "latitude": 63.2853,
    "dead": 133,
    "lastUpdated": "2020-07-24T04:30:06.576Z",
    "recovered": 6312,
    "infected": 8157,
    "id": "EVMBsgCJedjHy91mDYEC",
    "pop": 1155000,
    "country": "RU",
    "sick": 1712,
    "invisible": false
  },
  {
    "country": "IN",
    "longitude": 76.7794,
    "name": "Chandigarh",
    "latitude": 30.7333,
    "dead": 13,
    "lastUpdated": "2020-07-24T04:41:01.452Z",
    "recovered": 531,
    "infected": 800,
    "id": "Esl5UlCVB9s8pmGB5Ofr",
    "pop": 1055000,
    "sick": 256,
    "invisible": false
  },
  {
    "latitude": 51.24,
    "dead": 21,
    "lastUpdated": "2020-07-24T04:33:09.065Z",
    "recovered": 0,
    "infected": 892,
    "id": "Esy1La2CxwH5uB8bGVWZ",
    "pop": 2148000,
    "country": "PL",
    "longitude": 22.653,
    "name": "Lubelskie",
    "sick": 871,
    "invisible": false
  },
  {
    "lastUpdated": "2020-07-24T04:47:02.284Z",
    "state": "PR",
    "id": "F4rPrEVGAIMM5rfPEMv4",
    "longitude": -66.664513,
    "name": "Puerto Rico",
    "alwaysShow": true,
    "dead": 188,
    "latitude": 18.200178,
    "infected": 13473,
    "recovered": 0,
    "pop": 3195000,
    "country": "US",
    "sick": 13285,
    "invisible": false
  },
  {
    "name": "Cundinamarca",
    "latitude": 4.862437,
    "dead": 156,
    "lastUpdated": "2020-07-24T04:21:49.189Z",
    "recovered": 3118,
    "infected": 6513,
    "id": "F7MED5VwEhi3JvJu6KjB",
    "pop": 2919000,
    "country": "CO",
    "longitude": -74.058655,
    "sick": 3239,
    "invisible": false
  },
  {
    "recovered": 324,
    "infected": 340,
    "id": "F8LnLqvuWoWh8awBqiw1",
    "pop": 832322,
    "country": "KM",
    "longitude": 43.3333,
    "name": "Comoros",
    "latitude": -11.6455,
    "dead": 7,
    "lastUpdated": "2020-07-24T04:46:05.249Z",
    "sick": 9,
    "invisible": false
  },
  {
    "country": "AF",
    "longitude": 67.709953,
    "name": "Afghanistan",
    "latitude": 33.93911,
    "dead": 1211,
    "lastUpdated": "2020-07-24T04:46:05.194Z",
    "recovered": 24550,
    "infected": 35928,
    "id": "FCDmlmnIIswd8bQiUjfN",
    "pop": 35530000,
    "sick": 10167,
    "invisible": false
  },
  {
    "lastUpdated": "2020-07-24T04:23:13.868Z",
    "recovered": 576,
    "infected": 583,
    "id": "FErOU1m4Tj7jIkRam3vF",
    "pop": 30480000,
    "country": "CN",
    "longitude": 106.912254,
    "name": "Chongqing",
    "latitude": 29.431585,
    "dead": 6,
    "sick": 1,
    "invisible": false
  },
  {
    "country": "KW",
    "longitude": 47.481766,
    "name": "Kuwait",
    "latitude": 29.311661,
    "dead": 421,
    "lastUpdated": "2020-07-24T04:46:05.185Z",
    "recovered": 52247,
    "infected": 61872,
    "id": "FZsUkhxBEgqsPb4eO0PN",
    "pop": 4137000,
    "sick": 9204,
    "invisible": false
  },
  {
    "longitude": -37.0717,
    "name": "Sergipe",
    "latitude": -10.9111,
    "dead": 1247,
    "lastUpdated": "2020-07-24T04:27:08.508Z",
    "recovered": 0,
    "infected": 49397,
    "state": "SE",
    "id": "FboWeolpM62SZCLwdilT",
    "pop": 2278308,
    "country": "BR",
    "sick": 48150,
    "invisible": false
  },
  {
    "lastUpdated": "2020-07-24T04:41:01.441Z",
    "recovered": 136793,
    "infected": 192964,
    "id": "FeS45oMNC27pI17F0xEV",
    "pop": 67860000,
    "country": "IN",
    "longitude": 78.6569,
    "name": "Tamil Nadu",
    "latitude": 11.1271,
    "dead": 3232,
    "sick": 52939,
    "invisible": false
  },
  {
    "id": "FuiVEJvWb0QMCpxJ3563",
    "pop": 10770000,
    "country": "DO",
    "longitude": -70.430399,
    "name": "Dominican Republic",
    "latitude": 18.947829,
    "dead": 1006,
    "lastUpdated": "2020-07-24T04:46:05.189Z",
    "recovered": 26905,
    "infected": 57615,
    "sick": 29704,
    "invisible": false
  },
  {
    "name": "Telengana",
    "latitude": 18.1124,
    "dead": 447,
    "lastUpdated": "2020-07-24T04:41:01.442Z",
    "recovered": 39327,
    "infected": 50826,
    "id": "FyC551oNwmENxbr9Yght",
    "pop": 35190000,
    "country": "IN",
    "longitude": 79.0193,
    "sick": 11052,
    "invisible": false
  },
  {
    "latitude": 48.669,
    "dead": 28,
    "lastUpdated": "2020-07-24T04:46:05.231Z",
    "recovered": 1556,
    "infected": 2089,
    "id": "FzIDXoqWnTI3nUfhPyT2",
    "pop": 5450000,
    "country": "SK",
    "longitude": 19.699,
    "name": "Slovakia",
    "sick": 505,
    "invisible": false
  },
  {
    "id": "GAp7Wb6IMhdgbvEtMza9",
    "pop": 197000000,
    "country": "PK",
    "longitude": 69.345116,
    "name": "Pakistan",
    "latitude": 30.37532,
    "dead": 5709,
    "lastUpdated": "2020-07-24T04:46:05.151Z",
    "recovered": 213175,
    "infected": 269191,
    "sick": 50307,
    "invisible": false
  },
  {
    "latitude": 31.1471,
    "dead": 277,
    "lastUpdated": "2020-07-24T04:41:01.442Z",
    "recovered": 7741,
    "infected": 11739,
    "id": "GGru8cG08mANO8XDDUtZ",
    "pop": 27980000,
    "country": "IN",
    "longitude": 75.3412,
    "name": "Punjab",
    "sick": 3721,
    "invisible": false
  },
  {
    "recovered": 50848,
    "infected": 57988,
    "id": "GHzBIsHy2GiBc5JV2HMs",
    "pop": 9400000,
    "country": "AE",
    "longitude": 53.847816,
    "name": "United Arab Emirates",
    "latitude": 23.424076,
    "dead": 342,
    "lastUpdated": "2020-07-24T04:46:05.188Z",
    "sick": 6798,
    "invisible": false
  },
  {
    "lastUpdated": "2020-07-24T04:47:02.285Z",
    "recovered": 0,
    "infected": 103,
    "id": "GLViSIjDjwvptOphedAu",
    "country": "US",
    "longitude": -95.7129,
    "invisible": true,
    "name": "Grand Princess",
    "latitude": 37.0902,
    "dead": 3,
    "sick": 100
  },
  {
    "recovered": 0,
    "infected": 34791,
    "state": "EN",
    "id": "GPtoS0Yy2EnNafpmmTqY",
    "pop": 10100000,
    "country": "GB",
    "longitude": -0.1278,
    "name": "London",
    "latitude": 51.5074,
    "dead": 0,
    "lastUpdated": "2020-07-24T04:43:24.372Z",
    "sick": 34791,
    "invisible": false
  },
  {
    "lastUpdated": "2020-07-24T04:47:02.275Z",
    "recovered": 0,
    "infected": 432345,
    "state": "CA",
    "id": "Gh46r6vuaY7fbGt3IboN",
    "pop": 39560000,
    "country": "US",
    "longitude": -119.339046,
    "name": "California",
    "latitude": 36.621981,
    "dead": 8202,
    "sick": 424143,
    "invisible": false
  },
  {
    "latitude": 20.4283,
    "dead": 2,
    "lastUpdated": "2020-07-24T04:41:01.452Z",
    "recovered": 513,
    "infected": 820,
    "id": "GljWeVnun6o9DeW6rlEm",
    "pop": 343709,
    "country": "IN",
    "longitude": 72.8397,
    "name": "Dadra and Nagar Haveli",
    "sick": 305,
    "invisible": false
  },
  {
    "state": "OK",
    "id": "GpF8ULuKOQiFDCUHN44h",
    "pop": 3943000,
    "country": "US",
    "longitude": -97.145514,
    "name": "Oklahoma",
    "latitude": 35.87189,
    "dead": 477,
    "lastUpdated": "2020-07-24T04:47:02.280Z",
    "recovered": 0,
    "infected": 28802,
    "sick": 28325,
    "invisible": false
  },
  {
    "longitude": -71.557,
    "name": "Arauca",
    "latitude": 6.492,
    "dead": 1,
    "lastUpdated": "2020-07-24T04:21:49.194Z",
    "recovered": 104,
    "infected": 174,
    "id": "Gr09a1wn3BnMqjQbgEun",
    "pop": 256627,
    "country": "CO",
    "sick": 69,
    "invisible": false
  },
  {
    "lastUpdated": "2020-07-24T04:30:06.577Z",
    "recovered": 4510,
    "infected": 6172,
    "id": "GsecjBfopdgTOnyRgtCA",
    "pop": 1014000,
    "country": "RU",
    "longitude": 41.483,
    "name": "Ivanovo Oblast",
    "latitude": 57.1057,
    "dead": 69,
    "sick": 1593,
    "invisible": false
  },
  {
    "latitude": 46.5,
    "dead": 292,
    "lastUpdated": "2020-07-24T04:31:02.433Z",
    "recovered": 2305,
    "infected": 2686,
    "state": "BA",
    "id": "Gzx6GX1qhBm714BkEC6l",
    "pop": 520891,
    "country": "IT",
    "longitude": 11.35,
    "name": "P.A. Bolzano",
    "sick": 89,
    "invisible": false
  },
  {
    "latitude": 42.83263,
    "dead": 1,
    "lastUpdated": "2020-07-24T02:08:04.762Z",
    "recovered": 245,
    "infected": 250,
    "id": "H3JeVigVbo5CSYfZG4WI",
    "pop": 24710000,
    "country": "CN",
    "longitude": 113.750972,
    "name": "Inner Mongolia",
    "sick": 4,
    "invisible": false
  },
  {
    "name": "Nevada",
    "latitude": 39.74536,
    "dead": 709,
    "lastUpdated": "2020-07-24T04:47:02.280Z",
    "recovered": 0,
    "infected": 39919,
    "state": "NV",
    "id": "H3bDg4eV30up4WWrIDAS",
    "pop": 3034000,
    "country": "US",
    "longitude": -116.724977,
    "sick": 39210,
    "invisible": false
  },
  {
    "lastUpdated": "2020-07-24T04:27:08.506Z",
    "recovered": 0,
    "infected": 156242,
    "state": "CE",
    "id": "HEMWNnFxeFEoeOCBOLJD",
    "pop": 9075649,
    "country": "BR",
    "longitude": -38.526669,
    "name": "Ceará",
    "latitude": -3.731862,
    "dead": 7374,
    "sick": 148868,
    "invisible": false
  },
  {
    "country": "IN",
    "longitude": 75.7139,
    "name": "Karnataka",
    "latitude": 15.3173,
    "dead": 1616,
    "lastUpdated": "2020-07-24T04:41:01.441Z",
    "recovered": 29310,
    "infected": 80863,
    "id": "HN5mGmxlqlSeFSNeu1K5",
    "pop": 64060000,
    "sick": 49937,
    "invisible": false
  },
  {
    "recovered": 83,
    "infected": 92,
    "id": "HRDpwyxpqW9RN0xLFyNu",
    "pop": 807610,
    "country": "BT",
    "longitude": 90.4336,
    "name": "Bhutan",
    "latitude": 27.5142,
    "dead": 0,
    "lastUpdated": "2020-07-24T04:46:05.253Z",
    "sick": 9,
    "invisible": false
  },
  {
    "longitude": 64.5853,
    "name": "Uzbekistan",
    "latitude": 41.3775,
    "dead": 102,
    "lastUpdated": "2020-07-24T04:46:05.199Z",
    "recovered": 10149,
    "infected": 18868,
    "id": "HRTA10dtrruDEwjJEGMp",
    "pop": 32390000,
    "country": "UZ",
    "sick": 8617,
    "invisible": false
  },
  {
    "longitude": -105.576255,
    "name": "New Mexico",
    "latitude": 34.138916,
    "dead": 596,
    "lastUpdated": "2020-07-24T04:47:02.281Z",
    "recovered": 0,
    "infected": 18163,
    "state": "NM",
    "id": "HSSFomRju0doHhWgW8On",
    "pop": 2095000,
    "country": "US",
    "sick": 17567,
    "invisible": false
  },
  {
    "latitude": -40.231,
    "dead": 13,
    "lastUpdated": "2020-07-24T04:20:12.022Z",
    "recovered": 0,
    "infected": 847,
    "id": "HZkACHjW7NlYjg8vEMj2",
    "pop": 412812,
    "country": "CL",
    "longitude": -72.3311,
    "name": "Los Ríos",
    "sick": 834,
    "invisible": false
  },
  {
    "recovered": 786,
    "infected": 829,
    "state": "MV",
    "id": "He1gSS1v50t06i3YrqvB",
    "pop": 1635000,
    "country": "DE",
    "longitude": 12.4296,
    "name": "Mecklenburg-Vorpommern",
    "latitude": 53.6127,
    "dead": 21,
    "lastUpdated": "2020-07-24T04:30:03.146Z",
    "sick": 22,
    "invisible": false
  },
  {
    "latitude": 42.25,
    "dead": 470,
    "lastUpdated": "2020-07-24T04:31:02.431Z",
    "recovered": 2767,
    "infected": 3352,
    "state": "65",
    "id": "I9EqrZfbPnkioNU4wZGz",
    "pop": 1315000,
    "country": "IT",
    "longitude": 13.75,
    "name": "Abruzzo",
    "sick": 115,
    "invisible": false
  },
  {
    "name": "Guangdong",
    "latitude": 23.363855,
    "dead": 8,
    "lastUpdated": "2020-07-24T04:23:13.861Z",
    "recovered": 1639,
    "infected": 1667,
    "id": "IAX0OQLVnUwU7FX0ENF1",
    "pop": 113460000,
    "country": "CN",
    "longitude": 113.373448,
    "sick": 20,
    "invisible": false
  },
  {
    "recovered": 1254,
    "infected": 1276,
    "id": "IFuMrMvSjoiX5agYvllh",
    "pop": 94000000,
    "country": "CN",
    "longitude": 113.484016,
    "name": "Henan",
    "latitude": 33.875408,
    "dead": 22,
    "lastUpdated": "2020-07-24T04:23:13.868Z",
    "sick": 0,
    "invisible": false
  },
  {
    "name": "Algarve",
    "latitude": 37.2,
    "dead": 15,
    "lastUpdated": "2020-07-24T04:23:02.559Z",
    "recovered": 0,
    "infected": 806,
    "id": "IHqRHC8K3OZPN8gniM7V",
    "pop": 451000,
    "country": "PT",
    "longitude": -8.16667,
    "sick": 791,
    "invisible": false
  },
  {
    "latitude": 3.883,
    "dead": 129,
    "lastUpdated": "2020-07-24T04:21:49.193Z",
    "recovered": 1386,
    "infected": 1971,
    "id": "IKWjRUo0SYgHQKdWjTvq",
    "pop": 333194,
    "country": "CO",
    "longitude": -77.0197,
    "name": "Buenaventura D.E.",
    "sick": 456,
    "invisible": false
  },
  {
    "latitude": 52.87,
    "dead": 0,
    "lastUpdated": "2020-07-24T04:43:24.372Z",
    "recovered": 0,
    "infected": 22820,
    "state": "EN",
    "id": "INyu1R48Ppv8cfW4Nuz4",
    "pop": 4811000,
    "country": "GB",
    "longitude": -0.995,
    "name": "East Midlands",
    "sick": 22820,
    "invisible": false
  },
  {
    "id": "ISRKMzEDojyrZ9iyWwex",
    "pop": 1342600,
    "country": "MX",
    "longitude": -102.317,
    "name": "Aguascalientes",
    "latitude": 22.017,
    "dead": 247,
    "lastUpdated": "2020-07-24T04:32:17.072Z",
    "recovered": 0,
    "infected": 4600,
    "sick": 4353,
    "invisible": false
  },
  {
    "name": "Nuevo León",
    "latitude": 25.686613,
    "dead": 899,
    "lastUpdated": "2020-07-24T04:32:17.072Z",
    "recovered": 0,
    "infected": 26856,
    "id": "IdKbgzgKLpjBFh4UPOwu",
    "pop": 5321300,
    "country": "MX",
    "longitude": -100.316116,
    "sick": 25957,
    "invisible": false
  },
  {
    "recovered": 0,
    "infected": 7109,
    "id": "IhhiYI6T0TX4CYVPcnmH",
    "pop": 3826900,
    "country": "MX",
    "longitude": -106.069099,
    "name": "Chihuahua",
    "latitude": 28.632996,
    "dead": 845,
    "lastUpdated": "2020-07-24T04:32:17.069Z",
    "sick": 6264,
    "invisible": false
  },
  {
    "country": "CL",
    "longitude": -72.57,
    "name": "Ñuble",
    "latitude": -36.7,
    "dead": 54,
    "lastUpdated": "2020-07-24T04:20:12.021Z",
    "recovered": 0,
    "infected": 3273,
    "id": "ImnOiVx9Cb8Nw7cbRcQ7",
    "pop": 480600,
    "sick": 3219,
    "invisible": false
  },
  {
    "lastUpdated": "2020-07-24T04:46:05.221Z",
    "recovered": 4236,
    "infected": 7197,
    "id": "InZ38sIqyK7FN7XAOZoX",
    "pop": 10980000,
    "country": "HT",
    "longitude": -73.0513,
    "name": "Haiti",
    "latitude": 19.0558,
    "dead": 154,
    "sick": 2807,
    "invisible": false
  },
  {
    "state": "GA",
    "id": "IvQkDJkTAsoIqPRAU25n",
    "pop": 10520000,
    "country": "US",
    "longitude": -83.280125,
    "name": "Georgia (US)",
    "latitude": 32.528564,
    "dead": 3360,
    "lastUpdated": "2020-07-24T04:47:02.275Z",
    "recovered": 0,
    "infected": 156588,
    "sick": 153228,
    "invisible": false
  },
  {
    "latitude": -42.8285,
    "dead": 22,
    "lastUpdated": "2020-07-24T04:46:05.240Z",
    "recovered": 1513,
    "infected": 1556,
    "id": "IvVhpOoGpH6JVkGyUhXN",
    "pop": 4794000,
    "country": "NZ",
    "longitude": 172.488081,
    "name": "New Zealand",
    "sick": 21,
    "invisible": false
  },
  {
    "recovered": 334,
    "infected": 991,
    "id": "IwYKiIVY18NGwdGQFGWW",
    "pop": 1255000,
    "country": "IN",
    "longitude": 94.7278,
    "name": "Arunachal Pradesh",
    "latitude": 28.218,
    "dead": 3,
    "lastUpdated": "2020-07-24T04:41:01.452Z",
    "sick": 654,
    "invisible": false
  },
  {
    "latitude": 6.4238,
    "dead": 129,
    "lastUpdated": "2020-07-24T04:46:05.219Z",
    "recovered": 7752,
    "infected": 13613,
    "id": "J3mZXlfEnnJx4CDZLvRG",
    "pop": 28870000,
    "country": "VE",
    "longitude": -66.5897,
    "name": "Venezuela",
    "sick": 5732,
    "invisible": false
  },
  {
    "id": "JEMCwkwXK39jd1lZ7VgJ",
    "pop": 107932,
    "country": "CO",
    "longitude": -72.633,
    "name": "Guaviare",
    "latitude": 2.567,
    "dead": 0,
    "lastUpdated": "2020-07-24T04:21:49.195Z",
    "recovered": 43,
    "infected": 52,
    "sick": 9,
    "invisible": false
  },
  {
    "name": "Adygea",
    "latitude": 44.8229,
    "dead": 18,
    "lastUpdated": "2020-07-24T04:30:06.582Z",
    "recovered": 1974,
    "infected": 2470,
    "id": "JOJVBvOnsLDJPVeYJaI2",
    "pop": 453000,
    "country": "RU",
    "longitude": 40.1754,
    "sick": 478,
    "invisible": false
  },
  {
    "latitude": 35.1264,
    "dead": 19,
    "lastUpdated": "2020-07-24T04:46:05.242Z",
    "recovered": 847,
    "infected": 1045,
    "id": "JQByE4l2OA6sGOqIcWrM",
    "pop": 1170000,
    "country": "CY",
    "longitude": 33.4299,
    "name": "Cyprus",
    "sick": 179,
    "invisible": false
  },
  {
    "country": "IN",
    "longitude": 85.3131,
    "name": "Bihar",
    "latitude": 25.0961,
    "dead": 212,
    "lastUpdated": "2020-07-24T04:41:01.442Z",
    "recovered": 20959,
    "infected": 31691,
    "id": "JR7hOGked7CZtIs2nCV5",
    "pop": 99020000,
    "sick": 10520,
    "invisible": false
  },
  {
    "longitude": -90.522713,
    "name": "Guatemala",
    "latitude": 14.628434,
    "dead": 1632,
    "lastUpdated": "2020-07-24T04:46:05.190Z",
    "recovered": 28856,
    "infected": 42192,
    "id": "JUWE6bG3b5oL7fKQMSvv",
    "pop": 17250000,
    "country": "GT",
    "sick": 11704,
    "invisible": false
  },
  {
    "country": "LU",
    "longitude": 6.1296,
    "name": "Luxembourg",
    "latitude": 49.8153,
    "dead": 112,
    "lastUpdated": "2020-07-24T04:46:05.222Z",
    "recovered": 4591,
    "infected": 5952,
    "id": "JcFsHSn2WvZ5LJW42ovG",
    "pop": 602005,
    "sick": 1249,
    "invisible": false
  },
  {
    "lastUpdated": "2020-07-24T04:21:49.193Z",
    "recovered": 1067,
    "infected": 1929,
    "id": "JmOyaFe25yZCIV64JbZj",
    "pop": 2049000,
    "country": "CO",
    "longitude": -74.167,
    "name": "Bolívar",
    "latitude": 8.8,
    "dead": 87,
    "sick": 775,
    "invisible": false
  },
  {
    "recovered": 0,
    "infected": 12533,
    "id": "Jp9ePErcc8i1aOozEAMf",
    "pop": 3648100,
    "country": "MX",
    "longitude": -115.783,
    "name": "Baja California",
    "latitude": 31.4,
    "dead": 2484,
    "lastUpdated": "2020-07-24T04:32:17.068Z",
    "sick": 10049,
    "invisible": false
  },
  {
    "latitude": 8.7479801,
    "dead": 381,
    "lastUpdated": "2020-07-24T04:21:49.193Z",
    "recovered": 861,
    "infected": 3344,
    "id": "Jr8syCB0lydmPDXw8Q6N",
    "pop": 1786500,
    "country": "CO",
    "longitude": -75.8814316,
    "name": "Córdoba",
    "sick": 2102,
    "invisible": false
  },
  {
    "latitude": 8.6195,
    "dead": 16,
    "lastUpdated": "2020-07-24T04:46:05.243Z",
    "recovered": 584,
    "infected": 828,
    "id": "JrBbirlBKGdWSdcDt7PF",
    "pop": 7798000,
    "country": "TG",
    "longitude": 0.8248,
    "name": "Togo",
    "sick": 228,
    "invisible": false
  },
  {
    "name": "Bulgaria",
    "latitude": 42.7339,
    "dead": 329,
    "lastUpdated": "2020-07-24T04:46:05.220Z",
    "recovered": 5031,
    "infected": 9853,
    "id": "JzZ8sbqzjutThVjkPKPL",
    "pop": 7050000,
    "country": "BG",
    "longitude": 25.4858,
    "sick": 4493,
    "invisible": false
  },
  {
    "recovered": 0,
    "infected": 930,
    "id": "KGrK7gafkeWjmU6sHQd2",
    "pop": 1263000,
    "country": "PL",
    "longitude": 20.709,
    "name": "Świętokrzyskie",
    "latitude": 50.823,
    "dead": 45,
    "lastUpdated": "2020-07-24T04:33:09.064Z",
    "sick": 885,
    "invisible": false
  },
  {
    "longitude": 61.9316,
    "name": "Sverdlovsk Oblast",
    "latitude": 59.0077,
    "dead": 213,
    "lastUpdated": "2020-07-24T04:30:06.574Z",
    "recovered": 13365,
    "infected": 18733,
    "id": "KLBR5QHW6DePaGcFxlqH",
    "pop": 4325000,
    "country": "RU",
    "sick": 5155,
    "invisible": false
  },
  {
    "lastUpdated": "2020-07-24T04:31:02.432Z",
    "recovered": 8374,
    "infected": 10139,
    "state": "42",
    "id": "KLXicxFogWnu0dLp4bNK",
    "pop": 1557000,
    "country": "IT",
    "longitude": 8.833,
    "name": "Liguria",
    "latitude": 44.5,
    "dead": 1566,
    "sick": 199,
    "invisible": false
  },
  {
    "latitude": 56.4385,
    "dead": 31,
    "lastUpdated": "2020-07-24T04:30:06.581Z",
    "recovered": 3041,
    "infected": 3601,
    "id": "KUnAVGJH6fLwFetE8A2x",
    "pop": 682000,
    "country": "RU",
    "longitude": 47.9608,
    "name": "Mari El Republic",
    "sick": 529,
    "invisible": false
  },
  {
    "lastUpdated": "2020-07-24T04:21:49.191Z",
    "recovered": 1221,
    "infected": 2309,
    "id": "KpOz3WmiZkrXUMlUJNlV",
    "pop": 1201000,
    "country": "CO",
    "longitude": -73.2532,
    "name": "Cesar",
    "latitude": 10.4631,
    "dead": 44,
    "sick": 1044,
    "invisible": false
  },
  {
    "latitude": 43.4167,
    "dead": 1131,
    "lastUpdated": "2020-07-24T04:31:02.433Z",
    "recovered": 8935,
    "infected": 10394,
    "state": "52",
    "id": "KrLrJbpDqqiXgUPGCCW9",
    "pop": 3737000,
    "country": "IT",
    "longitude": 11,
    "name": "Toscana",
    "sick": 328,
    "invisible": false
  },
  {
    "longitude": 80.771797,
    "name": "Sri Lanka",
    "latitude": 7.873054,
    "dead": 11,
    "lastUpdated": "2020-07-24T04:46:05.230Z",
    "recovered": 2077,
    "infected": 2753,
    "id": "KsWzJO06cf0d6LJ4ZNh9",
    "pop": 21440000,
    "country": "LK",
    "sick": 665,
    "invisible": false
  },
  {
    "name": "Andhra Pradesh",
    "latitude": 15.9129,
    "dead": 884,
    "lastUpdated": "2020-07-24T04:41:01.441Z",
    "recovered": 37555,
    "infected": 72711,
    "id": "KtQIo2DoqjELtPAlyDVO",
    "pop": 49670000,
    "country": "IN",
    "longitude": 79.74,
    "sick": 34272,
    "invisible": false
  },
  {
    "recovered": 39,
    "infected": 46,
    "id": "LBUtrLDKJiupXjlUNTUe",
    "pop": 32125,
    "country": "FR",
    "longitude": -63.0501,
    "name": "Saint-Martin",
    "alwaysShow": true,
    "latitude": 18.0708,
    "dead": 3,
    "lastUpdated": "2020-07-24T04:46:05.253Z",
    "sick": 4,
    "invisible": false
  },
  {
    "name": "Oryol Oblast",
    "latitude": 52.7856,
    "dead": 80,
    "lastUpdated": "2020-07-24T04:30:06.579Z",
    "recovered": 4055,
    "infected": 5425,
    "id": "LD8TNScpLrLRvgpQAn9T",
    "pop": 747000,
    "country": "RU",
    "longitude": 36.9242,
    "sick": 1290,
    "invisible": false
  },
  {
    "name": "Liechtenstein",
    "latitude": 47.166,
    "dead": 1,
    "lastUpdated": "2020-07-24T04:46:05.253Z",
    "recovered": 81,
    "infected": 86,
    "id": "LTGEU2E9MFkrCcFhZYVk",
    "pop": 38557,
    "country": "LI",
    "longitude": 9.5554,
    "sick": 4,
    "invisible": false
  },
  {
    "name": "Guinea",
    "latitude": 9.9456,
    "dead": 42,
    "lastUpdated": "2020-07-24T04:46:05.221Z",
    "recovered": 5999,
    "infected": 6806,
    "id": "LU2QWt5ao8IJa8evNYVV",
    "pop": 12720000,
    "country": "GN",
    "longitude": -9.6966,
    "sick": 765,
    "invisible": false
  },
  {
    "latitude": 29.6667,
    "dead": 1597,
    "lastUpdated": "2020-07-24T04:32:17.069Z",
    "recovered": 0,
    "infected": 16307,
    "id": "LYCBHrA9ms6GcxpLGPCT",
    "pop": 3062000,
    "country": "MX",
    "longitude": -110.5,
    "name": "Sonora",
    "sick": 14710,
    "invisible": false
  },
  {
    "longitude": -56.0277824,
    "name": "Suriname",
    "latitude": 3.9193051,
    "dead": 23,
    "lastUpdated": "2020-07-24T04:46:05.241Z",
    "recovered": 774,
    "infected": 1234,
    "id": "LglKINHyQpYpFxjckbQ6",
    "pop": 563402,
    "country": "SR",
    "sick": 437,
    "invisible": false
  },
  {
    "state": "SK",
    "id": "LkIDKY0CMAqzbwBHyYCP",
    "pop": 1174000,
    "country": "CA",
    "longitude": -106.4509,
    "name": "Saskatchewan",
    "latitude": 52.9399,
    "dead": 16,
    "lastUpdated": "2020-07-24T04:37:02.517Z",
    "recovered": 838,
    "infected": 1072,
    "sick": 218,
    "invisible": false
  },
  {
    "country": "EH",
    "longitude": -12.8858,
    "name": "Western Sahara",
    "latitude": 24.2155,
    "dead": 1,
    "lastUpdated": "2020-07-24T04:46:05.263Z",
    "recovered": 8,
    "infected": 10,
    "id": "LooNn6RuMiDhQnwa9svw",
    "pop": 636442,
    "sick": 1,
    "invisible": false
  },
  {
    "recovered": 1063,
    "infected": 3437,
    "state": "AS",
    "id": "Lsga7AvYNnY0qQ5gEfV8",
    "pop": 1022000,
    "country": "ES",
    "longitude": -5.951843,
    "name": "Principado de Asturias",
    "latitude": 43.363129,
    "dead": 334,
    "lastUpdated": "2020-07-23T23:36:52.198Z",
    "sick": 2040,
    "invisible": false
  },
  {
    "state": "EX",
    "id": "LuEErlF7dVKI0eJsRjFm",
    "pop": 1065000,
    "country": "ES",
    "longitude": -6.0679,
    "name": "Extremadura",
    "latitude": 39.4937,
    "dead": 519,
    "lastUpdated": "2020-07-23T23:36:03.409Z",
    "recovered": 2652,
    "infected": 4299,
    "sick": 1128,
    "invisible": false
  },
  {
    "name": "Guanajuato",
    "latitude": 21.0186,
    "dead": 1088,
    "lastUpdated": "2020-07-24T04:32:17.071Z",
    "recovered": 0,
    "infected": 18070,
    "id": "M3wdiueFtwrUHiQ2rOXA",
    "pop": 5965000,
    "country": "MX",
    "longitude": -101.2591,
    "sick": 16982,
    "invisible": false
  },
  {
    "recovered": 0,
    "infected": 25147,
    "state": "KY",
    "id": "MC8MXFw9iXYybnF8v7e6",
    "pop": 4468000,
    "country": "US",
    "longitude": -84.27,
    "name": "Kentucky",
    "latitude": 37.8393,
    "dead": 684,
    "lastUpdated": "2020-07-24T04:47:02.281Z",
    "sick": 24463,
    "invisible": false
  },
  {
    "recovered": 0,
    "infected": 8402,
    "id": "MEjlm8VYdGA28TTTnQmf",
    "country": "GB",
    "longitude": -3.436,
    "invisible": true,
    "name": "Unknown UK region or state",
    "latitude": 55.3781,
    "dead": 40959,
    "lastUpdated": "2020-07-24T04:43:24.374Z",
    "sick": 0
  },
  {
    "name": "Norte",
    "latitude": 41.3006,
    "dead": 828,
    "lastUpdated": "2020-07-24T04:23:02.559Z",
    "recovered": 0,
    "infected": 18415,
    "id": "MG4e9tulLJ010SZJvbYN",
    "pop": 3689000,
    "country": "PT",
    "longitude": -7.7441,
    "sick": 17587,
    "invisible": false
  },
  {
    "latitude": 56.4907,
    "dead": 2491,
    "lastUpdated": "2020-07-24T04:43:24.371Z",
    "recovered": 0,
    "infected": 18500,
    "state": "SC",
    "id": "MObRYyIriHG337L8FyFC",
    "pop": 5450000,
    "country": "GB",
    "longitude": -4.2026,
    "name": "Scotland",
    "sick": 16009,
    "invisible": false
  },
  {
    "lastUpdated": "2020-07-24T04:47:02.277Z",
    "recovered": 0,
    "infected": 59602,
    "state": "IN",
    "id": "MOxDkmQ4wBi1CuAdVxDE",
    "pop": 6692000,
    "country": "US",
    "longitude": -86.1349,
    "name": "Indiana",
    "latitude": 40.2672,
    "dead": 2880,
    "sick": 56722,
    "invisible": false
  },
  {
    "id": "MdQOfc1gNh2DOqwSP6UV",
    "pop": 24290000,
    "country": "CI",
    "longitude": -5.5471,
    "name": "Ivory Coast",
    "latitude": 7.54,
    "dead": 93,
    "lastUpdated": "2020-07-24T04:46:05.200Z",
    "recovered": 9282,
    "infected": 15001,
    "sick": 5626,
    "invisible": false
  },
  {
    "lastUpdated": "2020-07-24T04:30:03.147Z",
    "recovered": 43024,
    "infected": 46936,
    "state": "NW",
    "id": "MjpYq3zQyAvSQlVVYjD2",
    "pop": 17910000,
    "country": "DE",
    "longitude": 7.6616,
    "name": "Nordrhein-Westfalen",
    "latitude": 51.4332,
    "dead": 1737,
    "sick": 2175,
    "invisible": false
  },
  {
    "longitude": 105.977203,
    "name": "Ningxia",
    "latitude": 37.330509,
    "dead": 0,
    "lastUpdated": "2020-07-24T04:23:13.881Z",
    "recovered": 75,
    "infected": 75,
    "id": "MntmjjuHljarCdt6aIeE",
    "pop": 6301000,
    "country": "CN",
    "sick": 0,
    "invisible": false
  },
  {
    "recovered": 0,
    "infected": 144467,
    "state": "PA",
    "id": "MuEB2UgkId5crsxi9zQT",
    "pop": 8513497,
    "country": "BR",
    "longitude": -52.203499186,
    "name": "Pará",
    "latitude": -3.20166586,
    "dead": 5616,
    "lastUpdated": "2020-07-24T04:27:08.507Z",
    "sick": 138851,
    "invisible": false
  },
  {
    "latitude": 52.5265,
    "dead": 21,
    "lastUpdated": "2020-07-24T04:30:06.580Z",
    "recovered": 3487,
    "infected": 4448,
    "id": "N0KGfqgROVOjAxWcd8wi",
    "pop": 1150000,
    "country": "RU",
    "longitude": 39.2032,
    "name": "Lipetsk Oblast",
    "sick": 940,
    "invisible": false
  },
  {
    "name": "Baden-Württemberg",
    "latitude": 48.6616,
    "dead": 1896,
    "lastUpdated": "2020-07-24T04:30:03.136Z",
    "recovered": 34138,
    "infected": 37114,
    "state": "BW",
    "id": "N3XsRBwJSsNclkEf7Zz5",
    "pop": 11020000,
    "country": "DE",
    "longitude": 9.3501,
    "sick": 1080,
    "invisible": false
  },
  {
    "longitude": 17.824332,
    "name": "Bosnia and Herzegovina",
    "latitude": 44.696652,
    "dead": 274,
    "lastUpdated": "2020-07-24T04:46:05.220Z",
    "recovered": 4367,
    "infected": 9462,
    "id": "N7c13sCQF0G789XAVazJ",
    "pop": 3507000,
    "country": "BA",
    "sick": 4821,
    "invisible": false
  },
  {
    "longitude": 111.856857,
    "name": "Shanxi",
    "latitude": 37.242565,
    "dead": 0,
    "lastUpdated": "2020-07-24T04:23:13.880Z",
    "recovered": 201,
    "infected": 201,
    "id": "NBRIGIRrJB1Ry8prDNAC",
    "pop": 36500000,
    "country": "CN",
    "sick": 0,
    "invisible": false
  },
  {
    "lastUpdated": "2020-07-24T04:47:02.276Z",
    "recovered": 0,
    "infected": 106918,
    "state": "NC",
    "id": "NC64Qp5kTqAfiTuR27k8",
    "pop": 10380000,
    "country": "US",
    "longitude": -79.0193,
    "name": "North Carolina",
    "latitude": 35.7596,
    "dead": 1749,
    "sick": 105169,
    "invisible": false
  },
  {
    "latitude": 52.4125,
    "dead": 177,
    "lastUpdated": "2020-07-24T04:30:03.145Z",
    "recovered": 3284,
    "infected": 3565,
    "state": "BB",
    "id": "NJjo2gfBvnbK4xatrsUz",
    "pop": 2504000,
    "country": "DE",
    "longitude": 12.5316,
    "name": "Brandenburg",
    "sick": 104,
    "invisible": false
  },
  {
    "infected": 38,
    "recovered": 0,
    "pop": 55144,
    "country": "US",
    "lastUpdated": "2020-07-24T04:47:02.283Z",
    "state": "MP",
    "id": "NLLL6pJhJSw0lrDMD4uP",
    "longitude": 145.6739,
    "name": "Northern Mariana Islands",
    "alwaysShow": true,
    "dead": 2,
    "latitude": 15.0979,
    "sick": 36,
    "invisible": false
  },
  {
    "recovered": 3399,
    "infected": 5445,
    "id": "NMeZEcGToxXfpi16PfFV",
    "pop": 10080000,
    "country": "IN",
    "longitude": 79.0193,
    "name": "Uttarakhand",
    "latitude": 30.0668,
    "dead": 60,
    "lastUpdated": "2020-07-24T04:41:01.443Z",
    "sick": 1986,
    "invisible": false
  },
  {
    "state": "HE",
    "id": "Nk5vPgUIXsWVfbWZf15O",
    "pop": 6243000,
    "country": "DE",
    "longitude": 9.1624,
    "name": "Hessen",
    "latitude": 50.6521,
    "dead": 524,
    "lastUpdated": "2020-07-24T04:30:03.146Z",
    "recovered": 10652,
    "infected": 11591,
    "sick": 415,
    "invisible": false
  },
  {
    "name": "Latvia",
    "latitude": 56.96776,
    "dead": 31,
    "lastUpdated": "2020-07-24T04:46:05.241Z",
    "recovered": 1045,
    "infected": 1203,
    "id": "NmmMKy0YqA8StHdGzB5N",
    "pop": 1920000,
    "country": "LV",
    "longitude": 25.837107,
    "sick": 127,
    "invisible": false
  },
  {
    "latitude": -8.472372,
    "dead": 6211,
    "lastUpdated": "2020-07-24T04:27:08.508Z",
    "recovered": 0,
    "infected": 83240,
    "state": "PE",
    "id": "NyGlFL1gATK1Omv9qtcC",
    "pop": 9496294,
    "country": "BR",
    "longitude": -37.946777,
    "name": "Pernambuco",
    "sick": 77029,
    "invisible": false
  },
  {
    "id": "O4g88K49HKEZLFXm5gxb",
    "pop": 4732000,
    "country": "LR",
    "longitude": -9.4295,
    "name": "Liberia",
    "latitude": 6.4281,
    "dead": 71,
    "lastUpdated": "2020-07-24T04:46:05.241Z",
    "recovered": 613,
    "infected": 1117,
    "sick": 433,
    "invisible": false
  },
  {
    "recovered": 5673,
    "infected": 8107,
    "id": "O5fNOGWKosps6JTrzkpn",
    "pop": 2350000,
    "country": "RU",
    "longitude": 82.6759,
    "name": "Altai Krai",
    "latitude": 51.7936,
    "dead": 59,
    "lastUpdated": "2020-07-24T04:30:06.576Z",
    "sick": 2375,
    "invisible": false
  },
  {
    "longitude": 116.9677,
    "name": "Zabaykalsky Krai",
    "latitude": 53.0929,
    "dead": 47,
    "lastUpdated": "2020-07-24T04:30:06.580Z",
    "recovered": 3396,
    "infected": 3988,
    "id": "O6PDzAxKENYbLsLjPx2K",
    "pop": 1072000,
    "country": "RU",
    "sick": 545,
    "invisible": false
  },
  {
    "lastUpdated": "2020-07-24T04:47:02.276Z",
    "recovered": 0,
    "infected": 76606,
    "state": "SC",
    "id": "ONU4CK8QjViFHKg2w5if",
    "pop": 5084000,
    "country": "US",
    "longitude": -80.525613,
    "name": "South Carolina",
    "latitude": 34.003307,
    "dead": 1334,
    "sick": 75272,
    "invisible": false
  },
  {
    "country": "US",
    "longitude": -89.582775,
    "name": "Mississippi",
    "latitude": 33.51822,
    "dead": 1436,
    "lastUpdated": "2020-07-24T04:47:02.277Z",
    "recovered": 0,
    "infected": 48053,
    "state": "MS",
    "id": "OYa0jFzdbAgo8zUsRv6q",
    "pop": 2987000,
    "sick": 46617,
    "invisible": false
  },
  {
    "recovered": 0,
    "infected": 3737,
    "state": "ME",
    "id": "OcXNp9kNVSwrRlG3bNVN",
    "pop": 1338000,
    "country": "US",
    "longitude": -69.4455,
    "name": "Maine",
    "latitude": 45.2538,
    "dead": 118,
    "lastUpdated": "2020-07-24T04:47:02.282Z",
    "sick": 3619,
    "invisible": false
  },
  {
    "latitude": 43.4052,
    "dead": 72,
    "lastUpdated": "2020-07-24T04:30:06.581Z",
    "recovered": 2682,
    "infected": 3502,
    "id": "OlKS5SPydHY2TedStFuf",
    "pop": 488000,
    "country": "RU",
    "longitude": 44.8203,
    "name": "Ingushetia",
    "sick": 748,
    "invisible": false
  },
  {
    "latitude": -41.915264,
    "dead": 13,
    "lastUpdated": "2020-07-24T04:28:26.011Z",
    "recovered": 215,
    "infected": 229,
    "state": "TAS",
    "id": "OnOseaqWdnuP18oruABW",
    "pop": 515000,
    "country": "AU",
    "longitude": 146.725256,
    "name": "Tasmania",
    "sick": 1,
    "invisible": false
  },
  {
    "recovered": 0,
    "infected": 40755,
    "state": "MT",
    "id": "P0GHFGUt1pkKTk5PM8uz",
    "pop": 3441998,
    "country": "BR",
    "longitude": -56.666668,
    "name": "Mato Grosso",
    "latitude": -16.35,
    "dead": 1491,
    "lastUpdated": "2020-07-24T04:27:08.508Z",
    "sick": 39264,
    "invisible": false
  },
  {
    "lastUpdated": "2020-07-24T04:30:06.579Z",
    "recovered": 4889,
    "infected": 5369,
    "id": "P2I90oqdFSoVk03AaGo4",
    "pop": 1378000,
    "country": "RU",
    "longitude": 40.5927,
    "name": "Vladimir Oblast",
    "latitude": 56.1553,
    "dead": 118,
    "sick": 362,
    "invisible": false
  },
  {
    "recovered": 202,
    "infected": 203,
    "id": "P4mwRFLbrvT0t75uD8Wo",
    "pop": 61559,
    "country": "KY",
    "longitude": -81.2546,
    "name": "Cayman Islands",
    "latitude": 19.3133,
    "dead": 1,
    "lastUpdated": "2020-07-24T04:46:05.250Z",
    "sick": 0,
    "invisible": false
  },
  {
    "longitude": -62.1873665,
    "name": "Montserrat",
    "latitude": 16.7424984,
    "dead": 1,
    "lastUpdated": "2020-07-24T04:46:05.262Z",
    "recovered": 10,
    "infected": 12,
    "id": "PEDkeFMTOZpvHiSVxBk7",
    "pop": 5900,
    "country": "MS",
    "sick": 1,
    "invisible": false
  },
  {
    "longitude": 29.8739,
    "name": "Rwanda",
    "latitude": -1.9403,
    "dead": 5,
    "lastUpdated": "2020-07-24T04:46:05.240Z",
    "recovered": 889,
    "infected": 1710,
    "id": "PEcgZGEkyhABztt1Ufgc",
    "pop": 12210000,
    "country": "RW",
    "sick": 816,
    "invisible": false
  },
  {
    "id": "PHlHdeqYd6KgxsJGfEz0",
    "pop": 4063000,
    "country": "RU",
    "longitude": 56.1645,
    "name": "Bashkortostan",
    "latitude": 54.2312,
    "dead": 21,
    "lastUpdated": "2020-07-24T04:30:06.577Z",
    "recovered": 4775,
    "infected": 6463,
    "sick": 1667,
    "invisible": false
  },
  {
    "recovered": 0,
    "infected": 48721,
    "state": "MN",
    "id": "PJvVYosLIhbcRZYnKX1R",
    "pop": 5611000,
    "country": "US",
    "longitude": -94.6859,
    "name": "Minnesota",
    "latitude": 46.7296,
    "dead": 1601,
    "lastUpdated": "2020-07-24T04:47:02.277Z",
    "sick": 47120,
    "invisible": false
  },
  {
    "lastUpdated": "2020-07-24T04:47:02.275Z",
    "recovered": 0,
    "infected": 168100,
    "state": "IL",
    "id": "PTwQr9ijo0TBBsPH2sdJ",
    "pop": 12740000,
    "country": "US",
    "longitude": -89.3985,
    "name": "Illinois",
    "latitude": 40.6331,
    "dead": 7560,
    "sick": 160540,
    "invisible": false
  },
  {
    "latitude": 13.909444,
    "dead": 0,
    "lastUpdated": "2020-07-24T04:46:05.255Z",
    "recovered": 22,
    "infected": 24,
    "id": "PjLqCeFdyzdZNcZxMkK1",
    "pop": 178844,
    "country": "LC",
    "longitude": -60.978893,
    "name": "Saint Lucia",
    "sick": 2,
    "invisible": false
  },
  {
    "longitude": -1.6761,
    "name": "Comunidad Foral de Navarra",
    "latitude": 42.6954,
    "dead": 529,
    "lastUpdated": "2020-07-23T23:35:42.277Z",
    "recovered": 3905,
    "infected": 9310,
    "state": "NC",
    "id": "PmUlsNx2uFLU797wwU39",
    "pop": 649900,
    "country": "ES",
    "sick": 4876,
    "invisible": false
  },
  {
    "country": "TN",
    "longitude": 9.460554,
    "name": "Tunisia",
    "latitude": 34.201507,
    "dead": 50,
    "lastUpdated": "2020-07-24T04:46:05.241Z",
    "recovered": 1118,
    "infected": 1406,
    "id": "Pr76V4raf108uSRoEXac",
    "pop": 11530000,
    "sick": 238,
    "invisible": false
  },
  {
    "longitude": 31.4659,
    "name": "Eswatini",
    "latitude": -26.5225,
    "dead": 28,
    "lastUpdated": "2020-07-24T04:46:05.231Z",
    "recovered": 882,
    "infected": 2021,
    "id": "PuQgOd9KWiMzGZXm11sR",
    "pop": 1367000,
    "country": "SZ",
    "sick": 1111,
    "invisible": false
  },
  {
    "country": "AU",
    "longitude": 143.94853,
    "name": "Victoria",
    "latitude": -37.009609,
    "dead": 49,
    "lastUpdated": "2020-07-24T04:28:26.011Z",
    "recovered": 3298,
    "infected": 7125,
    "state": "VIC",
    "id": "Q18mrGvFWTLX2BU9SqhQ",
    "pop": 6359000,
    "sick": 3778,
    "invisible": false
  },
  {
    "longitude": 9.6961,
    "name": "Schleswig-Holstein",
    "latitude": 54.2194,
    "dead": 159,
    "lastUpdated": "2020-07-24T04:30:03.148Z",
    "recovered": 3064,
    "infected": 3302,
    "state": "SH",
    "id": "Q39XkabIYxt15mHINzTa",
    "pop": 2890000,
    "country": "DE",
    "sick": 79,
    "invisible": false
  },
  {
    "recovered": 0,
    "infected": 54841,
    "state": "RS",
    "id": "QGpQNhuoVTUPHXvS7qcu",
    "pop": 11329605,
    "country": "BR",
    "longitude": -52.031696,
    "name": "Rio Grande do Sul",
    "latitude": -27.953491,
    "dead": 1456,
    "lastUpdated": "2020-07-24T04:27:08.508Z",
    "sick": 53385,
    "invisible": false
  },
  {
    "id": "QGyuno7Bc4kwuvGFgMiO",
    "pop": 1231000,
    "country": "RU",
    "longitude": 46.9284,
    "name": "Chuvashia",
    "latitude": 55.5596,
    "dead": 50,
    "lastUpdated": "2020-07-24T04:30:06.577Z",
    "recovered": 3454,
    "infected": 6398,
    "sick": 2894,
    "invisible": false
  },
  {
    "latitude": 58.595272,
    "dead": 69,
    "lastUpdated": "2020-07-24T04:46:05.231Z",
    "recovered": 1912,
    "infected": 2027,
    "id": "QR9go2hQKXjty7JHUYe4",
    "pop": 1328000,
    "country": "EE",
    "longitude": 25.013607,
    "name": "Estonia",
    "sick": 46,
    "invisible": false
  },
  {
    "country": "RU",
    "longitude": 54.8313,
    "name": "Komi Republic",
    "latitude": 63.8631,
    "dead": 40,
    "lastUpdated": "2020-07-24T04:30:06.579Z",
    "recovered": 3035,
    "infected": 4911,
    "id": "QTafh5fpbS8abcuyEjaL",
    "pop": 840000,
    "sick": 1836,
    "invisible": false
  },
  {
    "state": "ES",
    "id": "QaWDLKH8SuwD0Qxq6c38",
    "pop": 3972388,
    "country": "BR",
    "longitude": -40.336,
    "name": "Espírito Santo",
    "latitude": -20.318,
    "dead": 2341,
    "lastUpdated": "2020-07-24T04:27:08.508Z",
    "recovered": 0,
    "infected": 74608,
    "sick": 72267,
    "invisible": false
  },
  {
    "longitude": 35.0884,
    "name": "Murmansk Oblast",
    "latitude": 67.8443,
    "dead": 59,
    "lastUpdated": "2020-07-24T04:30:06.575Z",
    "recovered": 4835,
    "infected": 8976,
    "id": "Qh73PKA4KWeuPoqZfWXz",
    "pop": 795000,
    "country": "RU",
    "sick": 4082,
    "invisible": false
  },
  {
    "latitude": 20.3333,
    "dead": 1340,
    "lastUpdated": "2020-07-24T04:32:17.072Z",
    "recovered": 0,
    "infected": 24011,
    "id": "Qkho455pBwx88Gohs3hL",
    "pop": 8222700,
    "country": "MX",
    "longitude": -103.6667,
    "name": "Jalisco",
    "sick": 22671,
    "invisible": false
  },
  {
    "lastUpdated": "2020-07-24T04:46:05.255Z",
    "recovered": 11,
    "infected": 31,
    "id": "QlZrE4nosm5WfdA2aCDg",
    "pop": 8251000,
    "country": "PG",
    "longitude": 143.9555,
    "name": "Papua New Guinea",
    "latitude": -6.315,
    "dead": 0,
    "sick": 20,
    "invisible": false
  },
  {
    "dead": 7,
    "latitude": 18.3358,
    "infected": 336,
    "recovered": 0,
    "pop": 107268,
    "country": "US",
    "lastUpdated": "2020-07-24T04:47:02.284Z",
    "state": "VI",
    "id": "QqhD3YDMKXojvQY3Yu41",
    "longitude": -64.8963,
    "name": "U.S. Virgin Islands",
    "alwaysShow": true,
    "sick": 329,
    "invisible": false
  },
  {
    "id": "Qy2qW2ep5wltnYjPJBxh",
    "pop": 71937,
    "country": "DM",
    "longitude": -61.3709755,
    "name": "Dominica",
    "latitude": 15.414999,
    "dead": 0,
    "lastUpdated": "2020-07-24T04:46:05.256Z",
    "recovered": 18,
    "infected": 18,
    "sick": 0,
    "invisible": false
  },
  {
    "latitude": 5.167,
    "dead": 3,
    "lastUpdated": "2020-07-24T04:21:49.192Z",
    "recovered": 87,
    "infected": 199,
    "id": "R3IHMWqIUhOJJTlrmbUZ",
    "pop": 344027,
    "country": "CO",
    "longitude": -72.167,
    "name": "Casanare",
    "sick": 109,
    "invisible": false
  },
  {
    "longitude": -80.7821,
    "name": "Panama",
    "latitude": 8.538,
    "dead": 1209,
    "lastUpdated": "2020-07-24T04:46:05.189Z",
    "recovered": 31828,
    "infected": 56817,
    "id": "R8YCgephnxTufvcPWMgx",
    "pop": 4099000,
    "country": "PA",
    "sick": 23780,
    "invisible": false
  },
  {
    "recovered": 4448,
    "infected": 36902,
    "id": "RA2SE0p2bVhqo0P2hzGY",
    "pop": 9265000,
    "country": "HN",
    "longitude": -86.2419,
    "name": "Honduras",
    "latitude": 15.2,
    "dead": 1011,
    "lastUpdated": "2020-07-24T04:46:05.194Z",
    "sick": 31443,
    "invisible": false
  },
  {
    "id": "RBt9RiwP7WUbMnJfD0lo",
    "pop": 224500,
    "country": "CL",
    "longitude": -70.2979202,
    "name": "Arica y Parinacota",
    "latitude": -18.4745998,
    "dead": 40,
    "lastUpdated": "2020-07-24T04:20:12.009Z",
    "recovered": 0,
    "infected": 3291,
    "sick": 3251,
    "invisible": false
  },
  {
    "longitude": 13.8,
    "name": "Friuli Venezia Giulia",
    "latitude": 45.633331,
    "dead": 345,
    "lastUpdated": "2020-07-24T04:31:02.432Z",
    "recovered": 2921,
    "infected": 3363,
    "state": "36",
    "id": "RCrDBCdBNYzgLNr0aB2H",
    "pop": 1216000,
    "country": "IT",
    "sick": 97,
    "invisible": false
  },
  {
    "recovered": 0,
    "infected": 40653,
    "state": "IA",
    "id": "RX0KDu1AFrlCsrRso0nb",
    "pop": 3156000,
    "country": "US",
    "longitude": -93.0977,
    "name": "Iowa",
    "latitude": 41.878,
    "dead": 820,
    "lastUpdated": "2020-07-24T04:47:02.277Z",
    "sick": 39833,
    "invisible": false
  },
  {
    "longitude": -74.063644,
    "name": "Bogotá D.C.",
    "latitude": 4.624335,
    "dead": 1905,
    "lastUpdated": "2020-07-24T04:21:49.178Z",
    "recovered": 29333,
    "infected": 74599,
    "id": "RZ6PCe5TZsO15JjDObwO",
    "pop": 7413000,
    "country": "CO",
    "sick": 43361,
    "invisible": false
  },
  {
    "country": "LY",
    "longitude": 17.2283306,
    "name": "Libya",
    "latitude": 26.3351002,
    "dead": 56,
    "lastUpdated": "2020-07-24T04:46:05.230Z",
    "recovered": 501,
    "infected": 2314,
    "id": "RaJxbzlnRFTuj4B8IbpC",
    "pop": 6846000,
    "sick": 1757,
    "invisible": false
  },
  {
    "name": "Kansas",
    "latitude": 39.0119,
    "dead": 322,
    "lastUpdated": "2020-07-24T04:47:02.281Z",
    "recovered": 0,
    "infected": 24408,
    "state": "KS",
    "id": "Rf4uvBfP3GRDSHdZElRd",
    "pop": 2912000,
    "country": "US",
    "longitude": -98.4842,
    "sick": 24086,
    "invisible": false
  },
  {
    "name": "Grand Est",
    "latitude": 48.6998,
    "dead": 3608,
    "lastUpdated": "2020-07-23T23:46:46.202Z",
    "recovered": 12625,
    "infected": 27401,
    "id": "RmEgf1xeclWt7XCF9oiR",
    "pop": 5518000,
    "country": "FR",
    "longitude": 6.1878,
    "sick": 11168,
    "invisible": false
  },
  {
    "longitude": 4.451,
    "name": "Wallonia",
    "latitude": 50.4176,
    "dead": 3396,
    "lastUpdated": "2020-07-24T04:37:13.130Z",
    "recovered": 4964,
    "infected": 19977,
    "state": "WAL",
    "id": "RryHraSohKQLAsdr1dHO",
    "pop": 3644000,
    "country": "BE",
    "sick": 11617,
    "invisible": false
  },
  {
    "name": "Ontario",
    "latitude": 51.2538,
    "dead": 2755,
    "lastUpdated": "2020-07-24T04:37:02.513Z",
    "recovered": 33963,
    "infected": 38210,
    "state": "ON",
    "id": "Rx4TuyMpfGb3S8wYJX0x",
    "pop": 14570000,
    "country": "CA",
    "longitude": -85.3232,
    "sick": 1492,
    "invisible": false
  },
  {
    "name": "Castilla y León",
    "latitude": 41.652779,
    "dead": 2796,
    "lastUpdated": "2020-07-23T23:35:09.624Z",
    "recovered": 8716,
    "infected": 26278,
    "state": "CL",
    "id": "S8ewN4zaYp8mjtuqqOTw",
    "pop": 2408000,
    "country": "ES",
    "longitude": -4.723611,
    "sick": 14766,
    "invisible": false
  },
  {
    "alwaysShow": true,
    "latitude": 14.652027,
    "dead": 15,
    "lastUpdated": "2020-07-24T04:46:05.249Z",
    "recovered": 98,
    "infected": 262,
    "id": "SDdefnq1bc3ZNr7SpEsW",
    "pop": 376480,
    "country": "FR",
    "longitude": -61.011715,
    "name": "Martinique",
    "sick": 149,
    "invisible": false
  },
  {
    "latitude": 7.9465,
    "dead": 153,
    "lastUpdated": "2020-07-24T04:46:05.195Z",
    "recovered": 26090,
    "infected": 29672,
    "id": "SG9VWLOV3x2JsTkXmVSz",
    "pop": 28830000,
    "country": "GH",
    "longitude": -1.0232,
    "name": "Ghana",
    "sick": 3429,
    "invisible": false
  },
  {
    "longitude": 8.227512,
    "name": "Switzerland",
    "latitude": 46.818188,
    "dead": 1975,
    "lastUpdated": "2020-07-24T04:46:05.194Z",
    "recovered": 30500,
    "infected": 34000,
    "id": "SGe9sCPayMqh6RsGFaBA",
    "pop": 8570000,
    "country": "CH",
    "sick": 1525,
    "invisible": false
  },
  {
    "recovered": 5022,
    "infected": 5375,
    "id": "SGhKBmmh5hss7hrNR8hK",
    "pop": 964000,
    "country": "RU",
    "longitude": 124.1238,
    "name": "Yakutia",
    "latitude": 66.7613,
    "dead": 44,
    "lastUpdated": "2020-07-24T04:30:06.579Z",
    "sick": 309,
    "invisible": false
  },
  {
    "name": "Quebec",
    "latitude": 46.8139,
    "dead": 5662,
    "lastUpdated": "2020-07-24T04:37:02.517Z",
    "recovered": 50505,
    "infected": 58080,
    "state": "QC",
    "id": "SHoOE3NiJgWAlDVBzwYH",
    "pop": 8485000,
    "country": "CA",
    "longitude": -71.208,
    "sick": 1913,
    "invisible": false
  },
  {
    "id": "SMWvuMMuKp2QK7O2tNia",
    "pop": 1831000,
    "country": "XK",
    "longitude": 20.903,
    "name": "Kosovo",
    "latitude": 42.6026,
    "dead": 158,
    "lastUpdated": "2020-07-24T04:40:09.451Z",
    "recovered": 3505,
    "infected": 6467,
    "sick": 2804,
    "invisible": false
  },
  {
    "latitude": 45.0526,
    "dead": 67,
    "lastUpdated": "2020-07-24T04:30:06.578Z",
    "recovered": 4434,
    "infected": 5948,
    "id": "SNWCQwRwqYfxX8HZndTA",
    "pop": 1913000,
    "country": "RU",
    "longitude": 135,
    "name": "Primorsky Krai",
    "sick": 1447,
    "invisible": false
  },
  {
    "lastUpdated": "2020-07-24T04:41:01.443Z",
    "recovered": 2655,
    "infected": 4350,
    "id": "SPcujsH2YlUaoAr8AiWF",
    "pop": 1817000,
    "country": "IN",
    "longitude": 74.124,
    "name": "Goa",
    "latitude": 15.2993,
    "dead": 29,
    "sick": 1666,
    "invisible": false
  },
  {
    "name": "Goiás",
    "latitude": -16.328547,
    "dead": 1262,
    "lastUpdated": "2020-07-24T04:27:08.508Z",
    "recovered": 0,
    "infected": 50458,
    "state": "GO",
    "id": "SV5AMF59J61Vt4cXWLgy",
    "pop": 6921161,
    "country": "BR",
    "longitude": -48.953403,
    "sick": 49196,
    "invisible": false
  },
  {
    "longitude": -68.436,
    "name": "Vichada",
    "latitude": 6.181,
    "dead": 0,
    "lastUpdated": "2020-07-24T04:21:49.195Z",
    "recovered": 1,
    "infected": 2,
    "id": "SYFarIS62W0EW9bOaJmN",
    "pop": 75500,
    "country": "CO",
    "sick": 1,
    "invisible": false
  },
  {
    "lastUpdated": "2020-07-24T04:31:02.432Z",
    "recovered": 1071,
    "infected": 1245,
    "state": "78",
    "id": "SZdF624x0v1LlyzZjKFu",
    "pop": 1957000,
    "country": "IT",
    "longitude": 16.5,
    "name": "Calabria",
    "latitude": 39,
    "dead": 97,
    "sick": 77,
    "invisible": false
  },
  {
    "state": "NE",
    "id": "SakhKQzKu1LRI8laqdQq",
    "pop": 1929000,
    "country": "US",
    "longitude": -99.9018,
    "name": "Nebraska",
    "latitude": 41.4925,
    "dead": 316,
    "lastUpdated": "2020-07-24T04:47:02.281Z",
    "recovered": 0,
    "infected": 23818,
    "sick": 23502,
    "invisible": false
  },
  {
    "lastUpdated": "2020-07-24T04:46:05.244Z",
    "recovered": 558,
    "infected": 646,
    "id": "SgHzWAAYK1j2sipovxM6",
    "pop": 859959,
    "country": "FR",
    "longitude": 55.5364,
    "name": "La Réunion",
    "alwaysShow": true,
    "latitude": -21.1151,
    "dead": 3,
    "sick": 85,
    "invisible": false
  },
  {
    "name": "Cambodia",
    "latitude": 12.565679,
    "dead": 0,
    "lastUpdated": "2020-07-24T04:46:05.250Z",
    "recovered": 142,
    "infected": 202,
    "id": "SioMALgUbo7peXmbco2f",
    "pop": 16010000,
    "country": "KH",
    "longitude": 104.990967,
    "sick": 60,
    "invisible": false
  },
  {
    "lastUpdated": "2020-07-24T04:47:02.283Z",
    "state": "GU",
    "id": "SsWhuEElU7dCTTuH5fdQ",
    "longitude": 144.7937,
    "name": "Guam",
    "alwaysShow": true,
    "dead": 5,
    "latitude": 13.4443,
    "infected": 332,
    "recovered": 0,
    "pop": 164229,
    "country": "US",
    "sick": 327,
    "invisible": false
  },
  {
    "id": "SuCr5emUaJ9RHTll1P1p",
    "country": "PL",
    "longitude": 19.1344,
    "invisible": true,
    "name": "Unknown Poland region",
    "latitude": 51.9189,
    "dead": 0,
    "lastUpdated": "2020-07-24T04:46:05.193Z",
    "recovered": 31541,
    "infected": 0,
    "sick": 0
  },
  {
    "country": "RU",
    "longitude": 53.0278,
    "name": "Udmurtia",
    "latitude": 57.067,
    "dead": 23,
    "lastUpdated": "2020-07-24T04:30:06.582Z",
    "recovered": 1597,
    "infected": 2173,
    "id": "Sx03z01BJCAbrYkWhEaD",
    "pop": 1513000,
    "sick": 553,
    "invisible": false
  },
  {
    "name": "DR Congo",
    "latitude": -4.0383,
    "dead": 201,
    "lastUpdated": "2020-07-24T04:46:05.220Z",
    "recovered": 5105,
    "infected": 8720,
    "id": "T3iRf8mTUTAzbKrORTap",
    "pop": 84070000,
    "country": "CD",
    "longitude": 21.7587,
    "sick": 3414,
    "invisible": false
  },
  {
    "name": "Saudi Arabia",
    "latitude": 23.635796,
    "dead": 2635,
    "lastUpdated": "2020-07-24T04:46:05.151Z",
    "recovered": 213490,
    "infected": 260394,
    "id": "T7NffoeCgTUpAbOHvYwP",
    "pop": 32940000,
    "country": "SA",
    "longitude": 44.344334,
    "sick": 44269,
    "invisible": false
  },
  {
    "lastUpdated": "2020-07-23T23:36:30.117Z",
    "recovered": 3107,
    "infected": 5560,
    "state": "RI",
    "id": "TNDTapyb0k3l7Mds9q9R",
    "pop": 315700,
    "country": "ES",
    "longitude": -2.5396,
    "name": "La Rioja",
    "latitude": 42.2871,
    "dead": 366,
    "sick": 2087,
    "invisible": false
  },
  {
    "country": "MX",
    "longitude": -89.134857,
    "name": "Yucatán",
    "latitude": 20.400417,
    "dead": 917,
    "lastUpdated": "2020-07-24T04:32:17.071Z",
    "recovered": 0,
    "infected": 8062,
    "id": "TQCWbhIpJQBQxBjhCGVJ",
    "pop": 2207200,
    "sick": 7145,
    "invisible": false
  },
  {
    "country": "BN",
    "longitude": 114.650692,
    "name": "Brunei",
    "latitude": 4.506106,
    "dead": 3,
    "lastUpdated": "2020-07-24T04:46:05.252Z",
    "recovered": 138,
    "infected": 141,
    "id": "TQZmzsLhJqjtCSExAkCP",
    "pop": 428697,
    "sick": 0,
    "invisible": false
  },
  {
    "country": "FR",
    "longitude": 4.3853,
    "name": "Auvergne-Rhône-Alpes",
    "latitude": 45.4471,
    "dead": 1754,
    "lastUpdated": "2020-07-23T23:45:22.143Z",
    "recovered": 7927,
    "infected": 16269,
    "state": "",
    "id": "TT0MKODSjrxHvG19xZCa",
    "pop": 8027000,
    "sick": 6588,
    "invisible": false
  },