[
  {
    "lastUpdated": "2020-03-31T17:38:09.956Z",
    "dead": 125,
    "id": "0GJcws44NSPsDHAuxJhW",
    "infected": 1952,
    "recovered": 88,
    "latitude": 41.066666,
    "pop": 5827000,
    "longitude": 14.333333,
    "name": "Campania",
    "country": "IT",
    "sick": 1739
  },
  {
    "lastUpdated": "2020-03-31T17:41:02.564Z",
    "dead": 0,
    "id": "0VG7S6aaK4eSo59fL9JO",
    "infected": 3,
    "recovered": 0,
    "latitude": 20.9517,
    "pop": 45990000,
    "longitude": 85.0985,
    "name": "Odisha",
    "country": "IN",
    "sick": 3
  },
  {
    "infected": 10,
    "recovered": 0,
    "latitude": 11.7401,
    "pop": 427246,
    "longitude": 92.6586,
    "name": "Andaman and Nicobar Islands",
    "country": "IN",
    "lastUpdated": "2020-03-31T17:41:02.545Z",
    "dead": 0,
    "id": "0jStOpTUNRaQYJqgmRoK",
    "sick": 10
  },
  {
    "longitude": 51.145517,
    "name": "Qatar",
    "country": "QA",
    "lastUpdated": "2020-03-31T17:40:03.818Z",
    "dead": 1,
    "id": "0m4aECS0Z2DGFEr8ldgI",
    "infected": 693,
    "recovered": 51,
    "latitude": 25.315058,
    "pop": 2639000,
    "sick": 641
  },
  {
    "recovered": 0,
    "latitude": 22.9868,
    "pop": 90320000,
    "longitude": 87.855,
    "name": "West Bengal",
    "country": "IN",
    "lastUpdated": "2020-03-31T17:41:02.525Z",
    "dead": 2,
    "id": "0n54EMSDJcRoT1QEvw80",
    "infected": 26,
    "sick": 24
  },
  {
    "infected": 47,
    "recovered": 0,
    "latitude": 22.9734,
    "pop": 73340000,
    "longitude": 78.6569,
    "name": "Madhya Pradesh",
    "country": "IN",
    "lastUpdated": "2020-03-31T17:41:02.499Z",
    "dead": 3,
    "id": "0s18o5DrDAHjbu5MFcrj",
    "sick": 44
  },
  {
    "latitude": 37.0902,
    "longitude": -95.7129,
    "name": "Unknown US state",
    "country": "US",
    "dead": 0,
    "lastUpdated": "2020-03-31T17:40:03.754Z",
    "id": "0tFoopNTs6e4tOoaltu2",
    "infected": 0,
    "recovered": 6241,
    "sick": 0
  },
  {
    "latitude": 35.64249,
    "pop": 37330000,
    "longitude": 108.472214,
    "name": "Shaanxi",
    "country": "CN",
    "lastUpdated": "2020-03-31T17:29:11.259Z",
    "dead": 3,
    "id": "0x2HLhr5z5xAtEdO4iZm",
    "infected": 253,
    "recovered": 242,
    "sick": 8
  },
  {
    "recovered": 12,
    "latitude": 41.643351,
    "pop": 2077000,
    "longitude": 21.668393,
    "name": "North Macedonia",
    "country": "MK",
    "lastUpdated": "2020-03-31T17:40:03.859Z",
    "dead": 9,
    "id": "19MvIhipqTyYv1H37Upw",
    "infected": 329,
    "sick": 308
  },
  {
    "latitude": 53.1355,
    "pop": 521542,
    "longitude": -57.6604,
    "name": "Newfoundland and Labrador",
    "country": "CA",
    "lastUpdated": "2020-03-31T17:45:02.531Z",
    "dead": 1,
    "id": "1DOMOmCWDtva46OVSZLv",
    "infected": 148,
    "recovered": 0,
    "sick": 147
  },
  {
    "id": "1Fap7rZu9SIRqf5TG9Dg",
    "infected": 18,
    "recovered": 18,
    "latitude": 35.801933,
    "pop": 5627000,
    "longitude": 96.779286,
    "name": "Qinghai",
    "country": "CN",
    "lastUpdated": "2020-03-31T17:29:11.237Z",
    "dead": 0,
    "sick": 0
  },
  {
    "infected": 8712,
    "recovered": 308,
    "latitude": 44.9,
    "pop": 4376000,
    "longitude": 8.206944,
    "name": "Piemonte",
    "country": "IT",
    "lastUpdated": "2020-03-31T17:38:09.925Z",
    "dead": 749,
    "id": "1eTSQyfp8RoDPeFrIwun",
    "sick": 7655
  },
  {
    "infected": 4715,
    "recovered": 127,
    "latitude": -14.235004,
    "pop": 209300000,
    "longitude": -51.925282,
    "name": "Brazil",
    "country": "BR",
    "lastUpdated": "2020-03-31T17:40:03.813Z",
    "dead": 168,
    "id": "1f0YoV0vAcexEhpESyZc",
    "sick": 4420
  },
  {
    "infected": 353,
    "recovered": 18,
    "latitude": 47.4116,
    "pop": 3550000,
    "longitude": 28.3699,
    "name": "Moldova",
    "country": "MD",
    "lastUpdated": "2020-03-31T17:40:03.962Z",
    "dead": 4,
    "id": "1qTPB8X3tyLyIdsb5TN3",
    "sick": 331
  },
  {
    "recovered": 1,
    "latitude": 30.15336,
    "pop": 3180000,
    "longitude": 88.787865,
    "name": "Tibet",
    "country": "CN",
    "lastUpdated": "2020-03-31T17:29:11.325Z",
    "dead": 0,
    "id": "25qIBtsW2nfQj3pwBKg9",
    "infected": 1,
    "sick": 0
  },
  {
    "recovered": 81,
    "latitude": -1.572184,
    "pop": 264000000,
    "longitude": 115.66779,
    "name": "Indonesia",
    "country": "ID",
    "lastUpdated": "2020-03-31T17:40:03.898Z",
    "dead": 136,
    "id": "2KHYUb5t3lwzVVmDjwNX",
    "infected": 1528,
    "sick": 1311
  },
  {
    "lastUpdated": "2020-03-31T17:36:14.017Z",
    "dead": 16,
    "id": "2OrsssmGUs4XCzaZzvTv",
    "infected": 606,
    "recovered": 0,
    "latitude": 43.807191,
    "pop": 4191000,
    "longitude": -120.585594,
    "name": "Oregon",
    "country": "US",
    "sick": 590
  },
  {
    "latitude": 43.851921,
    "pop": 27460000,
    "longitude": 126.548103,
    "name": "Jilin",
    "country": "CN",
    "lastUpdated": "2020-03-31T17:29:11.261Z",
    "dead": 1,
    "id": "2jxHvSsxdnom0nPNvOT8",
    "infected": 98,
    "recovered": 92,
    "sick": 5
  },
  {
    "longitude": -5.3536,
    "name": "Gibraltar",
    "country": "GI",
    "lastUpdated": "2020-03-31T17:40:04.203Z",
    "dead": 0,
    "id": "2p11BjSAs3wVyymgqBOe",
    "infected": 69,
    "recovered": 34,
    "latitude": 36.1408,
    "pop": 34571,
    "sick": 35
  },
  {
    "infected": 561,
    "recovered": 113,
    "latitude": 47.7516,
    "pop": 2567000,
    "longitude": 1.6751,
    "name": "Centre-Val de Loire",
    "country": "FR",
    "lastUpdated": "2020-03-31T17:43:09.904Z",
    "dead": 60,
    "id": "2sLNkkHpyaHx7dD3aMDO",
    "sick": 388
  },
  {
    "recovered": 184,
    "latitude": 42.565044,
    "pop": 884640,
    "longitude": 12.643751,
    "name": "Umbria",
    "country": "IT",
    "lastUpdated": "2020-03-31T17:38:09.920Z",
    "dead": 33,
    "id": "319tiZOMczx1y0DfvOib",
    "infected": 1051,
    "sick": 834
  },
  {
    "longitude": 10.4515,
    "name": "Deutschland",
    "country": "DE",
    "dead": 0,
    "lastUpdated": "2020-03-30T08:07:03.337Z",
    "id": "321X89hv9Zm8QyXGHYjy",
    "infected": 0,
    "recovered": 4700,
    "latitude": 51.1657,
    "sick": 0
  },
  {
    "id": "3IlPjAbP5qVMn1nlgLTJ",
    "infected": 35,
    "recovered": 0,
    "latitude": -13.133896,
    "pop": 17090000,
    "longitude": 27.849332,
    "name": "Zambia",
    "country": "ZM",
    "lastUpdated": "2020-03-31T17:40:04.220Z",
    "dead": 0,
    "sick": 35
  },
  {
    "latitude": 42.7044,
    "pop": 631219,
    "longitude": 19.3958,
    "name": "Montenegro",
    "country": "ME",
    "lastUpdated": "2020-03-31T17:40:04.310Z",
    "dead": 2,
    "id": "3LstMSN5XMYBkxbe5HN7",
    "infected": 109,
    "recovered": 0,
    "sick": 107
  },
  {
    "infected": 80,
    "recovered": 1,
    "latitude": -35.4735,
    "pop": 418440,
    "longitude": 149.0124,
    "name": "Australian Capital Territory",
    "country": "AU",
    "lastUpdated": "2020-03-31T17:42:03.361Z",
    "dead": 0,
    "id": "3OZoQsKrzxZ18EKyfGE6",
    "sick": 79
  },
  {
    "latitude": 40.4173,
    "pop": 11690000,
    "longitude": -82.9071,
    "name": "Ohio",
    "country": "US",
    "lastUpdated": "2020-03-31T17:36:14.023Z",
    "dead": 40,
    "id": "3fC3bAyIRUquOQOEnQNe",
    "infected": 1933,
    "recovered": 0,
    "sick": 1893
  },
  {
    "infected": 6,
    "recovered": 2,
    "latitude": 21.0079,
    "pop": 4420000,
    "longitude": -10.9408,
    "name": "Mauritania",
    "country": "MR",
    "lastUpdated": "2020-03-31T17:40:04.324Z",
    "dead": 1,
    "id": "4NnFMekRK2m14IlnZZoj",
    "sick": 3
  },
  {
    "latitude": 53.7267,
    "pop": 5071000,
    "longitude": -127.6476,
    "name": "British Columbia",
    "country": "CA",
    "lastUpdated": "2020-03-31T17:45:02.535Z",
    "dead": 19,
    "id": "4hfZRUoUgI4a3vrG0GBk",
    "infected": 970,
    "recovered": 0,
    "sick": 951
  },
  {
    "recovered": 43,
    "latitude": 41.065877,
    "pop": 10290000,
    "longitude": -7.920053,
    "name": "Portugal",
    "country": "PT",
    "lastUpdated": "2020-03-31T17:40:03.805Z",
    "dead": 160,
    "id": "4rQLxUCMmQLpbi6E9tbH",
    "infected": 7443,
    "sick": 7240
  },
  {
    "recovered": 26,
    "latitude": 40.3426,
    "pop": 9898000,
    "longitude": 47.93802,
    "name": "Azerbaijan",
    "country": "AZ",
    "lastUpdated": "2020-03-31T17:40:03.914Z",
    "dead": 5,
    "id": "4zqzRm2xHn0CDVOUQJ8p",
    "infected": 298,
    "sick": 267
  },
  {
    "infected": 14,
    "recovered": 1,
    "latitude": 25.025885,
    "pop": 395361,
    "longitude": -78.035889,
    "name": "Bahamas",
    "country": "BS",
    "lastUpdated": "2020-03-31T17:40:04.262Z",
    "dead": 0,
    "id": "5MHegCUO9L3LiAU7DDey",
    "sick": 13
  },
  {
    "infected": 2032,
    "recovered": 4,
    "latitude": -31.253218,
    "pop": 7544000,
    "longitude": 146.921097,
    "name": "New South Wales",
    "country": "AU",
    "lastUpdated": "2020-03-31T17:42:03.461Z",
    "dead": 8,
    "id": "5N16a2OXXRpsEFanw0TC",
    "sick": 2020
  },
  {
    "latitude": -20.9043045,
    "pop": 280460,
    "longitude": 165.618042,
    "name": "New Caledonia",
    "country": "NC",
    "lastUpdated": "2020-03-31T17:40:04.221Z",
    "dead": 0,
    "id": "5fg04eyDwFw3kEXnrxez",
    "infected": 16,
    "recovered": 0,
    "sick": 16
  },
  {
    "lastUpdated": "2020-03-31T17:40:04.275Z",
    "dead": 0,
    "id": "5gXZIjRgAvd6xWN1LOv8",
    "infected": 5,
    "recovered": 1,
    "latitude": 28.394857,
    "pop": 29300000,
    "longitude": 84.124008,
    "name": "Nepal",
    "country": "NP",
    "sick": 4
  },
  {
    "infected": 2084,
    "recovered": 49,
    "latitude": 12.879721,
    "pop": 104900000,
    "longitude": 121.774017,
    "name": "Philippines",
    "country": "PH",
    "lastUpdated": "2020-03-31T17:40:03.762Z",
    "dead": 88,
    "id": "5pwmh7aSdGRKqRbnuyc0",
    "sick": 1947
  },
  {
    "infected": 8,
    "recovered": 0,
    "latitude": -17.824858,
    "pop": 14802190,
    "longitude": 31.053028,
    "name": "Zimbabwe",
    "country": "ZW",
    "lastUpdated": "2020-03-31T17:40:04.299Z",
    "dead": 1,
    "id": "5qtR9nx4BLwu1ODTniaY",
    "sick": 7
  },
  {
    "latitude": 55.621011,
    "pop": 2794000,
    "longitude": 23.804991,
    "name": "Lithuania",
    "country": "LT",
    "lastUpdated": "2020-03-31T17:40:03.912Z",
    "dead": 8,
    "id": "694ON7d0mRJDeM1gHBTR",
    "infected": 537,
    "recovered": 7,
    "sick": 522
  },
  {
    "infected": 714,
    "recovered": 128,
    "latitude": 22.396427,
    "pop": 7392000,
    "longitude": 114.109497,
    "name": "Hong Kong",
    "country": "HK",
    "lastUpdated": "2020-03-31T17:40:03.911Z",
    "dead": 4,
    "id": "6IcHIIH0zXpY0POmBZTv",
    "sick": 582
  },
  {
    "id": "6SlpghTyB6lpMFvx3g9U",
    "infected": 9,
    "recovered": 1,
    "latitude": 9.3077,
    "pop": 11180000,
    "longitude": 2.3158,
    "name": "Benin",
    "country": "BJ",
    "lastUpdated": "2020-03-31T17:40:04.271Z",
    "dead": 0,
    "sick": 8
  },
  {
    "id": "6ZHcvMIzVWIaRnc4R3Qp",
    "infected": 42161,
    "recovered": 10337,
    "latitude": 45.6667,
    "pop": 10040000,
    "longitude": 9.5,
    "name": "Lombardia",
    "country": "IT",
    "lastUpdated": "2020-03-31T17:38:09.888Z",
    "dead": 6818,
    "sick": 25006
  },
  {
    "recovered": 10,
    "latitude": 46.0569,
    "pop": 2067000,
    "longitude": 14.5058,
    "name": "Slovenia",
    "country": "SI",
    "lastUpdated": "2020-03-31T17:40:03.852Z",
    "dead": 15,
    "id": "6ahNiyKDSDAftCctgLH3",
    "infected": 802,
    "sick": 777
  },
  {
    "infected": 16,
    "recovered": 0,
    "latitude": -0.8037,
    "pop": 2025000,
    "longitude": 11.6094,
    "name": "Gabon",
    "country": "GA",
    "lastUpdated": "2020-03-31T17:40:04.251Z",
    "dead": 1,
    "id": "6pBi38TUgYfFm0bry2uh",
    "sick": 15
  },
  {
    "latitude": 17.901672,
    "pop": 9131,
    "longitude": -62.818544,
    "name": "Saint-Barthélémy",
    "country": "FR",
    "lastUpdated": "2020-03-31T17:48:10.595Z",
    "dead": 0,
    "id": "78Ox26bNHDA2Pk2b3Uwn",
    "infected": 3,
    "recovered": 0,
    "sick": 3
  },
  {
    "recovered": 0,
    "latitude": 17.0608,
    "pop": 102012,
    "longitude": -61.7964,
    "name": "Antigua and Barbuda",
    "country": "AG",
    "lastUpdated": "2020-03-31T17:40:04.283Z",
    "dead": 0,
    "id": "7hVFcEV7nV0MrQr3LHrl",
    "infected": 7,
    "sick": 7
  },
  {
    "recovered": 866,
    "latitude": 48.7904,
    "pop": 13000000,
    "longitude": 11.4979,
    "name": "Bayern",
    "country": "DE",
    "lastUpdated": "2020-03-31T17:38:03.442Z",
    "dead": 207,
    "id": "7kCrrlOBE3jN6FtOVNUB",
    "infected": 16132,
    "sick": 15059
  },
  {
    "recovered": 37,
    "latitude": 47.4979,
    "pop": 9773000,
    "longitude": 19.0402,
    "name": "Hungary",
    "country": "HU",
    "lastUpdated": "2020-03-31T17:40:03.764Z",
    "dead": 16,
    "id": "7rYC2iFB50c55Ihgbs4Q",
    "infected": 492,
    "sick": 439
  },
  {
    "recovered": 5,
    "latitude": 7.3697,
    "pop": 24050000,
    "longitude": 12.3547,
    "name": "Cameroon",
    "country": "CM",
    "lastUpdated": "2020-03-31T17:40:03.801Z",
    "dead": 6,
    "id": "8C0d7WVCjyUGtnc2gUAR",
    "infected": 193,
    "sick": 182
  },
  {
    "infected": 107,
    "recovered": 0,
    "latitude": -16.2902,
    "pop": 11050000,
    "longitude": -63.5887,
    "name": "Bolivia",
    "country": "BO",
    "lastUpdated": "2020-03-31T17:40:04.279Z",
    "dead": 6,
    "id": "8RihJrXw4NQXPxaRxr1u",
    "sick": 101
  },
  {
    "lastUpdated": "2020-03-31T17:40:04.278Z",
    "dead": 0,
    "id": "8ZTySQROQejkDAad0qxQ",
    "infected": 1,
    "recovered": 1,
    "latitude": 12.9843,
    "pop": 109897,
    "longitude": -61.2872,
    "name": "St. Vincent Grenadines",
    "country": "VC",
    "sick": 0
  },
  {
    "infected": 926,
    "recovered": 240,
    "latitude": 1.352083,
    "pop": 5621000,
    "longitude": 103.819839,
    "name": "Singapore",
    "country": "SG",
    "lastUpdated": "2020-03-31T17:40:03.907Z",
    "dead": 3,
    "id": "8pA3fM4xC2c2wv1b4TnE",
    "sick": 683
  },
  {
    "longitude": -1.5536,
    "name": "Pays de la Loire",
    "country": "FR",
    "lastUpdated": "2020-03-31T17:47:47.829Z",
    "dead": 71,
    "id": "98hwAoohgWEOQVa3NlM5",
    "infected": 368,
    "recovered": 256,
    "latitude": 47.2184,
    "pop": 3787000,
    "sick": 41
  },
  {
    "recovered": 1,
    "latitude": 12.8628,
    "pop": 40530000,
    "longitude": 30.2176,
    "name": "Sudan",
    "country": "SD",
    "lastUpdated": "2020-03-31T17:40:04.293Z",
    "dead": 2,
    "id": "9DPOkpIqrFy9mR4e9fuv",
    "infected": 7,
    "sick": 4
  },
  {
    "latitude": 45.943161,
    "pop": 19530000,
    "longitude": 24.966761,
    "name": "Romania",
    "country": "RO",
    "lastUpdated": "2020-03-31T17:40:03.900Z",
    "dead": 79,
    "id": "9QcETqEcM2fTv9zRvx5T",
    "infected": 2245,
    "recovered": 220,
    "sick": 1946
  },
  {
    "infected": 4,
    "recovered": 0,
    "latitude": 12.136389,
    "pop": 6218000,
    "longitude": -86.251389,
    "name": "Nicaragua",
    "country": "NI",
    "lastUpdated": "2020-03-31T17:40:04.298Z",
    "dead": 1,
    "id": "9Y5wmCqNCC6ZrenM31uA",
    "sick": 3
  },
  {
    "id": "9dIzxqDSVqPyINkHqwGv",
    "infected": 28,
    "recovered": 0,
    "latitude": 17.5706921,
    "pop": 18540000,
    "longitude": -3.996166,
    "name": "Mali",
    "country": "ML",
    "lastUpdated": "2020-03-31T17:40:04.200Z",
    "dead": 2,
    "sick": 26
  },
  {
    "recovered": 10,
    "latitude": 61.92411,
    "pop": 5513000,
    "longitude": 25.748152,
    "name": "Finland",
    "country": "FI",
    "lastUpdated": "2020-03-31T17:40:03.943Z",
    "dead": 17,
    "id": "9p6OCdZbUUwBLA60Gk3W",
    "infected": 1418,
    "sick": 1391
  },
  {
    "latitude": 43.311643,
    "pop": 1356000,
    "longitude": -71.590315,
    "name": "New Hampshire",
    "country": "US",
    "lastUpdated": "2020-03-31T17:36:13.922Z",
    "dead": 3,
    "id": "A84CwQ52kA46Hr7pn6Bm",
    "infected": 314,
    "recovered": 0,
    "sick": 311
  },
  {
    "lastUpdated": "2020-03-31T17:36:14.053Z",
    "dead": 4,
    "id": "AEUWUHS65qvjEslew11c",
    "infected": 408,
    "recovered": 0,
    "latitude": 41.823261,
    "pop": 1057000,
    "longitude": -71.412257,
    "name": "Rhode Island",
    "country": "US",
    "sick": 404
  },
  {
    "longitude": 11.327591,
    "name": "Emilia Romagna",
    "country": "IT",
    "lastUpdated": "2020-03-31T17:38:09.943Z",
    "dead": 1538,
    "id": "AJ9jQ0iyKsafsmf5yHAR",
    "infected": 13531,
    "recovered": 1227,
    "latitude": 44.498955,
    "pop": 4453000,
    "sick": 10766
  },
  {
    "recovered": 61,
    "latitude": 49.3964,
    "pop": 990509,
    "longitude": 7.023,
    "name": "Saarland",
    "country": "DE",
    "lastUpdated": "2020-03-31T17:37:02.429Z",
    "dead": 12,
    "id": "AKjFRQGnzuuZQhv5Qwx7",
    "infected": 961,
    "sick": 888
  },
  {
    "lastUpdated": "2020-03-31T17:40:04.235Z",
    "dead": 0,
    "id": "APaZzlGCEeuoLBtzTJMe",
    "infected": 10,
    "recovered": 2,
    "latitude": 71.7069,
    "pop": 56171,
    "longitude": -42.6043,
    "name": "Greenland",
    "country": "GL",
    "sick": 8
  },
  {
    "infected": 127,
    "recovered": 0,
    "latitude": 45.65107,
    "pop": 971395,
    "longitude": -63.582687,
    "name": "Nova Scotia",
    "country": "CA",
    "lastUpdated": "2020-03-31T17:45:02.517Z",
    "dead": 0,
    "id": "AVCpxeh0fuH2WrHWNDYH",
    "sick": 127
  },
  {
    "id": "AcULcZBozObOhwuRKMjJ",
    "infected": 184,
    "recovered": 0,
    "latitude": 47.012918,
    "pop": 1062000,
    "longitude": -109.128641,
    "name": "Montana",
    "country": "US",
    "lastUpdated": "2020-03-31T17:36:14.092Z",
    "dead": 5,
    "sick": 179
  },
  {
    "latitude": 27.285971,
    "pop": 45200000,
    "longitude": 116.01609,
    "name": "Jiangxi",
    "country": "CN",
    "lastUpdated": "2020-03-31T17:29:11.242Z",
    "dead": 1,
    "id": "AmBYm5J6E9Cuez1FQjiN",
    "infected": 937,
    "recovered": 935,
    "sick": 1
  },
  {
    "lastUpdated": "2020-03-31T17:40:03.843Z",
    "dead": 44,
    "id": "AwN0CScPDApcLFgz6e3z",
    "infected": 716,
    "recovered": 46,
    "latitude": 28.033886,
    "pop": 41320000,
    "longitude": 1.659626,
    "name": "Algeria",
    "country": "DZ",
    "sick": 626
  },
  {
    "latitude": 45.099998,
    "pop": 4076000,
    "longitude": 15.2,
    "name": "Croatia",
    "country": "HR",
    "lastUpdated": "2020-03-31T17:40:03.920Z",
    "dead": 6,
    "id": "B82Ef45M8cDu4q7VsSHF",
    "infected": 867,
    "recovered": 67,
    "sick": 794
  },
  {
    "id": "BENubqQInFUJzhpZTsLT",
    "infected": 27,
    "recovered": 0,
    "latitude": 17.6077881,
    "pop": 23716000,
    "longitude": 8.081666,
    "name": "Niger",
    "country": "NE",
    "lastUpdated": "2020-03-31T17:40:04.210Z",
    "dead": 3,
    "sick": 24
  },
  {
    "longitude": -76.98432,
    "name": "Maryland",
    "country": "US",
    "lastUpdated": "2020-03-31T17:36:14.088Z",
    "dead": 21,
    "id": "BF51mWl51fgEcyBpCSzb",
    "infected": 1660,
    "recovered": 0,
    "latitude": 39.509109,
    "pop": 6043000,
    "sick": 1639
  },
  {
    "recovered": 47,
    "latitude": 53.709808,
    "pop": 9508000,
    "longitude": 27.953388,
    "name": "Belarus",
    "country": "BY",
    "lastUpdated": "2020-03-31T17:40:03.824Z",
    "dead": 1,
    "id": "BGg6yVU5VP71B8NXU0oh",
    "infected": 152,
    "sick": 104
  },
  {
    "recovered": 151,
    "latitude": 48.8799,
    "pop": 3319000,
    "longitude": 0.1713,
    "name": "Normandie",
    "country": "FR",
    "lastUpdated": "2020-03-31T17:50:20.111Z",
    "dead": 62,
    "id": "BGtoyzb7y54LVlJ91rbf",
    "infected": 688,
    "sick": 475
  },
  {
    "latitude": 34.048927,
    "pop": 7172000,
    "longitude": -111.093735,
    "name": "Arizona",
    "country": "US",
    "lastUpdated": "2020-03-31T17:36:14.037Z",
    "dead": 20,
    "id": "BTEESCuD2ZbS1afunR2A",
    "infected": 1158,
    "recovered": 0,
    "sick": 1138
  },
  {
    "id": "C3BCUzV80z9GfiuByIcr",
    "infected": 75795,
    "recovered": 0,
    "latitude": 40.719042,
    "pop": 19540000,
    "longitude": -73.982597,
    "name": "New York",
    "country": "US",
    "lastUpdated": "2020-03-31T17:36:13.946Z",
    "dead": 1550,
    "sick": 74245
  },
  {
    "latitude": 49.731626,
    "pop": 10650000,
    "longitude": 15.359413,
    "name": "Czechia",
    "country": "CZ",
    "lastUpdated": "2020-03-31T17:40:03.811Z",
    "dead": 25,
    "id": "C6S76AggdWVU8G22jFHQ",
    "infected": 3257,
    "recovered": 25,
    "sick": 3207
  },
  {
    "latitude": 26.0667,
    "pop": 1493000,
    "longitude": 50.557701,
    "name": "Bahrain",
    "country": "BH",
    "lastUpdated": "2020-03-31T17:40:03.828Z",
    "dead": 4,
    "id": "C7cj4nwRITs13KnaJrQ2",
    "infected": 567,
    "recovered": 295,
    "sick": 268
  },
  {
    "recovered": 3,
    "latitude": 27.0238,
    "pop": 68890000,
    "longitude": 74.2179,
    "name": "Rajasthan",
    "country": "IN",
    "lastUpdated": "2020-03-31T17:41:02.534Z",
    "dead": 0,
    "id": "CKZCZTPlrcq5fbfUPA9k",
    "infected": 74,
    "sick": 71
  },
  {
    "longitude": -88.9053,
    "name": "El Salvador",
    "country": "SV",
    "lastUpdated": "2020-03-31T17:40:04.228Z",
    "dead": 0,
    "id": "Cgvmtle61ehMvCzRzYx7",
    "infected": 32,
    "recovered": 0,
    "latitude": 13.803,
    "pop": 6378000,
    "sick": 32
  },
  {
    "longitude": -1.17432,
    "name": "United Kingdom",
    "country": "GB",
    "lastUpdated": "2020-03-31T17:40:03.832Z",
    "dead": 1789,
    "id": "CrXu6i5Sqx11iwdfHfBs",
    "infected": 25150,
    "recovered": 135,
    "latitude": 52.355518,
    "pop": 66440000,
    "sick": 23226
  },
  {
    "latitude": 40.259003,
    "pop": 2973000,
    "longitude": 44.818474,
    "name": "Armenia",
    "country": "AM",
    "lastUpdated": "2020-03-31T17:40:03.871Z",
    "dead": 3,
    "id": "DCJCtZoBTWQ4mzdDNljD",
    "infected": 532,
    "recovered": 30,
    "sick": 499
  },
  {
    "latitude": 22.192039,
    "pop": 622567,
    "longitude": 113.551262,
    "name": "Macao",
    "country": "MO",
    "lastUpdated": "2020-03-31T17:40:04.216Z",
    "dead": 0,
    "id": "DdBt8qsG6A3g92oOR3ow",
    "infected": 41,
    "recovered": 10,
    "sick": 31
  },
  {
    "id": "DrGzziUglmBognCGY7R2",
    "infected": 95,
    "recovered": 0,
    "latitude": 42.962334,
    "pop": 577737,
    "longitude": -107.534868,
    "name": "Wyoming",
    "country": "US",
    "lastUpdated": "2020-03-31T17:36:14.069Z",
    "dead": 0,
    "sick": 95
  },
  {
    "infected": 1314,
    "recovered": 52,
    "latitude": 40.6401,
    "pop": 10740000,
    "longitude": 22.9444,
    "name": "Greece",
    "country": "GR",
    "lastUpdated": "2020-03-31T17:40:03.867Z",
    "dead": 49,
    "id": "Dtr1lap1RpJpXJdXGJiW",
    "sick": 1213
  },
  {
    "id": "EKTfs8e7M6DXzI1HqyyX",
    "infected": 322,
    "recovered": 39,
    "latitude": 25.03841,
    "pop": 23780000,
    "longitude": 121.563698,
    "name": "Taiwan",
    "country": "TW",
    "lastUpdated": "2020-03-31T17:40:03.953Z",
    "dead": 5,
    "sick": 278
  },
  {
    "infected": 330,
    "recovered": 4,
    "latitude": 10.327273,
    "pop": 4906000,
    "longitude": -84.387618,
    "name": "Costa Rica",
    "country": "CR",
    "lastUpdated": "2020-03-31T17:40:03.936Z",
    "dead": 2,
    "id": "EQzJvzVHKjs8kLmK7BMu",
    "sick": 324
  },
  {
    "infected": 73,
    "recovered": 3,
    "latitude": 22.2587,
    "pop": 62700000,
    "longitude": 71.1924,
    "name": "Gujarat",
    "country": "IN",
    "lastUpdated": "2020-03-31T17:41:02.546Z",
    "dead": 6,
    "id": "ERwk9R9en4m9WbdoMbIg",
    "sick": 64
  },
  {
    "latitude": 30.7333,
    "pop": 1055000,
    "longitude": 76.7794,
    "name": "Chandigarh",
    "country": "IN",
    "lastUpdated": "2020-03-31T17:41:02.467Z",
    "dead": 0,
    "id": "Esl5UlCVB9s8pmGB5Ofr",
    "infected": 13,
    "recovered": 0,
    "sick": 13
  },
  {
    "latitude": 18.200178,
    "pop": 3195000,
    "longitude": -66.664513,
    "name": "Puerto Rico",
    "country": "PR",
    "lastUpdated": "2020-03-31T17:36:14.090Z",
    "dead": 8,
    "id": "F4rPrEVGAIMM5rfPEMv4",
    "infected": 239,
    "recovered": 0,
    "sick": 231
  },
  {
    "id": "FCDmlmnIIswd8bQiUjfN",
    "infected": 174,
    "recovered": 5,
    "latitude": 33.93911,
    "pop": 35530000,
    "longitude": 67.709953,
    "name": "Afghanistan",
    "country": "AF",
    "lastUpdated": "2020-03-31T17:40:03.861Z",
    "dead": 4,
    "sick": 165
  },
  {
    "latitude": 29.431585,
    "pop": 30480000,
    "longitude": 106.912254,
    "name": "Chongqing",
    "country": "CN",
    "lastUpdated": "2020-03-31T17:29:11.238Z",
    "dead": 6,
    "id": "FErOU1m4Tj7jIkRam3vF",
    "infected": 579,
    "recovered": 570,
    "sick": 3
  },
  {
    "recovered": 73,
    "latitude": 29.311661,
    "pop": 4137000,
    "longitude": 47.481766,
    "name": "Kuwait",
    "country": "KW",
    "lastUpdated": "2020-03-31T17:40:03.875Z",
    "dead": 0,
    "id": "FZsUkhxBEgqsPb4eO0PN",
    "infected": 289,
    "sick": 216
  },
  {
    "longitude": 78.6569,
    "name": "Tamil Nadu",
    "country": "IN",
    "lastUpdated": "2020-03-31T17:41:02.541Z",
    "dead": 1,
    "id": "FeS45oMNC27pI17F0xEV",
    "infected": 74,
    "recovered": 4,
    "latitude": 11.1271,
    "pop": 67860000,
    "sick": 69
  },
  {
    "infected": 1109,
    "recovered": 5,
    "latitude": 18.947829,
    "pop": 10770000,
    "longitude": -70.430399,
    "name": "Dominican Republic",
    "country": "DO",
    "lastUpdated": "2020-03-31T17:40:03.799Z",
    "dead": 51,
    "id": "FuiVEJvWb0QMCpxJ3563",
    "sick": 1053
  },
  {
    "longitude": 79.0193,
    "name": "Telengana",
    "country": "IN",
    "lastUpdated": "2020-03-31T17:41:02.561Z",
    "dead": 1,
    "id": "FyC551oNwmENxbr9Yght",
    "infected": 79,
    "recovered": 1,
    "latitude": 18.1124,
    "pop": 35190000,
    "sick": 77
  },
  {
    "latitude": 48.669,
    "pop": 5450000,
    "longitude": 19.699,
    "name": "Slovakia",
    "country": "SK",
    "lastUpdated": "2020-03-31T17:40:03.809Z",
    "dead": 0,
    "id": "FzIDXoqWnTI3nUfhPyT2",
    "infected": 363,
    "recovered": 3,
    "sick": 360
  },
  {
    "lastUpdated": "2020-03-31T17:40:03.796Z",
    "dead": 26,
    "id": "GAp7Wb6IMhdgbvEtMza9",
    "infected": 1914,
    "recovered": 76,
    "latitude": 30.37532,
    "pop": 197000000,
    "longitude": 69.345116,
    "name": "Pakistan",
    "country": "PK",
    "sick": 1812
  },
  {
    "infected": 41,
    "recovered": 1,
    "latitude": 31.1471,
    "pop": 27980000,
    "longitude": 75.3412,
    "name": "Punjab",
    "country": "IN",
    "lastUpdated": "2020-03-31T17:41:02.550Z",
    "dead": 3,
    "id": "GGru8cG08mANO8XDDUtZ",
    "sick": 37
  },
  {
    "recovered": 61,
    "latitude": 23.424076,
    "pop": 9400000,
    "longitude": 53.847816,
    "name": "United Arab Emirates",
    "country": "AE",
    "lastUpdated": "2020-03-31T17:40:03.929Z",
    "dead": 6,
    "id": "GHzBIsHy2GiBc5JV2HMs",
    "infected": 664,
    "sick": 597
  },
  {
    "longitude": -119.339046,
    "name": "California",
    "country": "US",
    "lastUpdated": "2020-03-31T17:36:13.954Z",
    "dead": 149,
    "id": "Gh46r6vuaY7fbGt3IboN",
    "infected": 7452,
    "recovered": 0,
    "latitude": 36.621981,
    "pop": 39560000,
    "sick": 7303
  },
  {
    "latitude": 35.87189,
    "pop": 3943000,
    "longitude": -97.145514,
    "name": "Oklahoma",
    "country": "US",
    "lastUpdated": "2020-03-31T17:36:14.002Z",
    "dead": 17,
    "id": "GpF8ULuKOQiFDCUHN44h",
    "infected": 483,
    "recovered": 0,
    "sick": 466
  },
  {
    "longitude": 11.35,
    "name": "P.A. Bolzano",
    "country": "IT",
    "lastUpdated": "2020-03-31T17:38:09.966Z",
    "dead": 74,
    "id": "Gzx6GX1qhBm714BkEC6l",
    "infected": 1325,
    "recovered": 153,
    "latitude": 46.5,
    "pop": 520891,
    "sick": 1098
  },
  {
    "latitude": 42.83263,
    "pop": 24710000,
    "longitude": 113.750972,
    "name": "Inner Mongolia",
    "country": "CN",
    "lastUpdated": "2020-03-31T17:29:11.255Z",
    "dead": 1,
    "id": "H3JeVigVbo5CSYfZG4WI",
    "infected": 107,
    "recovered": 74,
    "sick": 32
  },
  {
    "lastUpdated": "2020-03-31T17:36:14.010Z",
    "dead": 18,
    "id": "H3bDg4eV30up4WWrIDAS",
    "infected": 1044,
    "recovered": 0,
    "latitude": 39.74536,
    "pop": 3034000,
    "longitude": -116.724977,
    "name": "Nevada",
    "country": "US",
    "sick": 1026
  },
  {
    "infected": 83,
    "recovered": 5,
    "latitude": 15.3173,
    "pop": 64060000,
    "longitude": 75.7139,
    "name": "Karnataka",
    "country": "IN",
    "lastUpdated": "2020-03-31T17:41:02.543Z",
    "dead": 3,
    "id": "HN5mGmxlqlSeFSNeu1K5",
    "sick": 75
  },
  {
    "id": "HRDpwyxpqW9RN0xLFyNu",
    "infected": 4,
    "recovered": 0,
    "latitude": 27.5142,
    "pop": 807610,
    "longitude": 90.4336,
    "name": "Bhutan",
    "country": "BT",
    "lastUpdated": "2020-03-31T17:40:04.276Z",
    "dead": 0,
    "sick": 4
  },
  {
    "infected": 167,
    "recovered": 7,
    "latitude": 41.3775,
    "pop": 32390000,
    "longitude": 64.5853,
    "name": "Uzbekistan",
    "country": "UZ",
    "lastUpdated": "2020-03-31T17:40:03.905Z",
    "dead": 2,
    "id": "HRTA10dtrruDEwjJEGMp",
    "sick": 158
  },
  {
    "infected": 281,
    "recovered": 0,
    "latitude": 34.138916,
    "pop": 2095000,
    "longitude": -105.576255,
    "name": "New Mexico",
    "country": "US",
    "lastUpdated": "2020-03-31T17:36:14.027Z",
    "dead": 4,
    "id": "HSSFomRju0doHhWgW8On",
    "sick": 277
  },
  {
    "lastUpdated": "2020-03-31T17:37:02.345Z",
    "dead": 3,
    "id": "He1gSS1v50t06i3YrqvB",
    "infected": 412,
    "recovered": 42,
    "latitude": 53.6127,
    "pop": 1635000,
    "longitude": 12.4296,
    "name": "Mecklenburg-Vorpommern",
    "country": "DE",
    "sick": 367
  },
  {
    "recovered": 35,
    "latitude": 23.634501,
    "pop": 129200000,
    "longitude": -102.552788,
    "name": "Mexico",
    "country": "MX",
    "lastUpdated": "2020-03-31T17:40:03.834Z",
    "dead": 28,
    "id": "I4OJ6z9Vjs1byOcbsJrd",
    "infected": 1094,
    "sick": 1031
  },
  {
    "lastUpdated": "2020-03-31T17:38:09.928Z",
    "dead": 102,
    "id": "I9EqrZfbPnkioNU4wZGz",
    "infected": 1345,
    "recovered": 74,
    "latitude": 42.25,
    "pop": 1315000,
    "longitude": 13.75,
    "name": "Abruzzo",
    "country": "IT",
    "sick": 1169
  },
  {
    "id": "IAX0OQLVnUwU7FX0ENF1",
    "infected": 1494,
    "recovered": 1356,
    "latitude": 23.363855,
    "pop": 113460000,
    "longitude": 113.373448,
    "name": "Guangdong",
    "country": "CN",
    "lastUpdated": "2020-03-31T17:29:11.256Z",
    "dead": 8,
    "sick": 130
  },
  {
    "id": "IFuMrMvSjoiX5agYvllh",
    "infected": 1276,
    "recovered": 1251,
    "latitude": 33.875408,
    "pop": 94000000,
    "longitude": 113.484016,
    "name": "Henan",
    "country": "CN",
    "lastUpdated": "2020-03-31T17:29:11.324Z",
    "dead": 22,
    "sick": 3
  },
  {
    "recovered": 1,
    "latitude": 19.0558,
    "pop": 10980000,
    "longitude": -73.0513,
    "name": "Haiti",
    "country": "HT",
    "lastUpdated": "2020-03-31T17:40:04.288Z",
    "dead": 0,
    "id": "InZ38sIqyK7FN7XAOZoX",
    "infected": 15,
    "sick": 14
  },
  {
    "lastUpdated": "2020-03-31T17:36:14.004Z",
    "dead": 102,
    "id": "IvQkDJkTAsoIqPRAU25n",
    "infected": 3032,
    "recovered": 0,
    "latitude": 32.528564,
    "pop": 10520000,
    "longitude": -83.280125,
    "name": "Georgia (US)",
    "country": "US",
    "sick": 2930
  },
  {
    "recovered": 74,
    "latitude": -42.8285,
    "pop": 4794000,
    "longitude": 172.488081,
    "name": "New Zealand",
    "country": "NZ",
    "lastUpdated": "2020-03-31T17:40:03.837Z",
    "dead": 1,
    "id": "IvVhpOoGpH6JVkGyUhXN",
    "infected": 647,
    "sick": 572
  },
  {
    "id": "J3mZXlfEnnJx4CDZLvRG",
    "infected": 135,
    "recovered": 39,
    "latitude": 6.4238,
    "pop": 31980000,
    "longitude": -66.5897,
    "name": "Venezuela",
    "country": "VE",
    "lastUpdated": "2020-03-31T17:40:04.308Z",
    "dead": 3,
    "sick": 93
  },
  {
    "infected": 262,
    "recovered": 23,
    "latitude": 35.1264,
    "pop": 1170000,
    "longitude": 33.4299,
    "name": "Cyprus",
    "country": "CY",
    "lastUpdated": "2020-03-31T17:40:03.959Z",
    "dead": 8,
    "id": "JQByE4l2OA6sGOqIcWrM",
    "sick": 231
  },
  {
    "infected": 15,
    "recovered": 0,
    "latitude": 25.0961,
    "pop": 99020000,
    "longitude": 85.3131,
    "name": "Bihar",
    "country": "IN",
    "lastUpdated": "2020-03-31T17:41:02.465Z",
    "dead": 1,
    "id": "JR7hOGked7CZtIs2nCV5",
    "sick": 14
  },
  {
    "lastUpdated": "2020-03-31T17:40:04.319Z",
    "dead": 1,
    "id": "JUWE6bG3b5oL7fKQMSvv",
    "infected": 36,
    "recovered": 10,
    "latitude": 14.628434,
    "pop": 16910000,
    "longitude": -90.522713,
    "name": "Guatemala",
    "country": "GT",
    "sick": 25
  },
  {
    "infected": 2178,
    "recovered": 80,
    "latitude": 49.8153,
    "pop": 602005,
    "longitude": 6.1296,
    "name": "Luxembourg",
    "country": "LU",
    "lastUpdated": "2020-03-31T17:40:03.950Z",
    "dead": 23,
    "id": "JcFsHSn2WvZ5LJW42ovG",
    "sick": 2075
  },
  {
    "recovered": 10,
    "latitude": 8.6195,
    "pop": 7798000,
    "longitude": 0.8248,
    "name": "Togo",
    "country": "TG",
    "lastUpdated": "2020-03-31T17:40:04.314Z",
    "dead": 1,
    "id": "JrBbirlBKGdWSdcDt7PF",
    "infected": 34,
    "sick": 23
  },
  {
    "latitude": 42.7339,
    "pop": 7050000,
    "longitude": 25.4858,
    "name": "Bulgaria",
    "country": "BG",
    "lastUpdated": "2020-03-31T17:40:03.935Z",
    "dead": 8,
    "id": "JzZ8sbqzjutThVjkPKPL",
    "infected": 399,
    "recovered": 17,
    "sick": 374
  },
  {
    "recovered": 437,
    "latitude": 44.5,
    "pop": 1557000,
    "longitude": 8.833,
    "name": "Liguria",
    "country": "IT",
    "lastUpdated": "2020-03-31T17:38:09.894Z",
    "dead": 397,
    "id": "KLXicxFogWnu0dLp4bNK",
    "infected": 3217,
    "sick": 2383
  },
  {
    "latitude": 43.4167,
    "pop": 3737000,
    "longitude": 11,
    "name": "Toscana",
    "country": "IT",
    "lastUpdated": "2020-03-31T17:38:09.948Z",
    "dead": 231,
    "id": "KrLrJbpDqqiXgUPGCCW9",
    "infected": 4412,
    "recovered": 131,
    "sick": 4050
  },
  {
    "longitude": 80.771797,
    "name": "Sri Lanka",
    "country": "LK",
    "lastUpdated": "2020-03-31T17:40:04.296Z",
    "dead": 2,
    "id": "KsWzJO06cf0d6LJ4ZNh9",
    "infected": 142,
    "recovered": 17,
    "latitude": 7.873054,
    "pop": 21440000,
    "sick": 123
  },
  {
    "lastUpdated": "2020-03-31T17:41:02.574Z",
    "dead": 0,
    "id": "KtQIo2DoqjELtPAlyDVO",
    "infected": 40,
    "recovered": 1,
    "latitude": 15.9129,
    "pop": 49670000,
    "longitude": 79.74,
    "name": "Andhra Pradesh",
    "country": "IN",
    "sick": 39
  },
  {
    "recovered": 121,
    "latitude": 61.52401,
    "pop": 144500000,
    "longitude": 105.318756,
    "name": "Russia",
    "country": "RU",
    "lastUpdated": "2020-03-31T17:40:03.854Z",
    "dead": 17,
    "id": "KwOuGBKSMRlmwftxAvLX",
    "infected": 2337,
    "sick": 2199
  },
  {
    "latitude": 18.0708,
    "pop": 32125,
    "longitude": -63.0501,
    "name": "Saint-Martin",
    "country": "FR",
    "lastUpdated": "2020-03-31T17:48:14.620Z",
    "dead": 0,
    "id": "LBUtrLDKJiupXjlUNTUe",
    "infected": 11,
    "recovered": 0,
    "sick": 11
  },
  {
    "recovered": 0,
    "latitude": 47.166,
    "pop": 38557,
    "longitude": 9.5554,
    "name": "Liechtenstein",
    "country": "LI",
    "lastUpdated": "2020-03-31T17:40:04.291Z",
    "dead": 0,
    "id": "LTGEU2E9MFkrCcFhZYVk",
    "infected": 68,
    "sick": 68
  },
  {
    "latitude": 9.9456,
    "pop": 12720000,
    "longitude": -9.6966,
    "name": "Guinea",
    "country": "GN",
    "lastUpdated": "2020-03-31T17:40:04.212Z",
    "dead": 0,
    "id": "LU2QWt5ao8IJa8evNYVV",
    "infected": 22,
    "recovered": 0,
    "sick": 22
  },
  {
    "infected": 8,
    "recovered": 0,
    "latitude": 3.9193051,
    "pop": 563402,
    "longitude": -56.0277824,
    "name": "Suriname",
    "country": "SR",
    "lastUpdated": "2020-03-31T17:40:04.286Z",
    "dead": 0,
    "id": "LglKINHyQpYpFxjckbQ6",
    "sick": 8
  },
  {
    "infected": 176,
    "recovered": 0,
    "latitude": 52.9399,
    "pop": 1174000,
    "longitude": -106.4509,
    "name": "Saskatchewan",
    "country": "CA",
    "lastUpdated": "2020-03-31T17:45:02.526Z",
    "dead": 2,
    "id": "LkIDKY0CMAqzbwBHyYCP",
    "sick": 174
  },
  {
    "longitude": -84.27,
    "name": "Kentucky",
    "country": "US",
    "lastUpdated": "2020-03-31T17:36:14.083Z",
    "dead": 11,
    "id": "MC8MXFw9iXYybnF8v7e6",
    "infected": 480,
    "recovered": 0,
    "latitude": 37.8393,
    "pop": 4468000,
    "sick": 469
  },
  {
    "latitude": 40.2672,
    "pop": 6692000,
    "longitude": -86.1349,
    "name": "Indiana",
    "country": "US",
    "lastUpdated": "2020-03-31T17:36:14.043Z",
    "dead": 48,
    "id": "MOxDkmQ4wBi1CuAdVxDE",
    "infected": 2159,
    "recovered": 0,
    "sick": 2111
  },
  {
    "latitude": 7.54,
    "pop": 24290000,
    "longitude": -5.5471,
    "name": "Ivory Coast",
    "country": "CI",
    "lastUpdated": "2020-03-31T17:40:03.881Z",
    "dead": 1,
    "id": "MdQOfc1gNh2DOqwSP6UV",
    "infected": 168,
    "recovered": 6,
    "sick": 161
  },
  {
    "infected": 15241,
    "recovered": 3381,
    "latitude": 51.4332,
    "pop": 17910000,
    "longitude": 7.6616,
    "name": "Nordrhein-Westfalen",
    "country": "DE",
    "lastUpdated": "2020-03-31T17:37:02.247Z",
    "dead": 148,
    "id": "MjpYq3zQyAvSQlVVYjD2",
    "sick": 11712
  },
  {
    "infected": 75,
    "recovered": 75,
    "latitude": 37.330509,
    "pop": 6301000,
    "longitude": 105.977203,
    "name": "Ningxia",
    "country": "CN",
    "lastUpdated": "2020-03-31T17:29:11.224Z",
    "dead": 0,
    "id": "MntmjjuHljarCdt6aIeE",
    "sick": 0
  },
  {
    "latitude": 48.6616,
    "pop": 11020000,
    "longitude": 9.3501,
    "name": "Baden-Württemberg",
    "country": "DE",
    "lastUpdated": "2020-03-31T17:38:03.541Z",
    "dead": 186,
    "id": "N3XsRBwJSsNclkEf7Zz5",
    "infected": 13760,
    "recovered": 1284,
    "sick": 12290
  },
  {
    "recovered": 17,
    "latitude": 44.696652,
    "pop": 3507000,
    "longitude": 17.824332,
    "name": "Bosnia and Herzegovina",
    "country": "BA",
    "lastUpdated": "2020-03-31T17:40:03.933Z",
    "dead": 12,
    "id": "N7c13sCQF0G789XAVazJ",
    "infected": 411,
    "sick": 382
  },
  {
    "infected": 136,
    "recovered": 133,
    "latitude": 37.242565,
    "pop": 36500000,
    "longitude": 111.856857,
    "name": "Shanxi",
    "country": "CN",
    "lastUpdated": "2020-03-31T17:29:11.328Z",
    "dead": 0,
    "id": "NBRIGIRrJB1Ry8prDNAC",
    "sick": 3
  },
  {
    "longitude": -79.0193,
    "name": "North Carolina",
    "country": "US",
    "lastUpdated": "2020-03-31T17:36:14.012Z",
    "dead": 10,
    "id": "NC64Qp5kTqAfiTuR27k8",
    "infected": 1509,
    "recovered": 0,
    "latitude": 35.7596,
    "pop": 10380000,
    "sick": 1499
  },
  {
    "id": "NJjo2gfBvnbK4xatrsUz",
    "infected": 933,
    "recovered": 77,
    "latitude": 52.4125,
    "pop": 2504000,
    "longitude": 12.5316,
    "name": "Brandenburg",
    "country": "DE",
    "lastUpdated": "2020-03-31T17:22:02.437Z",
    "dead": 7,
    "sick": 849
  },
  {
    "latitude": 30.0668,
    "pop": 10080000,
    "longitude": 79.0193,
    "name": "Uttarakhand",
    "country": "IN",
    "lastUpdated": "2020-03-31T17:41:02.553Z",
    "dead": 0,
    "id": "NMeZEcGToxXfpi16PfFV",
    "infected": 7,
    "recovered": 2,
    "sick": 5
  },
  {
    "latitude": 50.6521,
    "pop": 6243000,
    "longitude": 9.1624,
    "name": "Hessen",
    "country": "DE",
    "lastUpdated": "2020-03-31T17:38:03.529Z",
    "dead": 21,
    "id": "Nk5vPgUIXsWVfbWZf15O",
    "infected": 3355,
    "recovered": 251,
    "sick": 3083
  },
  {
    "id": "NmmMKy0YqA8StHdGzB5N",
    "infected": 398,
    "recovered": 1,
    "latitude": 56.96776,
    "pop": 1920000,
    "longitude": 25.837107,
    "name": "Latvia",
    "country": "LV",
    "lastUpdated": "2020-03-31T17:40:03.802Z",
    "dead": 0,
    "sick": 397
  },
  {
    "latitude": 6.4281,
    "pop": 4732000,
    "longitude": -9.4295,
    "name": "Liberia",
    "country": "LR",
    "lastUpdated": "2020-03-31T17:40:04.295Z",
    "dead": 0,
    "id": "O4g88K49HKEZLFXm5gxb",
    "infected": 3,
    "recovered": 0,
    "sick": 3
  },
  {
    "latitude": 34.003307,
    "pop": 5084000,
    "longitude": -80.525613,
    "name": "South Carolina",
    "country": "US",
    "lastUpdated": "2020-03-31T17:36:13.999Z",
    "dead": 18,
    "id": "ONU4CK8QjViFHKg2w5if",
    "infected": 925,
    "recovered": 0,
    "sick": 907
  },
  {
    "recovered": 0,
    "latitude": 33.51822,
    "pop": 2987000,
    "longitude": -89.582775,
    "name": "Mississippi",
    "country": "US",
    "lastUpdated": "2020-03-31T17:36:14.098Z",
    "dead": 20,
    "id": "OYa0jFzdbAgo8zUsRv6q",
    "infected": 937,
    "sick": 917
  },
  {
    "infected": 303,
    "recovered": 0,
    "latitude": 45.2538,
    "pop": 1338000,
    "longitude": -69.4455,
    "name": "Maine",
    "country": "US",
    "lastUpdated": "2020-03-31T17:36:13.991Z",
    "dead": 5,
    "id": "OcXNp9kNVSwrRlG3bNVN",
    "sick": 298
  },
  {
    "lastUpdated": "2020-03-31T17:42:03.375Z",
    "dead": 0,
    "id": "OnOseaqWdnuP18oruABW",
    "infected": 68,
    "recovered": 3,
    "latitude": -41.915264,
    "pop": 515000,
    "longitude": 146.725256,
    "name": "Tasmania",
    "country": "AU",
    "sick": 65
  },
  {
    "latitude": 19.3133,
    "pop": 61559,
    "longitude": -81.2546,
    "name": "Cayman Islands",
    "country": "KY",
    "lastUpdated": "2020-03-31T17:40:04.257Z",
    "dead": 1,
    "id": "P4mwRFLbrvT0t75uD8Wo",
    "infected": 12,
    "recovered": 0,
    "sick": 11
  },
  {
    "infected": 5,
    "recovered": 0,
    "latitude": 16.7424984,
    "pop": 5900,
    "longitude": -62.1873665,
    "name": "Montserrat",
    "country": "MS",
    "lastUpdated": "2020-03-31T17:40:04.301Z",
    "dead": 0,
    "id": "PEDkeFMTOZpvHiSVxBk7",
    "sick": 5
  },
  {
    "recovered": 0,
    "latitude": -1.9403,
    "pop": 12210000,
    "longitude": 29.8739,
    "name": "Rwanda",
    "country": "RW",
    "lastUpdated": "2020-03-31T17:40:04.238Z",
    "dead": 0,
    "id": "PEcgZGEkyhABztt1Ufgc",
    "infected": 70,
    "sick": 70
  },
  {
    "longitude": -94.6859,
    "name": "Minnesota",
    "country": "US",
    "lastUpdated": "2020-03-31T17:36:14.123Z",
    "dead": 10,
    "id": "PJvVYosLIhbcRZYnKX1R",
    "infected": 576,
    "recovered": 0,
    "latitude": 46.7296,
    "pop": 5611000,
    "sick": 566
  },
  {
    "lastUpdated": "2020-03-31T17:36:14.006Z",
    "dead": 74,
    "id": "PTwQr9ijo0TBBsPH2sdJ",
    "infected": 5058,
    "recovered": 0,
    "latitude": 40.6331,
    "pop": 12740000,
    "longitude": -89.3985,
    "name": "Illinois",
    "country": "US",
    "sick": 4984
  },
  {
    "recovered": 1,
    "latitude": 13.909444,
    "pop": 178844,
    "longitude": -60.978893,
    "name": "Saint Lucia",
    "country": "LC",
    "lastUpdated": "2020-03-31T17:40:04.268Z",
    "dead": 0,
    "id": "PjLqCeFdyzdZNcZxMkK1",
    "infected": 9,
    "sick": 8
  },
  {
    "lastUpdated": "2020-03-31T17:40:03.856Z",
    "dead": 10,
    "id": "Pr76V4raf108uSRoEXac",
    "infected": 362,
    "recovered": 3,
    "latitude": 34.201507,
    "pop": 11530000,
    "longitude": 9.460554,
    "name": "Tunisia",
    "country": "TN",
    "sick": 349
  },
  {
    "lastUpdated": "2020-03-31T17:40:04.306Z",
    "dead": 0,
    "id": "PuQgOd9KWiMzGZXm11sR",
    "infected": 9,
    "recovered": 0,
    "latitude": -26.5225,
    "pop": 1367000,
    "longitude": 31.4659,
    "name": "Eswatini",
    "country": "SZ",
    "sick": 9
  },
  {
    "longitude": 143.94853,
    "name": "Victoria",
    "country": "AU",
    "lastUpdated": "2020-03-31T17:42:03.463Z",
    "dead": 4,
    "id": "Q18mrGvFWTLX2BU9SqhQ",
    "infected": 917,
    "recovered": 171,
    "latitude": -37.009609,
    "pop": 6359000,
    "sick": 742
  },
  {
    "infected": 1146,
    "recovered": 47,
    "latitude": 54.2194,
    "pop": 2890000,
    "longitude": 9.6961,
    "name": "Schleswig-Holstein",
    "country": "DE",
    "lastUpdated": "2020-03-31T17:38:03.537Z",
    "dead": 9,
    "id": "Q39XkabIYxt15mHINzTa",
    "sick": 1090
  },
  {
    "lastUpdated": "2020-03-31T17:40:03.840Z",
    "dead": 4,
    "id": "QR9go2hQKXjty7JHUYe4",
    "infected": 745,
    "recovered": 26,
    "latitude": 58.595272,
    "pop": 1328000,
    "longitude": 25.013607,
    "name": "Estonia",
    "country": "EE",
    "sick": 715
  },
  {
    "infected": 1,
    "recovered": 0,
    "latitude": -6.315,
    "pop": 8251000,
    "longitude": 143.9555,
    "name": "Papua New Guinea",
    "country": "PG",
    "lastUpdated": "2020-03-31T17:40:04.248Z",
    "dead": 0,
    "id": "QlZrE4nosm5WfdA2aCDg",
    "sick": 1
  },
  {
    "latitude": 18.3358,
    "pop": 107268,
    "longitude": -64.8963,
    "name": "U.S. Virgin Islands",
    "country": "US",
    "lastUpdated": "2020-03-31T17:36:14.112Z",
    "dead": 0,
    "id": "QqhD3YDMKXojvQY3Yu41",
    "infected": 30,
    "recovered": 0,
    "sick": 30
  },
  {
    "latitude": 15.414999,
    "pop": 71937,
    "longitude": -61.3709755,
    "name": "Dominica",
    "country": "DM",
    "lastUpdated": "2020-03-31T17:40:04.226Z",
    "dead": 0,
    "id": "Qy2qW2ep5wltnYjPJBxh",
    "infected": 12,
    "recovered": 0,
    "sick": 12
  },
  {
    "recovered": 9,
    "latitude": 8.538,
    "pop": 4099000,
    "longitude": -80.7821,
    "name": "Panama",
    "country": "PA",
    "lastUpdated": "2020-03-31T17:40:03.869Z",
    "dead": 27,
    "id": "R8YCgephnxTufvcPWMgx",
    "infected": 1075,
    "sick": 1039
  },
  {
    "latitude": 15.2,
    "pop": 9265000,
    "longitude": -86.2419,
    "name": "Honduras",
    "country": "HN",
    "lastUpdated": "2020-03-31T17:40:04.239Z",
    "dead": 7,
    "id": "RA2SE0p2bVhqo0P2hzGY",
    "infected": 141,
    "recovered": 3,
    "sick": 131
  },
  {
    "lastUpdated": "2020-03-31T17:38:09.933Z",
    "dead": 107,
    "id": "RCrDBCdBNYzgLNr0aB2H",
    "infected": 1501,
    "recovered": 285,
    "latitude": 45.633331,
    "pop": 1216000,
    "longitude": 13.8,
    "name": "Friuli Venezia Giulia",
    "country": "IT",
    "sick": 1109
  },
  {
    "latitude": 41.878,
    "pop": 3156000,
    "longitude": -93.0977,
    "name": "Iowa",
    "country": "US",
    "lastUpdated": "2020-03-31T17:36:13.939Z",
    "dead": 6,
    "id": "RX0KDu1AFrlCsrRso0nb",
    "infected": 424,
    "recovered": 0,
    "sick": 418
  },
  {
    "infected": 8,
    "recovered": 0,
    "latitude": 26.3351002,
    "pop": 6846000,
    "longitude": 17.2283306,
    "name": "Libya",
    "country": "LY",
    "lastUpdated": "2020-03-31T17:40:04.281Z",
    "dead": 0,
    "id": "RaJxbzlnRFTuj4B8IbpC",
    "sick": 8
  },
  {
    "recovered": 0,
    "latitude": 39.0119,
    "pop": 2912000,
    "longitude": -98.4842,
    "name": "Kansas",
    "country": "US",
    "lastUpdated": "2020-03-31T17:36:14.029Z",
    "dead": 8,
    "id": "Rf4uvBfP3GRDSHdZElRd",
    "infected": 384,
    "sick": 376
  },
  {
    "latitude": 48.6998,
    "pop": 5518000,
    "longitude": 6.1878,
    "name": "Grand Est",
    "country": "FR",
    "lastUpdated": "2020-03-31T17:43:52.345Z",
    "dead": 1015,
    "id": "RmEgf1xeclWt7XCF9oiR",
    "infected": 5479,
    "recovered": 1704,
    "sick": 2760
  },
  {
    "id": "Rx4TuyMpfGb3S8wYJX0x",
    "infected": 1706,
    "recovered": 0,
    "latitude": 51.2538,
    "pop": 14570000,
    "longitude": -85.3232,
    "name": "Ontario",
    "country": "CA",
    "lastUpdated": "2020-03-31T17:45:02.416Z",
    "dead": 32,
    "sick": 1674
  },
  {
    "longitude": -61.011715,
    "name": "Martinique",
    "country": "FR",
    "lastUpdated": "2020-03-31T17:45:17.460Z",
    "dead": 3,
    "id": "SDdefnq1bc3ZNr7SpEsW",
    "infected": 66,
    "recovered": 20,
    "latitude": 14.652027,
    "pop": 376480,
    "sick": 43
  },
  {
    "longitude": -1.0232,
    "name": "Ghana",
    "country": "GH",
    "lastUpdated": "2020-03-31T17:40:03.942Z",
    "dead": 5,
    "id": "SG9VWLOV3x2JsTkXmVSz",
    "infected": 161,
    "recovered": 31,
    "latitude": 7.9465,
    "pop": 28830000,
    "sick": 125
  },
  {
    "lastUpdated": "2020-03-31T17:40:03.957Z",
    "dead": 395,
    "id": "SGe9sCPayMqh6RsGFaBA",
    "infected": 16186,
    "recovered": 1823,
    "latitude": 46.818188,
    "pop": 8570000,
    "longitude": 8.227512,
    "name": "Switzerland",
    "country": "CH",
    "sick": 13968
  },
  {
    "latitude": 46.8139,
    "pop": 8485000,
    "longitude": -71.208,
    "name": "Quebec",
    "country": "CA",
    "lastUpdated": "2020-03-31T17:45:02.329Z",
    "dead": 25,
    "id": "SHoOE3NiJgWAlDVBzwYH",
    "infected": 3430,
    "recovered": 0,
    "sick": 3405
  },
  {
    "id": "SMWvuMMuKp2QK7O2tNia",
    "infected": 108,
    "recovered": 1,
    "latitude": 42.6026,
    "pop": 1831000,
    "longitude": 20.903,
    "name": "Kosovo",
    "country": "XK",
    "lastUpdated": "2020-03-31T17:14:08.244Z",
    "dead": 1,
    "sick": 106
  },
  {
    "latitude": 15.2993,
    "pop": 1817000,
    "longitude": 74.124,
    "name": "Goa",
    "country": "IN",
    "lastUpdated": "2020-03-31T17:41:02.528Z",
    "dead": 0,
    "id": "SPcujsH2YlUaoAr8AiWF",
    "infected": 5,
    "recovered": 0,
    "sick": 5
  },
  {
    "latitude": 39,
    "pop": 1957000,
    "longitude": 16.5,
    "name": "Calabria",
    "country": "IT",
    "lastUpdated": "2020-03-31T17:38:10.020Z",
    "dead": 31,
    "id": "SZdF624x0v1LlyzZjKFu",
    "infected": 647,
    "recovered": 14,
    "sick": 602
  },
  {
    "id": "SakhKQzKu1LRI8laqdQq",
    "infected": 153,
    "recovered": 0,
    "latitude": 41.4925,
    "pop": 1929000,
    "longitude": -99.9018,
    "name": "Nebraska",
    "country": "US",
    "lastUpdated": "2020-03-31T17:36:14.032Z",
    "dead": 3,
    "sick": 150
  },
  {
    "latitude": -21.1151,
    "pop": 859959,
    "longitude": 55.5364,
    "name": "La Réunion",
    "country": "FR",
    "lastUpdated": "2020-03-31T17:45:02.965Z",
    "dead": 0,
    "id": "SgHzWAAYK1j2sipovxM6",
    "infected": 94,
    "recovered": 10,
    "sick": 84
  },
  {
    "latitude": 12.565679,
    "pop": 16010000,
    "longitude": 104.990967,
    "name": "Cambodia",
    "country": "KH",
    "lastUpdated": "2020-03-31T17:40:04.322Z",
    "dead": 0,
    "id": "SioMALgUbo7peXmbco2f",
    "infected": 109,
    "recovered": 23,
    "sick": 86
  },
  {
    "lastUpdated": "2020-03-31T17:36:13.994Z",
    "dead": 2,
    "id": "SsWhuEElU7dCTTuH5fdQ",
    "infected": 69,
    "recovered": 0,
    "latitude": 13.4443,
    "pop": 164229,
    "longitude": 144.7937,
    "name": "Guam",
    "country": "GU",
    "sick": 67
  },
  {
    "recovered": 2,
    "latitude": -4.0383,
    "pop": 81340000,
    "longitude": 21.7587,
    "name": "DR Congo",
    "country": "CD",
    "lastUpdated": "2020-03-31T17:40:04.315Z",
    "dead": 8,
    "id": "T3iRf8mTUTAzbKrORTap",
    "infected": 98,
    "sick": 88
  },
  {
    "latitude": 23.635796,
    "pop": 32940000,
    "longitude": 44.344334,
    "name": "Saudi Arabia",
    "country": "SA",
    "lastUpdated": "2020-03-31T17:40:03.924Z",
    "dead": 10,
    "id": "T7NffoeCgTUpAbOHvYwP",
    "infected": 1563,
    "recovered": 165,
    "sick": 1388
  },
  {
    "infected": 129,
    "recovered": 45,
    "latitude": 4.506106,
    "pop": 428697,
    "longitude": 114.650692,
    "name": "Brunei",
    "country": "BN",
    "lastUpdated": "2020-03-31T17:40:04.225Z",
    "dead": 1,
    "id": "TQZmzsLhJqjtCSExAkCP",
    "sick": 83
  },
  {
    "lastUpdated": "2020-03-31T17:42:26.020Z",
    "dead": 295,
    "id": "TT0MKODSjrxHvG19xZCa",
    "infected": 2093,
    "recovered": 982,
    "latitude": 45.4471,
    "pop": 8027000,
    "longitude": 4.3853,
    "name": "Auvergne-Rhône-Alpes",
    "country": "FR",
    "sick": 816
  },
  {
    "infected": 2627,
    "recovered": 0,
    "latitude": 39.318928,
    "pop": 5696000,
    "longitude": -105.461392,
    "name": "Colorado",
    "country": "US",
    "lastUpdated": "2020-03-31T17:36:14.051Z",
    "dead": 51,
    "id": "Th4dlpXXmSDgi1OHs36P",
    "sick": 2576
  },
  {
    "recovered": 32,
    "latitude": 12.2383,
    "pop": 19190000,
    "longitude": -1.5616,
    "name": "Burkina Faso",
    "country": "BF",
    "lastUpdated": "2020-03-31T17:40:03.780Z",
    "dead": 14,
    "id": "Tup6oDCHj6DgqZR3nQ3x",
    "infected": 261,
    "sick": 215
  },
  {
    "infected": 9,
    "recovered": 0,
    "latitude": 12.104818,
    "pop": 112381,
    "longitude": -61.670761,
    "name": "Grenada",
    "country": "GD",
    "lastUpdated": "2020-03-31T17:40:04.327Z",
    "dead": 0,
    "id": "TvqURPN5xzVBXsmGP46N",
    "sick": 9
  },
  {
    "infected": 2860,
    "recovered": 1,
    "latitude": 55.675758,
    "pop": 5603000,
    "longitude": 12.56902,
    "name": "Denmark",
    "country": "DK",
    "lastUpdated": "2020-03-31T17:40:03.850Z",
    "dead": 90,
    "id": "Ty1AY3VLPJcRZgdBIERx",
    "sick": 2769
  },
  {
    "id": "U0tkTJ9CGsBuFJ2Gdoum",
    "infected": 774,
    "recovered": 753,
    "latitude": 36.395859,
    "pop": 100472400,
    "longitude": 118.769882,
    "name": "Shandong",
    "country": "CN",
    "lastUpdated": "2020-03-31T17:29:11.330Z",
    "dead": 7,
    "sick": 14
  },
  {
    "infected": 230,
    "recovered": 13,
    "latitude": 43.94236,
    "pop": 33400,
    "longitude": 12.457777,
    "name": "San Marino",
    "country": "SM",
    "lastUpdated": "2020-03-31T17:40:03.877Z",
    "dead": 25,
    "id": "U12rMD5GDW58Q0lIwrB1",
    "sick": 192
  },
  {
    "latitude": 36.204823,
    "pop": 126800000,
    "longitude": 138.25293,
    "name": "Japan",
    "country": "JP",
    "lastUpdated": "2020-03-31T17:40:03.917Z",
    "dead": 56,
    "id": "U13Gy4BpRLAZ95bPmBXd",
    "infected": 1953,
    "recovered": 424,
    "sick": 1473
  },
  {
    "infected": 33,
    "recovered": 0,
    "latitude": 1.3733,
    "pop": 42860000,
    "longitude": 32.2903,
    "name": "Uganda",
    "country": "UG",
    "lastUpdated": "2020-03-31T17:40:04.208Z",
    "dead": 0,
    "id": "UCZXEgnHtxUoChWLR6fQ",
    "sick": 33
  },
  {
    "recovered": 1,
    "latitude": -11.2027,
    "pop": 29780000,
    "longitude": 17.8739,
    "name": "Angola",
    "country": "AO",
    "lastUpdated": "2020-03-31T17:40:04.269Z",
    "dead": 2,
    "id": "UIbrFy6kiTTF0D37Kqmp",
    "infected": 7,
    "sick": 4
  },
  {
    "latitude": 48.202,
    "pop": 3329000,
    "longitude": -2.9326,
    "name": "Bretagne",
    "country": "FR",
    "lastUpdated": "2020-03-31T17:42:54.794Z",
    "dead": 50,
    "id": "URKMlJ7OTNldjpaxFbjE",
    "infected": 603,
    "recovered": 187,
    "sick": 366
  },
  {
    "recovered": 750,
    "latitude": 53.5511,
    "pop": 1822000,
    "longitude": 9.9937,
    "name": "Hamburg",
    "country": "DE",
    "lastUpdated": "2020-03-31T17:37:02.433Z",
    "dead": 9,
    "id": "UfFaUECHINUutv1M9tzq",
    "infected": 2290,
    "sick": 1531
  },
  {
    "latitude": -19.4914,
    "pop": 211945,
    "longitude": 132.551,
    "name": "Northern Territory",
    "country": "AU",
    "lastUpdated": "2020-03-31T17:42:03.363Z",
    "dead": 0,
    "id": "UrF45V1VqMo6YBib2KlL",
    "infected": 16,
    "recovered": 0,
    "sick": 16
  },
  {
    "infected": 6,
    "recovered": 0,
    "latitude": 18.0424805,
    "pop": 41109,
    "longitude": -63.0548286,
    "name": "Sint Maarten",
    "country": "SX",
    "lastUpdated": "2020-03-31T17:40:04.258Z",
    "dead": 0,
    "id": "UsxgpiuFCtlR2CW1UUFm",
    "sick": 6
  },
  {
    "infected": 1,
    "recovered": 0,
    "latitude": 11.943179,
    "pop": 241773,
    "longitude": 79.808206,
    "name": "Puducherry",
    "country": "IN",
    "lastUpdated": "2020-03-31T17:41:02.530Z",
    "dead": 0,
    "id": "V1qE740s3EUGyKGr6SVv",
    "sick": 1
  },
  {
    "lastUpdated": "2020-03-31T17:40:03.909Z",
    "dead": 14,
    "id": "VAAmtxtDuCY0o55zRsOh",
    "infected": 798,
    "recovered": 15,
    "latitude": 3.527606,
    "pop": 49070000,
    "longitude": -72.998674,
    "name": "Colombia",
    "country": "CO",
    "sick": 769
  },
  {
    "infected": 186,
    "recovered": 8,
    "latitude": 21.5218,
    "pop": 11480000,
    "longitude": -77.7812,
    "name": "Cuba",
    "country": "CU",
    "lastUpdated": "2020-03-31T17:40:03.804Z",
    "dead": 6,
    "id": "VAG9AcMABTf8oIAfELPh",
    "sick": 172
  },
  {
    "infected": 181,
    "recovered": 172,
    "latitude": 25.181129,
    "pop": 45970000,
    "longitude": 101.864143,
    "name": "Yunnan",
    "country": "CN",
    "lastUpdated": "2020-03-31T17:29:11.319Z",
    "dead": 2,
    "id": "VIf8T8PD3ZzlzAm5eBCX",
    "sick": 7
  },
  {
    "recovered": 14,
    "latitude": 26.8467,
    "pop": 204200000,
    "longitude": 80.9462,
    "name": "Uttar Pradesh",
    "country": "IN",
    "lastUpdated": "2020-03-31T17:41:02.527Z",
    "dead": 0,
    "id": "VcKcLdCkC6YpPfIDnRVD",
    "infected": 101,
    "sick": 87
  },
  {
    "infected": 1,
    "recovered": 0,
    "latitude": 64.8255,
    "pop": 44826,
    "longitude": -124.8457,
    "name": "Northwest Territories",
    "country": "CA",
    "lastUpdated": "2020-03-31T17:45:02.522Z",
    "dead": 0,
    "id": "Vd3lLgrNsr81plzTgZkz",
    "sick": 1
  },
  {
    "longitude": 3.2828,
    "name": "Occitanie",
    "country": "FR",
    "lastUpdated": "2020-03-31T17:47:31.390Z",
    "dead": 91,
    "id": "WAnbFrEjtZDTCIYBt8rz",
    "infected": 1082,
    "recovered": 446,
    "latitude": 43.8927,
    "pop": 5893000,
    "sick": 545
  },
  {
    "id": "WD502XimGXnWzqYg7zxL",
    "infected": 214,
    "recovered": 1,
    "latitude": 40.5,
    "pop": 567118,
    "longitude": 16.5,
    "name": "Basilicata",
    "country": "IT",
    "lastUpdated": "2020-03-31T17:38:09.959Z",
    "dead": 5,
    "sick": 208
  },
  {
    "id": "WKsJQmcpWKxnp0nCwN77",
    "infected": 1,
    "recovered": 0,
    "latitude": 24.6637,
    "pop": 2722000,
    "longitude": 93.9063,
    "name": "Manipur",
    "country": "IN",
    "lastUpdated": "2020-03-31T17:41:02.511Z",
    "dead": 0,
    "sick": 1
  },
  {
    "infected": 1353,
    "recovered": 31,
    "latitude": -30.5595,
    "pop": 56720000,
    "longitude": 22.9375,
    "name": "South Africa",
    "country": "ZA",
    "lastUpdated": "2020-03-31T17:40:03.795Z",
    "dead": 3,
    "id": "Whrue10NtwIObLvFFyBr",
    "sick": 1319
  },
  {
    "infected": 4,
    "recovered": 0,
    "latitude": 13.443182,
    "pop": 2101000,
    "longitude": -15.3101387,
    "name": "Gambia",
    "country": "GM",
    "lastUpdated": "2020-03-31T17:40:04.290Z",
    "dead": 1,
    "id": "Wk811YwpQxsOCfz8As86",
    "sick": 3
  },
  {
    "latitude": 23.685,
    "pop": 164700000,
    "longitude": 90.3563,
    "name": "Bangladesh",
    "country": "BD",
    "lastUpdated": "2020-03-31T17:40:04.230Z",
    "dead": 5,
    "id": "WpLayPPLIJ7VcHZdQaoM",
    "infected": 51,
    "recovered": 25,
    "sick": 21
  },
  {
    "infected": 8724,
    "recovered": 747,
    "latitude": 45.5,
    "pop": 4905000,
    "longitude": 11.75,
    "name": "Veneto",
    "country": "IT",
    "lastUpdated": "2020-03-31T17:38:09.854Z",
    "dead": 413,
    "id": "X2iRhHF6f9pUnJcxPc3J",
    "sick": 7564
  },
  {
    "id": "X3GMAVINj2GDzIRVfo7n",
    "infected": 1,
    "recovered": 0,
    "latitude": -8.556856,
    "pop": 1311000,
    "longitude": 125.56031,
    "name": "Timor-Leste",
    "country": "TL",
    "lastUpdated": "2020-03-31T17:40:04.393Z",
    "dead": 0,
    "sick": 1
  },
  {
    "longitude": 77.577049,
    "name": "Ladakh",
    "country": "IN",
    "lastUpdated": "2020-03-31T17:41:02.522Z",
    "dead": 0,
    "id": "X3PZqaJxtnlxcgP4tzya",
    "infected": 13,
    "recovered": 3,
    "latitude": 34.152588,
    "pop": 274289,
    "sick": 10
  },
  {
    "infected": 343,
    "recovered": 295,
    "latitude": 25.92448,
    "pop": 38560000,
    "longitude": 118.278992,
    "name": "Fujian",
    "country": "CN",
    "lastUpdated": "2020-03-31T17:29:11.263Z",
    "dead": 1,
    "id": "XBBw0iMPrmiEu3qogkbi",
    "sick": 47
  },
  {
    "infected": 320,
    "recovered": 25,
    "latitude": -32.5228,
    "pop": 3457000,
    "longitude": -55.7658,
    "name": "Uruguay",
    "country": "UY",
    "lastUpdated": "2020-03-31T17:40:03.938Z",
    "dead": 1,
    "id": "XrsuLstdybIqIvv0E0aJ",
    "sick": 294
  },
  {
    "lastUpdated": "2020-03-31T17:43:37.476Z",
    "dead": 20,
    "id": "YGXgIObKVabP2CYEdcb9",
    "infected": 225,
    "recovered": 100,
    "latitude": 42.0396,
    "pop": 339178,
    "longitude": 9.0129,
    "name": "Corse",
    "country": "FR",
    "sick": 105
  },
  {
    "recovered": 18,
    "latitude": 31.9522,
    "pop": 5052000,
    "longitude": 35.2332,
    "name": "Palestine",
    "country": "PS",
    "lastUpdated": "2020-03-31T17:40:04.247Z",
    "dead": 1,
    "id": "YMzKw0SnXG71VT7H1jff",
    "infected": 117,
    "sick": 98
  },
  {
    "latitude": 11.8037491,
    "pop": 1955000,
    "longitude": -15.1804132,
    "name": "Guinea-Bissau",
    "country": "GW",
    "lastUpdated": "2020-03-31T17:40:04.246Z",
    "dead": 0,
    "id": "YZoy8ReFucvC3IFnWZHn",
    "infected": 8,
    "recovered": 0,
    "sick": 8
  },
  {
    "recovered": 0,
    "latitude": 64.2008,
    "pop": 737438,
    "longitude": -149.4937,
    "name": "Alaska",
    "country": "US",
    "lastUpdated": "2020-03-31T17:36:13.961Z",
    "dead": 3,
    "id": "YaCODTMD1KKRnrAlkg2u",
    "infected": 119,
    "sick": 116
  },
  {
    "recovered": 5408,
    "latitude": 37.568291,
    "pop": 51470000,
    "longitude": 126.99778,
    "name": "South Korea",
    "country": "KR",
    "lastUpdated": "2020-03-31T17:40:03.836Z",
    "dead": 162,
    "id": "Yw9uBekNlefXBcOCNMfP",
    "infected": 9786,
    "sick": 4216
  },
  {
    "longitude": -59.543198,
    "name": "Barbados",
    "country": "BB",
    "lastUpdated": "2020-03-31T17:40:04.189Z",
    "dead": 0,
    "id": "YzZqZMJGvG6joQCdiuXC",
    "infected": 34,
    "recovered": 0,
    "latitude": 13.193887,
    "pop": 285719,
    "sick": 34
  },
  {
    "latitude": 52.2297,
    "pop": 37980000,
    "longitude": 21.0122,
    "name": "Poland",
    "country": "PL",
    "lastUpdated": "2020-03-31T17:40:03.807Z",
    "dead": 32,
    "id": "ZAZNuCK1VweBaTLCFzCk",
    "infected": 2215,
    "recovered": 7,
    "sick": 2176
  },
  {
    "infected": 5,
    "recovered": 0,
    "latitude": -17.713371,
    "pop": 905502,
    "longitude": 178.065033,
    "name": "Fiji",
    "country": "FJ",
    "lastUpdated": "2020-03-31T17:40:04.297Z",
    "dead": 0,
    "id": "ZmzOT0sJgfWXEpRImItC",
    "sick": 5
  },
  {
    "infected": 2571,
    "recovered": 0,
    "latitude": 41.6032,
    "pop": 3573000,
    "longitude": -73.0877,
    "name": "Connecticut",
    "country": "US",
    "lastUpdated": "2020-03-31T17:36:14.118Z",
    "dead": 36,
    "id": "Zqy0gftQzocR49jEJNMl",
    "sick": 2535
  },
  {
    "longitude": 13.516667,
    "name": "Marche",
    "country": "IT",
    "lastUpdated": "2020-03-31T17:38:10.018Z",
    "dead": 417,
    "id": "Zwbjs4XN7P9s849Q3zFj",
    "infected": 3684,
    "recovered": 16,
    "latitude": 43.616943,
    "pop": 1532000,
    "sick": 3251
  },
  {
    "infected": 840,
    "recovered": 129,
    "latitude": 51.011,
    "pop": 2137000,
    "longitude": 10.8453,
    "name": "Thüringen",
    "country": "DE",
    "lastUpdated": "2020-03-31T17:37:02.338Z",
    "dead": 6,
    "id": "a9OgUWo6ZSWA3HyF0xnj",
    "sick": 705
  },
  {
    "id": "a9p9pAOsjg1WAjPGc2a6",
    "infected": 337,
    "recovered": 6,
    "latitude": -30.000233,
    "pop": 1677000,
    "longitude": 136.209152,
    "name": "South Australia",
    "country": "AU",
    "lastUpdated": "2020-03-31T17:42:03.272Z",
    "dead": 0,
    "sick": 331
  },
  {
    "id": "aPubGfQ8ToSEuKJldKRT",
    "infected": 1122,
    "recovered": 0,
    "latitude": 37.9643,
    "pop": 6126000,
    "longitude": -91.8318,
    "name": "Missouri",
    "country": "US",
    "lastUpdated": "2020-03-31T17:36:14.101Z",
    "dead": 14,
    "sick": 1108
  },
  {
    "id": "aTa8MiBjtH3iY0SRs2HQ",
    "infected": 254,
    "recovered": 250,
    "latitude": 23.64407,
    "pop": 48380000,
    "longitude": 108.26651,
    "name": "Guangxi",
    "country": "CN",
    "lastUpdated": "2020-03-31T17:29:11.233Z",
    "dead": 2,
    "sick": 2
  },
  {
    "infected": 3,
    "recovered": 0,
    "latitude": 6.6111,
    "pop": 4659000,
    "longitude": 20.9394,
    "name": "CAR",
    "country": "CF",
    "lastUpdated": "2020-03-31T17:40:04.285Z",
    "dead": 0,
    "id": "adcBUeAYp6ey0ZXCzKNs",
    "sick": 3
  },
  {
    "lastUpdated": "2020-03-31T17:36:14.078Z",
    "dead": 27,
    "id": "afeZTVC1J1SMMNFxkrcc",
    "infected": 1250,
    "recovered": 0,
    "latitude": 37.4316,
    "pop": 8518000,
    "longitude": -78.6569,
    "name": "Virginia",
    "country": "US",
    "sick": 1223
  },
  {
    "infected": 580,
    "recovered": 418,
    "latitude": 39.904202,
    "pop": 21540000,
    "longitude": 116.407394,
    "name": "Beijing",
    "country": "CN",
    "lastUpdated": "2020-03-31T17:29:11.218Z",
    "dead": 8,
    "id": "alj4hkxg9cjrTxOzwFKt",
    "sick": 154
  },
  {
    "infected": 630,
    "recovered": 152,
    "latitude": 33.22319,
    "pop": 38270000,
    "longitude": 43.679291,
    "name": "Iraq",
    "country": "IQ",
    "lastUpdated": "2020-03-31T17:40:04.223Z",
    "dead": 46,
    "id": "b7TwXX46FA0EmH1CjHET",
    "sick": 432
  },
  {
    "infected": 175,
    "recovered": 40,
    "latitude": 14.457474,
    "pop": 15850000,
    "longitude": -14.358636,
    "name": "Senegal",
    "country": "SN",
    "lastUpdated": "2020-03-31T17:40:03.830Z",
    "dead": 0,
    "id": "b9p1JhVml3GGC7iiPmKv",
    "sick": 135
  },
  {
    "latitude": -0.0236,
    "pop": 49700000,
    "longitude": 37.9062,
    "name": "Kenya",
    "country": "KE",
    "lastUpdated": "2020-03-31T17:40:04.289Z",
    "dead": 1,
    "id": "bVHiTolbUJGHIeVht3eG",
    "infected": 59,
    "recovered": 1,
    "sick": 57
  },
  {
    "id": "bYp4RRHv19M7lYtSzQeV",
    "infected": 16636,
    "recovered": 0,
    "latitude": 39.561889,
    "pop": 8909000,
    "longitude": -74.672169,
    "name": "New Jersey",
    "country": "US",
    "lastUpdated": "2020-03-31T17:36:13.932Z",
    "dead": 198,
    "sick": 16438
  },
  {
    "lastUpdated": "2020-03-31T17:40:03.784Z",
    "dead": 43,
    "id": "bdqD4kpdqGgUaX70Tm2Q",
    "infected": 2766,
    "recovered": 537,
    "latitude": 3.139,
    "pop": 31620000,
    "longitude": 101.6869,
    "name": "Malaysia",
    "country": "MY",
    "sick": 2186
  },
  {
    "infected": 4435,
    "recovered": 16,
    "latitude": 60.128162,
    "pop": 10120000,
    "longitude": 18.643501,
    "name": "Sweden",
    "country": "SE",
    "lastUpdated": "2020-03-31T17:40:03.772Z",
    "dead": 180,
    "id": "bignnyt2A8BBx8VNo32p",
    "sick": 4239
  },
  {
    "latitude": 17.363747,
    "pop": 53100,
    "longitude": -62.754593,
    "name": "Saint Kitts and Nevis",
    "country": "KN",
    "lastUpdated": "2020-03-31T17:40:04.267Z",
    "dead": 0,
    "id": "bor36ktvkrB3iSxlsegc",
    "infected": 8,
    "recovered": 0,
    "sick": 8
  },
  {
    "longitude": 20.010162,
    "name": "Albania",
    "country": "AL",
    "lastUpdated": "2020-03-31T17:40:03.940Z",
    "dead": 15,
    "id": "cCGmFmwHOoBrEpvG3qBP",
    "infected": 243,
    "recovered": 52,
    "latitude": 40.973765,
    "pop": 2877000,
    "sick": 176
  },
  {
    "infected": 15,
    "recovered": 0,
    "latitude": 16.871311,
    "pop": 55901000,
    "longitude": 96.199379,
    "name": "Myanmar",
    "country": "MM",
    "lastUpdated": "2020-03-31T17:40:04.325Z",
    "dead": 1,
    "id": "cIbchhSBTuxXmXYgpkdB",
    "sick": 14
  },
  {
    "lastUpdated": "2020-03-31T17:40:04.317Z",
    "dead": 0,
    "id": "cO8TChMvQvAtoZMNurTQ",
    "infected": 8,
    "recovered": 0,
    "latitude": -25.953724,
    "pop": 29670000,
    "longitude": 32.588711,
    "name": "Mozambique",
    "country": "MZ",
    "sick": 8
  },
  {
    "longitude": 103.8467,
    "name": "Mongolia",
    "country": "MN",
    "lastUpdated": "2020-03-31T17:40:04.244Z",
    "dead": 0,
    "id": "cPxONYsVo6BgvCW9HUeQ",
    "infected": 12,
    "recovered": 2,
    "latitude": 46.8625,
    "pop": 3076000,
    "sick": 10
  },
  {
    "infected": 1135,
    "recovered": 198,
    "latitude": 64.963051,
    "pop": 364260,
    "longitude": -19.020836,
    "name": "Iceland",
    "country": "IS",
    "lastUpdated": "2020-03-31T17:40:03.782Z",
    "dead": 2,
    "id": "cPxe7nsRnOf6aOPqHElJ",
    "sick": 935
  },
  {
    "lastUpdated": "2020-03-31T17:40:03.845Z",
    "dead": 19,
    "id": "cX891t0ONLNFj0MYq6La",
    "infected": 4831,
    "recovered": 163,
    "latitude": 31.046051,
    "pop": 8712000,
    "longitude": 34.851612,
    "name": "Israel",
    "country": "IL",
    "sick": 4649
  },
  {
    "recovered": 0,
    "latitude": 4.749531,
    "pop": 290691,
    "longitude": -53.112909,
    "name": "Guyane",
    "country": "FR",
    "lastUpdated": "2020-03-31T17:44:18.990Z",
    "dead": 0,
    "id": "cc7s6hYGQ2MovBBBgkKb",
    "infected": 28,
    "sick": 28
  },
  {
    "latitude": 61.8926,
    "pop": 49290,
    "longitude": -6.9118,
    "name": "Faeroe Islands",
    "country": "FO",
    "lastUpdated": "2020-03-31T17:40:04.241Z",
    "dead": 0,
    "id": "cgzd5EM8PZv5ziJtTz1w",
    "infected": 169,
    "recovered": 74,
    "sick": 95
  },
  {
    "infected": 4194,
    "recovered": 0,
    "latitude": 41.2033,
    "pop": 12810000,
    "longitude": -77.1945,
    "name": "Pennsylvania",
    "country": "US",
    "lastUpdated": "2020-03-31T17:36:14.074Z",
    "dead": 50,
    "id": "chj2FF3zb4Xxcop9RHre",
    "sick": 4144
  },
  {
    "id": "cpf3Y5PQTYywIm3PrpIQ",
    "infected": 912,
    "recovered": 348,
    "latitude": 45.7087,
    "pop": 5987000,
    "longitude": 0.6269,
    "name": "Nouvelle-Aquitaine",
    "country": "FR",
    "lastUpdated": "2020-03-31T17:47:11.514Z",
    "dead": 78,
    "sick": 486
  },
  {
    "id": "d0ExINgPaWUBm3l4ioJL",
    "infected": 94417,
    "recovered": 19259,
    "latitude": 40.463669,
    "pop": 46660000,
    "longitude": -3.74922,
    "name": "Spain",
    "country": "ES",
    "lastUpdated": "2020-03-31T17:40:03.947Z",
    "dead": 8269,
    "sick": 66889
  },
  {
    "lastUpdated": "2020-03-31T17:40:03.817Z",
    "dead": 8,
    "id": "dedMXSYR2k92wkSXNZqn",
    "infected": 370,
    "recovered": 10,
    "latitude": 42.50837,
    "pop": 76965,
    "longitude": 1.517155,
    "name": "Andorra",
    "country": "AD",
    "sick": 352
  },
  {
    "latitude": 38.831163,
    "pop": 967171,
    "longitude": -75.375673,
    "name": "Delaware",
    "country": "US",
    "lastUpdated": "2020-03-31T17:36:14.103Z",
    "dead": 7,
    "id": "dzCgqYduzyncjNKU9z6G",
    "infected": 264,
    "recovered": 0,
    "sick": 257
  },
  {
    "recovered": 243,
    "latitude": 38.9637,
    "pop": 80810000,
    "longitude": 35.2433,
    "name": "Turkey",
    "country": "TR",
    "lastUpdated": "2020-03-31T17:40:03.815Z",
    "dead": 214,
    "id": "dzIcCaUZlbIXuRw0SyDE",
    "infected": 13531,
    "sick": 13074
  },
  {
    "infected": 10109,
    "recovered": 1095,
    "latitude": 47.516232,
    "pop": 8822000,
    "longitude": 14.550072,
    "name": "Austria",
    "country": "AT",
    "lastUpdated": "2020-03-31T17:40:03.810Z",
    "dead": 128,
    "id": "e3BtI12qbqhE8jypOoZu",
    "sick": 8886
  },
  {
    "id": "e3CJgTO8wVbBQZaxqNze",
    "infected": 4496,
    "recovered": 681,
    "latitude": 52.6367,
    "pop": 7963000,
    "longitude": 9.8451,
    "name": "Niedersachsen",
    "country": "DE",
    "lastUpdated": "2020-03-31T17:38:03.344Z",
    "dead": 46,
    "sick": 3769
  },
  {
    "latitude": 41.097481,
    "pop": 43900000,
    "longitude": 122.310669,
    "name": "Liaoning",
    "country": "CN",
    "lastUpdated": "2020-03-31T17:29:11.223Z",
    "dead": 2,
    "id": "e7P83iImanpd9r36oXK3",
    "infected": 139,
    "recovered": 124,
    "sick": 13
  },
  {
    "latitude": 31.230391,
    "pop": 24240000,
    "longitude": 121.473701,
    "name": "Shanghai",
    "country": "CN",
    "lastUpdated": "2020-03-31T17:29:11.344Z",
    "dead": 5,
    "id": "e9pQqQa7CEblCYoDtfKo",
    "infected": 509,
    "recovered": 341,
    "sick": 163
  },
  {
    "recovered": 0,
    "latitude": 42.407211,
    "pop": 6902000,
    "longitude": -71.382439,
    "name": "Massachusetts",
    "country": "US",
    "lastUpdated": "2020-03-31T17:36:13.944Z",
    "dead": 56,
    "id": "eCKDGssww4pF7NrxOySu",
    "infected": 5752,
    "sick": 5696
  },
  {
    "longitude": 7.432032,
    "name": "Monaco",
    "country": "MC",
    "lastUpdated": "2020-03-31T17:40:04.207Z",
    "dead": 1,
    "id": "eLgKPNUwYM5MNDAtF6ql",
    "infected": 49,
    "recovered": 1,
    "latitude": 43.740451,
    "pop": 38695,
    "sick": 47
  },
  {
    "latitude": 47.2805,
    "pop": 2686000,
    "longitude": 4.9994,
    "name": "Bourgogne-Franche-Comté",
    "country": "FR",
    "lastUpdated": "2020-03-31T17:42:42.013Z",
    "dead": 214,
    "id": "ejrjMKfHexGnK52FS9Aa",
    "infected": 1569,
    "recovered": 675,
    "sick": 680
  },
  {
    "infected": 340,
    "recovered": 22,
    "latitude": 48.0196,
    "pop": 18040000,
    "longitude": 66.9237,
    "name": "Kazakhstan",
    "country": "KZ",
    "lastUpdated": "2020-03-31T17:40:03.872Z",
    "dead": 2,
    "id": "etrmrftkQg6Kbd9seAga",
    "sick": 316
  },
  {
    "infected": 550,
    "recovered": 536,
    "latitude": 30.14208,
    "pop": 81100000,
    "longitude": 102.960701,
    "name": "Sichuan",
    "country": "CN",
    "lastUpdated": "2020-03-31T17:29:11.234Z",
    "dead": 3,
    "id": "eyK5bxFkwdoAouIBvLFM",
    "sick": 11
  },
  {
    "longitude": 55.975414,
    "name": "Oman",
    "country": "OM",
    "lastUpdated": "2020-03-31T17:40:03.791Z",
    "dead": 0,
    "id": "f9kmlhYtc3WA3kjbWszW",
    "infected": 192,
    "recovered": 34,
    "latitude": 21.473534,
    "pop": 4636000,
    "sick": 158
  },
  {
    "infected": 19,
    "recovered": 0,
    "latitude": -0.228021,
    "pop": 81340000,
    "longitude": 15.8276587,
    "name": "Congo",
    "country": "CG",
    "lastUpdated": "2020-03-31T17:40:04.217Z",
    "dead": 0,
    "id": "fEyJ83bQtvcaes8KLhVx",
    "sick": 19
  },
  {
    "lastUpdated": "2020-03-31T17:37:02.326Z",
    "dead": 13,
    "id": "fGqVm2khm3IBRs709S1f",
    "infected": 2084,
    "recovered": 33,
    "latitude": 51.1045,
    "pop": 4081000,
    "longitude": 13.2017,
    "name": "Sachsen",
    "country": "DE",
    "sick": 2038
  },
  {
    "id": "fIp76gl05LhZ0aOxUbhz",
    "infected": 26895,
    "recovered": 0,
    "latitude": 47,
    "longitude": 2,
    "name": "Région non communiquée",
    "country": "FR",
    "dead": 0,
    "lastUpdated": "2020-03-31T07:44:53.599Z",
    "sick": 26895
  },
  {
    "lastUpdated": "2020-03-31T17:40:04.250Z",
    "dead": 0,
    "id": "fJc9CaZGR1OCHaW8Tn4V",
    "infected": 7,
    "recovered": 0,
    "latitude": 15.4542,
    "pop": 14900000,
    "longitude": 18.7322,
    "name": "Chad",
    "country": "TD",
    "sick": 7
  },
  {
    "infected": 274,
    "recovered": 30,
    "latitude": 31.295929,
    "pop": 9702000,
    "longitude": 36.691952,
    "name": "Jordan",
    "country": "JO",
    "lastUpdated": "2020-03-31T17:40:03.790Z",
    "dead": 5,
    "id": "fK06AziL8wyrcoz7rsmJ",
    "sick": 239
  },
  {
    "id": "fNganaGVPifA4QahEQPS",
    "infected": 5705,
    "recovered": 0,
    "latitude": 27.716933,
    "pop": 21300000,
    "longitude": -81.555239,
    "name": "Florida",
    "country": "US",
    "lastUpdated": "2020-03-31T17:36:13.959Z",
    "dead": 77,
    "sick": 5628
  },
  {
    "recovered": 587,
    "latitude": 35.452016,
    "longitude": 139.664285,
    "name": "Diamond Princess (Cruise)",
    "country": "ZZ",
    "dead": 10,
    "lastUpdated": "2020-03-31T07:35:37.601Z",
    "id": "fNnE9CD0SttEVrCUo1Ym",
    "infected": 712,
    "sick": 115
  },
  {
    "latitude": 46.0679,
    "pop": 538223,
    "longitude": 11.1211,
    "name": "P.A. Trento",
    "country": "IT",
    "lastUpdated": "2020-03-31T17:38:09.870Z",
    "dead": 147,
    "id": "fOlU5JggPKOO8jbHh5GD",
    "infected": 1682,
    "recovered": 178,
    "sick": 1357
  },
  {
    "latitude": 52.52,
    "pop": 3748000,
    "longitude": 13.405,
    "name": "Berlin",
    "country": "DE",
    "lastUpdated": "2020-03-31T17:38:03.436Z",
    "dead": 13,
    "id": "ffKhENYKy3bwsyBLiYtE",
    "infected": 2581,
    "recovered": 1055,
    "sick": 1513
  },
  {
    "infected": 67801,
    "recovered": 63153,
    "latitude": 31.160629,
    "pop": 58500000,
    "longitude": 112.255402,
    "name": "Hubei",
    "country": "CN",
    "lastUpdated": "2020-03-31T17:29:11.128Z",
    "dead": 3187,
    "id": "fiJ14DCxw15e3SMemh8R",
    "sick": 1461
  },
  {
    "longitude": 30.5234,
    "name": "Ukraine",
    "country": "UA",
    "lastUpdated": "2020-03-31T17:40:03.847Z",
    "dead": 13,
    "id": "flbZ2kaR5kBuV8XZ2Nsu",
    "infected": 549,
    "recovered": 8,
    "latitude": 50.4501,
    "pop": 42220000,
    "sick": 528
  },
  {
    "infected": 107,
    "recovered": 3,
    "latitude": 41.2044,
    "pop": 6202000,
    "longitude": 74.7661,
    "name": "Kyrgyzstan",
    "country": "KG",
    "lastUpdated": "2020-03-31T17:40:04.318Z",
    "dead": 0,
    "id": "fst48lrFxiMJbQPf4nur",
    "sick": 104
  },
  {
    "latitude": 52.132633,
    "pop": 17180000,
    "longitude": 5.291266,
    "name": "Netherlands",
    "country": "NL",
    "lastUpdated": "2020-03-31T17:40:03.916Z",
    "dead": 1039,
    "id": "g0lRMtEJbucWIGqSPn0I",
    "infected": 12595,
    "recovered": 250,
    "sick": 11306
  },
  {
    "infected": 508,
    "recovered": 0,
    "latitude": 34.69522,
    "pop": 3014000,
    "longitude": -92.288012,
    "name": "Arkansas",
    "country": "US",
    "lastUpdated": "2020-03-31T17:36:13.988Z",
    "dead": 7,
    "id": "gIdgxJZfTl2QOSYEwMAz",
    "sick": 501
  },
  {
    "longitude": -58.9301796,
    "name": "Guyana",
    "country": "GY",
    "lastUpdated": "2020-03-31T17:40:04.229Z",
    "dead": 2,
    "id": "gXd2X2PjmGP0XVwxpWqT",
    "infected": 12,
    "recovered": 0,
    "latitude": 4.8604159,
    "pop": 777859,
    "sick": 10
  },
  {
    "infected": 101,
    "recovered": 0,
    "latitude": 43.9695,
    "pop": 882235,
    "longitude": -99.9018,
    "name": "South Dakota",
    "country": "US",
    "lastUpdated": "2020-03-31T17:36:14.082Z",
    "dead": 1,
    "id": "gYDsNgvuvtbg8t77w6FS",
    "sick": 100
  },
  {
    "recovered": 2,
    "latitude": 35.894231,
    "pop": 493559,
    "longitude": 14.432846,
    "name": "Malta",
    "country": "MT",
    "lastUpdated": "2020-03-31T17:40:03.864Z",
    "dead": 0,
    "id": "h9UqxYZ5xC4JZrmdDz0q",
    "infected": 169,
    "sick": 167
  },
  {
    "id": "hqwsh1rmvkWI3LFUVuMk",
    "infected": 97,
    "recovered": 6,
    "latitude": 28.7041,
    "pop": 18980000,
    "longitude": 77.1025,
    "name": "Delhi",
    "country": "IN",
    "lastUpdated": "2020-03-31T17:41:02.524Z",
    "dead": 2,
    "sick": 89
  },
  {
    "recovered": 125,
    "latitude": 35.751835,
    "pop": 25580000,
    "longitude": 104.28611,
    "name": "Gansu",
    "country": "CN",
    "lastUpdated": "2020-03-31T17:29:11.265Z",
    "dead": 2,
    "id": "iGkTscdD0XyHFSP23Qrp",
    "infected": 138,
    "sick": 11
  },
  {
    "latitude": 34.8021,
    "pop": 18270000,
    "longitude": 38.9968,
    "name": "Syria",
    "country": "SY",
    "lastUpdated": "2020-03-31T17:40:04.249Z",
    "dead": 2,
    "id": "iHf1IZQP3CA3sT2erzyh",
    "infected": 10,
    "recovered": 0,
    "sick": 8
  },
  {
    "infected": 234,
    "recovered": 19,
    "latitude": 10.8505,
    "pop": 34800000,
    "longitude": 76.2711,
    "name": "Kerala",
    "country": "IN",
    "lastUpdated": "2020-03-31T17:41:02.547Z",
    "dead": 1,
    "id": "idymmgoqLHImnBdyC7r7",
    "sick": 214
  },
  {
    "infected": 76,
    "recovered": 19,
    "latitude": 16.265,
    "pop": 395700,
    "longitude": -61.551,
    "name": "Guadeloupe",
    "country": "FR",
    "lastUpdated": "2020-03-31T17:44:06.393Z",
    "dead": 5,
    "id": "j8eMjjqNAqHAJhAKdBYN",
    "sick": 52
  },
  {
    "infected": 3035,
    "recovered": 110,
    "latitude": 50.1183,
    "pop": 4074000,
    "longitude": 7.309,
    "name": "Rheinland-Pfalz",
    "country": "DE",
    "lastUpdated": "2020-03-31T17:38:03.544Z",
    "dead": 25,
    "id": "jKn2pIFlIBScjb47GjRX",
    "sick": 2900
  },
  {
    "infected": 174,
    "recovered": 135,
    "latitude": 39.343357,
    "pop": 15000000,
    "longitude": 117.361649,
    "name": "Tianjin",
    "country": "CN",
    "lastUpdated": "2020-03-31T17:29:11.253Z",
    "dead": 3,
    "id": "jMlHjIOb7eMPSxFBrmG1",
    "sick": 36
  },
  {
    "lastUpdated": "2020-03-31T17:40:04.300Z",
    "dead": 0,
    "id": "jOc8JUDWxCmquh49oZxV",
    "infected": 3,
    "recovered": 0,
    "latitude": 17.1898766,
    "pop": 397000,
    "longitude": -88.4976501,
    "name": "Belize",
    "country": "BZ",
    "sick": 3
  },
  {
    "lastUpdated": "2020-03-31T17:36:14.076Z",
    "dead": 12,
    "id": "jPC0eOG50FWknCDe3K6P",
    "infected": 256,
    "recovered": 0,
    "latitude": 44.5588,
    "pop": 629299,
    "longitude": -72.5778,
    "name": "Vermont",
    "country": "US",
    "sick": 244
  },
  {
    "recovered": 5,
    "latitude": 53.3498,
    "pop": 4830000,
    "longitude": -6.2603,
    "name": "Ireland",
    "country": "IE",
    "lastUpdated": "2020-03-31T17:40:03.734Z",
    "dead": 54,
    "id": "jpVXEDCyfyq26gPoCtHL",
    "infected": 2910,
    "sick": 2851
  },
  {
    "latitude": 64.2823,
    "pop": 35874,
    "longitude": -135,
    "name": "Yukon",
    "country": "CA",
    "lastUpdated": "2020-03-31T17:45:02.530Z",
    "dead": 0,
    "id": "k73gNv36u1SmziUF6mUw",
    "infected": 5,
    "recovered": 0,
    "sick": 5
  },
  {
    "id": "kF99avagXvBfZTHv9ETi",
    "infected": 682,
    "recovered": 32,
    "latitude": 40.078072,
    "pop": 1648000,
    "longitude": 9.283447,
    "name": "Sardegna",
    "country": "IT",
    "lastUpdated": "2020-03-31T17:38:09.963Z",
    "dead": 28,
    "sick": 622
  },
  {
    "infected": 30,
    "recovered": 0,
    "latitude": 11.572076,
    "pop": 956985,
    "longitude": 43.145645,
    "name": "Djibouti",
    "country": "DJ",
    "lastUpdated": "2020-03-31T17:40:04.236Z",
    "dead": 0,
    "id": "l4nYeaqwy2yrEVqnijFj",
    "sick": 30
  },
  {
    "infected": 431,
    "recovered": 0,
    "latitude": 44.0682,
    "pop": 1754000,
    "longitude": -114.742,
    "name": "Idaho",
    "country": "US",
    "lastUpdated": "2020-03-31T17:36:14.019Z",
    "dead": 8,
    "id": "l7fHSKOmcaRX3tq9FCT6",
    "sick": 423
  },
  {
    "lastUpdated": "2020-03-31T17:38:09.892Z",
    "dead": 91,
    "id": "lAKH5Wfg4GhaM54VElFN",
    "infected": 1712,
    "recovered": 36,
    "latitude": 40.816666,
    "pop": 4048000,
    "longitude": 16.549999,
    "name": "Puglia",
    "country": "IT",
    "sick": 1585
  },
  {
    "recovered": 1,
    "latitude": 10.6918,
    "pop": 1369000,
    "longitude": -61.2225,
    "name": "Trinidad and Tobago",
    "country": "TT",
    "lastUpdated": "2020-03-31T17:40:04.311Z",
    "dead": 3,
    "id": "lfLdfRP7hyiA6MVnQqqn",
    "infected": 85,
    "sick": 81
  },
  {
    "latitude": 16.5388,
    "pop": 546388,
    "longitude": -23.0418,
    "name": "Cape Verde",
    "country": "CV",
    "lastUpdated": "2020-03-31T17:40:04.326Z",
    "dead": 1,
    "id": "lgqPuia1S3ApA5Lsl2la",
    "infected": 6,
    "recovered": 0,
    "sick": 5
  },
  {
    "recovered": 73,
    "latitude": 42.524635,
    "pop": 21810000,
    "longitude": 87.539589,
    "name": "Xinjiang",
    "country": "CN",
    "lastUpdated": "2020-03-31T17:29:11.229Z",
    "dead": 3,
    "id": "lhPjpn6CzqTRDN0RW8uE",
    "infected": 76,
    "sick": 0
  },
  {
    "infected": 18,
    "recovered": 13,
    "latitude": 3.2028,
    "pop": 436330,
    "longitude": 73.2207,
    "name": "Maldives",
    "country": "MV",
    "lastUpdated": "2020-03-31T17:40:04.196Z",
    "dead": 0,
    "id": "m45gI2UbWMuTrOnTtp9k",
    "sick": 5
  },
  {
    "longitude": 12.4534,
    "name": "Vatican City",
    "country": "VA",
    "lastUpdated": "2020-03-31T17:40:04.321Z",
    "dead": 0,
    "id": "mF7rVMdVnazAuw8G22xs",
    "infected": 6,
    "recovered": 0,
    "latitude": 41.9029,
    "pop": 1000,
    "sick": 6
  },
  {
    "id": "mJtdLs4ub6CkcAOeMWUm",
    "infected": 216,
    "recovered": 39,
    "latitude": 19.7515,
    "pop": 114200000,
    "longitude": 75.7139,
    "name": "Maharashtra",
    "country": "IN",
    "lastUpdated": "2020-03-31T17:41:02.514Z",
    "dead": 9,
    "sick": 168
  },
  {
    "id": "mSACWVbCy5QE7ciLA93J",
    "infected": 2738,
    "recovered": 156,
    "latitude": -33.4489,
    "pop": 18050000,
    "longitude": -70.6693,
    "name": "Chile",
    "country": "CL",
    "lastUpdated": "2020-03-31T17:40:03.960Z",
    "dead": 12,
    "sick": 2570
  },
  {
    "latitude": -6.369,
    "pop": 57310000,
    "longitude": 34.8888,
    "name": "Tanzania",
    "country": "TZ",
    "lastUpdated": "2020-03-31T17:40:04.197Z",
    "dead": 1,
    "id": "mnew3ojzmWV0dWSPfCQ9",
    "infected": 19,
    "recovered": 1,
    "sick": 17
  },
  {
    "infected": 15,
    "recovered": 0,
    "latitude": 15.1794,
    "pop": 4475000,
    "longitude": 39.7823,
    "name": "Eritrea",
    "country": "ER",
    "lastUpdated": "2020-03-31T17:40:04.232Z",
    "dead": 0,
    "id": "n6OSwOVBdUie3xeZJmOf",
    "sick": 15
  },
  {
    "latitude": 35.693323,
    "pop": 6770000,
    "longitude": -86.605748,
    "name": "Tennessee",
    "country": "US",
    "lastUpdated": "2020-03-31T17:36:14.041Z",
    "dead": 14,
    "id": "nLhJXE2apq8yNNj363ai",
    "infected": 2041,
    "recovered": 0,
    "sick": 2027
  },
  {
    "lastUpdated": "2020-03-31T17:40:04.316Z",
    "dead": 0,
    "id": "nZzFt6liil98URpNfQyX",
    "infected": 9,
    "recovered": 0,
    "latitude": 19.8562698,
    "pop": 7247000,
    "longitude": 102.4954987,
    "name": "Laos",
    "country": "LA",
    "sick": 9
  },
  {
    "infected": 10,
    "recovered": 0,
    "latitude": -4.6796,
    "pop": 95843,
    "longitude": 55.492,
    "name": "Seychelles",
    "country": "SC",
    "lastUpdated": "2020-03-31T17:40:04.273Z",
    "dead": 0,
    "id": "oB5fSyjWJ0FbNAkssuci",
    "sick": 10
  },
  {
    "latitude": 31.893778,
    "pop": 35740000,
    "longitude": -6.196132,
    "name": "Morocco",
    "country": "MA",
    "lastUpdated": "2020-03-31T17:40:03.787Z",
    "dead": 36,
    "id": "oJ5vSDE9vgXC2PG8LElp",
    "infected": 602,
    "recovered": 24,
    "sick": 542
  },
  {
    "infected": 1753,
    "recovered": 628,
    "latitude": 50.4801,
    "pop": 5978000,
    "longitude": 2.7937,
    "name": "Hauts-de-France",
    "country": "FR",
    "lastUpdated": "2020-03-31T17:44:34.094Z",
    "dead": 280,
    "id": "ofWLu9EuQoK2nHjwU1mA",
    "sick": 845
  },
  {
    "lastUpdated": "2020-03-31T17:41:02.570Z",
    "dead": 1,
    "id": "oqLEd2Z9P3FJeQsfIk8e",
    "infected": 3,
    "recovered": 0,
    "latitude": 31.1048,
    "pop": 6856000,
    "longitude": 77.1734,
    "name": "Himachal Pradesh",
    "country": "IN",
    "sick": 2
  },
  {
    "latitude": -20.917574,
    "pop": 5071000,
    "longitude": 142.702789,
    "name": "Queensland",
    "country": "AU",
    "lastUpdated": "2020-03-31T17:42:03.365Z",
    "dead": 2,
    "id": "oxz2l1rJipCsfMfy8Mmk",
    "infected": 743,
    "recovered": 8,
    "sick": 733
  },
  {
    "infected": 484,
    "recovered": 469,
    "latitude": 47.121647,
    "pop": 38310000,
    "longitude": 128.738235,
    "name": "Heilongjiang",
    "country": "CN",
    "lastUpdated": "2020-03-31T17:29:11.327Z",
    "dead": 13,
    "id": "p1aZboN4BtRJe7hPl8cw",
    "sick": 2
  },
  {
    "infected": 990,
    "recovered": 984,
    "latitude": 32.026379,
    "pop": 62000000,
    "longitude": 117.252747,
    "name": "Anhui",
    "country": "CN",
    "lastUpdated": "2020-03-31T17:29:11.322Z",
    "dead": 6,
    "id": "pFhBwPnGGpQ6DLppJ6YS",
    "sick": 0
  },
  {
    "id": "pHrUAOBW5WDdMsVWpEEi",
    "infected": 3,
    "recovered": 1,
    "latitude": 2.046934,
    "pop": 14740000,
    "longitude": 45.318161,
    "name": "Somalia",
    "country": "SO",
    "lastUpdated": "2020-03-31T17:40:04.312Z",
    "dead": 0,
    "sick": 2
  },
  {
    "latitude": 21.2787,
    "pop": 25550000,
    "longitude": 81.8661,
    "name": "Chhattisgarh",
    "country": "IN",
    "lastUpdated": "2020-03-31T17:41:02.488Z",
    "dead": 0,
    "id": "pu6AXEsDnpmmqnhajobN",
    "infected": 8,
    "recovered": 0,
    "sick": 8
  },
  {
    "recovered": 0,
    "latitude": 38.9072,
    "pop": 633427,
    "longitude": -77.0369,
    "name": "Washington, D.C.",
    "country": "US",
    "lastUpdated": "2020-03-31T17:36:14.021Z",
    "dead": 9,
    "id": "q5cfvHprVTraL1yXnhDx",
    "infected": 495,
    "sick": 486
  },
  {
    "longitude": -106.3468,
    "name": "Unknown Canadian province",
    "country": "CA",
    "dead": 0,
    "lastUpdated": "2020-03-30T14:58:07.823Z",
    "id": "qAbgEfrtA8NbQkzMFkEk",
    "infected": 0,
    "recovered": 573,
    "latitude": 56.1304,
    "sick": 0
  },
  {
    "infected": 364,
    "recovered": 1,
    "latitude": -26.190439,
    "pop": 2589000,
    "longitude": 123.325947,
    "name": "Western Australia",
    "country": "AU",
    "lastUpdated": "2020-03-31T17:42:03.465Z",
    "dead": 2,
    "id": "qnQ0dkxAxnDP01YpdZgk",
    "sick": 361
  },
  {
    "infected": 12775,
    "recovered": 1696,
    "latitude": 50.503887,
    "pop": 11400000,
    "longitude": 4.469936,
    "name": "Belgium",
    "country": "BE",
    "lastUpdated": "2020-03-31T17:40:03.788Z",
    "dead": 705,
    "id": "qpAxVz0garcS0gNZxtOw",
    "sick": 10374
  },
  {
    "recovered": 0,
    "latitude": 39,
    "pop": 1806000,
    "longitude": -80.5,
    "name": "West Virginia",
    "country": "US",
    "lastUpdated": "2020-03-31T17:36:13.987Z",
    "dead": 1,
    "id": "qrYN2o4c4gAK3ffF5JIw",
    "infected": 145,
    "sick": 144
  },
  {
    "recovered": 0,
    "latitude": 31,
    "pop": 28700000,
    "longitude": -100,
    "name": "Texas",
    "country": "US",
    "lastUpdated": "2020-03-31T17:36:13.982Z",
    "dead": 49,
    "id": "qsrWiq0qCmIG66hpWojP",
    "infected": 3351,
    "sick": 3302
  },
  {
    "id": "qyX9xXEuKg3co8yKe3Fl",
    "infected": 1927,
    "recovered": 897,
    "latitude": 43.9352,
    "pop": 5059000,
    "longitude": 6.0679,
    "name": "Provence-Alpes-Côte d’Azur",
    "country": "FR",
    "lastUpdated": "2020-03-31T17:48:03.861Z",
    "dead": 103,
    "sick": 927
  },
  {
    "id": "qzuktS0qQVU4PEookjss",
    "infected": 4025,
    "recovered": 0,
    "latitude": 30.9843,
    "pop": 4660000,
    "longitude": -91.9623,
    "name": "Louisiana",
    "country": "US",
    "lastUpdated": "2020-03-31T17:36:14.062Z",
    "dead": 185,
    "sick": 3840
  },
  {
    "lastUpdated": "2020-03-31T17:41:02.557Z",
    "dead": 0,
    "id": "r54PtV0VHsIOc0YPTyhd",
    "infected": 1,
    "recovered": 0,
    "latitude": 23.1645,
    "pop": 1116000,
    "longitude": 92.9376,
    "name": "Mizoram",
    "country": "IN",
    "sick": 1
  },
  {
    "infected": 50,
    "recovered": 1,
    "latitude": 12.5211,
    "pop": 105264,
    "longitude": -69.9683,
    "name": "Aruba",
    "country": "AW",
    "lastUpdated": "2020-03-31T17:40:04.303Z",
    "dead": 0,
    "id": "rKbrli0DkAmp1UpbrqHQ",
    "sick": 49
  },
  {
    "lastUpdated": "2020-03-31T17:40:03.823Z",
    "dead": 0,
    "id": "rKnSEyG03ak4YmGzonlg",
    "infected": 207,
    "recovered": 58,
    "latitude": 14.058324,
    "pop": 95540000,
    "longitude": 108.277199,
    "name": "Vietnam",
    "country": "VN",
    "sick": 149
  },
  {
    "latitude": 1.6508009,
    "pop": 1268000,
    "longitude": 10.2678947,
    "name": "Equatorial Guinea",
    "country": "GQ",
    "lastUpdated": "2020-03-31T17:40:04.254Z",
    "dead": 0,
    "id": "rS04qvFoAknfeZsL2w5f",
    "infected": 12,
    "recovered": 1,
    "sick": 11
  },
  {
    "lastUpdated": "2020-03-31T17:45:30.342Z",
    "dead": 0,
    "id": "rUQ6Z3pmWTPVlqEUSmN7",
    "infected": 35,
    "recovered": 0,
    "latitude": -12.8275,
    "pop": 270372,
    "longitude": 45.1662,
    "name": "Mayotte",
    "country": "FR",
    "sick": 35
  },
  {
    "latitude": 29.159849,
    "pop": 57370000,
    "longitude": 120.326447,
    "name": "Zhejiang",
    "country": "CN",
    "lastUpdated": "2020-03-31T17:29:11.258Z",
    "dead": 1,
    "id": "rgBVJ4hPofqjjchnroiY",
    "infected": 1257,
    "recovered": 1226,
    "sick": 30
  },
  {
    "infected": 584,
    "recovered": 16,
    "latitude": 45.734955,
    "pop": 126202,
    "longitude": 7.313076,
    "name": "Valle d'Aosta",
    "country": "IT",
    "lastUpdated": "2020-03-31T17:38:09.882Z",
    "dead": 50,
    "id": "rqbHQdev461heM0vyE9L",
    "sick": 518
  },
  {
    "id": "rxSafpWsyKhfkV0HTtb4",
    "infected": 4605,
    "recovered": 13,
    "latitude": 60.472023,
    "pop": 5368000,
    "longitude": 8.468946,
    "name": "Norway",
    "country": "NO",
    "lastUpdated": "2020-03-31T17:40:03.841Z",
    "dead": 39,
    "sick": 4553
  },
  {
    "recovered": 0,
    "latitude": 53.9333,
    "pop": 4371000,
    "longitude": -116.5765,
    "name": "Alberta",
    "country": "CA",
    "lastUpdated": "2020-03-31T17:45:02.519Z",
    "dead": 8,
    "id": "sBFMOzZJdrdXdyLZpweO",
    "infected": 690,
    "sick": 682
  },
  {
    "longitude": 109.949684,
    "name": "Hainan",
    "country": "CN",
    "lastUpdated": "2020-03-31T17:29:11.321Z",
    "dead": 6,
    "id": "sKNhMvgXeyivpNFg02RA",
    "infected": 168,
    "recovered": 162,
    "latitude": 19.566395,
    "pop": 9258000,
    "sick": 0
  },
  {
    "recovered": 53,
    "latitude": -10.33755,
    "pop": 32170000,
    "longitude": -75.630295,
    "name": "Peru",
    "country": "PE",
    "lastUpdated": "2020-03-31T17:40:03.945Z",
    "dead": 24,
    "id": "sLL1jETcJYjT6g5bfcEG",
    "infected": 950,
    "sick": 873
  },
  {
    "infected": 321,
    "recovered": 310,
    "latitude": 37.89566,
    "pop": 74700000,
    "longitude": 114.904221,
    "name": "Hebei",
    "country": "CN",
    "lastUpdated": "2020-03-31T17:29:11.240Z",
    "dead": 6,
    "id": "sgsBhTwHxF1VVnqXbXXp",
    "sick": 5
  },
  {
    "id": "sjW9OwjFqrOvjVHRXWoR",
    "infected": 110,
    "recovered": 21,
    "latitude": 42.3154,
    "pop": 3717000,
    "longitude": 43.3569,
    "name": "Georgia",
    "country": "GE",
    "lastUpdated": "2020-03-31T17:40:04.307Z",
    "dead": 0,
    "sick": 89
  },
  {
    "id": "t2fq7L9UcXfhuXfQNVRj",
    "infected": 65,
    "recovered": 1,
    "latitude": -23.4425,
    "pop": 6811000,
    "longitude": -58.4438,
    "name": "Paraguay",
    "country": "PY",
    "lastUpdated": "2020-03-31T17:40:04.187Z",
    "dead": 3,
    "sick": 61
  },
  {
    "recovered": 0,
    "latitude": 39.147061,
    "pop": 3161000,
    "longitude": -111.596466,
    "name": "Utah",
    "country": "US",
    "lastUpdated": "2020-03-31T17:36:13.927Z",
    "dead": 4,
    "id": "tSmr8vNsiDhhpXMSBsms",
    "infected": 806,
    "sick": 802
  },
  {
    "infected": 1018,
    "recovered": 1014,
    "latitude": 27.3818,
    "pop": 67370000,
    "longitude": 111.510681,
    "name": "Hunan",
    "country": "CN",
    "lastUpdated": "2020-03-31T17:29:11.227Z",
    "dead": 4,
    "id": "tdNRDDrgvBQqqwzdFGh4",
    "sick": 0
  },
  {
    "infected": 147,
    "recovered": 144,
    "latitude": 26.842964,
    "pop": 34750000,
    "longitude": 107.290283,
    "name": "Guizhou",
    "country": "CN",
    "lastUpdated": "2020-03-31T17:29:11.250Z",
    "dead": 2,
    "id": "tyY4QSHWG9sXqSO9jm0Y",
    "sick": 1
  },
  {
    "longitude": 57.6755,
    "name": "Mauritius",
    "country": "MU",
    "lastUpdated": "2020-03-31T17:40:03.793Z",
    "dead": 4,
    "id": "uZg9Xtu4zR5tp12TMpOQ",
    "infected": 143,
    "recovered": 0,
    "latitude": -20.2067,
    "pop": 1265000,
    "sick": 139
  },
  {
    "infected": 40,
    "recovered": 21,
    "latitude": 29.0588,
    "pop": 25350000,
    "longitude": 76.0856,
    "name": "Haryana",
    "country": "IN",
    "lastUpdated": "2020-03-31T17:41:02.536Z",
    "dead": 0,
    "id": "ubUuY89n0cXVgahI4Ytp",
    "sick": 19
  },
  {
    "latitude": 41.6667,
    "pop": 308493,
    "longitude": 14.5,
    "name": "Molise",
    "country": "IT",
    "lastUpdated": "2020-03-31T17:38:09.879Z",
    "dead": 9,
    "id": "ueDdQxnY3NvbnoCcPaDH",
    "infected": 134,
    "recovered": 18,
    "sick": 107
  },
  {
    "longitude": 119.151932,
    "name": "Jiangsu",
    "country": "CN",
    "lastUpdated": "2020-03-31T17:29:11.244Z",
    "dead": 0,
    "id": "uvxN28EpGmRq3K9REtBP",
    "infected": 646,
    "recovered": 631,
    "latitude": 32.93708,
    "pop": 80400000,
    "sick": 15
  },
  {
    "lastUpdated": "2020-03-31T17:37:02.331Z",
    "dead": 7,
    "id": "uxAceZxiizwmo60pyyGn",
    "infected": 752,
    "recovered": 22,
    "latitude": 51.9503,
    "pop": 2277000,
    "longitude": 11.6923,
    "name": "Sachsen-Anhalt",
    "country": "DE",
    "sick": 723
  },
  {
    "recovered": 2,
    "latitude": 33.7782,
    "pop": 12550000,
    "longitude": 76.5762,
    "name": "Jammu and Kashmir",
    "country": "IN",
    "lastUpdated": "2020-03-31T17:41:02.555Z",
    "dead": 2,
    "id": "v5wfBhxjYTpTMaKko6AW",
    "infected": 54,
    "sick": 50
  },
  {
    "infected": 656,
    "recovered": 150,
    "latitude": 26.820553,
    "pop": 97550000,
    "longitude": 30.802498,
    "name": "Egypt",
    "country": "EG",
    "lastUpdated": "2020-03-31T17:40:03.826Z",
    "dead": 41,
    "id": "v8JcH4FHH7BDpJlNNHjv",
    "sick": 465
  },
  {
    "infected": 5212,
    "recovered": 0,
    "latitude": 47.288374,
    "pop": 7536000,
    "longitude": -119.928431,
    "name": "Washington",
    "country": "US",
    "lastUpdated": "2020-03-31T17:36:14.064Z",
    "dead": 220,
    "id": "vCUVQn7RK8pkw5y2rvYN",
    "sick": 4992
  },
  {
    "lastUpdated": "2020-03-31T17:40:04.191Z",
    "dead": 1,
    "id": "vMGALmMJbagxGIbLyFfS",
    "infected": 36,
    "recovered": 2,
    "latitude": 18.1096,
    "pop": 2890000,
    "longitude": -77.2975,
    "name": "Jamaica",
    "country": "JM",
    "sick": 33
  },
  {
    "longitude": -86.9023,
    "name": "Alabama",
    "country": "US",
    "lastUpdated": "2020-03-31T17:36:14.014Z",
    "dead": 15,
    "id": "vSMJR4m49MZM15umlC9B",
    "infected": 949,
    "recovered": 0,
    "latitude": 32.3182,
    "pop": 4888000,
    "sick": 934
  },
  {
    "lastUpdated": "2020-03-31T17:44:47.461Z",
    "dead": 1176,
    "id": "vSwFXxTSLgzsG25zOJUy",
    "infected": 7660,
    "recovered": 2907,
    "latitude": 48.8499,
    "pop": 12210000,
    "longitude": 2.637,
    "name": "Ile-de-France",
    "country": "FR",
    "sick": 3577
  },
  {
    "infected": 18,
    "recovered": 0,
    "latitude": 46.5107,
    "pop": 156947,
    "longitude": -63.4168,
    "name": "Prince Edward Island",
    "country": "CA",
    "lastUpdated": "2020-03-31T17:45:02.515Z",
    "dead": 0,
    "id": "vjK6292ALJl5wq8XHw3P",
    "sick": 18
  },
  {
    "infected": 44605,
    "recovered": 14656,
    "latitude": 32.42791,
    "pop": 81160000,
    "longitude": 53.688046,
    "name": "Iran",
    "country": "IR",
    "lastUpdated": "2020-03-31T17:40:03.757Z",
    "dead": 2898,
    "id": "vkkXVaqUswO5JsMZx0mX",
    "sick": 27051
  },
  {
    "infected": 96,
    "recovered": 0,
    "latitude": 53.7609,
    "pop": 1369000,
    "longitude": -98.8139,
    "name": "Manitoba",
    "country": "CA",
    "lastUpdated": "2020-03-31T17:45:02.427Z",
    "dead": 1,
    "id": "wCnlOr8oX3DlF0otQrFc",
    "sick": 95
  },