[
  {
    "lastUpdated": "2020-07-07T23:00:08.172Z",
    "recovered": 21,
    "infected": 28,
    "id": "01b09TY4vmuZwzVuiRFK",
    "pop": 72600,
    "country": "CO",
    "longitude": -81.7006,
    "name": "San Andrés",
    "latitude": 12.5847,
    "dead": 0,
    "sick": 7,
    "invisible": false
  },
  {
    "id": "0FOJefeLxQYXQ1CnJm9o",
    "pop": 63196,
    "country": "GG",
    "longitude": -2.5895,
    "name": "Guernsey",
    "alwaysShow": false,
    "latitude": 49.4482,
    "dead": 13,
    "lastUpdated": "2020-07-07T23:26:11.983Z",
    "recovered": 238,
    "infected": 252,
    "sick": 1,
    "invisible": false
  },
  {
    "lastUpdated": "2020-07-07T23:01:01.614Z",
    "recovered": 4089,
    "infected": 4747,
    "state": "72",
    "id": "0GJcws44NSPsDHAuxJhW",
    "pop": 5827000,
    "country": "IT",
    "longitude": 14.333333,
    "name": "Campania",
    "latitude": 41.066666,
    "dead": 432,
    "sick": 226,
    "invisible": false
  },
  {
    "longitude": -70.14222,
    "name": "Tarapacá",
    "latitude": -20.2167,
    "dead": 102,
    "lastUpdated": "2020-07-07T23:21:04.964Z",
    "recovered": 0,
    "infected": 6705,
    "id": "0HDQbiHe462xMCUV5HiI",
    "pop": 383870,
    "country": "CL",
    "sick": 6603,
    "invisible": false
  },
  {
    "latitude": 20.9517,
    "dead": 54,
    "lastUpdated": "2020-07-07T23:11:01.184Z",
    "recovered": 6703,
    "infected": 10097,
    "id": "0VG7S6aaK4eSo59fL9JO",
    "pop": 45990000,
    "country": "IN",
    "longitude": 85.0985,
    "name": "Odisha",
    "sick": 3340,
    "invisible": false
  },
  {
    "latitude": 20.4737,
    "dead": 728,
    "lastUpdated": "2020-07-07T23:02:10.127Z",
    "recovered": 0,
    "infected": 4349,
    "id": "0XmCRqiK2ZaehoEJvfer",
    "pop": 2990300,
    "country": "MX",
    "longitude": -98.8582,
    "name": "Hidalgo",
    "sick": 3621,
    "invisible": false
  },
  {
    "recovered": 74,
    "infected": 147,
    "id": "0jStOpTUNRaQYJqgmRoK",
    "pop": 427246,
    "country": "IN",
    "longitude": 92.6586,
    "name": "Andaman and Nicobar Islands",
    "latitude": 11.7401,
    "dead": 0,
    "lastUpdated": "2020-07-07T23:11:01.185Z",
    "sick": 73,
    "invisible": false
  },
  {
    "lastUpdated": "2020-07-07T23:16:03.186Z",
    "recovered": 94903,
    "infected": 100945,
    "id": "0m4aECS0Z2DGFEr8ldgI",
    "pop": 2639000,
    "country": "QA",
    "longitude": 51.145517,
    "name": "Qatar",
    "latitude": 25.315058,
    "dead": 134,
    "sick": 5908,
    "invisible": false
  },
  {
    "recovered": 15790,
    "infected": 23837,
    "id": "0n54EMSDJcRoT1QEvw80",
    "pop": 90320000,
    "country": "IN",
    "longitude": 87.855,
    "name": "West Bengal",
    "latitude": 22.9868,
    "dead": 804,
    "lastUpdated": "2020-07-07T23:11:01.183Z",
    "sick": 7243,
    "invisible": false
  },
  {
    "lastUpdated": "2020-07-07T23:11:01.183Z",
    "recovered": 11768,
    "infected": 15627,
    "id": "0s18o5DrDAHjbu5MFcrj",
    "pop": 73340000,
    "country": "IN",
    "longitude": 78.6569,
    "name": "Madhya Pradesh",
    "latitude": 22.9734,
    "dead": 622,
    "sick": 3237,
    "invisible": false
  },
  {
    "recovered": 1348472,
    "infected": 0,
    "id": "0tFoopNTs6e4tOoaltu2",
    "country": "US",
    "longitude": -95.7129,
    "invisible": true,
    "name": "Unknown US state",
    "latitude": 37.0902,
    "dead": 0,
    "lastUpdated": "2020-07-07T23:16:03.183Z",
    "sick": 0
  },
  {
    "country": "CN",
    "longitude": 108.472214,
    "name": "Shaanxi",
    "latitude": 35.64249,
    "dead": 3,
    "lastUpdated": "2020-07-07T23:08:10.475Z",
    "recovered": 313,
    "infected": 321,
    "id": "0x2HLhr5z5xAtEdO4iZm",
    "pop": 37330000,
    "sick": 5,
    "invisible": false
  },
  {
    "name": "North Macedonia",
    "latitude": 41.643351,
    "dead": 351,
    "lastUpdated": "2020-07-07T23:16:03.192Z",
    "recovered": 3324,
    "infected": 7244,
    "id": "19MvIhipqTyYv1H37Upw",
    "pop": 2077000,
    "country": "MK",
    "longitude": 21.668393,
    "sick": 3569,
    "invisible": false
  },
  {
    "recovered": 0,
    "infected": 261,
    "state": "NL",
    "id": "1DOMOmCWDtva46OVSZLv",
    "pop": 521542,
    "country": "CA",
    "longitude": -57.6604,
    "name": "Newfoundland and Labrador",
    "latitude": 53.1355,
    "dead": 3,
    "lastUpdated": "2020-07-07T23:10:03.062Z",
    "sick": 258,
    "invisible": false
  },
  {
    "name": "Qinghai",
    "latitude": 35.801933,
    "dead": 0,
    "lastUpdated": "2020-07-07T23:08:10.477Z",
    "recovered": 18,
    "infected": 18,
    "id": "1Fap7rZu9SIRqf5TG9Dg",
    "pop": 5627000,
    "country": "CN",
    "longitude": 96.779286,
    "sick": 0,
    "invisible": false
  },
  {
    "lastUpdated": "2020-07-07T23:16:03.185Z",
    "recovered": 159657,
    "infected": 0,
    "id": "1YXQMlVL3fUeDZmcVfJw",
    "pop": 126200000,
    "country": "MX",
    "longitude": -102.5528,
    "invisible": true,
    "name": "Unknown Mexico state",
    "latitude": 23.6345,
    "dead": 0,
    "sick": 0
  },
  {
    "lastUpdated": "2020-07-07T23:00:07.858Z",
    "recovered": 2322,
    "infected": 4202,
    "id": "1at5nIap9H51v32otlQl",
    "pop": 1960000,
    "country": "RU",
    "longitude": 73.3167,
    "name": "Omsk Oblast",
    "latitude": 55.0555,
    "dead": 37,
    "sick": 1843,
    "invisible": false
  },
  {
    "recovered": 26154,
    "infected": 31434,
    "state": "21",
    "id": "1eTSQyfp8RoDPeFrIwun",
    "pop": 4376000,
    "country": "IT",
    "longitude": 8.206944,
    "name": "Piemonte",
    "latitude": 44.9,
    "dead": 4107,
    "lastUpdated": "2020-07-07T23:01:01.615Z",
    "sick": 1173,
    "invisible": false
  },
  {
    "longitude": 15.461,
    "name": "Lubuskie",
    "latitude": 51.993,
    "dead": 0,
    "lastUpdated": "2020-07-07T23:03:01.406Z",
    "recovered": 0,
    "infected": 152,
    "id": "1j1OurxLTpZYuWIWwQ9F",
    "pop": 1003000,
    "country": "PL",
    "sick": 152,
    "invisible": false
  },
  {
    "latitude": 47.4116,
    "dead": 603,
    "lastUpdated": "2020-07-07T23:16:03.190Z",
    "recovered": 11241,
    "infected": 18141,
    "id": "1qTPB8X3tyLyIdsb5TN3",
    "pop": 3550000,
    "country": "MD",
    "longitude": 28.3699,
    "name": "Moldova",
    "sick": 6297,
    "invisible": false
  },
  {
    "longitude": -95.7129,
    "invisible": true,
    "name": "Federal Bureau of Prisons",
    "latitude": 37.0902,
    "dead": 95,
    "lastUpdated": "2020-07-07T23:17:01.552Z",
    "recovered": 0,
    "infected": 8198,
    "id": "22PJOAThcDFKgSbyQIkD",
    "country": "US",
    "sick": 8103
  },
  {
    "lastUpdated": "2020-07-07T23:08:10.477Z",
    "recovered": 1,
    "infected": 1,
    "id": "25qIBtsW2nfQj3pwBKg9",
    "pop": 3180000,
    "country": "CN",
    "longitude": 88.787865,
    "name": "Tibet",
    "latitude": 30.15336,
    "dead": 0,
    "sick": 0,
    "invisible": false
  },
  {
    "id": "2KHYUb5t3lwzVVmDjwNX",
    "pop": 264000000,
    "country": "ID",
    "longitude": 115.66779,
    "name": "Indonesia",
    "latitude": -1.572184,
    "dead": 3309,
    "lastUpdated": "2020-07-07T23:16:03.186Z",
    "recovered": 30785,
    "infected": 66226,
    "sick": 32132,
    "invisible": false
  },
  {
    "longitude": -120.585594,
    "name": "Oregon",
    "latitude": 43.807191,
    "dead": 220,
    "lastUpdated": "2020-07-07T23:17:01.551Z",
    "recovered": 0,
    "infected": 10605,
    "state": "OR",
    "id": "2OrsssmGUs4XCzaZzvTv",
    "pop": 4191000,
    "country": "US",
    "sick": 10385,
    "invisible": false
  },
  {
    "country": "CL",
    "longitude": -70.400002,
    "name": "Antofagasta",
    "latitude": -23.65,
    "dead": 183,
    "lastUpdated": "2020-07-07T23:21:04.967Z",
    "recovered": 0,
    "infected": 10594,
    "id": "2c5HBZ1ffkCVXnMYUWnY",
    "pop": 425000,
    "sick": 10411,
    "invisible": false
  },
  {
    "longitude": -51.070534,
    "name": "Amapá",
    "latitude": 0.035574,
    "dead": 455,
    "lastUpdated": "2020-07-07T23:15:01.299Z",
    "recovered": 0,
    "infected": 30294,
    "state": "AP",
    "id": "2dzhyWsBSPpENWlNew0b",
    "pop": 9029000,
    "country": "BR",
    "sick": 29839,
    "invisible": false
  },
  {
    "lastUpdated": "2020-07-07T23:08:10.477Z",
    "recovered": 153,
    "infected": 155,
    "id": "2jxHvSsxdnom0nPNvOT8",
    "pop": 27460000,
    "country": "CN",
    "longitude": 126.548103,
    "name": "Jilin",
    "latitude": 43.851921,
    "dead": 2,
    "sick": 0,
    "invisible": false
  },
  {
    "latitude": 36.1408,
    "dead": 0,
    "lastUpdated": "2020-07-07T23:16:03.201Z",
    "recovered": 176,
    "infected": 179,
    "id": "2p11BjSAs3wVyymgqBOe",
    "pop": 34571,
    "country": "GI",
    "longitude": -5.3536,
    "name": "Gibraltar",
    "sick": 3,
    "invisible": false
  },
  {
    "longitude": 1.6751,
    "name": "Centre-Val de Loire",
    "latitude": 47.7516,
    "dead": 548,
    "lastUpdated": "2020-07-06T23:50:19.707Z",
    "recovered": 1972,
    "infected": 4512,
    "id": "2sLNkkHpyaHx7dD3aMDO",
    "pop": 2567000,
    "country": "FR",
    "sick": 1992,
    "invisible": false
  },
  {
    "longitude": 12.643751,
    "name": "Umbria",
    "latitude": 42.565044,
    "dead": 80,
    "lastUpdated": "2020-07-07T23:01:01.616Z",
    "recovered": 1359,
    "infected": 1447,
    "state": "55",
    "id": "319tiZOMczx1y0DfvOib",
    "pop": 884640,
    "country": "IT",
    "sick": 8,
    "invisible": false
  },
  {
    "recovered": 184,
    "infected": 544,
    "id": "38T96Q3XNjt5FSJygPed",
    "pop": 1355000,
    "country": "CO",
    "longitude": -76.6131592,
    "name": "Cauca",
    "latitude": 2.43823,
    "dead": 20,
    "lastUpdated": "2020-07-07T23:00:08.172Z",
    "sick": 340,
    "invisible": false
  },
  {
    "lastUpdated": "2020-07-07T23:16:03.195Z",
    "recovered": 1348,
    "infected": 1895,
    "id": "3IlPjAbP5qVMn1nlgLTJ",
    "pop": 17090000,
    "country": "ZM",
    "longitude": 27.849332,
    "name": "Zambia",
    "latitude": -13.133896,
    "dead": 42,
    "sick": 505,
    "invisible": false
  },
  {
    "longitude": 19.3958,
    "name": "Montenegro",
    "latitude": 42.7044,
    "dead": 17,
    "lastUpdated": "2020-07-07T23:16:03.197Z",
    "recovered": 320,
    "infected": 907,
    "id": "3LstMSN5XMYBkxbe5HN7",
    "pop": 631219,
    "country": "ME",
    "sick": 570,
    "invisible": false
  },
  {
    "state": "ACT",
    "id": "3OZoQsKrzxZ18EKyfGE6",
    "pop": 418440,
    "country": "AU",
    "longitude": 149.0124,
    "name": "Australian Capital Territory",
    "latitude": -35.4735,
    "dead": 3,
    "lastUpdated": "2020-07-07T23:13:25.890Z",
    "recovered": 105,
    "infected": 108,
    "sick": 0,
    "invisible": false
  },
  {
    "name": "Yaroslavl Oblast",
    "latitude": 57.8992,
    "dead": 22,
    "lastUpdated": "2020-07-07T23:00:07.858Z",
    "recovered": 3920,
    "infected": 5069,
    "id": "3PfzjWjvOkfgxc672BHQ",
    "pop": 608000,
    "country": "RU",
    "longitude": 38.8389,
    "sick": 1127,
    "invisible": false
  },
  {
    "lastUpdated": "2020-07-07T23:00:07.857Z",
    "recovered": 1915,
    "infected": 5156,
    "id": "3PpqgIUJAtzxo1j7z56i",
    "pop": 321000,
    "country": "RU",
    "longitude": 95.626,
    "name": "Tuva",
    "latitude": 51.8873,
    "dead": 19,
    "sick": 3222,
    "invisible": false
  },
  {
    "latitude": 26.2006,
    "dead": 16,
    "lastUpdated": "2020-07-07T23:11:01.184Z",
    "recovered": 8330,
    "infected": 13337,
    "id": "3cCbnJCsK7mKlTO08K1o",
    "pop": 30940000,
    "country": "IN",
    "longitude": 92.9376,
    "name": "Assam",
    "sick": 4991,
    "invisible": false
  },
  {
    "country": "US",
    "longitude": -82.9071,
    "name": "Ohio",
    "latitude": 40.4173,
    "dead": 2979,
    "lastUpdated": "2020-07-07T23:17:01.549Z",
    "recovered": 0,
    "infected": 58933,
    "state": "OH",
    "id": "3fC3bAyIRUquOQOEnQNe",
    "pop": 11690000,
    "sick": 55954,
    "invisible": false
  },
  {
    "recovered": 0,
    "infected": 9199,
    "id": "3kFCzJguabtBvXaHxgiu",
    "pop": 3066400,
    "country": "MX",
    "longitude": -107.5,
    "name": "Sinaloa",
    "latitude": 25,
    "dead": 1445,
    "lastUpdated": "2020-07-07T23:02:10.125Z",
    "sick": 7754,
    "invisible": false
  },
  {
    "latitude": 3.420556,
    "dead": 365,
    "lastUpdated": "2020-07-07T23:00:08.169Z",
    "recovered": 4483,
    "infected": 10519,
    "id": "3mC2LveOpXV8P1PmQGUj",
    "pop": 4708300,
    "country": "CO",
    "longitude": -76.522224,
    "name": "Valle del Cauca",
    "sick": 5671,
    "invisible": false
  },
  {
    "id": "4NnFMekRK2m14IlnZZoj",
    "pop": 4420000,
    "country": "MR",
    "longitude": -10.9408,
    "name": "Mauritania",
    "latitude": 21.0079,
    "dead": 135,
    "lastUpdated": "2020-07-07T23:16:03.192Z",
    "recovered": 1944,
    "infected": 5024,
    "sick": 2945,
    "invisible": false
  },
  {
    "longitude": -127.6476,
    "name": "British Columbia",
    "latitude": 53.7267,
    "dead": 183,
    "lastUpdated": "2020-07-07T23:10:03.061Z",
    "recovered": 0,
    "infected": 2978,
    "state": "BC",
    "id": "4hfZRUoUgI4a3vrG0GBk",
    "pop": 5071000,
    "country": "CA",
    "sick": 2795,
    "invisible": false
  },
  {
    "lastUpdated": "2020-07-07T23:15:01.294Z",
    "recovered": 0,
    "infected": 124086,
    "state": "RJ",
    "id": "4kq0z3kh5zt3YAUWxvtE",
    "pop": 17159960,
    "country": "BR",
    "longitude": -43.196388,
    "name": "Rio de Janeiro",
    "latitude": -22.908333,
    "dead": 10881,
    "sick": 113205,
    "invisible": false
  },
  {
    "name": "Bahia",
    "latitude": -11.409874,
    "dead": 2216,
    "lastUpdated": "2020-07-07T23:15:01.295Z",
    "recovered": 0,
    "infected": 91954,
    "state": "BA",
    "id": "4yDbkEyqsNzZJjfrciYV",
    "pop": 14812617,
    "country": "BR",
    "longitude": -41.280857,
    "sick": 89738,
    "invisible": false
  },
  {
    "lastUpdated": "2020-07-07T23:16:03.189Z",
    "recovered": 12635,
    "infected": 21374,
    "id": "4zqzRm2xHn0CDVOUQJ8p",
    "pop": 9898000,
    "country": "AZ",
    "longitude": 47.93802,
    "name": "Azerbaijan",
    "latitude": 40.3426,
    "dead": 265,
    "sick": 8474,
    "invisible": false
  },
  {
    "latitude": 22.233105,
    "dead": 558,
    "lastUpdated": "2020-07-07T23:02:10.127Z",
    "recovered": 0,
    "infected": 8492,
    "id": "54cfsdsRF76XVHWtZs19",
    "pop": 3672300,
    "country": "MX",
    "longitude": -97.861099,
    "name": "Tamaulipas",
    "sick": 7934,
    "invisible": false
  },
  {
    "longitude": 3.7265,
    "name": "Flanders",
    "latitude": 51.0109,
    "dead": 4902,
    "lastUpdated": "2020-07-07T23:07:12.045Z",
    "recovered": 9406,
    "infected": 34809,
    "state": "VLG",
    "id": "57ydD48mLRD2YoyteJZj",
    "pop": 6596000,
    "country": "BE",
    "sick": 20501,
    "invisible": false
  },
  {
    "id": "5MHegCUO9L3LiAU7DDey",
    "pop": 395361,
    "country": "BS",
    "longitude": -78.035889,
    "name": "Bahamas",
    "latitude": 25.025885,
    "dead": 11,
    "lastUpdated": "2020-07-07T23:16:03.202Z",
    "recovered": 89,
    "infected": 104,
    "sick": 4,
    "invisible": false
  },
  {
    "recovered": 2987,
    "infected": 3433,
    "state": "NSW",
    "id": "5N16a2OXXRpsEFanw0TC",
    "pop": 7544000,
    "country": "AU",
    "longitude": 146.921097,
    "name": "New South Wales",
    "latitude": -31.253218,
    "dead": 49,
    "lastUpdated": "2020-07-07T23:13:25.896Z",
    "sick": 397,
    "invisible": false
  },
  {
    "name": "South Sudan",
    "latitude": 6.8769908,
    "dead": 38,
    "lastUpdated": "2020-07-07T23:16:03.195Z",
    "recovered": 333,
    "infected": 2021,
    "id": "5N4PRxsCDzzwk7R200V1",
    "pop": 12580000,
    "country": "SS",
    "longitude": 31.3069782,
    "sick": 1650,
    "invisible": false
  },
  {
    "lastUpdated": "2020-07-07T23:17:57.650Z",
    "recovered": 9970,
    "infected": 15495,
    "state": "VC",
    "id": "5Va9A7CXR8AXdUz4HTJj",
    "pop": 4975000,
    "country": "ES",
    "longitude": -0.7533,
    "name": "C. Valenciana",
    "latitude": 39.484,
    "dead": 1432,
    "sick": 4093,
    "invisible": false
  },
  {
    "name": "New Caledonia",
    "latitude": -20.9043045,
    "dead": 0,
    "lastUpdated": "2020-07-07T23:16:03.204Z",
    "recovered": 21,
    "infected": 21,
    "id": "5fg04eyDwFw3kEXnrxez",
    "pop": 280460,
    "country": "NC",
    "longitude": 165.618042,
    "sick": 0,
    "invisible": false
  },
  {
    "latitude": 28.394857,
    "dead": 35,
    "lastUpdated": "2020-07-07T23:16:03.190Z",
    "recovered": 7499,
    "infected": 16168,
    "id": "5gXZIjRgAvd6xWN1LOv8",
    "pop": 29300000,
    "country": "NP",
    "longitude": 84.124008,
    "name": "Nepal",
    "sick": 8634,
    "invisible": false
  },
  {
    "recovered": 12386,
    "infected": 47873,
    "id": "5pwmh7aSdGRKqRbnuyc0",
    "pop": 104900000,
    "country": "PH",
    "longitude": 121.774017,
    "name": "Philippines",
    "latitude": 12.879721,
    "dead": 1309,
    "lastUpdated": "2020-07-07T23:16:03.187Z",
    "sick": 34178,
    "invisible": false
  },
  {
    "longitude": 31.053028,
    "name": "Zimbabwe",
    "latitude": -17.824858,
    "dead": 9,
    "lastUpdated": "2020-07-07T23:16:03.199Z",
    "recovered": 197,
    "infected": 734,
    "id": "5qtR9nx4BLwu1ODTniaY",
    "pop": 14802190,
    "country": "ZW",
    "sick": 528,
    "invisible": false
  },
  {
    "pop": 356890,
    "country": "US",
    "lastUpdated": "2020-07-07T23:17:01.552Z",
    "state": "NA",
    "id": "5vkKgxTaKq1IH0Go357L",
    "longitude": -109.188,
    "invisible": false,
    "name": "Navajo Nation",
    "dead": 378,
    "latitude": 36.0672,
    "infected": 7914,
    "recovered": 0,
    "sick": 7536
  },
  {
    "recovered": 0,
    "infected": 52658,
    "id": "61E7TGjUwAo9xu6Y6gAH",
    "pop": 8781300,
    "country": "MX",
    "longitude": -99.177254,
    "name": "Ciudad de México",
    "latitude": 19.432241,
    "dead": 7053,
    "lastUpdated": "2020-07-07T23:02:10.126Z",
    "sick": 45605,
    "invisible": false
  },
  {
    "latitude": 54.3873,
    "dead": 48,
    "lastUpdated": "2020-07-07T23:00:07.857Z",
    "recovered": 4123,
    "infected": 6368,
    "id": "63KYOuWe41mvqWQrJbr2",
    "pop": 1012000,
    "country": "RU",
    "longitude": 35.1889,
    "name": "Kaluga Oblast",
    "sick": 2197,
    "invisible": false
  },
  {
    "longitude": 23.804991,
    "name": "Lithuania",
    "latitude": 55.621011,
    "dead": 79,
    "lastUpdated": "2020-07-07T23:16:03.195Z",
    "recovered": 1547,
    "infected": 1844,
    "id": "694ON7d0mRJDeM1gHBTR",
    "pop": 2794000,
    "country": "LT",
    "sick": 218,
    "invisible": false
  },
  {
    "longitude": -0.5596,
    "name": "South East",
    "latitude": 51.1781,
    "dead": 0,
    "lastUpdated": "2020-07-07T23:13:11.621Z",
    "recovered": 0,
    "infected": 33917,
    "state": "EN",
    "id": "6IQAsvrmBv0HPdeTnh4x",
    "pop": 9175000,
    "country": "GB",
    "sick": 33917,
    "invisible": false
  },
  {
    "latitude": 22.396427,
    "dead": 7,
    "lastUpdated": "2020-07-07T23:16:03.196Z",
    "recovered": 1161,
    "infected": 1300,
    "id": "6IcHIIH0zXpY0POmBZTv",
    "pop": 7392000,
    "country": "HK",
    "longitude": 114.109497,
    "name": "Hong Kong",
    "sick": 132,
    "invisible": false
  },
  {
    "name": "Acre",
    "latitude": -8.65,
    "dead": 399,
    "lastUpdated": "2020-07-07T23:15:01.299Z",
    "recovered": 0,
    "infected": 14941,
    "state": "AC",
    "id": "6LQesrx5bHJsVUi1TXBp",
    "pop": 869265,
    "country": "BR",
    "longitude": -72.4,
    "sick": 14542,
    "invisible": false
  },
  {
    "lastUpdated": "2020-07-07T23:16:03.196Z",
    "recovered": 333,
    "infected": 1199,
    "id": "6SlpghTyB6lpMFvx3g9U",
    "pop": 11180000,
    "country": "BJ",
    "longitude": 2.3158,
    "name": "Benin",
    "latitude": 9.3077,
    "dead": 21,
    "sick": 845,
    "invisible": false
  },
  {
    "state": "25",
    "id": "6ZHcvMIzVWIaRnc4R3Qp",
    "pop": 10040000,
    "country": "IT",
    "longitude": 9.5,
    "name": "Lombardia",
    "latitude": 45.6667,
    "dead": 16713,
    "lastUpdated": "2020-07-07T23:01:01.615Z",
    "recovered": 68793,
    "infected": 94580,
    "sick": 9074,
    "invisible": false
  },
  {
    "lastUpdated": "2020-07-07T23:16:03.195Z",
    "recovered": 1423,
    "infected": 1739,
    "id": "6ahNiyKDSDAftCctgLH3",
    "pop": 2067000,
    "country": "SI",
    "longitude": 14.5058,
    "name": "Slovenia",
    "latitude": 46.0569,
    "dead": 111,
    "sick": 205,
    "invisible": false
  },
  {
    "latitude": -27.3667908,
    "dead": 5,
    "lastUpdated": "2020-07-07T23:21:04.970Z",
    "recovered": 0,
    "infected": 1323,
    "id": "6nyns7UGGgkU7pxrHf8i",
    "pop": 300000,
    "country": "CL",
    "longitude": -70.331398,
    "name": "Atacama",
    "sick": 1318,
    "invisible": false
  },
  {
    "lastUpdated": "2020-07-07T23:16:03.192Z",
    "recovered": 2574,
    "infected": 5743,
    "id": "6pBi38TUgYfFm0bry2uh",
    "pop": 2025000,
    "country": "GA",
    "longitude": 11.6094,
    "name": "Gabon",
    "latitude": -0.8037,
    "dead": 46,
    "sick": 3123,
    "invisible": false
  },
  {
    "lastUpdated": "2020-07-07T23:02:10.127Z",
    "recovered": 0,
    "infected": 3790,
    "id": "6vjIVg1gSANFZghV7xtS",
    "pop": 2831900,
    "country": "MX",
    "longitude": -100.9792,
    "name": "San Luis Potosí",
    "latitude": 22.1498,
    "dead": 236,
    "sick": 3554,
    "invisible": false
  },
  {
    "lastUpdated": "2020-07-07T23:16:03.214Z",
    "recovered": 6,
    "infected": 6,
    "id": "78Ox26bNHDA2Pk2b3Uwn",
    "pop": 9131,
    "country": "FR",
    "longitude": -62.818544,
    "name": "Saint-Barthélémy",
    "alwaysShow": true,
    "latitude": 17.901672,
    "dead": 0,
    "sick": 0,
    "invisible": false
  },
  {
    "longitude": 18.633,
    "name": "Pomorskie",
    "latitude": 54.367,
    "dead": 38,
    "lastUpdated": "2020-07-07T23:03:01.405Z",
    "recovered": 0,
    "infected": 690,
    "id": "7JDx6UJiwGSJyL1fChaJ",
    "pop": 2305000,
    "country": "PL",
    "sick": 652,
    "invisible": false
  },
  {
    "id": "7UASdZTZ1nPzzBwSTEA9",
    "pop": 84690,
    "country": "ES",
    "longitude": -2.9381,
    "name": "Melilla",
    "latitude": 35.2923,
    "dead": 2,
    "lastUpdated": "2020-07-07T23:20:00.358Z",
    "recovered": 125,
    "infected": 139,
    "state": "ML",
    "sick": 12,
    "invisible": false
  },
  {
    "recovered": 23,
    "infected": 70,
    "id": "7hVFcEV7nV0MrQr3LHrl",
    "pop": 102012,
    "country": "AG",
    "longitude": -61.7964,
    "name": "Antigua and Barbuda",
    "latitude": 17.0608,
    "dead": 3,
    "lastUpdated": "2020-07-07T23:16:03.203Z",
    "sick": 44,
    "invisible": false
  },
  {
    "recovered": 45468,
    "infected": 49195,
    "state": "BY",
    "id": "7kCrrlOBE3jN6FtOVNUB",
    "pop": 13000000,
    "country": "DE",
    "longitude": 11.4979,
    "name": "Bayern",
    "latitude": 48.7904,
    "dead": 2650,
    "lastUpdated": "2020-07-07T23:00:02.874Z",
    "sick": 1077,
    "invisible": false
  },
  {
    "latitude": 47.4979,
    "dead": 589,
    "lastUpdated": "2020-07-07T23:16:03.193Z",
    "recovered": 2874,
    "infected": 4205,
    "id": "7rYC2iFB50c55Ihgbs4Q",
    "pop": 9773000,
    "country": "HU",
    "longitude": 19.0402,
    "name": "Hungary",
    "sick": 742,
    "invisible": false
  },
  {
    "lastUpdated": "2020-07-07T23:00:08.171Z",
    "recovered": 5525,
    "infected": 15369,
    "id": "7tqLvLyXcBDK808nJv0m",
    "pop": 1206000,
    "country": "CO",
    "longitude": -74.7813,
    "name": "Barranquilla D.E.",
    "latitude": 10.9685,
    "dead": 908,
    "sick": 8936,
    "invisible": false
  },
  {
    "name": "Cameroon",
    "latitude": 7.3697,
    "dead": 359,
    "lastUpdated": "2020-07-07T23:16:03.190Z",
    "recovered": 11525,
    "infected": 14916,
    "id": "8C0d7WVCjyUGtnc2gUAR",
    "pop": 24050000,
    "country": "CM",
    "longitude": 12.3547,
    "sick": 3032,
    "invisible": false
  },
  {
    "longitude": 4.3517,
    "name": "Brussels",
    "latitude": 50.8503,
    "dead": 1484,
    "lastUpdated": "2020-07-07T23:07:12.050Z",
    "recovered": 2815,
    "infected": 6422,
    "state": "BRU",
    "id": "8DOZWbN6bDdgaLXVlUEu",
    "pop": 1209000,
    "country": "BE",
    "sick": 2123,
    "invisible": false
  },
  {
    "longitude": -63.5887,
    "name": "Bolivia",
    "latitude": -16.2902,
    "dead": 1476,
    "lastUpdated": "2020-07-07T23:16:03.188Z",
    "recovered": 11929,
    "infected": 40509,
    "id": "8RihJrXw4NQXPxaRxr1u",
    "pop": 11050000,
    "country": "BO",
    "sick": 27104,
    "invisible": false
  },
  {
    "id": "8ZTySQROQejkDAad0qxQ",
    "pop": 109897,
    "country": "VC",
    "longitude": -61.2872,
    "name": "St. Vincent Grenadines",
    "latitude": 12.9843,
    "dead": 0,
    "lastUpdated": "2020-07-07T23:16:03.203Z",
    "recovered": 29,
    "infected": 29,
    "sick": 0,
    "invisible": false
  },
  {
    "lastUpdated": "2020-07-07T23:16:03.187Z",
    "recovered": 41002,
    "infected": 45140,
    "id": "8pA3fM4xC2c2wv1b4TnE",
    "pop": 5621000,
    "country": "SG",
    "longitude": 103.819839,
    "name": "Singapore",
    "latitude": 1.352083,
    "dead": 26,
    "sick": 4112,
    "invisible": false
  },
  {
    "id": "98hwAoohgWEOQVa3NlM5",
    "pop": 3787000,
    "country": "FR",
    "longitude": -1.5536,
    "name": "Pays de la Loire",
    "latitude": 47.2184,
    "dead": 469,
    "lastUpdated": "2020-07-06T23:49:46.956Z",
    "recovered": 2101,
    "infected": 4188,
    "sick": 1618,
    "invisible": false
  },
  {
    "id": "9DAvxOObTqIvMOU93nlY",
    "pop": 952300,
    "country": "MX",
    "longitude": -90.19885,
    "name": "Campeche",
    "latitude": 19.30754,
    "dead": 254,
    "lastUpdated": "2020-07-07T23:02:10.127Z",
    "recovered": 0,
    "infected": 2573,
    "sick": 2319,
    "invisible": false
  },
  {
    "longitude": 30.2176,
    "name": "Sudan",
    "latitude": 12.8628,
    "dead": 622,
    "lastUpdated": "2020-07-07T23:16:03.191Z",
    "recovered": 5034,
    "infected": 9997,
    "id": "9DPOkpIqrFy9mR4e9fuv",
    "pop": 40530000,
    "country": "SD",
    "sick": 4341,
    "invisible": false
  },
  {
    "latitude": 58.5501,
    "dead": 22,
    "lastUpdated": "2020-07-07T23:00:07.861Z",
    "recovered": 1077,
    "infected": 1730,
    "id": "9JFYfvpcejMIgYlHpngA",
    "pop": 643000,
    "country": "RU",
    "longitude": 43.9541,
    "name": "Kostroma Oblast",
    "sick": 631,
    "invisible": false
  },
  {
    "name": "Romania",
    "latitude": 45.943161,
    "dead": 1799,
    "lastUpdated": "2020-07-07T23:16:03.189Z",
    "recovered": 20534,
    "infected": 29620,
    "id": "9QcETqEcM2fTv9zRvx5T",
    "pop": 19530000,
    "country": "RO",
    "longitude": 24.966761,
    "sick": 7287,
    "invisible": false
  },
  {
    "country": "NI",
    "longitude": -86.251389,
    "name": "Nicaragua",
    "latitude": 12.136389,
    "dead": 91,
    "lastUpdated": "2020-07-07T23:16:03.194Z",
    "recovered": 1993,
    "infected": 2846,
    "id": "9Y5wmCqNCC6ZrenM31uA",
    "pop": 6218000,
    "sick": 762,
    "invisible": false
  },
  {
    "recovered": 1556,
    "infected": 2348,
    "id": "9dIzxqDSVqPyINkHqwGv",
    "pop": 18540000,
    "country": "ML",
    "longitude": -3.996166,
    "name": "Mali",
    "latitude": 17.5706921,
    "dead": 119,
    "lastUpdated": "2020-07-07T23:16:03.194Z",
    "sick": 673,
    "invisible": false
  },
  {
    "latitude": 61.92411,
    "dead": 329,
    "lastUpdated": "2020-07-07T23:16:03.191Z",
    "recovered": 6700,
    "infected": 7262,
    "id": "9p6OCdZbUUwBLA60Gk3W",
    "pop": 5513000,
    "country": "FI",
    "longitude": 25.748152,
    "name": "Finland",
    "sick": 233,
    "invisible": false
  },
  {
    "id": "A6Us0fpQVCc85SoIqzg3",
    "pop": 2876000,
    "country": "RU",
    "longitude": 95.1104,
    "name": "Krasnoyarsk Krai",
    "latitude": 64.248,
    "dead": 172,
    "lastUpdated": "2020-07-07T23:00:07.820Z",
    "recovered": 5421,
    "infected": 9848,
    "sick": 4255,
    "invisible": false
  },
  {
    "id": "A84CwQ52kA46Hr7pn6Bm",
    "pop": 1356000,
    "country": "US",
    "longitude": -71.590315,
    "name": "New Hampshire",
    "latitude": 43.311643,
    "dead": 384,
    "lastUpdated": "2020-07-07T23:17:01.551Z",
    "recovered": 0,
    "infected": 5932,
    "state": "NH",
    "sick": 5548,
    "invisible": false
  },
  {
    "longitude": -71.412257,
    "name": "Rhode Island",
    "latitude": 41.823261,
    "dead": 969,
    "lastUpdated": "2020-07-07T23:17:01.551Z",
    "recovered": 0,
    "infected": 17154,
    "state": "RI",
    "id": "AEUWUHS65qvjEslew11c",
    "pop": 1057000,
    "country": "US",
    "sick": 16185,
    "invisible": false
  },
  {
    "latitude": 44.498955,
    "dead": 4269,
    "lastUpdated": "2020-07-07T23:01:01.614Z",
    "recovered": 23377,
    "infected": 28706,
    "state": "45",
    "id": "AJ9jQ0iyKsafsmf5yHAR",
    "pop": 4453000,
    "country": "IT",
    "longitude": 11.327591,
    "name": "Emilia-Romagna",
    "sick": 1060,
    "invisible": false
  },
  {
    "latitude": 49.3964,
    "dead": 178,
    "lastUpdated": "2020-07-07T23:00:02.876Z",
    "recovered": 2615,
    "infected": 2830,
    "state": "SL",
    "id": "AKjFRQGnzuuZQhv5Qwx7",
    "pop": 990509,
    "country": "DE",
    "longitude": 7.023,
    "name": "Saarland",
    "sick": 37,
    "invisible": false
  },
  {
    "country": "RU",
    "longitude": 60.8789,
    "name": "Chelyabinsk Oblast",
    "latitude": 54.4319,
    "dead": 88,
    "lastUpdated": "2020-07-07T23:00:07.820Z",
    "recovered": 4281,
    "infected": 8127,
    "id": "AOapJ3gElQApd8Gnt8EL",
    "pop": 3493000,
    "sick": 3758,
    "invisible": false
  },
  {
    "longitude": -71.167,
    "name": "Maule",
    "latitude": -35.717,
    "dead": 73,
    "lastUpdated": "2020-07-07T23:21:04.971Z",
    "recovered": 0,
    "infected": 6495,
    "id": "APTPgjAsjFi0nsGyJV7M",
    "pop": 1125002,
    "country": "CL",
    "sick": 6422,
    "invisible": false
  },
  {
    "country": "GL",
    "longitude": -42.6043,
    "name": "Greenland",
    "latitude": 71.7069,
    "dead": 0,
    "lastUpdated": "2020-07-07T23:16:03.205Z",
    "recovered": 13,
    "infected": 13,
    "id": "APaZzlGCEeuoLBtzTJMe",
    "pop": 56171,
    "sick": 0,
    "invisible": false
  },
  {
    "lastUpdated": "2020-07-07T23:00:07.860Z",
    "recovered": 2289,
    "infected": 3175,
    "id": "ATxF6ZoDJ2ibdE6ZRYIX",
    "pop": 984000,
    "country": "RU",
    "longitude": 112.4061,
    "name": "Buryatia",
    "latitude": 54.8331,
    "dead": 22,
    "sick": 864,
    "invisible": false
  },
  {
    "longitude": -63.582687,
    "name": "Nova Scotia",
    "latitude": 45.65107,
    "dead": 63,
    "lastUpdated": "2020-07-07T23:10:03.062Z",
    "recovered": 0,
    "infected": 1065,
    "state": "NS",
    "id": "AVCpxeh0fuH2WrHWNDYH",
    "pop": 971395,
    "country": "CA",
    "sick": 1002,
    "invisible": false
  },
  {
    "id": "AcULcZBozObOhwuRKMjJ",
    "pop": 1062000,
    "country": "US",
    "longitude": -109.128641,
    "name": "Montana",
    "latitude": 47.012918,
    "dead": 23,
    "lastUpdated": "2020-07-07T23:17:01.552Z",
    "recovered": 0,
    "infected": 1327,
    "state": "MT",
    "sick": 1304,
    "invisible": false
  },
  {
    "latitude": 38.861,
    "dead": 53,
    "lastUpdated": "2020-07-07T23:16:03.192Z",
    "recovered": 4965,
    "infected": 6315,
    "id": "AiIGs3ybYZZhm1ytVopr",
    "pop": 9275000,
    "country": "TJ",
    "longitude": 71.2761,
    "name": "Tajikistan",
    "sick": 1297,
    "invisible": false
  },
  {
    "id": "AmBYm5J6E9Cuez1FQjiN",
    "pop": 45200000,
    "country": "CN",
    "longitude": 116.01609,
    "name": "Jiangxi",
    "latitude": 27.285971,
    "dead": 1,
    "lastUpdated": "2020-07-07T23:08:10.476Z",
    "recovered": 931,
    "infected": 932,
    "sick": 0,
    "invisible": false
  },
  {
    "name": "Wales",
    "latitude": 52.1307,
    "dead": 1534,
    "lastUpdated": "2020-07-07T23:13:11.619Z",
    "recovered": 0,
    "infected": 15900,
    "state": "WA",
    "id": "AoLhHdTydeWTfmp9koEX",
    "pop": 3136000,
    "country": "GB",
    "longitude": -3.7837,
    "sick": 14366,
    "invisible": false
  },
  {
    "latitude": 53.0452,
    "dead": 18,
    "lastUpdated": "2020-07-07T23:00:07.860Z",
    "recovered": 1532,
    "infected": 2109,
    "id": "Avls64fLKoEsBFH0Ol0b",
    "pop": 537000,
    "country": "RU",
    "longitude": 90.3982,
    "name": "Khakassia",
    "sick": 559,
    "invisible": false
  },
  {
    "latitude": 28.033886,
    "dead": 968,
    "lastUpdated": "2020-07-07T23:16:03.190Z",
    "recovered": 12094,
    "infected": 16879,
    "id": "AwN0CScPDApcLFgz6e3z",
    "pop": 41320000,
    "country": "DZ",
    "longitude": 1.659626,
    "name": "Algeria",
    "sick": 3817,
    "invisible": false
  },
  {
    "lastUpdated": "2020-07-07T23:16:03.193Z",
    "recovered": 2229,
    "infected": 3272,
    "id": "B82Ef45M8cDu4q7VsSHF",
    "pop": 4076000,
    "country": "HR",
    "longitude": 15.2,
    "name": "Croatia",
    "latitude": 45.099998,
    "dead": 113,
    "sick": 930,
    "invisible": false
  },
  {
    "lastUpdated": "2020-07-07T23:16:03.197Z",
    "recovered": 974,
    "infected": 1094,
    "id": "BENubqQInFUJzhpZTsLT",
    "pop": 23716000,
    "country": "NE",
    "longitude": 8.081666,
    "name": "Niger",
    "latitude": 17.6077881,
    "dead": 68,
    "sick": 52,
    "invisible": false
  },
  {
    "id": "BF51mWl51fgEcyBpCSzb",
    "pop": 6043000,
    "country": "US",
    "longitude": -76.98432,
    "name": "Maryland",
    "latitude": 39.509109,
    "dead": 3266,
    "lastUpdated": "2020-07-07T23:17:01.549Z",
    "recovered": 0,
    "infected": 70396,
    "state": "MD",
    "sick": 67130,
    "invisible": false
  },
  {
    "lastUpdated": "2020-07-07T23:16:03.186Z",
    "recovered": 51902,
    "infected": 64003,
    "id": "BGg6yVU5VP71B8NXU0oh",
    "pop": 9508000,
    "country": "BY",
    "longitude": 27.953388,
    "name": "Belarus",
    "latitude": 53.709808,
    "dead": 436,
    "sick": 11665,
    "invisible": false
  },
  {
    "longitude": 0.1713,
    "name": "Normandie",
    "latitude": 48.8799,
    "dead": 434,
    "lastUpdated": "2020-07-06T23:50:02.569Z",
    "recovered": 1674,
    "infected": 3595,
    "id": "BGtoyzb7y54LVlJ91rbf",
    "pop": 3319000,
    "country": "FR",
    "sick": 1487,
    "invisible": false
  },
  {
    "longitude": -3.9995,
    "name": "South West",
    "latitude": 50.7772,
    "dead": 0,
    "lastUpdated": "2020-07-07T23:13:11.621Z",
    "recovered": 0,
    "infected": 12766,
    "state": "EN",
    "id": "BQqMOlPFD36ZEDTGd3WC",
    "pop": 5616000,
    "country": "GB",
    "sick": 12766,
    "invisible": false
  },
  {
    "longitude": -111.093735,
    "name": "Arizona",
    "latitude": 34.048927,
    "dead": 1927,
    "lastUpdated": "2020-07-07T23:17:01.549Z",
    "recovered": 0,
    "infected": 105094,
    "state": "AZ",
    "id": "BTEESCuD2ZbS1afunR2A",
    "pop": 7172000,
    "country": "US",
    "sick": 103167,
    "invisible": false
  },
  {
    "id": "BUb7oDHcBM4lQ5cufNoG",
    "pop": 949000,
    "country": "RU",
    "longitude": 32.6677,
    "name": "Smolensk Oblast",
    "latitude": 54.9883,
    "dead": 71,
    "lastUpdated": "2020-07-07T23:00:07.858Z",
    "recovered": 2667,
    "infected": 4865,
    "sick": 2127,
    "invisible": false
  },
  {
    "lastUpdated": "2020-07-07T23:00:07.859Z",
    "recovered": 3004,
    "infected": 3512,
    "id": "BWojXmuKU3szKlS7CE4k",
    "pop": 1283000,
    "country": "RU",
    "longitude": 50.2097,
    "name": "Kirov Oblast",
    "latitude": 58.4199,
    "dead": 42,
    "sick": 466,
    "invisible": false
  },
  {
    "recovered": 0,
    "infected": 622,
    "id": "BZwZOAlDJ8AIiaRVLyC9",
    "pop": 1676000,
    "country": "PL",
    "longitude": 14.552812,
    "name": "Zachodniopomorskie",
    "latitude": 53.428543,
    "dead": 22,
    "lastUpdated": "2020-07-07T23:03:01.405Z",
    "sick": 600,
    "invisible": false
  },
  {
    "longitude": -70.6693,
    "invisible": true,
    "name": "Unknown Chile region",
    "latitude": -33.4489,
    "dead": 0,
    "lastUpdated": "2020-07-07T23:16:03.184Z",
    "recovered": 268245,
    "infected": 0,
    "id": "BbiuZcm8oURX7cZwaa5U",
    "country": "CL",
    "sick": 0
  },
  {
    "longitude": 34.3015,
    "name": "Malawi",
    "latitude": -13.2543,
    "dead": 19,
    "lastUpdated": "2020-07-07T23:16:03.195Z",
    "recovered": 317,
    "infected": 1818,
    "id": "BfT8o5DaEixC6JIZ28kY",
    "pop": 18620000,
    "country": "MW",
    "sick": 1482,
    "invisible": false
  },
  {
    "longitude": 29.9188862,
    "name": "Burundi",
    "latitude": -3.3730559,
    "dead": 1,
    "lastUpdated": "2020-07-07T23:16:03.201Z",
    "recovered": 118,
    "infected": 191,
    "id": "BnpMamidC5yYzeK8tPUL",
    "pop": 10860000,
    "country": "BI",
    "sick": 72,
    "invisible": false
  },
  {
    "latitude": 52.257,
    "dead": 346,
    "lastUpdated": "2020-07-07T23:03:01.404Z",
    "recovered": 0,
    "infected": 5214,
    "id": "BrToMzyq8y2xdwXn75kM",
    "pop": 5385000,
    "country": "PL",
    "longitude": 21.002,
    "name": "Mazowieckie",
    "sick": 4868,
    "invisible": false
  },
  {
    "id": "C25xSDm4iYibX5RYML14",
    "pop": 74751,
    "country": "CO",
    "longitude": -71.347573,
    "name": "Amazonas (Colombia)",
    "latitude": -1.333845,
    "dead": 96,
    "lastUpdated": "2020-07-07T23:00:08.173Z",
    "recovered": 2079,
    "infected": 2384,
    "sick": 209,
    "invisible": false
  },
  {
    "lastUpdated": "2020-07-07T23:17:01.543Z",
    "recovered": 0,
    "infected": 423437,
    "state": "NY",
    "id": "C3BCUzV80z9GfiuByIcr",
    "pop": 19540000,
    "country": "US",
    "longitude": -73.982597,
    "name": "New York",
    "latitude": 40.719042,
    "dead": 32289,
    "sick": 391148,
    "invisible": false
  },
  {
    "recovered": 6,
    "infected": 15,
    "id": "C5YXFiytAc1w9swtVGLz",
    "pop": 42800,
    "country": "CO",
    "longitude": -67.92389,
    "name": "Guainía",
    "latitude": 3.86528,
    "dead": 1,
    "lastUpdated": "2020-07-07T23:00:08.173Z",
    "sick": 8,
    "invisible": false
  },
  {
    "name": "Czechia",
    "latitude": 49.731626,
    "dead": 351,
    "lastUpdated": "2020-07-07T23:16:03.190Z",
    "recovered": 7910,
    "infected": 12685,
    "id": "C6S76AggdWVU8G22jFHQ",
    "pop": 10650000,
    "country": "CZ",
    "longitude": 15.359413,
    "sick": 4424,
    "invisible": false
  },
  {
    "latitude": 26.0667,
    "dead": 98,
    "lastUpdated": "2020-07-07T23:16:03.188Z",
    "recovered": 25570,
    "infected": 30321,
    "id": "C7cj4nwRITs13KnaJrQ2",
    "pop": 1493000,
    "country": "BH",
    "longitude": 50.557701,
    "name": "Bahrain",
    "sick": 4653,
    "invisible": false
  },
  {
    "longitude": -74.4057,
    "name": "Magdalena",
    "latitude": 10.4113,
    "dead": 98,
    "lastUpdated": "2020-07-07T23:00:08.173Z",
    "recovered": 392,
    "infected": 955,
    "id": "CA9LaAl3bNaeAqBuozn4",
    "pop": 1285400,
    "country": "CO",
    "sick": 465,
    "invisible": false
  },
  {
    "recovered": 0,
    "infected": 5997,
    "id": "CCUFp4urvgXPo5unfMGy",
    "pop": 3073500,
    "country": "MX",
    "longitude": -101.430756,
    "name": "Coahuila",
    "latitude": 26.909979,
    "dead": 272,
    "lastUpdated": "2020-07-07T23:02:10.126Z",
    "sick": 5725,
    "invisible": false
  },
  {
    "name": "Rajasthan",
    "latitude": 27.0238,
    "dead": 472,
    "lastUpdated": "2020-07-07T23:11:01.183Z",
    "recovered": 16575,
    "infected": 21404,
    "id": "CKZCZTPlrcq5fbfUPA9k",
    "pop": 68890000,
    "country": "IN",
    "longitude": 74.2179,
    "sick": 4357,
    "invisible": false
  },
  {
    "latitude": 50.6182,
    "dead": 1,
    "lastUpdated": "2020-07-07T23:00:07.862Z",
    "recovered": 417,
    "infected": 891,
    "id": "CX8z9U1iABNBhc1VK2Dy",
    "pop": 218000,
    "country": "RU",
    "longitude": 86.2199,
    "name": "Altai",
    "sick": 473,
    "invisible": false
  },
  {
    "longitude": -88.9053,
    "name": "El Salvador",
    "latitude": 13.803,
    "dead": 229,
    "lastUpdated": "2020-07-07T23:16:03.191Z",
    "recovered": 4929,
    "infected": 8307,
    "id": "Cgvmtle61ehMvCzRzYx7",
    "pop": 6378000,
    "country": "SV",
    "sick": 3149,
    "invisible": false
  },
  {
    "id": "D4WkbqyUXY1pazbOxfKx",
    "pop": 144000,
    "country": "RU",
    "longitude": 153.915,
    "name": "Magadan Oblast",
    "latitude": 62.6643,
    "dead": 4,
    "lastUpdated": "2020-07-07T23:00:07.862Z",
    "recovered": 534,
    "infected": 947,
    "sick": 409,
    "invisible": false
  },
  {
    "name": "Tomsk Oblast",
    "latitude": 58.897,
    "dead": 21,
    "lastUpdated": "2020-07-07T23:00:07.860Z",
    "recovered": 1457,
    "infected": 2661,
    "id": "DAp3PFow4BuCMYWWTo3i",
    "pop": 1078000,
    "country": "RU",
    "longitude": 82.6765,
    "sick": 1183,
    "invisible": false
  },
  {
    "longitude": 44.818474,
    "name": "Armenia",
    "latitude": 40.259003,
    "dead": 503,
    "lastUpdated": "2020-07-07T23:16:03.189Z",
    "recovered": 16907,
    "infected": 29285,
    "id": "DCJCtZoBTWQ4mzdDNljD",
    "pop": 2973000,
    "country": "AM",
    "sick": 11875,
    "invisible": false
  },
  {
    "longitude": -73.368,
    "name": "Boyacá",
    "latitude": 5.535,
    "dead": 13,
    "lastUpdated": "2020-07-07T23:00:08.172Z",
    "recovered": 244,
    "infected": 434,
    "id": "DJJraANgQbEqz1wBBtZz",
    "pop": 1278000,
    "country": "CO",
    "sick": 177,
    "invisible": false
  },
  {
    "latitude": 54.2369,
    "dead": 27,
    "lastUpdated": "2020-07-07T23:00:07.859Z",
    "recovered": 2495,
    "infected": 3646,
    "id": "DKwy7USk22oXUQGEvO42",
    "pop": 834000,
    "country": "RU",
    "longitude": 44.0684,
    "name": "Mordovia",
    "sick": 1124,
    "invisible": false
  },
  {
    "country": "GB",
    "longitude": -2.5945,
    "name": "North West",
    "latitude": 53.6221,
    "dead": 0,
    "lastUpdated": "2020-07-07T23:13:11.620Z",
    "recovered": 0,
    "infected": 42871,
    "state": "EN",
    "id": "DPwBt2aJuwF0O71vwfM9",
    "pop": 7300000,
    "sick": 42871,
    "invisible": false
  },
  {
    "name": "Bermuda",
    "latitude": 32.3213844,
    "dead": 9,
    "lastUpdated": "2020-07-07T23:16:03.201Z",
    "recovered": 137,
    "infected": 146,
    "id": "DZyTD0Mu5WIcK6yTcJ91",
    "pop": 65440,
    "country": "BM",
    "longitude": -64.75737,
    "sick": 0,
    "invisible": false
  },
  {
    "longitude": -71.7979,
    "name": "Turks and Caicos",
    "latitude": 21.694,
    "dead": 2,
    "lastUpdated": "2020-07-07T23:16:03.203Z",
    "recovered": 11,
    "infected": 49,
    "id": "DaMrRSIGJXIG36nW0Pnc",
    "pop": 35446,
    "country": "TC",
    "sick": 36,
    "invisible": false
  },
  {
    "longitude": -3.0977,
    "name": "Castilla La Mancha",
    "latitude": 39.2796,
    "dead": 3028,
    "lastUpdated": "2020-07-07T23:18:21.815Z",
    "recovered": 6392,
    "infected": 26925,
    "state": "CM",
    "id": "Dbng0NBTH41EEwBxhMzE",
    "pop": 2035000,
    "country": "ES",
    "sick": 17505,
    "invisible": false
  },
  {
    "recovered": 0,
    "infected": 1884,
    "id": "DcQ3D0WkacXEbv6iznRB",
    "pop": 3361000,
    "country": "PL",
    "longitude": 20.006,
    "name": "Malopolskie",
    "latitude": 50.023,
    "dead": 44,
    "lastUpdated": "2020-07-07T23:03:01.404Z",
    "sick": 1840,
    "invisible": false
  },
  {
    "lastUpdated": "2020-07-07T23:16:03.203Z",
    "recovered": 45,
    "infected": 46,
    "id": "DdBt8qsG6A3g92oOR3ow",
    "pop": 622567,
    "country": "MO",
    "longitude": 113.551262,
    "name": "Macao",
    "latitude": 22.192039,
    "dead": 0,
    "sick": 1,
    "invisible": false
  },
  {
    "latitude": 25.467,
    "dead": 2,
    "lastUpdated": "2020-07-07T23:11:01.185Z",
    "recovered": 43,
    "infected": 94,
    "id": "Dh0O1vmhrVfmsCsfZCUg",
    "pop": 2651000,
    "country": "IN",
    "longitude": 91.3662,
    "name": "Meghalaya",
    "sick": 49,
    "invisible": false
  },
  {
    "lastUpdated": "2020-07-07T23:00:07.820Z",
    "recovered": 7068,
    "infected": 10256,
    "id": "DqzAhNFTJFQVm88ma21P",
    "pop": 4220000,
    "country": "RU",
    "longitude": 41.8259,
    "name": "Rostov Oblast",
    "latitude": 47.6853,
    "dead": 146,
    "sick": 3042,
    "invisible": false
  },
  {
    "latitude": 42.962334,
    "dead": 20,
    "lastUpdated": "2020-07-07T23:17:01.551Z",
    "recovered": 0,
    "infected": 1711,
    "state": "WY",
    "id": "DrGzziUglmBognCGY7R2",
    "pop": 577737,
    "country": "US",
    "longitude": -107.534868,
    "name": "Wyoming",
    "sick": 1691,
    "invisible": false
  },
  {
    "recovered": 1374,
    "infected": 3589,
    "id": "Dtr1lap1RpJpXJdXGJiW",
    "pop": 10740000,
    "country": "GR",
    "longitude": 23.7275,
    "name": "Greece",
    "latitude": 37.9838,
    "dead": 193,
    "lastUpdated": "2020-07-07T23:16:03.193Z",
    "sick": 2022,
    "invisible": false
  },
  {
    "id": "E8vIyXLVNtcY9dxLHICp",
    "pop": 2623000,
    "country": "RU",
    "longitude": 56.5872,
    "name": "Perm Krai",
    "latitude": 58.8232,
    "dead": 86,
    "lastUpdated": "2020-07-07T23:00:07.859Z",
    "recovered": 2976,
    "infected": 4069,
    "sick": 1007,
    "invisible": false
  },
  {
    "id": "EHKZ6ivhrJUs3XqNDBOw",
    "pop": 3692000,
    "country": "RU",
    "longitude": 66.9483,
    "name": "Tyumen Oblast",
    "latitude": 56.9634,
    "dead": 18,
    "lastUpdated": "2020-07-07T23:00:07.859Z",
    "recovered": 2202,
    "infected": 3638,
    "sick": 1418,
    "invisible": false
  },
  {
    "id": "EKTfs8e7M6DXzI1HqyyX",
    "pop": 23780000,
    "country": "TW",
    "longitude": 121.563698,
    "name": "Taiwan",
    "latitude": 25.03841,
    "dead": 7,
    "lastUpdated": "2020-07-07T23:16:03.200Z",
    "recovered": 438,
    "infected": 449,
    "sick": 4,
    "invisible": false
  },
  {
    "longitude": -84.387618,
    "name": "Costa Rica",
    "latitude": 10.327273,
    "dead": 23,
    "lastUpdated": "2020-07-07T23:16:03.192Z",
    "recovered": 1810,
    "infected": 5486,
    "id": "EQzJvzVHKjs8kLmK7BMu",
    "pop": 4906000,
    "country": "CR",
    "sick": 3653,
    "invisible": false
  },
  {
    "latitude": 22.2587,
    "dead": 1978,
    "lastUpdated": "2020-07-07T23:11:01.183Z",
    "recovered": 26744,
    "infected": 37636,
    "id": "ERwk9R9en4m9WbdoMbIg",
    "pop": 62700000,
    "country": "IN",
    "longitude": 71.1924,
    "name": "Gujarat",
    "sick": 8914,
    "invisible": false
  },
  {
    "latitude": 63.2853,
    "dead": 72,
    "lastUpdated": "2020-07-07T23:00:07.856Z",
    "recovered": 3393,
    "infected": 6419,
    "id": "EVMBsgCJedjHy91mDYEC",
    "pop": 1155000,
    "country": "RU",
    "longitude": 42.5884,
    "name": "Arkhangelsk Oblast",
    "sick": 2954,
    "invisible": false
  },
  {
    "longitude": 76.7794,
    "name": "Chandigarh",
    "latitude": 30.7333,
    "dead": 7,
    "lastUpdated": "2020-07-07T23:11:01.185Z",
    "recovered": 401,
    "infected": 492,
    "id": "Esl5UlCVB9s8pmGB5Ofr",
    "pop": 1055000,
    "country": "IN",
    "sick": 84,
    "invisible": false
  },
  {
    "id": "Esy1La2CxwH5uB8bGVWZ",
    "pop": 2148000,
    "country": "PL",
    "longitude": 22.653,
    "name": "Lubelskie",
    "latitude": 51.24,
    "dead": 19,
    "lastUpdated": "2020-07-07T23:03:01.405Z",
    "recovered": 0,
    "infected": 733,
    "sick": 714,
    "invisible": false
  },
  {
    "infected": 8714,
    "recovered": 0,
    "pop": 3195000,
    "country": "US",
    "lastUpdated": "2020-07-07T23:17:01.552Z",
    "state": "PR",
    "id": "F4rPrEVGAIMM5rfPEMv4",
    "longitude": -66.664513,
    "name": "Puerto Rico",
    "alwaysShow": true,
    "dead": 157,
    "latitude": 18.200178,
    "sick": 8557,
    "invisible": false
  },
  {
    "lastUpdated": "2020-07-07T23:00:08.171Z",
    "recovered": 1651,
    "infected": 3270,
    "id": "F7MED5VwEhi3JvJu6KjB",
    "pop": 2919000,
    "country": "CO",
    "longitude": -74.058655,
    "name": "Cundinamarca",
    "latitude": 4.862437,
    "dead": 69,
    "sick": 1550,
    "invisible": false
  },
  {
    "name": "Comoros",
    "latitude": -11.6455,
    "dead": 7,
    "lastUpdated": "2020-07-07T23:16:03.201Z",
    "recovered": 266,
    "infected": 311,
    "id": "F8LnLqvuWoWh8awBqiw1",
    "pop": 832322,
    "country": "KM",
    "longitude": 43.3333,
    "sick": 38,
    "invisible": false
  },
  {
    "lastUpdated": "2020-07-07T23:16:03.188Z",
    "recovered": 20179,
    "infected": 33384,
    "id": "FCDmlmnIIswd8bQiUjfN",
    "pop": 35530000,
    "country": "AF",
    "longitude": 67.709953,
    "name": "Afghanistan",
    "latitude": 33.93911,
    "dead": 920,
    "sick": 12285,
    "invisible": false
  },
  {
    "latitude": 29.431585,
    "dead": 6,
    "lastUpdated": "2020-07-07T23:08:10.475Z",
    "recovered": 574,
    "infected": 582,
    "id": "FErOU1m4Tj7jIkRam3vF",
    "pop": 30480000,
    "country": "CN",
    "longitude": 106.912254,
    "name": "Chongqing",
    "sick": 2,
    "invisible": false
  },
  {
    "name": "Kuwait",
    "latitude": 29.311661,
    "dead": 377,
    "lastUpdated": "2020-07-07T23:16:03.187Z",
    "recovered": 41515,
    "infected": 51245,
    "id": "FZsUkhxBEgqsPb4eO0PN",
    "pop": 4137000,
    "country": "KW",
    "longitude": 47.481766,
    "sick": 9353,
    "invisible": false
  },
  {
    "latitude": -10.9111,
    "dead": 851,
    "lastUpdated": "2020-07-07T23:15:01.299Z",
    "recovered": 0,
    "infected": 31640,
    "state": "SE",
    "id": "FboWeolpM62SZCLwdilT",
    "pop": 2278308,
    "country": "BR",
    "longitude": -37.0717,
    "name": "Sergipe",
    "sick": 30789,
    "invisible": false
  },
  {
    "lastUpdated": "2020-07-07T23:11:01.182Z",
    "recovered": 71116,
    "infected": 118594,
    "id": "FeS45oMNC27pI17F0xEV",
    "pop": 67860000,
    "country": "IN",
    "longitude": 78.6569,
    "name": "Tamil Nadu",
    "latitude": 11.1271,
    "dead": 1636,
    "sick": 45842,
    "invisible": false
  },
  {
    "latitude": 18.947829,
    "dead": 821,
    "lastUpdated": "2020-07-07T23:16:03.188Z",
    "recovered": 19564,
    "infected": 38430,
    "id": "FuiVEJvWb0QMCpxJ3563",
    "pop": 10770000,
    "country": "DO",
    "longitude": -70.430399,
    "name": "Dominican Republic",
    "sick": 18045,
    "invisible": false
  },
  {
    "longitude": 79.0193,
    "name": "Telengana",
    "latitude": 18.1124,
    "dead": 313,
    "lastUpdated": "2020-07-07T23:11:01.183Z",
    "recovered": 16287,
    "infected": 27612,
    "id": "FyC551oNwmENxbr9Yght",
    "pop": 35190000,
    "country": "IN",
    "sick": 11012,
    "invisible": false
  },
  {
    "latitude": 48.669,
    "dead": 28,
    "lastUpdated": "2020-07-07T23:16:03.195Z",
    "recovered": 1473,
    "infected": 1767,
    "id": "FzIDXoqWnTI3nUfhPyT2",
    "pop": 5450000,
    "country": "SK",
    "longitude": 19.699,
    "name": "Slovakia",
    "sick": 266,
    "invisible": false
  },
  {
    "id": "GAp7Wb6IMhdgbvEtMza9",
    "pop": 197000000,
    "country": "PK",
    "longitude": 69.345116,
    "name": "Pakistan",
    "latitude": 30.37532,
    "dead": 4839,
    "lastUpdated": "2020-07-07T23:16:03.185Z",
    "recovered": 134957,
    "infected": 234509,
    "sick": 94713,
    "invisible": false
  },
  {
    "id": "GGru8cG08mANO8XDDUtZ",
    "pop": 27980000,
    "country": "IN",
    "longitude": 75.3412,
    "name": "Punjab",
    "latitude": 31.1471,
    "dead": 175,
    "lastUpdated": "2020-07-07T23:11:01.184Z",
    "recovered": 4554,
    "infected": 6749,
    "sick": 2020,
    "invisible": false
  },
  {
    "longitude": 53.847816,
    "name": "United Arab Emirates",
    "latitude": 23.424076,
    "dead": 326,
    "lastUpdated": "2020-07-07T23:16:03.187Z",
    "recovered": 41714,
    "infected": 52600,
    "id": "GHzBIsHy2GiBc5JV2HMs",
    "pop": 9400000,
    "country": "AE",
    "sick": 10560,
    "invisible": false
  },
  {
    "lastUpdated": "2020-07-07T23:17:01.552Z",
    "recovered": 0,
    "infected": 103,
    "id": "GLViSIjDjwvptOphedAu",
    "country": "US",
    "longitude": -95.7129,
    "invisible": true,
    "name": "Grand Princess",
    "latitude": 37.0902,
    "dead": 3,
    "sick": 100
  },
  {
    "id": "GPtoS0Yy2EnNafpmmTqY",
    "pop": 10100000,
    "country": "GB",
    "longitude": -0.1278,
    "name": "London",
    "latitude": 51.5074,
    "dead": 0,
    "lastUpdated": "2020-07-07T23:13:11.620Z",
    "recovered": 0,
    "infected": 33873,
    "state": "EN",
    "sick": 33873,
    "invisible": false
  },
  {
    "lastUpdated": "2020-07-07T23:17:01.543Z",
    "recovered": 0,
    "infected": 286367,
    "state": "CA",
    "id": "Gh46r6vuaY7fbGt3IboN",
    "pop": 39560000,
    "country": "US",
    "longitude": -119.339046,
    "name": "California",
    "latitude": 36.621981,
    "dead": 6499,
    "sick": 279868,
    "invisible": false
  },
  {
    "lastUpdated": "2020-07-07T23:11:01.185Z",
    "recovered": 183,
    "infected": 415,
    "id": "GljWeVnun6o9DeW6rlEm",
    "pop": 343709,
    "country": "IN",
    "longitude": 72.8397,
    "name": "Dadra and Nagar Haveli",
    "latitude": 20.4283,
    "dead": 0,
    "sick": 232,
    "invisible": false
  },
  {
    "lastUpdated": "2020-07-07T23:17:01.551Z",
    "recovered": 0,
    "infected": 17220,
    "state": "OK",
    "id": "GpF8ULuKOQiFDCUHN44h",
    "pop": 3943000,
    "country": "US",
    "longitude": -97.145514,
    "name": "Oklahoma",
    "latitude": 35.87189,
    "dead": 404,
    "sick": 16816,
    "invisible": false
  },
  {
    "id": "Gr09a1wn3BnMqjQbgEun",
    "pop": 256627,
    "country": "CO",
    "longitude": -71.557,
    "name": "Arauca",
    "latitude": 6.492,
    "dead": 0,
    "lastUpdated": "2020-07-07T23:00:08.173Z",
    "recovered": 8,
    "infected": 96,
    "sick": 88,
    "invisible": false
  },
  {
    "id": "GsecjBfopdgTOnyRgtCA",
    "pop": 1014000,
    "country": "RU",
    "longitude": 41.483,
    "name": "Ivanovo Oblast",
    "latitude": 57.1057,
    "dead": 49,
    "lastUpdated": "2020-07-07T23:00:07.857Z",
    "recovered": 3177,
    "infected": 5168,
    "sick": 1942,
    "invisible": false
  },
  {
    "latitude": 46.5,
    "dead": 292,
    "lastUpdated": "2020-07-07T23:01:01.615Z",
    "recovered": 2273,
    "infected": 2648,
    "state": "BA",
    "id": "Gzx6GX1qhBm714BkEC6l",
    "pop": 520891,
    "country": "IT",
    "longitude": 11.35,
    "name": "P.A. Bolzano",
    "sick": 83,
    "invisible": false
  },
  {
    "id": "H3JeVigVbo5CSYfZG4WI",
    "pop": 24710000,
    "country": "CN",
    "longitude": 113.750972,
    "name": "Inner Mongolia",
    "latitude": 42.83263,
    "dead": 1,
    "lastUpdated": "2020-07-07T23:08:10.475Z",
    "recovered": 237,
    "infected": 240,
    "sick": 2,
    "invisible": false
  },
  {
    "name": "Nevada",
    "latitude": 39.74536,
    "dead": 548,
    "lastUpdated": "2020-07-07T23:17:01.550Z",
    "recovered": 0,
    "infected": 23785,
    "state": "NV",
    "id": "H3bDg4eV30up4WWrIDAS",
    "pop": 3034000,
    "country": "US",
    "longitude": -116.724977,
    "sick": 23237,
    "invisible": false
  },
  {
    "id": "HEMWNnFxeFEoeOCBOLJD",
    "pop": 9075649,
    "country": "BR",
    "longitude": -38.526669,
    "name": "Ceará",
    "latitude": -3.731862,
    "dead": 6556,
    "lastUpdated": "2020-07-07T23:15:01.293Z",
    "recovered": 0,
    "infected": 124952,
    "state": "CE",
    "sick": 118396,
    "invisible": false
  },
  {
    "id": "HN5mGmxlqlSeFSNeu1K5",
    "pop": 64060000,
    "country": "IN",
    "longitude": 75.7139,
    "name": "Karnataka",
    "latitude": 15.3173,
    "dead": 417,
    "lastUpdated": "2020-07-07T23:11:01.183Z",
    "recovered": 11100,
    "infected": 26815,
    "sick": 15298,
    "invisible": false
  },
  {
    "id": "HRDpwyxpqW9RN0xLFyNu",
    "pop": 807610,
    "country": "BT",
    "longitude": 90.4336,
    "name": "Bhutan",
    "latitude": 27.5142,
    "dead": 0,
    "lastUpdated": "2020-07-07T23:16:03.203Z",
    "recovered": 54,
    "infected": 80,
    "sick": 26,
    "invisible": false
  },
  {
    "name": "Uzbekistan",
    "latitude": 41.3775,
    "dead": 40,
    "lastUpdated": "2020-07-07T23:16:03.190Z",
    "recovered": 6811,
    "infected": 10670,
    "id": "HRTA10dtrruDEwjJEGMp",
    "pop": 32390000,
    "country": "UZ",
    "longitude": 64.5853,
    "sick": 3819,
    "invisible": false
  },
  {
    "lastUpdated": "2020-07-07T23:17:01.551Z",
    "recovered": 0,
    "infected": 13727,
    "state": "NM",
    "id": "HSSFomRju0doHhWgW8On",
    "pop": 2095000,
    "country": "US",
    "longitude": -105.576255,
    "name": "New Mexico",
    "latitude": 34.138916,
    "dead": 519,
    "sick": 13208,
    "invisible": false
  },
  {
    "id": "HZkACHjW7NlYjg8vEMj2",
    "pop": 412812,
    "country": "CL",
    "longitude": -72.3311,
    "name": "Los Ríos",
    "latitude": -40.231,
    "dead": 10,
    "lastUpdated": "2020-07-07T23:21:04.972Z",
    "recovered": 0,
    "infected": 735,
    "sick": 725,
    "invisible": false
  },
  {
    "latitude": 53.6127,
    "dead": 21,
    "lastUpdated": "2020-07-07T23:00:02.875Z",
    "recovered": 774,
    "infected": 809,
    "state": "MV",
    "id": "He1gSS1v50t06i3YrqvB",
    "pop": 1635000,
    "country": "DE",
    "longitude": 12.4296,
    "name": "Mecklenburg-Vorpommern",
    "sick": 14,
    "invisible": false
  },
  {
    "id": "I9EqrZfbPnkioNU4wZGz",
    "pop": 1315000,
    "country": "IT",
    "longitude": 13.75,
    "name": "Abruzzo",
    "latitude": 42.25,
    "dead": 464,
    "lastUpdated": "2020-07-07T23:01:01.613Z",
    "recovered": 2692,
    "infected": 3309,
    "state": "65",
    "sick": 153,
    "invisible": false
  },
  {
    "lastUpdated": "2020-07-07T23:08:10.474Z",
    "recovered": 1631,
    "infected": 1644,
    "id": "IAX0OQLVnUwU7FX0ENF1",
    "pop": 113460000,
    "country": "CN",
    "longitude": 113.373448,
    "name": "Guangdong",
    "latitude": 23.363855,
    "dead": 8,
    "sick": 5,
    "invisible": false
  },
  {
    "lastUpdated": "2020-07-07T23:08:10.476Z",
    "recovered": 1254,
    "infected": 1276,
    "id": "IFuMrMvSjoiX5agYvllh",
    "pop": 94000000,
    "country": "CN",
    "longitude": 113.484016,
    "name": "Henan",
    "latitude": 33.875408,
    "dead": 22,
    "sick": 0,
    "invisible": false
  },
  {
    "longitude": -8.16667,
    "name": "Algarve",
    "latitude": 37.2,
    "dead": 15,
    "lastUpdated": "2020-07-07T23:23:02.006Z",
    "recovered": 0,
    "infected": 663,
    "id": "IHqRHC8K3OZPN8gniM7V",
    "pop": 451000,
    "country": "PT",
    "sick": 648,
    "invisible": false
  },
  {
    "lastUpdated": "2020-07-07T23:00:08.173Z",
    "recovered": 953,
    "infected": 1582,
    "id": "IKWjRUo0SYgHQKdWjTvq",
    "pop": 333194,
    "country": "CO",
    "longitude": -77.0197,
    "name": "Buenaventura D.E.",
    "latitude": 3.883,
    "dead": 98,
    "sick": 531,
    "invisible": false
  },
  {
    "name": "East Midlands",
    "latitude": 52.87,
    "dead": 0,
    "lastUpdated": "2020-07-07T23:13:11.620Z",
    "recovered": 0,
    "infected": 21382,
    "state": "EN",
    "id": "INyu1R48Ppv8cfW4Nuz4",
    "pop": 4811000,
    "country": "GB",
    "longitude": -0.995,
    "sick": 21382,
    "invisible": false
  },
  {
    "id": "ISRKMzEDojyrZ9iyWwex",
    "pop": 1342600,
    "country": "MX",
    "longitude": -102.317,
    "name": "Aguascalientes",
    "latitude": 22.017,
    "dead": 176,
    "lastUpdated": "2020-07-07T23:02:10.128Z",
    "recovered": 0,
    "infected": 3449,
    "sick": 3273,
    "invisible": false
  },
  {
    "longitude": -100.316116,
    "name": "Nuevo León",
    "latitude": 25.686613,
    "dead": 518,
    "lastUpdated": "2020-07-07T23:02:10.128Z",
    "recovered": 0,
    "infected": 15934,
    "id": "IdKbgzgKLpjBFh4UPOwu",
    "pop": 5321300,
    "country": "MX",
    "sick": 15416,
    "invisible": false
  },
  {
    "lastUpdated": "2020-07-07T23:02:10.125Z",
    "recovered": 0,
    "infected": 4987,
    "id": "IhhiYI6T0TX4CYVPcnmH",
    "pop": 3826900,
    "country": "MX",
    "longitude": -106.069099,
    "name": "Chihuahua",
    "latitude": 28.632996,
    "dead": 691,
    "sick": 4296,
    "invisible": false
  },
  {
    "longitude": -72.57,
    "name": "Ñuble",
    "latitude": -36.7,
    "dead": 33,
    "lastUpdated": "2020-07-07T23:21:04.971Z",
    "recovered": 0,
    "infected": 2640,
    "id": "ImnOiVx9Cb8Nw7cbRcQ7",
    "pop": 480600,
    "country": "CL",
    "sick": 2607,
    "invisible": false
  },
  {
    "lastUpdated": "2020-07-07T23:16:03.192Z",
    "recovered": 1824,
    "infected": 6371,
    "id": "InZ38sIqyK7FN7XAOZoX",
    "pop": 10980000,
    "country": "HT",
    "longitude": -73.0513,
    "name": "Haiti",
    "latitude": 19.0558,
    "dead": 113,
    "sick": 4434,
    "invisible": false
  },
  {
    "longitude": -83.280125,
    "name": "Georgia (US)",
    "latitude": 32.528564,
    "dead": 2899,
    "lastUpdated": "2020-07-07T23:17:01.549Z",
    "recovered": 0,
    "infected": 100470,
    "state": "GA",
    "id": "IvQkDJkTAsoIqPRAU25n",
    "pop": 10520000,
    "country": "US",
    "sick": 97571,
    "invisible": false
  },
  {
    "lastUpdated": "2020-07-07T23:16:03.196Z",
    "recovered": 1492,
    "infected": 1536,
    "id": "IvVhpOoGpH6JVkGyUhXN",
    "pop": 4794000,
    "country": "NZ",
    "longitude": 172.488081,
    "name": "New Zealand",
    "latitude": -42.8285,
    "dead": 22,
    "sick": 22,
    "invisible": false
  },
  {
    "id": "IwYKiIVY18NGwdGQFGWW",
    "pop": 1255000,
    "country": "IN",
    "longitude": 94.7278,
    "name": "Arunachal Pradesh",
    "latitude": 28.218,
    "dead": 2,
    "lastUpdated": "2020-07-07T23:11:01.185Z",
    "recovered": 105,
    "infected": 276,
    "sick": 169,
    "invisible": false
  },
  {
    "recovered": 2100,
    "infected": 7411,
    "id": "J3mZXlfEnnJx4CDZLvRG",
    "pop": 28870000,
    "country": "VE",
    "longitude": -66.5897,
    "name": "Venezuela",
    "latitude": 6.4238,
    "dead": 68,
    "lastUpdated": "2020-07-07T23:16:03.191Z",
    "sick": 5243,
    "invisible": false
  },
  {
    "lastUpdated": "2020-07-07T23:00:08.173Z",
    "recovered": 8,
    "infected": 39,
    "id": "JEMCwkwXK39jd1lZ7VgJ",
    "pop": 107932,
    "country": "CO",
    "longitude": -72.633,
    "name": "Guaviare",
    "latitude": 2.567,
    "dead": 0,
    "sick": 31,
    "invisible": false
  },
  {
    "latitude": 44.8229,
    "dead": 14,
    "lastUpdated": "2020-07-07T23:00:07.860Z",
    "recovered": 1546,
    "infected": 2145,
    "id": "JOJVBvOnsLDJPVeYJaI2",
    "pop": 453000,
    "country": "RU",
    "longitude": 40.1754,
    "name": "Adygea",
    "sick": 585,
    "invisible": false
  },
  {
    "name": "Cyprus",
    "latitude": 35.1264,
    "dead": 19,
    "lastUpdated": "2020-07-07T23:16:03.197Z",
    "recovered": 839,
    "infected": 1005,
    "id": "JQByE4l2OA6sGOqIcWrM",
    "pop": 1170000,
    "country": "CY",
    "longitude": 33.4299,
    "sick": 147,
    "invisible": false
  },
  {
    "longitude": 85.3131,
    "name": "Bihar",
    "latitude": 25.0961,
    "dead": 98,
    "lastUpdated": "2020-07-07T23:11:01.183Z",
    "recovered": 9338,
    "infected": 12525,
    "id": "JR7hOGked7CZtIs2nCV5",
    "pop": 99020000,
    "country": "IN",
    "sick": 3089,
    "invisible": false
  },
  {
    "longitude": -90.522713,
    "name": "Guatemala",
    "latitude": 14.628434,
    "dead": 1004,
    "lastUpdated": "2020-07-07T23:16:03.189Z",
    "recovered": 3575,
    "infected": 24787,
    "id": "JUWE6bG3b5oL7fKQMSvv",
    "pop": 17250000,
    "country": "GT",
    "sick": 20208,
    "invisible": false
  },
  {
    "lastUpdated": "2020-07-07T23:16:03.193Z",
    "recovered": 4056,
    "infected": 4603,
    "id": "JcFsHSn2WvZ5LJW42ovG",
    "pop": 602005,
    "country": "LU",
    "longitude": 6.1296,
    "name": "Luxembourg",
    "latitude": 49.8153,
    "dead": 110,
    "sick": 437,
    "invisible": false
  },
  {
    "latitude": 8.8,
    "dead": 50,
    "lastUpdated": "2020-07-07T23:00:08.173Z",
    "recovered": 389,
    "infected": 1145,
    "id": "JmOyaFe25yZCIV64JbZj",
    "pop": 2049000,
    "country": "CO",
    "longitude": -74.167,
    "name": "Bolívar",
    "sick": 706,
    "invisible": false
  },
  {
    "recovered": 0,
    "infected": 10093,
    "id": "Jp9ePErcc8i1aOozEAMf",
    "pop": 3648100,
    "country": "MX",
    "longitude": -115.783,
    "name": "Baja California",
    "latitude": 31.4,
    "dead": 2022,
    "lastUpdated": "2020-07-07T23:02:10.125Z",
    "sick": 8071,
    "invisible": false
  },
  {
    "longitude": -75.8814316,
    "name": "Córdoba",
    "latitude": 8.7479801,
    "dead": 80,
    "lastUpdated": "2020-07-07T23:00:08.172Z",
    "recovered": 287,
    "infected": 1102,
    "id": "Jr8syCB0lydmPDXw8Q6N",
    "pop": 1786500,
    "country": "CO",
    "sick": 735,
    "invisible": false
  },
  {
    "latitude": 8.6195,
    "dead": 15,
    "lastUpdated": "2020-07-07T23:16:03.199Z",
    "recovered": 467,
    "infected": 689,
    "id": "JrBbirlBKGdWSdcDt7PF",
    "pop": 7798000,
    "country": "TG",
    "longitude": 0.8248,
    "name": "Togo",
    "sick": 207,
    "invisible": false
  },
  {
    "lastUpdated": "2020-07-07T23:16:03.192Z",
    "recovered": 3037,
    "infected": 6102,
    "id": "JzZ8sbqzjutThVjkPKPL",
    "pop": 7050000,
    "country": "BG",
    "longitude": 25.4858,
    "name": "Bulgaria",
    "latitude": 42.7339,
    "dead": 254,
    "sick": 2811,
    "invisible": false
  },
  {
    "recovered": 0,
    "infected": 843,
    "id": "KGrK7gafkeWjmU6sHQd2",
    "pop": 1263000,
    "country": "PL",
    "longitude": 20.709,
    "name": "Świętokrzyskie",
    "latitude": 50.823,
    "dead": 40,
    "lastUpdated": "2020-07-07T23:03:01.405Z",
    "sick": 803,
    "invisible": false
  },
  {
    "name": "Sverdlovsk Oblast",
    "latitude": 59.0077,
    "dead": 138,
    "lastUpdated": "2020-07-07T23:00:07.819Z",
    "recovered": 8726,
    "infected": 14529,
    "id": "KLBR5QHW6DePaGcFxlqH",
    "pop": 4325000,
    "country": "RU",
    "longitude": 61.9316,
    "sick": 5665,
    "invisible": false
  },
  {
    "name": "Liguria",
    "latitude": 44.5,
    "dead": 1558,
    "lastUpdated": "2020-07-07T23:01:01.615Z",
    "recovered": 8160,
    "infected": 10003,
    "state": "42",
    "id": "KLXicxFogWnu0dLp4bNK",
    "pop": 1557000,
    "country": "IT",
    "longitude": 8.833,
    "sick": 285,
    "invisible": false
  },
  {
    "country": "RU",
    "longitude": 47.9608,
    "name": "Mari El Republic",
    "latitude": 56.4385,
    "dead": 24,
    "lastUpdated": "2020-07-07T23:00:07.860Z",
    "recovered": 2864,
    "infected": 3157,
    "id": "KUnAVGJH6fLwFetE8A2x",
    "pop": 682000,
    "sick": 269,
    "invisible": false
  },
  {
    "latitude": 10.4631,
    "dead": 31,
    "lastUpdated": "2020-07-07T23:00:08.172Z",
    "recovered": 641,
    "infected": 1321,
    "id": "KpOz3WmiZkrXUMlUJNlV",
    "pop": 1201000,
    "country": "CO",
    "longitude": -73.2532,
    "name": "Cesar",
    "sick": 649,
    "invisible": false
  },
  {
    "recovered": 8851,
    "infected": 10306,
    "state": "52",
    "id": "KrLrJbpDqqiXgUPGCCW9",
    "pop": 3737000,
    "country": "IT",
    "longitude": 11,
    "name": "Toscana",
    "latitude": 43.4167,
    "dead": 1116,
    "lastUpdated": "2020-07-07T23:01:01.616Z",
    "sick": 339,
    "invisible": false
  },
  {
    "id": "KsWzJO06cf0d6LJ4ZNh9",
    "pop": 21440000,
    "country": "LK",
    "longitude": 80.771797,
    "name": "Sri Lanka",
    "latitude": 7.873054,
    "dead": 11,
    "lastUpdated": "2020-07-07T23:16:03.194Z",
    "recovered": 1955,
    "infected": 2081,
    "sick": 115,
    "invisible": false
  },
  {
    "longitude": 79.74,
    "name": "Andhra Pradesh",
    "latitude": 15.9129,
    "dead": 252,
    "lastUpdated": "2020-07-07T23:11:01.183Z",
    "recovered": 9745,
    "infected": 21197,
    "id": "KtQIo2DoqjELtPAlyDVO",
    "pop": 49670000,
    "country": "IN",
    "sick": 11200,
    "invisible": false
  },
  {
    "latitude": 18.0708,
    "dead": 3,
    "lastUpdated": "2020-07-07T23:16:03.203Z",
    "recovered": 37,
    "infected": 43,
    "id": "LBUtrLDKJiupXjlUNTUe",
    "pop": 32125,
    "country": "FR",
    "longitude": -63.0501,
    "name": "Saint-Martin",
    "alwaysShow": true,
    "sick": 3,
    "invisible": false
  },
  {
    "lastUpdated": "2020-07-07T23:00:07.858Z",
    "recovered": 3278,
    "infected": 4795,
    "id": "LD8TNScpLrLRvgpQAn9T",
    "pop": 747000,
    "country": "RU",
    "longitude": 36.9242,
    "name": "Oryol Oblast",
    "latitude": 52.7856,
    "dead": 73,
    "sick": 1444,
    "invisible": false
  },
  {
    "longitude": 9.5554,
    "name": "Liechtenstein",
    "latitude": 47.166,
    "dead": 1,
    "lastUpdated": "2020-07-07T23:16:03.202Z",
    "recovered": 81,
    "infected": 84,
    "id": "LTGEU2E9MFkrCcFhZYVk",
    "pop": 38557,
    "country": "LI",
    "sick": 2,
    "invisible": false
  },
  {
    "id": "LU2QWt5ao8IJa8evNYVV",
    "pop": 12720000,
    "country": "GN",
    "longitude": -9.6966,
    "name": "Guinea",
    "latitude": 9.9456,
    "dead": 34,
    "lastUpdated": "2020-07-07T23:16:03.192Z",
    "recovered": 4542,
    "infected": 5636,
    "sick": 1060,
    "invisible": false
  },
  {
    "lastUpdated": "2020-07-07T23:02:10.126Z",
    "recovered": 0,
    "infected": 10619,
    "id": "LYCBHrA9ms6GcxpLGPCT",
    "pop": 3062000,
    "country": "MX",
    "longitude": -110.5,
    "name": "Sonora",
    "latitude": 29.6667,
    "dead": 1055,
    "sick": 9564,
    "invisible": false
  },
  {
    "country": "SR",
    "longitude": -56.0277824,
    "name": "Suriname",
    "latitude": 3.9193051,
    "dead": 15,
    "lastUpdated": "2020-07-07T23:16:03.199Z",
    "recovered": 405,
    "infected": 634,
    "id": "LglKINHyQpYpFxjckbQ6",
    "pop": 563402,
    "sick": 214,
    "invisible": false
  },
  {
    "lastUpdated": "2020-07-07T23:10:03.062Z",
    "recovered": 0,
    "infected": 806,
    "state": "SK",
    "id": "LkIDKY0CMAqzbwBHyYCP",
    "pop": 1174000,
    "country": "CA",
    "longitude": -106.4509,
    "name": "Saskatchewan",
    "latitude": 52.9399,
    "dead": 15,
    "sick": 791,
    "invisible": false
  },
  {
    "lastUpdated": "2020-07-07T23:16:03.206Z",
    "recovered": 8,
    "infected": 10,
    "id": "LooNn6RuMiDhQnwa9svw",
    "pop": 636442,
    "country": "EH",
    "longitude": -12.8858,
    "name": "Western Sahara",
    "latitude": 24.2155,
    "dead": 1,
    "sick": 1,
    "invisible": false
  },
  {
    "recovered": 1063,
    "infected": 3420,
    "state": "AS",
    "id": "Lsga7AvYNnY0qQ5gEfV8",
    "pop": 1022000,
    "country": "ES",
    "longitude": -5.951843,
    "name": "Principado de Asturias",
    "latitude": 43.363129,
    "dead": 334,
    "lastUpdated": "2020-07-07T23:20:15.432Z",
    "sick": 2023,
    "invisible": false
  },
  {
    "lastUpdated": "2020-07-07T23:19:26.811Z",
    "recovered": 2652,
    "infected": 4067,
    "state": "EX",
    "id": "LuEErlF7dVKI0eJsRjFm",
    "pop": 1065000,
    "country": "ES",
    "longitude": -6.0679,
    "name": "Extremadura",
    "latitude": 39.4937,
    "dead": 519,
    "sick": 896,
    "invisible": false
  },
  {
    "lastUpdated": "2020-07-07T23:02:10.126Z",
    "recovered": 0,
    "infected": 11650,
    "id": "M3wdiueFtwrUHiQ2rOXA",
    "pop": 5965000,
    "country": "MX",
    "longitude": -101.2591,
    "name": "Guanajuato",
    "latitude": 21.0186,
    "dead": 719,
    "sick": 10931,
    "invisible": false
  },
  {
    "longitude": -84.27,
    "name": "Kentucky",
    "latitude": 37.8393,
    "dead": 602,
    "lastUpdated": "2020-07-07T23:17:01.550Z",
    "recovered": 0,
    "infected": 17519,
    "state": "KY",
    "id": "MC8MXFw9iXYybnF8v7e6",
    "pop": 4468000,
    "country": "US",
    "sick": 16917,
    "invisible": false
  },
  {
    "recovered": 0,
    "infected": 8206,
    "id": "MEjlm8VYdGA28TTTnQmf",
    "country": "GB",
    "longitude": -3.436,
    "invisible": true,
    "name": "Unknown UK region or state",
    "latitude": 55.3781,
    "dead": 39815,
    "lastUpdated": "2020-07-07T23:13:11.621Z",
    "sick": 0
  },
  {
    "longitude": -7.7441,
    "name": "Norte",
    "latitude": 41.3006,
    "dead": 821,
    "lastUpdated": "2020-07-07T23:23:02.005Z",
    "recovered": 0,
    "infected": 17823,
    "id": "MG4e9tulLJ010SZJvbYN",
    "pop": 3689000,
    "country": "PT",
    "sick": 17002,
    "invisible": false
  },
  {
    "state": "SC",
    "id": "MObRYyIriHG337L8FyFC",
    "pop": 5450000,
    "country": "GB",
    "longitude": -4.2026,
    "name": "Scotland",
    "latitude": 56.4907,
    "dead": 2488,
    "lastUpdated": "2020-07-07T23:13:11.620Z",
    "recovered": 0,
    "infected": 18302,
    "sick": 15814,
    "invisible": false
  },
  {
    "lastUpdated": "2020-07-07T23:17:01.549Z",
    "recovered": 0,
    "infected": 48626,
    "state": "IN",
    "id": "MOxDkmQ4wBi1CuAdVxDE",
    "pop": 6692000,
    "country": "US",
    "longitude": -86.1349,
    "name": "Indiana",
    "latitude": 40.2672,
    "dead": 2717,
    "sick": 45909,
    "invisible": false
  },
  {
    "recovered": 5487,
    "infected": 11194,
    "id": "MdQOfc1gNh2DOqwSP6UV",
    "pop": 24290000,
    "country": "CI",
    "longitude": -5.5471,
    "name": "Ivory Coast",
    "latitude": 7.54,
    "dead": 76,
    "lastUpdated": "2020-07-07T23:16:03.190Z",
    "sick": 5631,
    "invisible": false
  },
  {
    "lastUpdated": "2020-07-07T23:00:02.875Z",
    "recovered": 40231,
    "infected": 44286,
    "state": "NW",
    "id": "MjpYq3zQyAvSQlVVYjD2",
    "pop": 17910000,
    "country": "DE",
    "longitude": 7.6616,
    "name": "Nordrhein-Westfalen",
    "latitude": 51.4332,
    "dead": 1708,
    "sick": 2347,
    "invisible": false
  },
  {
    "latitude": 37.330509,
    "dead": 0,
    "lastUpdated": "2020-07-07T23:08:10.477Z",
    "recovered": 75,
    "infected": 75,
    "id": "MntmjjuHljarCdt6aIeE",
    "pop": 6301000,
    "country": "CN",
    "longitude": 105.977203,
    "name": "Ningxia",
    "sick": 0,
    "invisible": false
  },
  {
    "lastUpdated": "2020-07-07T23:15:01.294Z",
    "recovered": 0,
    "infected": 116152,
    "state": "PA",
    "id": "MuEB2UgkId5crsxi9zQT",
    "pop": 8513497,
    "country": "BR",
    "longitude": -52.203499186,
    "name": "Pará",
    "latitude": -3.20166586,
    "dead": 5128,
    "sick": 111024,
    "invisible": false
  },
  {
    "longitude": 39.2032,
    "name": "Lipetsk Oblast",
    "latitude": 52.5265,
    "dead": 18,
    "lastUpdated": "2020-07-07T23:00:07.859Z",
    "recovered": 2676,
    "infected": 4026,
    "id": "N0KGfqgROVOjAxWcd8wi",
    "pop": 1150000,
    "country": "RU",
    "sick": 1332,
    "invisible": false
  },
  {
    "recovered": 33554,
    "infected": 36302,
    "state": "BW",
    "id": "N3XsRBwJSsNclkEf7Zz5",
    "pop": 11020000,
    "country": "DE",
    "longitude": 9.3501,
    "name": "Baden-Württemberg",
    "latitude": 48.6616,
    "dead": 1892,
    "lastUpdated": "2020-07-07T23:00:02.873Z",
    "sick": 856,
    "invisible": false
  },
  {
    "lastUpdated": "2020-07-07T23:16:03.192Z",
    "recovered": 2693,
    "infected": 5621,
    "id": "N7c13sCQF0G789XAVazJ",
    "pop": 3507000,
    "country": "BA",
    "longitude": 17.824332,
    "name": "Bosnia and Herzegovina",
    "latitude": 44.696652,
    "dead": 207,
    "sick": 2721,
    "invisible": false
  },
  {
    "name": "Shanxi",
    "latitude": 37.242565,
    "dead": 0,
    "lastUpdated": "2020-07-07T23:08:10.476Z",
    "recovered": 198,
    "infected": 198,
    "id": "NBRIGIRrJB1Ry8prDNAC",
    "pop": 36500000,
    "country": "CN",
    "longitude": 111.856857,
    "sick": 0,
    "invisible": false
  },
  {
    "country": "US",
    "longitude": -79.0193,
    "name": "North Carolina",
    "latitude": 35.7596,
    "dead": 1444,
    "lastUpdated": "2020-07-07T23:17:01.549Z",
    "recovered": 0,
    "infected": 76345,
    "state": "NC",
    "id": "NC64Qp5kTqAfiTuR27k8",
    "pop": 10380000,
    "sick": 74901,
    "invisible": false
  },
  {
    "country": "DE",
    "longitude": 12.5316,
    "name": "Brandenburg",
    "latitude": 52.4125,
    "dead": 176,
    "lastUpdated": "2020-07-07T23:00:02.874Z",
    "recovered": 3252,
    "infected": 3534,
    "state": "BB",
    "id": "NJjo2gfBvnbK4xatrsUz",
    "pop": 2504000,
    "sick": 106,
    "invisible": false
  },
  {
    "infected": 31,
    "recovered": 0,
    "pop": 55144,
    "country": "US",
    "lastUpdated": "2020-07-07T23:17:01.552Z",
    "state": "MP",
    "id": "NLLL6pJhJSw0lrDMD4uP",
    "longitude": 145.6739,
    "name": "Northern Mariana Islands",
    "alwaysShow": true,
    "dead": 2,
    "latitude": 15.0979,
    "sick": 29,
    "invisible": false
  },
  {
    "longitude": 79.0193,
    "name": "Uttarakhand",
    "latitude": 30.0668,
    "dead": 43,
    "lastUpdated": "2020-07-07T23:11:01.184Z",
    "recovered": 2621,
    "infected": 3230,
    "id": "NMeZEcGToxXfpi16PfFV",
    "pop": 10080000,
    "country": "IN",
    "sick": 566,
    "invisible": false
  },
  {
    "longitude": 9.1624,
    "name": "Hessen",
    "latitude": 50.6521,
    "dead": 519,
    "lastUpdated": "2020-07-07T23:00:02.875Z",
    "recovered": 10141,
    "infected": 11036,
    "state": "HE",
    "id": "Nk5vPgUIXsWVfbWZf15O",
    "pop": 6243000,
    "country": "DE",
    "sick": 376,
    "invisible": false
  },
  {
    "id": "NmmMKy0YqA8StHdGzB5N",
    "pop": 1920000,
    "country": "LV",
    "longitude": 25.837107,
    "name": "Latvia",
    "latitude": 56.96776,
    "dead": 30,
    "lastUpdated": "2020-07-07T23:16:03.196Z",
    "recovered": 1008,
    "infected": 1134,
    "sick": 96,
    "invisible": false
  },
  {
    "lastUpdated": "2020-07-07T23:15:01.295Z",
    "recovered": 0,
    "infected": 66151,
    "state": "PE",
    "id": "NyGlFL1gATK1Omv9qtcC",
    "pop": 9496294,
    "country": "BR",
    "longitude": -37.946777,
    "name": "Pernambuco",
    "latitude": -8.472372,
    "dead": 5234,
    "sick": 60917,
    "invisible": false
  },
  {
    "lastUpdated": "2020-07-07T23:16:03.197Z",
    "recovered": 394,
    "infected": 917,
    "id": "O4g88K49HKEZLFXm5gxb",
    "pop": 4732000,
    "country": "LR",
    "longitude": -9.4295,
    "name": "Liberia",
    "latitude": 6.4281,
    "dead": 41,
    "sick": 482,
    "invisible": false
  },
  {
    "lastUpdated": "2020-07-07T23:00:07.858Z",
    "recovered": 3383,
    "infected": 4709,
    "id": "O5fNOGWKosps6JTrzkpn",
    "pop": 2350000,
    "country": "RU",
    "longitude": 82.6759,
    "name": "Altai Krai",
    "latitude": 51.7936,
    "dead": 47,
    "sick": 1279,
    "invisible": false
  },
  {
    "recovered": 2422,
    "infected": 3441,
    "id": "O6PDzAxKENYbLsLjPx2K",
    "pop": 1072000,
    "country": "RU",
    "longitude": 116.9677,
    "name": "Zabaykalsky Krai",
    "latitude": 53.0929,
    "dead": 44,
    "lastUpdated": "2020-07-07T23:00:07.859Z",
    "sick": 975,
    "invisible": false
  },
  {
    "lastUpdated": "2020-07-07T23:17:01.550Z",
    "recovered": 0,
    "infected": 47352,
    "state": "SC",
    "id": "ONU4CK8QjViFHKg2w5if",
    "pop": 5084000,
    "country": "US",
    "longitude": -80.525613,
    "name": "South Carolina",
    "latitude": 34.003307,
    "dead": 846,
    "sick": 46506,
    "invisible": false
  },
  {
    "recovered": 0,
    "infected": 32214,
    "state": "MS",
    "id": "OYa0jFzdbAgo8zUsRv6q",
    "pop": 2987000,
    "country": "US",
    "longitude": -89.582775,
    "name": "Mississippi",
    "latitude": 33.51822,
    "dead": 1158,
    "lastUpdated": "2020-07-07T23:17:01.550Z",
    "sick": 31056,
    "invisible": false
  },
  {
    "lastUpdated": "2020-07-07T23:17:01.551Z",
    "recovered": 0,
    "infected": 3440,
    "state": "ME",
    "id": "OcXNp9kNVSwrRlG3bNVN",
    "pop": 1338000,
    "country": "US",
    "longitude": -69.4455,
    "name": "Maine",
    "latitude": 45.2538,
    "dead": 110,
    "sick": 3330,
    "invisible": false
  },
  {
    "id": "OlKS5SPydHY2TedStFuf",
    "pop": 488000,
    "country": "RU",
    "longitude": 44.8203,
    "name": "Ingushetia",
    "latitude": 43.4052,
    "dead": 70,
    "lastUpdated": "2020-07-07T23:00:07.859Z",
    "recovered": 2502,
    "infected": 3185,
    "sick": 613,
    "invisible": false
  },
  {
    "country": "AU",
    "longitude": 146.725256,
    "name": "Tasmania",
    "latitude": -41.915264,
    "dead": 13,
    "lastUpdated": "2020-07-07T23:13:25.898Z",
    "recovered": 215,
    "infected": 228,
    "state": "TAS",
    "id": "OnOseaqWdnuP18oruABW",
    "pop": 515000,
    "sick": 0,
    "invisible": false
  },
  {
    "country": "BR",
    "longitude": -56.666668,
    "name": "Mato Grosso",
    "latitude": -16.35,
    "dead": 846,
    "lastUpdated": "2020-07-07T23:15:01.299Z",
    "recovered": 0,
    "infected": 22406,
    "state": "MT",
    "id": "P0GHFGUt1pkKTk5PM8uz",
    "pop": 3441998,
    "sick": 21560,
    "invisible": false
  },
  {
    "recovered": 3300,
    "infected": 4694,
    "id": "P2I90oqdFSoVk03AaGo4",
    "pop": 1378000,
    "country": "RU",
    "longitude": 40.5927,
    "name": "Vladimir Oblast",
    "latitude": 56.1553,
    "dead": 80,
    "lastUpdated": "2020-07-07T23:00:07.858Z",
    "sick": 1314,
    "invisible": false
  },
  {
    "latitude": 19.3133,
    "dead": 1,
    "lastUpdated": "2020-07-07T23:16:03.201Z",
    "recovered": 194,
    "infected": 201,
    "id": "P4mwRFLbrvT0t75uD8Wo",
    "pop": 61559,
    "country": "KY",
    "longitude": -81.2546,
    "name": "Cayman Islands",
    "sick": 6,
    "invisible": false
  },
  {
    "longitude": -62.1873665,
    "name": "Montserrat",
    "latitude": 16.7424984,
    "dead": 1,
    "lastUpdated": "2020-07-07T23:16:03.205Z",
    "recovered": 10,
    "infected": 11,
    "id": "PEDkeFMTOZpvHiSVxBk7",
    "pop": 5900,
    "country": "MS",
    "sick": 0,
    "invisible": false
  },
  {
    "id": "PEcgZGEkyhABztt1Ufgc",
    "pop": 12210000,
    "country": "RW",
    "longitude": 29.8739,
    "name": "Rwanda",
    "latitude": -1.9403,
    "dead": 3,
    "lastUpdated": "2020-07-07T23:16:03.196Z",
    "recovered": 595,
    "infected": 1172,
    "sick": 574,
    "invisible": false
  },
  {
    "latitude": 54.2312,
    "dead": 19,
    "lastUpdated": "2020-07-07T23:00:07.857Z",
    "recovered": 3446,
    "infected": 5686,
    "id": "PHlHdeqYd6KgxsJGfEz0",
    "pop": 4063000,
    "country": "RU",
    "longitude": 56.1645,
    "name": "Bashkortostan",
    "sick": 2221,
    "invisible": false
  },
  {
    "country": "US",
    "longitude": -94.6859,
    "name": "Minnesota",
    "latitude": 46.7296,
    "dead": 1514,
    "lastUpdated": "2020-07-07T23:17:01.550Z",
    "recovered": 0,
    "infected": 39133,
    "state": "MN",
    "id": "PJvVYosLIhbcRZYnKX1R",
    "pop": 5611000,
    "sick": 37619,
    "invisible": false
  },
  {
    "name": "Illinois",
    "latitude": 40.6331,
    "dead": 7273,
    "lastUpdated": "2020-07-07T23:17:01.548Z",
    "recovered": 0,
    "infected": 149574,
    "state": "IL",
    "id": "PTwQr9ijo0TBBsPH2sdJ",
    "pop": 12740000,
    "country": "US",
    "longitude": -89.3985,
    "sick": 142301,
    "invisible": false
  },
  {
    "latitude": 13.909444,
    "dead": 0,
    "lastUpdated": "2020-07-07T23:16:03.204Z",
    "recovered": 19,
    "infected": 22,
    "id": "PjLqCeFdyzdZNcZxMkK1",
    "pop": 178844,
    "country": "LC",
    "longitude": -60.978893,
    "name": "Saint Lucia",
    "sick": 3,
    "invisible": false
  },
  {
    "latitude": 42.6954,
    "dead": 528,
    "lastUpdated": "2020-07-07T23:19:01.869Z",
    "recovered": 3905,
    "infected": 8643,
    "state": "NC",
    "id": "PmUlsNx2uFLU797wwU39",
    "pop": 649900,
    "country": "ES",
    "longitude": -1.6761,
    "name": "Comunidad Foral de Navarra",
    "sick": 4210,
    "invisible": false
  },
  {
    "id": "Pr76V4raf108uSRoEXac",
    "pop": 11530000,
    "country": "TN",
    "longitude": 9.460554,
    "name": "Tunisia",
    "latitude": 34.201507,
    "dead": 50,
    "lastUpdated": "2020-07-07T23:16:03.196Z",
    "recovered": 1049,
    "infected": 1205,
    "sick": 106,
    "invisible": false
  },
  {
    "lastUpdated": "2020-07-07T23:16:03.197Z",
    "recovered": 570,
    "infected": 1056,
    "id": "PuQgOd9KWiMzGZXm11sR",
    "pop": 1367000,
    "country": "SZ",
    "longitude": 31.4659,
    "name": "Eswatini",
    "latitude": -26.5225,
    "dead": 14,
    "sick": 472,
    "invisible": false
  },
  {
    "latitude": -37.009609,
    "dead": 20,
    "lastUpdated": "2020-07-07T23:13:25.898Z",
    "recovered": 2028,
    "infected": 2368,
    "state": "VIC",
    "id": "Q18mrGvFWTLX2BU9SqhQ",
    "pop": 6359000,
    "country": "AU",
    "longitude": 143.94853,
    "name": "Victoria",
    "sick": 320,
    "invisible": false
  },
  {
    "longitude": 9.6961,
    "name": "Schleswig-Holstein",
    "latitude": 54.2194,
    "dead": 157,
    "lastUpdated": "2020-07-07T23:00:02.876Z",
    "recovered": 2993,
    "infected": 3203,
    "state": "SH",
    "id": "Q39XkabIYxt15mHINzTa",
    "pop": 2890000,
    "country": "DE",
    "sick": 53,
    "invisible": false
  },
  {
    "longitude": -52.031696,
    "name": "Rio Grande do Sul",
    "latitude": -27.953491,
    "dead": 791,
    "lastUpdated": "2020-07-07T23:15:01.299Z",
    "recovered": 0,
    "infected": 33800,
    "state": "RS",
    "id": "QGpQNhuoVTUPHXvS7qcu",
    "pop": 11329605,
    "country": "BR",
    "sick": 33009,
    "invisible": false
  },
  {
    "latitude": 55.5596,
    "dead": 43,
    "lastUpdated": "2020-07-07T23:00:07.857Z",
    "recovered": 3053,
    "infected": 5521,
    "id": "QGyuno7Bc4kwuvGFgMiO",
    "pop": 1231000,
    "country": "RU",
    "longitude": 46.9284,
    "name": "Chuvashia",
    "sick": 2425,
    "invisible": false
  },
  {
    "latitude": 58.595272,
    "dead": 69,
    "lastUpdated": "2020-07-07T23:16:03.195Z",
    "recovered": 1880,
    "infected": 1995,
    "id": "QR9go2hQKXjty7JHUYe4",
    "pop": 1328000,
    "country": "EE",
    "longitude": 25.013607,
    "name": "Estonia",
    "sick": 46,
    "invisible": false
  },
  {
    "recovered": 2022,
    "infected": 3866,
    "id": "QTafh5fpbS8abcuyEjaL",
    "pop": 840000,
    "country": "RU",
    "longitude": 54.8313,
    "name": "Komi Republic",
    "latitude": 63.8631,
    "dead": 35,
    "lastUpdated": "2020-07-07T23:00:07.859Z",
    "sick": 1809,
    "invisible": false
  },
  {
    "latitude": -20.318,
    "dead": 1880,
    "lastUpdated": "2020-07-07T23:15:01.295Z",
    "recovered": 0,
    "infected": 56698,
    "state": "ES",
    "id": "QaWDLKH8SuwD0Qxq6c38",
    "pop": 3972388,
    "country": "BR",
    "longitude": -40.336,
    "name": "Espírito Santo",
    "sick": 54818,
    "invisible": false
  },
  {
    "lastUpdated": "2020-07-07T23:00:07.857Z",
    "recovered": 3735,
    "infected": 6196,
    "id": "Qh73PKA4KWeuPoqZfWXz",
    "pop": 795000,
    "country": "RU",
    "longitude": 35.0884,
    "name": "Murmansk Oblast",
    "latitude": 67.8443,
    "dead": 21,
    "sick": 2440,
    "invisible": false
  },
  {
    "id": "Qkho455pBwx88Gohs3hL",
    "pop": 8222700,
    "country": "MX",
    "longitude": -103.6667,
    "name": "Jalisco",
    "latitude": 20.3333,
    "dead": 867,
    "lastUpdated": "2020-07-07T23:02:10.128Z",
    "recovered": 0,
    "infected": 15996,
    "sick": 15129,
    "invisible": false
  },
  {
    "longitude": 143.9555,
    "name": "Papua New Guinea",
    "latitude": -6.315,
    "dead": 0,
    "lastUpdated": "2020-07-07T23:16:03.206Z",
    "recovered": 8,
    "infected": 11,
    "id": "QlZrE4nosm5WfdA2aCDg",
    "pop": 8251000,
    "country": "PG",
    "sick": 3,
    "invisible": false
  },
  {
    "infected": 116,
    "recovered": 0,
    "pop": 107268,
    "country": "US",
    "lastUpdated": "2020-07-07T23:17:01.552Z",
    "state": "VI",
    "id": "QqhD3YDMKXojvQY3Yu41",
    "longitude": -64.8963,
    "name": "U.S. Virgin Islands",
    "alwaysShow": true,
    "dead": 6,
    "latitude": 18.3358,
    "sick": 110,
    "invisible": false
  },
  {
    "id": "Qy2qW2ep5wltnYjPJBxh",
    "pop": 71937,
    "country": "DM",
    "longitude": -61.3709755,
    "name": "Dominica",
    "latitude": 15.414999,
    "dead": 0,
    "lastUpdated": "2020-07-07T23:16:03.204Z",
    "recovered": 18,
    "infected": 18,
    "sick": 0,
    "invisible": false
  },
  {
    "latitude": 5.167,
    "dead": 0,
    "lastUpdated": "2020-07-07T23:00:08.172Z",
    "recovered": 49,
    "infected": 88,
    "id": "R3IHMWqIUhOJJTlrmbUZ",
    "pop": 344027,
    "country": "CO",
    "longitude": -72.167,
    "name": "Casanare",
    "sick": 39,
    "invisible": false
  },
  {
    "id": "R8YCgephnxTufvcPWMgx",
    "pop": 4099000,
    "country": "PA",
    "longitude": -80.7821,
    "name": "Panama",
    "latitude": 8.538,
    "dead": 770,
    "lastUpdated": "2020-07-07T23:16:03.188Z",
    "recovered": 18036,
    "infected": 39334,
    "sick": 20528,
    "invisible": false
  },
  {
    "latitude": 15.2,
    "dead": 656,
    "lastUpdated": "2020-07-07T23:16:03.189Z",
    "recovered": 2585,
    "infected": 24665,
    "id": "RA2SE0p2bVhqo0P2hzGY",
    "pop": 9265000,
    "country": "HN",
    "longitude": -86.2419,
    "name": "Honduras",
    "sick": 21424,
    "invisible": false
  },
  {
    "longitude": -70.2979202,
    "name": "Arica y Parinacota",
    "latitude": -18.4745998,
    "dead": 22,
    "lastUpdated": "2020-07-07T23:21:04.963Z",
    "recovered": 0,
    "infected": 2119,
    "id": "RBt9RiwP7WUbMnJfD0lo",
    "pop": 224500,
    "country": "CL",
    "sick": 2097,
    "invisible": false
  },
  {
    "lastUpdated": "2020-07-07T23:01:01.614Z",
    "recovered": 2910,
    "infected": 3327,
    "state": "36",
    "id": "RCrDBCdBNYzgLNr0aB2H",
    "pop": 1216000,
    "country": "IT",
    "longitude": 13.8,
    "name": "Friuli Venezia Giulia",
    "latitude": 45.633331,
    "dead": 345,
    "sick": 72,
    "invisible": false
  },
  {
    "id": "RX0KDu1AFrlCsrRso0nb",
    "pop": 3156000,
    "country": "US",
    "longitude": -93.0977,
    "name": "Iowa",
    "latitude": 41.878,
    "dead": 726,
    "lastUpdated": "2020-07-07T23:17:01.550Z",
    "recovered": 0,
    "infected": 32038,
    "state": "IA",
    "sick": 31312,
    "invisible": false
  },
  {
    "country": "CO",
    "longitude": -74.063644,
    "name": "Bogotá D.C.",
    "latitude": 4.624335,
    "dead": 859,
    "lastUpdated": "2020-07-07T23:00:08.168Z",
    "recovered": 14930,
    "infected": 37641,
    "id": "RZ6PCe5TZsO15JjDObwO",
    "pop": 7413000,
    "sick": 21852,
    "invisible": false
  },
  {
    "lastUpdated": "2020-07-07T23:16:03.196Z",
    "recovered": 269,
    "infected": 1117,
    "id": "RaJxbzlnRFTuj4B8IbpC",
    "pop": 6846000,
    "country": "LY",
    "longitude": 17.2283306,
    "name": "Libya",
    "latitude": 26.3351002,
    "dead": 34,
    "sick": 814,
    "invisible": false
  },
  {
    "latitude": 39.0119,
    "dead": 288,
    "lastUpdated": "2020-07-07T23:17:01.551Z",
    "recovered": 0,
    "infected": 17070,
    "state": "KS",
    "id": "Rf4uvBfP3GRDSHdZElRd",
    "pop": 2912000,
    "country": "US",
    "longitude": -98.4842,
    "name": "Kansas",
    "sick": 16782,
    "invisible": false
  },
  {
    "latitude": 48.6998,
    "dead": 3581,
    "lastUpdated": "2020-07-06T23:46:51.120Z",
    "recovered": 12277,
    "infected": 26114,
    "id": "RmEgf1xeclWt7XCF9oiR",
    "pop": 5518000,
    "country": "FR",
    "longitude": 6.1878,
    "name": "Grand Est",
    "sick": 10256,
    "invisible": false
  },
  {
    "lastUpdated": "2020-07-07T23:07:12.050Z",
    "recovered": 4901,
    "infected": 19395,
    "state": "WAL",
    "id": "RryHraSohKQLAsdr1dHO",
    "pop": 3644000,
    "country": "BE",
    "longitude": 4.451,
    "name": "Wallonia",
    "latitude": 50.4176,
    "dead": 3388,
    "sick": 11106,
    "invisible": false
  },
  {
    "id": "Rx4TuyMpfGb3S8wYJX0x",
    "pop": 14570000,
    "country": "CA",
    "longitude": -85.3232,
    "name": "Ontario",
    "latitude": 51.2538,
    "dead": 2744,
    "lastUpdated": "2020-07-07T23:10:03.058Z",
    "recovered": 0,
    "infected": 37917,
    "state": "ON",
    "sick": 35173,
    "invisible": false
  },
  {
    "recovered": 8716,
    "infected": 26064,
    "state": "CL",
    "id": "S8ewN4zaYp8mjtuqqOTw",
    "pop": 2408000,
    "country": "ES",
    "longitude": -4.723611,
    "name": "Castilla y León",
    "latitude": 41.652779,
    "dead": 2788,
    "lastUpdated": "2020-07-07T23:18:30.840Z",
    "sick": 14560,
    "invisible": false
  },
  {
    "longitude": -61.011715,
    "name": "Martinique",
    "alwaysShow": true,
    "latitude": 14.652027,
    "dead": 14,
    "lastUpdated": "2020-07-07T23:16:03.201Z",
    "recovered": 98,
    "infected": 249,
    "id": "SDdefnq1bc3ZNr7SpEsW",
    "pop": 376480,
    "country": "FR",
    "sick": 137,
    "invisible": false
  },
  {
    "lastUpdated": "2020-07-07T23:16:03.189Z",
    "recovered": 17156,
    "infected": 21968,
    "id": "SG9VWLOV3x2JsTkXmVSz",
    "pop": 28830000,
    "country": "GH",
    "longitude": -1.0232,
    "name": "Ghana",
    "latitude": 7.9465,
    "dead": 129,
    "sick": 4683,
    "invisible": false
  },
  {
    "latitude": 46.818188,
    "dead": 1966,
    "lastUpdated": "2020-07-07T23:16:03.188Z",
    "recovered": 29300,
    "infected": 32369,
    "id": "SGe9sCPayMqh6RsGFaBA",
    "pop": 8570000,
    "country": "CH",
    "longitude": 8.227512,
    "name": "Switzerland",
    "sick": 1103,
    "invisible": false
  },
  {
    "id": "SGhKBmmh5hss7hrNR8hK",
    "pop": 964000,
    "country": "RU",
    "longitude": 124.1238,
    "name": "Yakutia",
    "latitude": 66.7613,
    "dead": 34,
    "lastUpdated": "2020-07-07T23:00:07.858Z",
    "recovered": 3626,
    "infected": 4550,
    "sick": 890,
    "invisible": false
  },
  {
    "lastUpdated": "2020-07-07T23:10:03.057Z",
    "recovered": 0,
    "infected": 55997,
    "state": "QC",
    "id": "SHoOE3NiJgWAlDVBzwYH",
    "pop": 8485000,
    "country": "CA",
    "longitude": -71.208,
    "name": "Quebec",
    "latitude": 46.8139,
    "dead": 5590,
    "sick": 50407,
    "invisible": false
  },
  {
    "lastUpdated": "2020-07-07T23:25:01.584Z",
    "recovered": 1946,
    "infected": 3703,
    "id": "SMWvuMMuKp2QK7O2tNia",
    "pop": 1831000,
    "country": "XK",
    "longitude": 20.903,
    "name": "Kosovo",
    "latitude": 42.6026,
    "dead": 79,
    "sick": 1678,
    "invisible": false
  },
  {
    "id": "SNWCQwRwqYfxX8HZndTA",
    "pop": 1913000,
    "country": "RU",
    "longitude": 135,
    "name": "Primorsky Krai",
    "latitude": 45.0526,
    "dead": 54,
    "lastUpdated": "2020-07-07T23:00:07.858Z",
    "recovered": 3135,
    "infected": 4792,
    "sick": 1603,
    "invisible": false
  },
  {
    "lastUpdated": "2020-07-07T23:11:01.184Z",
    "recovered": 1156,
    "infected": 1903,
    "id": "SPcujsH2YlUaoAr8AiWF",
    "pop": 1817000,
    "country": "IN",
    "longitude": 74.124,
    "name": "Goa",
    "latitude": 15.2993,
    "dead": 8,
    "sick": 739,
    "invisible": false
  },
  {
    "latitude": -16.328547,
    "dead": 701,
    "lastUpdated": "2020-07-07T23:15:01.299Z",
    "recovered": 0,
    "infected": 31308,
    "state": "GO",
    "id": "SV5AMF59J61Vt4cXWLgy",
    "pop": 6921161,
    "country": "BR",
    "longitude": -48.953403,
    "name": "Goiás",
    "sick": 30607,
    "invisible": false
  },
  {
    "recovered": 1,
    "infected": 1,
    "id": "SYFarIS62W0EW9bOaJmN",
    "pop": 75500,
    "country": "CO",
    "longitude": -68.436,
    "name": "Vichada",
    "latitude": 6.181,
    "dead": 0,
    "lastUpdated": "2020-07-07T23:00:08.173Z",
    "sick": 0,
    "invisible": false
  },
  {
    "lastUpdated": "2020-07-07T23:01:01.614Z",
    "recovered": 1060,
    "infected": 1184,
    "state": "78",
    "id": "SZdF624x0v1LlyzZjKFu",
    "pop": 1957000,
    "country": "IT",
    "longitude": 16.5,
    "name": "Calabria",
    "latitude": 39,
    "dead": 97,
    "sick": 27,
    "invisible": false
  },
  {
    "recovered": 0,
    "infected": 20046,
    "state": "NE",
    "id": "SakhKQzKu1LRI8laqdQq",
    "pop": 1929000,
    "country": "US",
    "longitude": -99.9018,
    "name": "Nebraska",
    "latitude": 41.4925,
    "dead": 283,
    "lastUpdated": "2020-07-07T22:47:01.114Z",
    "sick": 19763,
    "invisible": false
  },
  {
    "id": "SgHzWAAYK1j2sipovxM6",
    "pop": 859959,
    "country": "FR",
    "longitude": 55.5364,
    "name": "La Réunion",
    "alwaysShow": true,
    "latitude": -21.1151,
    "dead": 3,
    "lastUpdated": "2020-07-07T23:16:03.199Z",
    "recovered": 472,
    "infected": 551,
    "sick": 76,
    "invisible": false
  },
  {
    "recovered": 131,
    "infected": 141,
    "id": "SioMALgUbo7peXmbco2f",
    "pop": 16010000,
    "country": "KH",
    "longitude": 104.990967,
    "name": "Cambodia",
    "latitude": 12.565679,
    "dead": 0,
    "lastUpdated": "2020-07-07T23:16:03.202Z",
    "sick": 10,
    "invisible": false
  },
  {
    "dead": 5,
    "latitude": 13.4443,
    "infected": 303,
    "recovered": 0,
    "pop": 164229,
    "country": "US",
    "lastUpdated": "2020-07-07T23:17:01.552Z",
    "state": "GU",
    "id": "SsWhuEElU7dCTTuH5fdQ",
    "longitude": 144.7937,
    "name": "Guam",
    "alwaysShow": true,
    "sick": 298,
    "invisible": false
  },
  {
    "recovered": 24238,
    "infected": 0,
    "id": "SuCr5emUaJ9RHTll1P1p",
    "country": "PL",
    "longitude": 19.1344,
    "invisible": true,
    "name": "Unknown Poland region",
    "latitude": 51.9189,
    "dead": 0,
    "lastUpdated": "2020-07-07T23:16:03.188Z",
    "sick": 0
  },
  {
    "latitude": 57.067,
    "dead": 17,
    "lastUpdated": "2020-07-07T23:00:07.861Z",
    "recovered": 1210,
    "infected": 1554,
    "id": "Sx03z01BJCAbrYkWhEaD",
    "pop": 1513000,
    "country": "RU",
    "longitude": 53.0278,
    "name": "Udmurtia",
    "sick": 327,
    "invisible": false
  },
  {
    "name": "DR Congo",
    "latitude": -4.0383,
    "dead": 182,
    "lastUpdated": "2020-07-07T23:16:03.191Z",
    "recovered": 3226,
    "infected": 7432,
    "id": "T3iRf8mTUTAzbKrORTap",
    "pop": 84070000,
    "country": "CD",
    "longitude": 21.7587,
    "sick": 4024,
    "invisible": false
  },
  {
    "latitude": 23.635796,
    "dead": 2017,
    "lastUpdated": "2020-07-07T23:16:03.185Z",
    "recovered": 154839,
    "infected": 217108,
    "id": "T7NffoeCgTUpAbOHvYwP",
    "pop": 32940000,
    "country": "SA",
    "longitude": 44.344334,
    "name": "Saudi Arabia",
    "sick": 60252,
    "invisible": false
  },
  {
    "id": "TNDTapyb0k3l7Mds9q9R",
    "pop": 315700,
    "country": "ES",
    "longitude": -2.5396,
    "name": "La Rioja",
    "latitude": 42.2871,
    "dead": 366,
    "lastUpdated": "2020-07-07T23:19:52.821Z",
    "recovered": 3107,
    "infected": 5473,
    "state": "RI",
    "sick": 2000,
    "invisible": false
  },
  {
    "latitude": 20.400417,
    "dead": 547,
    "lastUpdated": "2020-07-07T23:02:10.126Z",
    "recovered": 0,
    "infected": 5229,
    "id": "TQCWbhIpJQBQxBjhCGVJ",
    "pop": 2207200,
    "country": "MX",
    "longitude": -89.134857,
    "name": "Yucatán",
    "sick": 4682,
    "invisible": false
  },
  {
    "latitude": 4.506106,
    "dead": 3,
    "lastUpdated": "2020-07-07T23:16:03.202Z",
    "recovered": 138,
    "infected": 141,
    "id": "TQZmzsLhJqjtCSExAkCP",
    "pop": 428697,
    "country": "BN",
    "longitude": 114.650692,
    "name": "Brunei",
    "sick": 0,
    "invisible": false
  },
  {
    "longitude": 4.3853,
    "name": "Auvergne-Rhône-Alpes",
    "latitude": 45.4471,
    "dead": 1742,
    "lastUpdated": "2020-07-06T23:47:55.524Z",
    "recovered": 7765,
    "infected": 15437,
    "state": "",
    "id": "TT0MKODSjrxHvG19xZCa",
    "pop": 8027000,
    "country": "FR",
    "sick": 5930,
    "invisible": false
  },
  {
    "name": "Alentejo",
    "latitude": 38.5667,
    "dead": 17,
    "lastUpdated": "2020-07-07T23:23:02.006Z",
    "recovered": 0,
    "infected": 544,
    "id": "TeoNTu4aw5riC04sTd73",
    "pop": 758700,
    "country": "PT",
    "longitude": -7.9,
    "sick": 527,
    "invisible": false
  },