[
  {
    "recovered": 1,
    "latitude": 12.5847,
    "pop": 72600,
    "longitude": -81.7006,
    "name": "San Andrés",
    "country": "CO",
    "lastUpdated": "2020-04-15T15:16:08.919Z",
    "dead": 0,
    "id": "01b09TY4vmuZwzVuiRFK",
    "infected": 5,
    "sick": 4,
    "invisible": false
  },
  {
    "infected": 228,
    "recovered": 69,
    "latitude": 49.4482,
    "pop": 67052,
    "longitude": -2.5895,
    "name": "Guernsey",
    "country": "GG",
    "lastUpdated": "2020-04-15T15:06:09.456Z",
    "dead": 8,
    "id": "0FOJefeLxQYXQ1CnJm9o",
    "sick": 151,
    "invisible": false
  },
  {
    "recovered": 415,
    "latitude": 41.066666,
    "pop": 5827000,
    "longitude": 14.333333,
    "name": "Campania",
    "country": "IT",
    "lastUpdated": "2020-04-15T14:55:09.042Z",
    "dead": 260,
    "id": "0GJcws44NSPsDHAuxJhW",
    "infected": 3769,
    "sick": 3094,
    "invisible": false
  },
  {
    "id": "0HDQbiHe462xMCUV5HiI",
    "infected": 62,
    "recovered": 0,
    "latitude": -20.2167,
    "pop": 383870,
    "longitude": -70.14222,
    "name": "Tarapacá",
    "country": "CL",
    "lastUpdated": "2020-04-15T15:07:12.953Z",
    "dead": 0,
    "sick": 62,
    "invisible": false
  },
  {
    "recovered": 18,
    "latitude": 20.9517,
    "pop": 45990000,
    "longitude": 85.0985,
    "name": "Odisha",
    "country": "IN",
    "lastUpdated": "2020-04-15T15:11:01.918Z",
    "dead": 1,
    "id": "0VG7S6aaK4eSo59fL9JO",
    "infected": 60,
    "sick": 41,
    "invisible": false
  },
  {
    "longitude": -98.8582,
    "name": "Hidalgo",
    "country": "MX",
    "lastUpdated": "2020-04-15T15:10:08.185Z",
    "dead": 10,
    "id": "0XmCRqiK2ZaehoEJvfer",
    "infected": 64,
    "recovered": 0,
    "latitude": 20.4737,
    "pop": 2990300,
    "sick": 54,
    "invisible": false
  },
  {
    "latitude": 11.7401,
    "pop": 427246,
    "longitude": 92.6586,
    "name": "Andaman and Nicobar Islands",
    "country": "IN",
    "lastUpdated": "2020-04-15T15:11:01.919Z",
    "dead": 0,
    "id": "0jStOpTUNRaQYJqgmRoK",
    "infected": 11,
    "recovered": 10,
    "sick": 1,
    "invisible": false
  },
  {
    "id": "0m4aECS0Z2DGFEr8ldgI",
    "infected": 3711,
    "recovered": 406,
    "latitude": 25.315058,
    "pop": 2639000,
    "longitude": 51.145517,
    "name": "Qatar",
    "country": "QA",
    "lastUpdated": "2020-04-15T15:06:03.851Z",
    "dead": 7,
    "sick": 3298,
    "invisible": false
  },
  {
    "recovered": 37,
    "latitude": 22.9868,
    "pop": 90320000,
    "longitude": 87.855,
    "name": "West Bengal",
    "country": "IN",
    "lastUpdated": "2020-04-15T15:11:01.918Z",
    "dead": 7,
    "id": "0n54EMSDJcRoT1QEvw80",
    "infected": 213,
    "sick": 169,
    "invisible": false
  },
  {
    "latitude": 22.9734,
    "pop": 73340000,
    "longitude": 78.6569,
    "name": "Madhya Pradesh",
    "country": "IN",
    "lastUpdated": "2020-04-15T15:11:01.917Z",
    "dead": 53,
    "id": "0s18o5DrDAHjbu5MFcrj",
    "infected": 741,
    "recovered": 64,
    "sick": 624,
    "invisible": false
  },
  {
    "latitude": 37.0902,
    "longitude": -95.7129,
    "name": "Unknown US state",
    "country": "US",
    "lastUpdated": "2020-04-15T15:06:03.848Z",
    "dead": 0,
    "id": "0tFoopNTs6e4tOoaltu2",
    "invisible": true,
    "infected": 0,
    "recovered": 38879,
    "sick": 0
  },
  {
    "latitude": 35.64249,
    "pop": 37330000,
    "longitude": 108.472214,
    "name": "Shaanxi",
    "country": "CN",
    "lastUpdated": "2020-04-15T15:08:12.251Z",
    "dead": 3,
    "id": "0x2HLhr5z5xAtEdO4iZm",
    "infected": 256,
    "recovered": 251,
    "sick": 2,
    "invisible": false
  },
  {
    "id": "19MvIhipqTyYv1H37Upw",
    "infected": 974,
    "recovered": 98,
    "latitude": 41.643351,
    "pop": 2077000,
    "longitude": 21.668393,
    "name": "North Macedonia",
    "country": "MK",
    "lastUpdated": "2020-04-15T15:06:03.854Z",
    "dead": 45,
    "sick": 831,
    "invisible": false
  },
  {
    "infected": 244,
    "recovered": 0,
    "latitude": 53.1355,
    "pop": 521542,
    "longitude": -57.6604,
    "name": "Newfoundland and Labrador",
    "country": "CA",
    "lastUpdated": "2020-04-15T15:06:01.398Z",
    "dead": 3,
    "id": "1DOMOmCWDtva46OVSZLv",
    "sick": 241,
    "invisible": false
  },
  {
    "recovered": 18,
    "latitude": 35.801933,
    "pop": 5627000,
    "longitude": 96.779286,
    "name": "Qinghai",
    "country": "CN",
    "lastUpdated": "2020-04-15T15:08:12.252Z",
    "dead": 0,
    "id": "1Fap7rZu9SIRqf5TG9Dg",
    "infected": 18,
    "sick": 0,
    "invisible": false
  },
  {
    "latitude": 23.6345,
    "pop": 126200000,
    "longitude": -102.5528,
    "name": "Unknown Mexico state",
    "country": "MX",
    "lastUpdated": "2020-04-15T15:06:03.851Z",
    "dead": 0,
    "id": "1YXQMlVL3fUeDZmcVfJw",
    "invisible": true,
    "infected": 0,
    "recovered": 2125,
    "sick": 0
  },
  {
    "lastUpdated": "2020-04-15T14:55:09.051Z",
    "dead": 1927,
    "id": "1eTSQyfp8RoDPeFrIwun",
    "infected": 17690,
    "recovered": 2708,
    "latitude": 44.9,
    "pop": 4376000,
    "longitude": 8.206944,
    "name": "Piemonte",
    "country": "IT",
    "sick": 13055,
    "invisible": false
  },
  {
    "id": "1qTPB8X3tyLyIdsb5TN3",
    "infected": 1934,
    "recovered": 171,
    "latitude": 47.4116,
    "pop": 3550000,
    "longitude": 28.3699,
    "name": "Moldova",
    "country": "MD",
    "lastUpdated": "2020-04-15T15:06:03.852Z",
    "dead": 43,
    "sick": 1720,
    "invisible": false
  },
  {
    "infected": 1,
    "recovered": 1,
    "latitude": 30.15336,
    "pop": 3180000,
    "longitude": 88.787865,
    "name": "Tibet",
    "country": "CN",
    "lastUpdated": "2020-04-15T15:08:12.252Z",
    "dead": 0,
    "id": "25qIBtsW2nfQj3pwBKg9",
    "sick": 0,
    "invisible": false
  },
  {
    "recovered": 446,
    "latitude": -1.572184,
    "pop": 264000000,
    "longitude": 115.66779,
    "name": "Indonesia",
    "country": "ID",
    "lastUpdated": "2020-04-15T15:06:03.851Z",
    "dead": 469,
    "id": "2KHYUb5t3lwzVVmDjwNX",
    "infected": 5136,
    "sick": 4221,
    "invisible": false
  },
  {
    "infected": 1633,
    "recovered": 0,
    "latitude": 43.807191,
    "pop": 4191000,
    "longitude": -120.585594,
    "name": "Oregon",
    "country": "US",
    "lastUpdated": "2020-04-15T15:14:21.018Z",
    "dead": 55,
    "id": "2OrsssmGUs4XCzaZzvTv",
    "sick": 1578,
    "invisible": false
  },
  {
    "infected": 155,
    "recovered": 0,
    "latitude": -23.65,
    "pop": 425000,
    "longitude": -70.400002,
    "name": "Antofagasta",
    "country": "CL",
    "lastUpdated": "2020-04-15T15:07:12.954Z",
    "dead": 1,
    "id": "2c5HBZ1ffkCVXnMYUWnY",
    "sick": 154,
    "invisible": false
  },
  {
    "infected": 307,
    "recovered": 0,
    "latitude": 0.035574,
    "pop": 9029000,
    "longitude": -51.070534,
    "name": "Amapá",
    "country": "BR",
    "lastUpdated": "2020-04-15T15:09:07.450Z",
    "dead": 6,
    "id": "2dzhyWsBSPpENWlNew0b",
    "sick": 301,
    "invisible": false
  },
  {
    "infected": 102,
    "recovered": 96,
    "latitude": 43.851921,
    "pop": 27460000,
    "longitude": 126.548103,
    "name": "Jilin",
    "country": "CN",
    "lastUpdated": "2020-04-15T15:08:12.251Z",
    "dead": 1,
    "id": "2jxHvSsxdnom0nPNvOT8",
    "sick": 5,
    "invisible": false
  },
  {
    "infected": 129,
    "recovered": 104,
    "latitude": 36.1408,
    "pop": 34571,
    "longitude": -5.3536,
    "name": "Gibraltar",
    "country": "GI",
    "lastUpdated": "2020-04-15T15:06:03.861Z",
    "dead": 0,
    "id": "2p11BjSAs3wVyymgqBOe",
    "sick": 25,
    "invisible": false
  },
  {
    "latitude": 47.7516,
    "pop": 2567000,
    "longitude": 1.6751,
    "name": "Centre-Val de Loire",
    "country": "FR",
    "lastUpdated": "2020-04-15T04:22:27.485Z",
    "dead": 227,
    "id": "2sLNkkHpyaHx7dD3aMDO",
    "infected": 2689,
    "recovered": 629,
    "sick": 1833,
    "invisible": false
  },
  {
    "latitude": 42.565044,
    "pop": 884640,
    "longitude": 12.643751,
    "name": "Umbria",
    "country": "IT",
    "lastUpdated": "2020-04-15T14:55:09.053Z",
    "dead": 53,
    "id": "319tiZOMczx1y0DfvOib",
    "infected": 1321,
    "recovered": 646,
    "sick": 622,
    "invisible": false
  },
  {
    "lastUpdated": "2020-04-15T15:16:08.919Z",
    "dead": 2,
    "id": "38T96Q3XNjt5FSJygPed",
    "infected": 20,
    "recovered": 4,
    "latitude": 2.43823,
    "pop": 1355000,
    "longitude": -76.6131592,
    "name": "Cauca",
    "country": "CO",
    "sick": 14,
    "invisible": false
  },
  {
    "id": "3IlPjAbP5qVMn1nlgLTJ",
    "infected": 48,
    "recovered": 30,
    "latitude": -13.133896,
    "pop": 17090000,
    "longitude": 27.849332,
    "name": "Zambia",
    "country": "ZM",
    "lastUpdated": "2020-04-15T15:06:03.864Z",
    "dead": 2,
    "sick": 16,
    "invisible": false
  },
  {
    "recovered": 46,
    "latitude": 42.7044,
    "pop": 631219,
    "longitude": 19.3958,
    "name": "Montenegro",
    "country": "ME",
    "lastUpdated": "2020-04-15T15:06:03.860Z",
    "dead": 4,
    "id": "3LstMSN5XMYBkxbe5HN7",
    "infected": 288,
    "sick": 238,
    "invisible": false
  },
  {
    "latitude": -35.4735,
    "pop": 418440,
    "longitude": 149.0124,
    "name": "Australian Capital Territory",
    "country": "AU",
    "lastUpdated": "2020-04-15T15:06:01.400Z",
    "dead": 3,
    "id": "3OZoQsKrzxZ18EKyfGE6",
    "infected": 103,
    "recovered": 72,
    "sick": 28,
    "invisible": false
  },
  {
    "infected": 32,
    "recovered": 2,
    "latitude": 26.2006,
    "pop": 30940000,
    "longitude": 92.9376,
    "name": "Assam",
    "country": "IN",
    "lastUpdated": "2020-04-15T15:11:01.919Z",
    "dead": 1,
    "id": "3cCbnJCsK7mKlTO08K1o",
    "sick": 29,
    "invisible": false
  },
  {
    "recovered": 0,
    "latitude": 40.4173,
    "pop": 11690000,
    "longitude": -82.9071,
    "name": "Ohio",
    "country": "US",
    "lastUpdated": "2020-04-15T15:14:21.013Z",
    "dead": 324,
    "id": "3fC3bAyIRUquOQOEnQNe",
    "infected": 7285,
    "sick": 6961,
    "invisible": false
  },
  {
    "id": "3kFCzJguabtBvXaHxgiu",
    "infected": 261,
    "recovered": 0,
    "latitude": 25,
    "pop": 3066400,
    "longitude": -107.5,
    "name": "Sinaloa",
    "country": "MX",
    "lastUpdated": "2020-04-15T15:10:08.183Z",
    "dead": 34,
    "sick": 227,
    "invisible": false
  },
  {
    "latitude": 3.420556,
    "pop": 4708300,
    "longitude": -76.522224,
    "name": "Valle del Cauca",
    "country": "CO",
    "lastUpdated": "2020-04-15T15:16:08.917Z",
    "dead": 18,
    "id": "3mC2LveOpXV8P1PmQGUj",
    "infected": 505,
    "recovered": 46,
    "sick": 441,
    "invisible": false
  },
  {
    "longitude": -10.9408,
    "name": "Mauritania",
    "country": "MR",
    "lastUpdated": "2020-04-15T15:06:03.867Z",
    "dead": 1,
    "id": "4NnFMekRK2m14IlnZZoj",
    "infected": 7,
    "recovered": 2,
    "latitude": 21.0079,
    "pop": 4420000,
    "sick": 4,
    "invisible": false
  },
  {
    "lastUpdated": "2020-04-15T15:06:01.397Z",
    "dead": 72,
    "id": "4hfZRUoUgI4a3vrG0GBk",
    "infected": 1517,
    "recovered": 0,
    "latitude": 53.7267,
    "pop": 5071000,
    "longitude": -127.6476,
    "name": "British Columbia",
    "country": "CA",
    "sick": 1445,
    "invisible": false
  },
  {
    "longitude": -43.196388,
    "name": "Rio de Janeiro",
    "country": "BR",
    "lastUpdated": "2020-04-15T15:09:07.452Z",
    "dead": 224,
    "id": "4kq0z3kh5zt3YAUWxvtE",
    "infected": 3410,
    "recovered": 0,
    "latitude": -22.908333,
    "pop": 17159960,
    "sick": 3186,
    "invisible": false
  },
  {
    "infected": 759,
    "recovered": 0,
    "latitude": -11.409874,
    "pop": 14812617,
    "longitude": -41.280857,
    "name": "Bahia",
    "country": "BR",
    "lastUpdated": "2020-04-15T15:09:07.450Z",
    "dead": 22,
    "id": "4yDbkEyqsNzZJjfrciYV",
    "sick": 737,
    "invisible": false
  },
  {
    "recovered": 404,
    "latitude": 40.3426,
    "pop": 9898000,
    "longitude": 47.93802,
    "name": "Azerbaijan",
    "country": "AZ",
    "lastUpdated": "2020-04-15T15:06:03.853Z",
    "dead": 13,
    "id": "4zqzRm2xHn0CDVOUQJ8p",
    "infected": 1253,
    "sick": 836,
    "invisible": false
  },
  {
    "latitude": 22.233105,
    "pop": 3672300,
    "longitude": -97.861099,
    "name": "Tamaulipas",
    "country": "MX",
    "lastUpdated": "2020-04-15T15:10:08.184Z",
    "dead": 3,
    "id": "54cfsdsRF76XVHWtZs19",
    "infected": 86,
    "recovered": 0,
    "sick": 83,
    "invisible": false
  },
  {
    "infected": 19666,
    "recovered": 4069,
    "latitude": 51.0109,
    "pop": 6596000,
    "longitude": 3.7265,
    "name": "Flanders",
    "country": "BE",
    "lastUpdated": "2020-04-15T14:59:12.397Z",
    "dead": 2243,
    "id": "57ydD48mLRD2YoyteJZj",
    "sick": 13354,
    "invisible": false
  },
  {
    "lastUpdated": "2020-04-15T15:06:03.863Z",
    "dead": 8,
    "id": "5MHegCUO9L3LiAU7DDey",
    "infected": 49,
    "recovered": 6,
    "latitude": 25.025885,
    "pop": 395361,
    "longitude": -78.035889,
    "name": "Bahamas",
    "country": "BS",
    "sick": 35,
    "invisible": false
  },
  {
    "id": "5N16a2OXXRpsEFanw0TC",
    "infected": 2886,
    "recovered": 4,
    "latitude": -31.253218,
    "pop": 7544000,
    "longitude": 146.921097,
    "name": "New South Wales",
    "country": "AU",
    "lastUpdated": "2020-04-15T15:06:01.396Z",
    "dead": 25,
    "sick": 2857,
    "invisible": false
  },
  {
    "infected": 4,
    "recovered": 0,
    "latitude": 6.8769908,
    "pop": 12580000,
    "longitude": 31.3069782,
    "name": "South Sudan",
    "country": "SS",
    "lastUpdated": "2020-04-15T15:06:03.867Z",
    "dead": 0,
    "id": "5N4PRxsCDzzwk7R200V1",
    "sick": 4,
    "invisible": false
  },
  {
    "recovered": 3360,
    "latitude": 39.484,
    "pop": 4975000,
    "longitude": -0.7533,
    "name": "C. Valenciana",
    "country": "ES",
    "lastUpdated": "2020-04-15T15:11:03.230Z",
    "dead": 945,
    "id": "5Va9A7CXR8AXdUz4HTJj",
    "infected": 9424,
    "sick": 5119,
    "invisible": false
  },
  {
    "longitude": 165.618042,
    "name": "New Caledonia",
    "country": "NC",
    "lastUpdated": "2020-04-15T15:06:03.865Z",
    "dead": 0,
    "id": "5fg04eyDwFw3kEXnrxez",
    "infected": 18,
    "recovered": 1,
    "latitude": -20.9043045,
    "pop": 280460,
    "sick": 17,
    "invisible": false
  },
  {
    "longitude": 84.124008,
    "name": "Nepal",
    "country": "NP",
    "lastUpdated": "2020-04-15T15:06:03.865Z",
    "dead": 0,
    "id": "5gXZIjRgAvd6xWN1LOv8",
    "infected": 16,
    "recovered": 1,
    "latitude": 28.394857,
    "pop": 29300000,
    "sick": 15,
    "invisible": false
  },
  {
    "longitude": 121.774017,
    "name": "Philippines",
    "country": "PH",
    "lastUpdated": "2020-04-15T15:06:03.851Z",
    "dead": 349,
    "id": "5pwmh7aSdGRKqRbnuyc0",
    "infected": 5453,
    "recovered": 353,
    "latitude": 12.879721,
    "pop": 104900000,
    "sick": 4751,
    "invisible": false
  },
  {
    "latitude": -17.824858,
    "pop": 14802190,
    "longitude": 31.053028,
    "name": "Zimbabwe",
    "country": "ZW",
    "lastUpdated": "2020-04-15T15:06:03.865Z",
    "dead": 3,
    "id": "5qtR9nx4BLwu1ODTniaY",
    "infected": 18,
    "recovered": 1,
    "sick": 14,
    "invisible": false
  },
  {
    "latitude": 36.0672,
    "pop": 356890,
    "longitude": -109.188,
    "name": "Navajo Nation",
    "country": "US",
    "lastUpdated": "2020-04-15T15:14:21.020Z",
    "dead": 33,
    "id": "5vkKgxTaKq1IH0Go357L",
    "invisible": true,
    "infected": 838,
    "recovered": 0,
    "sick": 805
  },
  {
    "latitude": 19.432241,
    "pop": 8781300,
    "longitude": -99.177254,
    "name": "Ciudad de México",
    "country": "MX",
    "lastUpdated": "2020-04-15T15:10:08.184Z",
    "dead": 92,
    "id": "61E7TGjUwAo9xu6Y6gAH",
    "infected": 1556,
    "recovered": 0,
    "sick": 1464,
    "invisible": false
  },
  {
    "infected": 1091,
    "recovered": 138,
    "latitude": 55.621011,
    "pop": 2794000,
    "longitude": 23.804991,
    "name": "Lithuania",
    "country": "LT",
    "lastUpdated": "2020-04-15T15:06:03.853Z",
    "dead": 29,
    "id": "694ON7d0mRJDeM1gHBTR",
    "sick": 924,
    "invisible": false
  },
  {
    "latitude": 51.1781,
    "pop": 9175000,
    "longitude": -0.5596,
    "name": "South East",
    "country": "GB",
    "lastUpdated": "2020-04-15T15:06:11.323Z",
    "dead": 0,
    "id": "6IQAsvrmBv0HPdeTnh4x",
    "infected": 9334,
    "recovered": 0,
    "sick": 9334,
    "invisible": false
  },
  {
    "recovered": 459,
    "latitude": 22.396427,
    "pop": 7392000,
    "longitude": 114.109497,
    "name": "Hong Kong",
    "country": "HK",
    "lastUpdated": "2020-04-15T15:06:03.854Z",
    "dead": 4,
    "id": "6IcHIIH0zXpY0POmBZTv",
    "infected": 1017,
    "sick": 554,
    "invisible": false
  },
  {
    "infected": 99,
    "recovered": 0,
    "latitude": -8.65,
    "pop": 869265,
    "longitude": -72.4,
    "name": "Acre",
    "country": "BR",
    "lastUpdated": "2020-04-15T15:09:07.442Z",
    "dead": 3,
    "id": "6LQesrx5bHJsVUi1TXBp",
    "sick": 96,
    "invisible": false
  },
  {
    "latitude": 9.3077,
    "pop": 11180000,
    "longitude": 2.3158,
    "name": "Benin",
    "country": "BJ",
    "lastUpdated": "2020-04-15T15:06:03.864Z",
    "dead": 1,
    "id": "6SlpghTyB6lpMFvx3g9U",
    "infected": 35,
    "recovered": 18,
    "sick": 16,
    "invisible": false
  },
  {
    "lastUpdated": "2020-04-15T14:55:09.051Z",
    "dead": 11142,
    "id": "6ZHcvMIzVWIaRnc4R3Qp",
    "infected": 61326,
    "recovered": 17821,
    "latitude": 45.6667,
    "pop": 10040000,
    "longitude": 9.5,
    "name": "Lombardia",
    "country": "IT",
    "sick": 32363,
    "invisible": false
  },
  {
    "infected": 1248,
    "recovered": 165,
    "latitude": 46.0569,
    "pop": 2067000,
    "longitude": 14.5058,
    "name": "Slovenia",
    "country": "SI",
    "lastUpdated": "2020-04-15T15:06:03.853Z",
    "dead": 61,
    "id": "6ahNiyKDSDAftCctgLH3",
    "sick": 1022,
    "invisible": false
  },
  {
    "infected": 13,
    "recovered": 0,
    "latitude": -27.3667908,
    "pop": 300000,
    "longitude": -70.331398,
    "name": "Atacama",
    "country": "CL",
    "lastUpdated": "2020-04-15T15:07:12.954Z",
    "dead": 0,
    "id": "6nyns7UGGgkU7pxrHf8i",
    "sick": 13,
    "invisible": false
  },
  {
    "lastUpdated": "2020-04-15T15:06:03.863Z",
    "dead": 1,
    "id": "6pBi38TUgYfFm0bry2uh",
    "infected": 80,
    "recovered": 4,
    "latitude": -0.8037,
    "pop": 2025000,
    "longitude": 11.6094,
    "name": "Gabon",
    "country": "GA",
    "sick": 75,
    "invisible": false
  },
  {
    "latitude": 22.1498,
    "pop": 2831900,
    "longitude": -100.9792,
    "name": "San Luis Potosí",
    "country": "MX",
    "lastUpdated": "2020-04-15T15:10:08.185Z",
    "dead": 4,
    "id": "6vjIVg1gSANFZghV7xtS",
    "infected": 55,
    "recovered": 0,
    "sick": 51,
    "invisible": false
  },
  {
    "latitude": 17.901672,
    "pop": 9131,
    "longitude": -62.818544,
    "name": "Saint-Barthélémy",
    "country": "FR",
    "lastUpdated": "2020-04-15T15:06:03.867Z",
    "dead": 0,
    "id": "78Ox26bNHDA2Pk2b3Uwn",
    "infected": 6,
    "recovered": 4,
    "sick": 2,
    "invisible": false
  },
  {
    "id": "7UASdZTZ1nPzzBwSTEA9",
    "infected": 102,
    "recovered": 24,
    "latitude": 35.2923,
    "pop": 84690,
    "longitude": -2.9381,
    "name": "Melilla",
    "country": "ES",
    "lastUpdated": "2020-04-15T15:11:03.231Z",
    "dead": 2,
    "sick": 76,
    "invisible": false
  },
  {
    "recovered": 3,
    "latitude": 17.0608,
    "pop": 102012,
    "longitude": -61.7964,
    "name": "Antigua and Barbuda",
    "country": "AG",
    "lastUpdated": "2020-04-15T15:06:03.864Z",
    "dead": 2,
    "id": "7hVFcEV7nV0MrQr3LHrl",
    "infected": 23,
    "sick": 18,
    "invisible": false
  },
  {
    "latitude": 48.7904,
    "pop": 13000000,
    "longitude": 11.4979,
    "name": "Bayern",
    "country": "DE",
    "lastUpdated": "2020-04-15T15:00:11.517Z",
    "dead": 1028,
    "id": "7kCrrlOBE3jN6FtOVNUB",
    "infected": 35174,
    "recovered": 14910,
    "sick": 19236,
    "invisible": false
  },
  {
    "id": "7rYC2iFB50c55Ihgbs4Q",
    "infected": 1579,
    "recovered": 192,
    "latitude": 47.4979,
    "pop": 9773000,
    "longitude": 19.0402,
    "name": "Hungary",
    "country": "HU",
    "lastUpdated": "2020-04-15T15:06:03.852Z",
    "dead": 134,
    "sick": 1253,
    "invisible": false
  },
  {
    "lastUpdated": "2020-04-15T15:16:08.919Z",
    "dead": 3,
    "id": "7tqLvLyXcBDK808nJv0m",
    "infected": 70,
    "recovered": 14,
    "latitude": 10.9685,
    "pop": 2400000,
    "longitude": -74.7813,
    "name": "Barranquilla D.E.",
    "country": "CO",
    "sick": 53,
    "invisible": false
  },
  {
    "id": "8C0d7WVCjyUGtnc2gUAR",
    "infected": 848,
    "recovered": 165,
    "latitude": 7.3697,
    "pop": 24050000,
    "longitude": 12.3547,
    "name": "Cameroon",
    "country": "CM",
    "lastUpdated": "2020-04-15T15:06:03.855Z",
    "dead": 17,
    "sick": 666,
    "invisible": false
  },
  {
    "latitude": 50.8503,
    "pop": 1209000,
    "longitude": 4.3517,
    "name": "Brussels",
    "country": "BE",
    "lastUpdated": "2020-04-15T14:59:12.392Z",
    "dead": 674,
    "id": "8DOZWbN6bDdgaLXVlUEu",
    "infected": 3404,
    "recovered": 1178,
    "sick": 1552,
    "invisible": false
  },
  {
    "recovered": 7,
    "latitude": -16.2902,
    "pop": 11050000,
    "longitude": -63.5887,
    "name": "Bolivia",
    "country": "BO",
    "lastUpdated": "2020-04-15T15:06:03.858Z",
    "dead": 28,
    "id": "8RihJrXw4NQXPxaRxr1u",
    "infected": 397,
    "sick": 362,
    "invisible": false
  },
  {
    "infected": 12,
    "recovered": 1,
    "latitude": 12.9843,
    "pop": 109897,
    "longitude": -61.2872,
    "name": "St. Vincent Grenadines",
    "country": "VC",
    "lastUpdated": "2020-04-15T15:06:03.866Z",
    "dead": 0,
    "id": "8ZTySQROQejkDAad0qxQ",
    "sick": 11,
    "invisible": false
  },
  {
    "latitude": 1.352083,
    "pop": 5621000,
    "longitude": 103.819839,
    "name": "Singapore",
    "country": "SG",
    "lastUpdated": "2020-04-15T15:06:03.851Z",
    "dead": 10,
    "id": "8pA3fM4xC2c2wv1b4TnE",
    "infected": 3699,
    "recovered": 652,
    "sick": 3037,
    "invisible": false
  },
  {
    "latitude": 47.2184,
    "pop": 3787000,
    "longitude": -1.5536,
    "name": "Pays de la Loire",
    "country": "FR",
    "lastUpdated": "2020-04-15T04:23:28.842Z",
    "dead": 209,
    "id": "98hwAoohgWEOQVa3NlM5",
    "infected": 2581,
    "recovered": 749,
    "sick": 1623,
    "invisible": false
  },
  {
    "recovered": 0,
    "latitude": 19.30754,
    "pop": 952300,
    "longitude": -90.19885,
    "name": "Campeche",
    "country": "MX",
    "lastUpdated": "2020-04-15T15:10:08.184Z",
    "dead": 2,
    "id": "9DAvxOObTqIvMOU93nlY",
    "infected": 33,
    "sick": 31,
    "invisible": false
  },
  {
    "id": "9DPOkpIqrFy9mR4e9fuv",
    "infected": 32,
    "recovered": 4,
    "latitude": 12.8628,
    "pop": 40530000,
    "longitude": 30.2176,
    "name": "Sudan",
    "country": "SD",
    "lastUpdated": "2020-04-15T15:06:03.864Z",
    "dead": 5,
    "sick": 23,
    "invisible": false
  },
  {
    "latitude": 45.943161,
    "pop": 19530000,
    "longitude": 24.966761,
    "name": "Romania",
    "country": "RO",
    "lastUpdated": "2020-04-15T15:06:03.850Z",
    "dead": 362,
    "id": "9QcETqEcM2fTv9zRvx5T",
    "infected": 7216,
    "recovered": 1217,
    "sick": 5637,
    "invisible": false
  },
  {
    "lastUpdated": "2020-04-15T15:06:03.866Z",
    "dead": 1,
    "id": "9Y5wmCqNCC6ZrenM31uA",
    "infected": 9,
    "recovered": 4,
    "latitude": 12.136389,
    "pop": 6218000,
    "longitude": -86.251389,
    "name": "Nicaragua",
    "country": "NI",
    "sick": 4,
    "invisible": false
  },
  {
    "latitude": 17.5706921,
    "pop": 18540000,
    "longitude": -3.996166,
    "name": "Mali",
    "country": "ML",
    "lastUpdated": "2020-04-15T15:06:03.860Z",
    "dead": 13,
    "id": "9dIzxqDSVqPyINkHqwGv",
    "infected": 148,
    "recovered": 34,
    "sick": 101,
    "invisible": false
  },
  {
    "latitude": 61.92411,
    "pop": 5513000,
    "longitude": 25.748152,
    "name": "Finland",
    "country": "FI",
    "lastUpdated": "2020-04-15T15:06:03.852Z",
    "dead": 72,
    "id": "9p6OCdZbUUwBLA60Gk3W",
    "infected": 3237,
    "recovered": 300,
    "sick": 2865,
    "invisible": false
  },
  {
    "recovered": 0,
    "latitude": 43.311643,
    "pop": 1356000,
    "longitude": -71.590315,
    "name": "New Hampshire",
    "country": "US",
    "lastUpdated": "2020-04-15T15:14:21.019Z",
    "dead": 27,
    "id": "A84CwQ52kA46Hr7pn6Bm",
    "infected": 1091,
    "sick": 1064,
    "invisible": false
  },
  {
    "latitude": 41.823261,
    "pop": 1057000,
    "longitude": -71.412257,
    "name": "Rhode Island",
    "country": "US",
    "lastUpdated": "2020-04-15T15:14:21.015Z",
    "dead": 80,
    "id": "AEUWUHS65qvjEslew11c",
    "infected": 3251,
    "recovered": 0,
    "sick": 3171,
    "invisible": false
  },
  {
    "longitude": 11.327591,
    "name": "Emilia-Romagna",
    "country": "IT",
    "lastUpdated": "2020-04-15T14:55:09.042Z",
    "dead": 2705,
    "id": "AJ9jQ0iyKsafsmf5yHAR",
    "infected": 20752,
    "recovered": 4269,
    "latitude": 44.498955,
    "pop": 4453000,
    "sick": 13778,
    "invisible": false
  },
  {
    "longitude": 7.023,
    "name": "Saarland",
    "country": "DE",
    "lastUpdated": "2020-04-15T15:00:11.521Z",
    "dead": 64,
    "id": "AKjFRQGnzuuZQhv5Qwx7",
    "infected": 2168,
    "recovered": 781,
    "latitude": 49.3964,
    "pop": 990509,
    "sick": 1323,
    "invisible": false
  },
  {
    "infected": 142,
    "recovered": 0,
    "latitude": -35.717,
    "pop": 1125002,
    "longitude": -71.167,
    "name": "Maule",
    "country": "CL",
    "lastUpdated": "2020-04-15T15:07:12.955Z",
    "dead": 4,
    "id": "APTPgjAsjFi0nsGyJV7M",
    "sick": 138,
    "invisible": false
  },
  {
    "latitude": 71.7069,
    "pop": 56171,
    "longitude": -42.6043,
    "name": "Greenland",
    "country": "GL",
    "lastUpdated": "2020-04-15T15:06:03.866Z",
    "dead": 0,
    "id": "APaZzlGCEeuoLBtzTJMe",
    "infected": 11,
    "recovered": 11,
    "sick": 0,
    "invisible": false
  },
  {
    "lastUpdated": "2020-04-15T15:06:01.397Z",
    "dead": 3,
    "id": "AVCpxeh0fuH2WrHWNDYH",
    "infected": 517,
    "recovered": 0,
    "latitude": 45.65107,
    "pop": 971395,
    "longitude": -63.582687,
    "name": "Nova Scotia",
    "country": "CA",
    "sick": 514,
    "invisible": false
  },
  {
    "latitude": 47.012918,
    "pop": 1062000,
    "longitude": -109.128641,
    "name": "Montana",
    "country": "US",
    "lastUpdated": "2020-04-15T15:14:21.021Z",
    "dead": 7,
    "id": "AcULcZBozObOhwuRKMjJ",
    "infected": 399,
    "recovered": 0,
    "sick": 392,
    "invisible": false
  },
  {
    "latitude": 27.285971,
    "pop": 45200000,
    "longitude": 116.01609,
    "name": "Jiangxi",
    "country": "CN",
    "lastUpdated": "2020-04-15T15:08:12.252Z",
    "dead": 1,
    "id": "AmBYm5J6E9Cuez1FQjiN",
    "infected": 937,
    "recovered": 936,
    "sick": 0,
    "invisible": false
  },
  {
    "id": "AoLhHdTydeWTfmp9koEX",
    "infected": 5848,
    "recovered": 0,
    "latitude": 52.1307,
    "pop": 3136000,
    "longitude": -3.7837,
    "name": "Wales",
    "country": "GB",
    "lastUpdated": "2020-04-15T15:06:11.321Z",
    "dead": 403,
    "sick": 5445,
    "invisible": false
  },
  {
    "infected": 2070,
    "recovered": 691,
    "latitude": 28.033886,
    "pop": 41320000,
    "longitude": 1.659626,
    "name": "Algeria",
    "country": "DZ",
    "lastUpdated": "2020-04-15T15:06:03.852Z",
    "dead": 326,
    "id": "AwN0CScPDApcLFgz6e3z",
    "sick": 1053,
    "invisible": false
  },
  {
    "id": "B82Ef45M8cDu4q7VsSHF",
    "infected": 1741,
    "recovered": 473,
    "latitude": 45.099998,
    "pop": 4076000,
    "longitude": 15.2,
    "name": "Croatia",
    "country": "HR",
    "lastUpdated": "2020-04-15T15:06:03.852Z",
    "dead": 34,
    "sick": 1234,
    "invisible": false
  },
  {
    "recovered": 90,
    "latitude": 17.6077881,
    "pop": 23716000,
    "longitude": 8.081666,
    "name": "Niger",
    "country": "NE",
    "lastUpdated": "2020-04-15T15:06:03.857Z",
    "dead": 14,
    "id": "BENubqQInFUJzhpZTsLT",
    "infected": 570,
    "sick": 466,
    "invisible": false
  },
  {
    "latitude": 39.509109,
    "pop": 6043000,
    "longitude": -76.98432,
    "name": "Maryland",
    "country": "US",
    "lastUpdated": "2020-04-15T15:14:21.013Z",
    "dead": 302,
    "id": "BF51mWl51fgEcyBpCSzb",
    "infected": 9472,
    "recovered": 0,
    "sick": 9170,
    "invisible": false
  },
  {
    "recovered": 203,
    "latitude": 53.709808,
    "pop": 9508000,
    "longitude": 27.953388,
    "name": "Belarus",
    "country": "BY",
    "lastUpdated": "2020-04-15T15:06:03.851Z",
    "dead": 36,
    "id": "BGg6yVU5VP71B8NXU0oh",
    "infected": 3728,
    "sick": 3489,
    "invisible": false
  },
  {
    "recovered": 626,
    "latitude": 48.8799,
    "pop": 3319000,
    "longitude": 0.1713,
    "name": "Normandie",
    "country": "FR",
    "lastUpdated": "2020-04-15T04:23:13.594Z",
    "dead": 230,
    "id": "BGtoyzb7y54LVlJ91rbf",
    "infected": 2266,
    "sick": 1410,
    "invisible": false
  },
  {
    "id": "BQqMOlPFD36ZEDTGd3WC",
    "infected": 3578,
    "recovered": 0,
    "latitude": 50.7772,
    "pop": 5616000,
    "longitude": -3.9995,
    "name": "South West",
    "country": "GB",
    "lastUpdated": "2020-04-15T15:06:11.322Z",
    "dead": 0,
    "sick": 3578,
    "invisible": false
  },
  {
    "longitude": -111.093735,
    "name": "Arizona",
    "country": "US",
    "lastUpdated": "2020-04-15T15:14:21.015Z",
    "dead": 131,
    "id": "BTEESCuD2ZbS1afunR2A",
    "infected": 3809,
    "recovered": 0,
    "latitude": 34.048927,
    "pop": 7172000,
    "sick": 3678,
    "invisible": false
  },
  {
    "latitude": -33.4489,
    "longitude": -70.6693,
    "name": "Unknown Chile region",
    "country": "CL",
    "lastUpdated": "2020-04-15T15:07:12.956Z",
    "dead": 0,
    "id": "BbiuZcm8oURX7cZwaa5U",
    "invisible": true,
    "infected": 0,
    "recovered": 2646,
    "sick": 0
  },
  {
    "longitude": 34.3015,
    "name": "Malawi",
    "country": "MW",
    "lastUpdated": "2020-04-15T15:06:03.865Z",
    "dead": 2,
    "id": "BfT8o5DaEixC6JIZ28kY",
    "infected": 16,
    "recovered": 0,
    "latitude": -13.2543,
    "pop": 18620000,
    "sick": 14,
    "invisible": false
  },
  {
    "infected": 5,
    "recovered": 0,
    "latitude": -3.3730559,
    "pop": 10860000,
    "longitude": 29.9188862,
    "name": "Burundi",
    "country": "BI",
    "lastUpdated": "2020-04-15T15:06:03.867Z",
    "dead": 1,
    "id": "BnpMamidC5yYzeK8tPUL",
    "sick": 4,
    "invisible": false
  },
  {
    "longitude": -73.982597,
    "name": "New York",
    "country": "US",
    "lastUpdated": "2020-04-15T15:14:21.004Z",
    "dead": 10842,
    "id": "C3BCUzV80z9GfiuByIcr",
    "infected": 203377,
    "recovered": 0,
    "latitude": 40.719042,
    "pop": 19540000,
    "sick": 192535,
    "invisible": false
  },
  {
    "latitude": 49.731626,
    "pop": 10650000,
    "longitude": 15.359413,
    "name": "Czechia",
    "country": "CZ",
    "lastUpdated": "2020-04-15T15:06:03.850Z",
    "dead": 163,
    "id": "C6S76AggdWVU8G22jFHQ",
    "infected": 6151,
    "recovered": 676,
    "sick": 5312,
    "invisible": false
  },
  {
    "infected": 1671,
    "recovered": 663,
    "latitude": 26.0667,
    "pop": 1493000,
    "longitude": 50.557701,
    "name": "Bahrain",
    "country": "BH",
    "lastUpdated": "2020-04-15T15:06:03.852Z",
    "dead": 7,
    "id": "C7cj4nwRITs13KnaJrQ2",
    "sick": 1001,
    "invisible": false
  },
  {
    "id": "CA9LaAl3bNaeAqBuozn4",
    "infected": 7,
    "recovered": 0,
    "latitude": 10.4113,
    "pop": 1285400,
    "longitude": -74.4057,
    "name": "Magdalena",
    "country": "CO",
    "lastUpdated": "2020-04-15T15:16:08.920Z",
    "dead": 1,
    "sick": 6,
    "invisible": false
  },
  {
    "recovered": 0,
    "latitude": 26.909979,
    "pop": 3073500,
    "longitude": -101.430756,
    "name": "Coahuila",
    "country": "MX",
    "lastUpdated": "2020-04-15T15:10:08.184Z",
    "dead": 15,
    "id": "CCUFp4urvgXPo5unfMGy",
    "infected": 203,
    "sick": 188,
    "invisible": false
  },
  {
    "recovered": 147,
    "latitude": 27.0238,
    "pop": 68890000,
    "longitude": 74.2179,
    "name": "Rajasthan",
    "country": "IN",
    "lastUpdated": "2020-04-15T15:11:01.917Z",
    "dead": 11,
    "id": "CKZCZTPlrcq5fbfUPA9k",
    "infected": 1046,
    "sick": 888,
    "invisible": false
  },
  {
    "lastUpdated": "2020-04-15T15:06:03.860Z",
    "dead": 6,
    "id": "Cgvmtle61ehMvCzRzYx7",
    "infected": 159,
    "recovered": 30,
    "latitude": 13.803,
    "pop": 6378000,
    "longitude": -88.9053,
    "name": "El Salvador",
    "country": "SV",
    "sick": 123,
    "invisible": false
  },
  {
    "lastUpdated": "2020-04-15T15:06:03.853Z",
    "dead": 17,
    "id": "DCJCtZoBTWQ4mzdDNljD",
    "infected": 1111,
    "recovered": 297,
    "latitude": 40.259003,
    "pop": 2973000,
    "longitude": 44.818474,
    "name": "Armenia",
    "country": "AM",
    "sick": 797,
    "invisible": false
  },
  {
    "infected": 31,
    "recovered": 2,
    "latitude": 5.535,
    "pop": 1278000,
    "longitude": -73.368,
    "name": "Boyacá",
    "country": "CO",
    "lastUpdated": "2020-04-15T15:16:08.920Z",
    "dead": 1,
    "id": "DJJraANgQbEqz1wBBtZz",
    "sick": 28,
    "invisible": false
  },
  {
    "latitude": 53.6221,
    "pop": 7300000,
    "longitude": -2.5945,
    "name": "North West",
    "country": "GB",
    "lastUpdated": "2020-04-15T15:06:11.322Z",
    "dead": 0,
    "id": "DPwBt2aJuwF0O71vwfM9",
    "infected": 11136,
    "recovered": 0,
    "sick": 11136,
    "invisible": false
  },
  {
    "id": "DZyTD0Mu5WIcK6yTcJ91",
    "infected": 57,
    "recovered": 30,
    "latitude": 32.3213844,
    "pop": 65440,
    "longitude": -64.75737,
    "name": "Bermuda",
    "country": "BM",
    "lastUpdated": "2020-04-15T15:06:03.863Z",
    "dead": 5,
    "sick": 22,
    "invisible": false
  },
  {
    "latitude": 21.694,
    "pop": 35446,
    "longitude": -71.7979,
    "name": "Turks and Caicos",
    "country": "TC",
    "lastUpdated": "2020-04-15T15:06:03.866Z",
    "dead": 1,
    "id": "DaMrRSIGJXIG36nW0Pnc",
    "infected": 10,
    "recovered": 0,
    "sick": 9,
    "invisible": false
  },
  {
    "id": "Dbng0NBTH41EEwBxhMzE",
    "infected": 14680,
    "recovered": 2998,
    "latitude": 39.2796,
    "pop": 2035000,
    "longitude": -3.0977,
    "name": "Castilla La Mancha",
    "country": "ES",
    "lastUpdated": "2020-04-15T15:11:03.229Z",
    "dead": 1755,
    "sick": 9927,
    "invisible": false
  },
  {
    "latitude": 22.192039,
    "pop": 622567,
    "longitude": 113.551262,
    "name": "Macao",
    "country": "MO",
    "lastUpdated": "2020-04-15T15:06:03.864Z",
    "dead": 0,
    "id": "DdBt8qsG6A3g92oOR3ow",
    "infected": 45,
    "recovered": 15,
    "sick": 30,
    "invisible": false
  },
  {
    "infected": 7,
    "recovered": 0,
    "latitude": 25.467,
    "pop": 2651000,
    "longitude": 91.3662,
    "name": "Meghalaya",
    "country": "IN",
    "lastUpdated": "2020-04-15T15:11:01.920Z",
    "dead": 1,
    "id": "Dh0O1vmhrVfmsCsfZCUg",
    "sick": 6,
    "invisible": false
  },
  {
    "infected": 282,
    "recovered": 0,
    "latitude": 42.962334,
    "pop": 577737,
    "longitude": -107.534868,
    "name": "Wyoming",
    "country": "US",
    "lastUpdated": "2020-04-15T15:14:21.021Z",
    "dead": 1,
    "id": "DrGzziUglmBognCGY7R2",
    "sick": 281,
    "invisible": false
  },
  {
    "latitude": 37.9838,
    "pop": 10740000,
    "longitude": 23.7275,
    "name": "Greece",
    "country": "GR",
    "lastUpdated": "2020-04-15T15:06:03.852Z",
    "dead": 101,
    "id": "Dtr1lap1RpJpXJdXGJiW",
    "infected": 2170,
    "recovered": 269,
    "sick": 1800,
    "invisible": false
  },
  {
    "recovered": 137,
    "latitude": 25.03841,
    "pop": 23780000,
    "longitude": 121.563698,
    "name": "Taiwan",
    "country": "TW",
    "lastUpdated": "2020-04-15T15:06:03.859Z",
    "dead": 6,
    "id": "EKTfs8e7M6DXzI1HqyyX",
    "infected": 395,
    "sick": 252,
    "invisible": false
  },
  {
    "longitude": -84.387618,
    "name": "Costa Rica",
    "country": "CR",
    "lastUpdated": "2020-04-15T15:06:03.857Z",
    "dead": 3,
    "id": "EQzJvzVHKjs8kLmK7BMu",
    "infected": 618,
    "recovered": 66,
    "latitude": 10.327273,
    "pop": 4906000,
    "sick": 549,
    "invisible": false
  },
  {
    "latitude": 22.2587,
    "pop": 62700000,
    "longitude": 71.1924,
    "name": "Gujarat",
    "country": "IN",
    "lastUpdated": "2020-04-15T15:11:01.917Z",
    "dead": 30,
    "id": "ERwk9R9en4m9WbdoMbIg",
    "infected": 695,
    "recovered": 59,
    "sick": 606,
    "invisible": false
  },
  {
    "id": "Esl5UlCVB9s8pmGB5Ofr",
    "infected": 21,
    "recovered": 9,
    "latitude": 30.7333,
    "pop": 1055000,
    "longitude": 76.7794,
    "name": "Chandigarh",
    "country": "IN",
    "lastUpdated": "2020-04-15T15:11:01.919Z",
    "dead": 0,
    "sick": 12,
    "invisible": false
  },
  {
    "longitude": -66.664513,
    "name": "Puerto Rico",
    "country": "PR",
    "lastUpdated": "2020-04-15T15:14:21.020Z",
    "dead": 51,
    "id": "F4rPrEVGAIMM5rfPEMv4",
    "infected": 974,
    "recovered": 0,
    "latitude": 18.200178,
    "pop": 3195000,
    "sick": 923,
    "invisible": false
  },
  {
    "latitude": 4.862437,
    "pop": 2919000,
    "longitude": -74.058655,
    "name": "Cundinamarca",
    "country": "CO",
    "lastUpdated": "2020-04-15T15:16:08.919Z",
    "dead": 5,
    "id": "F7MED5VwEhi3JvJu6KjB",
    "infected": 119,
    "recovered": 17,
    "sick": 97,
    "invisible": false
  },
  {
    "infected": 784,
    "recovered": 43,
    "latitude": 33.93911,
    "pop": 35530000,
    "longitude": 67.709953,
    "name": "Afghanistan",
    "country": "AF",
    "lastUpdated": "2020-04-15T15:06:03.856Z",
    "dead": 25,
    "id": "FCDmlmnIIswd8bQiUjfN",
    "sick": 716,
    "invisible": false
  },
  {
    "latitude": 29.431585,
    "pop": 30480000,
    "longitude": 106.912254,
    "name": "Chongqing",
    "country": "CN",
    "lastUpdated": "2020-04-15T15:08:12.251Z",
    "dead": 6,
    "id": "FErOU1m4Tj7jIkRam3vF",
    "infected": 579,
    "recovered": 570,
    "sick": 3,
    "invisible": false
  },
  {
    "latitude": 29.311661,
    "pop": 4137000,
    "longitude": 47.481766,
    "name": "Kuwait",
    "country": "KW",
    "lastUpdated": "2020-04-15T15:06:03.853Z",
    "dead": 3,
    "id": "FZsUkhxBEgqsPb4eO0PN",
    "infected": 1405,
    "recovered": 206,
    "sick": 1196,
    "invisible": false
  },
  {
    "recovered": 0,
    "latitude": -10.9111,
    "pop": 2278308,
    "longitude": -37.0717,
    "name": "Sergipe",
    "country": "BR",
    "lastUpdated": "2020-04-15T15:09:07.453Z",
    "dead": 4,
    "id": "FboWeolpM62SZCLwdilT",
    "infected": 45,
    "sick": 41,
    "invisible": false
  },
  {
    "latitude": 11.1271,
    "pop": 67860000,
    "longitude": 78.6569,
    "name": "Tamil Nadu",
    "country": "IN",
    "lastUpdated": "2020-04-15T15:11:01.917Z",
    "dead": 14,
    "id": "FeS45oMNC27pI17F0xEV",
    "infected": 1242,
    "recovered": 118,
    "sick": 1110,
    "invisible": false
  },
  {
    "latitude": 18.947829,
    "pop": 10770000,
    "longitude": -70.430399,
    "name": "Dominican Republic",
    "country": "DO",
    "lastUpdated": "2020-04-15T15:06:03.851Z",
    "dead": 189,
    "id": "FuiVEJvWb0QMCpxJ3563",
    "infected": 3614,
    "recovered": 208,
    "sick": 3217,
    "invisible": false
  },
  {
    "latitude": 18.1124,
    "pop": 35190000,
    "longitude": 79.0193,
    "name": "Telengana",
    "country": "IN",
    "lastUpdated": "2020-04-15T15:11:01.917Z",
    "dead": 18,
    "id": "FyC551oNwmENxbr9Yght",
    "infected": 644,
    "recovered": 110,
    "sick": 516,
    "invisible": false
  },
  {
    "recovered": 151,
    "latitude": 48.669,
    "pop": 5450000,
    "longitude": 19.699,
    "name": "Slovakia",
    "country": "SK",
    "lastUpdated": "2020-04-15T15:06:03.854Z",
    "dead": 6,
    "id": "FzIDXoqWnTI3nUfhPyT2",
    "infected": 863,
    "sick": 706,
    "invisible": false
  },
  {
    "id": "GAp7Wb6IMhdgbvEtMza9",
    "infected": 5988,
    "recovered": 1446,
    "latitude": 30.37532,
    "pop": 197000000,
    "longitude": 69.345116,
    "name": "Pakistan",
    "country": "PK",
    "lastUpdated": "2020-04-15T15:06:03.850Z",
    "dead": 107,
    "sick": 4435,
    "invisible": false
  },
  {
    "longitude": 75.3412,
    "name": "Punjab",
    "country": "IN",
    "lastUpdated": "2020-04-15T15:11:01.918Z",
    "dead": 13,
    "id": "GGru8cG08mANO8XDDUtZ",
    "infected": 186,
    "recovered": 27,
    "latitude": 31.1471,
    "pop": 27980000,
    "sick": 146,
    "invisible": false
  },
  {
    "id": "GHzBIsHy2GiBc5JV2HMs",
    "infected": 4933,
    "recovered": 933,
    "latitude": 23.424076,
    "pop": 9400000,
    "longitude": 53.847816,
    "name": "United Arab Emirates",
    "country": "AE",
    "lastUpdated": "2020-04-15T15:06:03.851Z",
    "dead": 28,
    "sick": 3972,
    "invisible": false
  },
  {
    "lastUpdated": "2020-04-15T15:14:21.021Z",
    "dead": 3,
    "id": "GLViSIjDjwvptOphedAu",
    "invisible": true,
    "infected": 103,
    "recovered": 0,
    "latitude": 37.0902,
    "longitude": -95.7129,
    "name": "Grand Princess",
    "country": "US",
    "sick": 100
  },
  {
    "latitude": 51.5074,
    "pop": 10100000,
    "longitude": -0.1278,
    "name": "London",
    "country": "GB",
    "lastUpdated": "2020-04-15T15:06:11.322Z",
    "dead": 0,
    "id": "GPtoS0Yy2EnNafpmmTqY",
    "infected": 18472,
    "recovered": 0,
    "sick": 18472,
    "invisible": false
  },
  {
    "latitude": 36.621981,
    "pop": 39560000,
    "longitude": -119.339046,
    "name": "California",
    "country": "US",
    "lastUpdated": "2020-04-15T15:14:21.011Z",
    "dead": 790,
    "id": "Gh46r6vuaY7fbGt3IboN",
    "infected": 25779,
    "recovered": 0,
    "sick": 24989,
    "invisible": false
  },
  {
    "latitude": 20.4283,
    "pop": 343709,
    "longitude": 72.8397,
    "name": "Dadra and Nagar Haveli",
    "country": "IN",
    "lastUpdated": "2020-04-15T15:11:01.920Z",
    "dead": 0,
    "id": "GljWeVnun6o9DeW6rlEm",
    "infected": 1,
    "recovered": 0,
    "sick": 1,
    "invisible": false
  },
  {
    "recovered": 0,
    "latitude": 35.87189,
    "pop": 3943000,
    "longitude": -97.145514,
    "name": "Oklahoma",
    "country": "US",
    "lastUpdated": "2020-04-15T15:14:21.018Z",
    "dead": 108,
    "id": "GpF8ULuKOQiFDCUHN44h",
    "infected": 2184,
    "sick": 2076,
    "invisible": false
  },
  {
    "latitude": 46.5,
    "pop": 520891,
    "longitude": 11.35,
    "name": "P.A. Bolzano",
    "country": "IT",
    "lastUpdated": "2020-04-15T14:55:09.041Z",
    "dead": 214,
    "id": "Gzx6GX1qhBm714BkEC6l",
    "infected": 2184,
    "recovered": 406,
    "sick": 1564,
    "invisible": false
  },
  {
    "latitude": 42.83263,
    "pop": 24710000,
    "longitude": 113.750972,
    "name": "Inner Mongolia",
    "country": "CN",
    "lastUpdated": "2020-04-15T15:08:12.249Z",
    "dead": 1,
    "id": "H3JeVigVbo5CSYfZG4WI",
    "infected": 190,
    "recovered": 94,
    "sick": 95,
    "invisible": false
  },
  {
    "latitude": 39.74536,
    "pop": 3034000,
    "longitude": -116.724977,
    "name": "Nevada",
    "country": "US",
    "lastUpdated": "2020-04-15T15:14:21.015Z",
    "dead": 130,
    "id": "H3bDg4eV30up4WWrIDAS",
    "infected": 3144,
    "recovered": 0,
    "sick": 3014,
    "invisible": false
  },
  {
    "infected": 2005,
    "recovered": 0,
    "latitude": -3.731862,
    "pop": 9075649,
    "longitude": -38.526669,
    "name": "Ceará",
    "country": "BR",
    "lastUpdated": "2020-04-15T15:09:07.450Z",
    "dead": 107,
    "id": "HEMWNnFxeFEoeOCBOLJD",
    "sick": 1898,
    "invisible": false
  },
  {
    "latitude": 15.3173,
    "pop": 64060000,
    "longitude": 75.7139,
    "name": "Karnataka",
    "country": "IN",
    "lastUpdated": "2020-04-15T15:11:01.918Z",
    "dead": 12,
    "id": "HN5mGmxlqlSeFSNeu1K5",
    "infected": 279,
    "recovered": 80,
    "sick": 187,
    "invisible": false
  },
  {
    "lastUpdated": "2020-04-15T15:06:03.867Z",
    "dead": 0,
    "id": "HRDpwyxpqW9RN0xLFyNu",
    "infected": 5,
    "recovered": 2,
    "latitude": 27.5142,
    "pop": 807610,
    "longitude": 90.4336,
    "name": "Bhutan",
    "country": "BT",
    "sick": 3,
    "invisible": false
  },
  {
    "latitude": 41.3775,
    "pop": 32390000,
    "longitude": 64.5853,
    "name": "Uzbekistan",
    "country": "UZ",
    "lastUpdated": "2020-04-15T15:06:03.853Z",
    "dead": 4,
    "id": "HRTA10dtrruDEwjJEGMp",
    "infected": 1275,
    "recovered": 107,
    "sick": 1164,
    "invisible": false
  },
  {
    "latitude": 34.138916,
    "pop": 2095000,
    "longitude": -105.576255,
    "name": "New Mexico",
    "country": "US",
    "lastUpdated": "2020-04-15T15:14:21.019Z",
    "dead": 36,
    "id": "HSSFomRju0doHhWgW8On",
    "infected": 1407,
    "recovered": 0,
    "sick": 1371,
    "invisible": false
  },
  {
    "recovered": 0,
    "latitude": -40.231,
    "pop": 412812,
    "longitude": -72.3311,
    "name": "Los Ríos",
    "country": "CL",
    "lastUpdated": "2020-04-15T15:07:12.955Z",
    "dead": 3,
    "id": "HZkACHjW7NlYjg8vEMj2",
    "infected": 148,
    "sick": 145,
    "invisible": false
  },
  {
    "infected": 624,
    "recovered": 375,
    "latitude": 53.6127,
    "pop": 1635000,
    "longitude": 12.4296,
    "name": "Mecklenburg-Vorpommern",
    "country": "DE",
    "lastUpdated": "2020-04-15T15:00:11.520Z",
    "dead": 12,
    "id": "He1gSS1v50t06i3YrqvB",
    "sick": 237,
    "invisible": false
  },
  {
    "longitude": 13.75,
    "name": "Abruzzo",
    "country": "IT",
    "lastUpdated": "2020-04-15T14:55:09.030Z",
    "dead": 232,
    "id": "I9EqrZfbPnkioNU4wZGz",
    "infected": 2245,
    "recovered": 213,
    "latitude": 42.25,
    "pop": 1315000,
    "sick": 1800,
    "invisible": false
  },
  {
    "id": "IAX0OQLVnUwU7FX0ENF1",
    "infected": 1566,
    "recovered": 1462,
    "latitude": 23.363855,
    "pop": 113460000,
    "longitude": 113.373448,
    "name": "Guangdong",
    "country": "CN",
    "lastUpdated": "2020-04-15T15:08:12.248Z",
    "dead": 8,
    "sick": 96,
    "invisible": false
  },
  {
    "longitude": 113.484016,
    "name": "Henan",
    "country": "CN",
    "lastUpdated": "2020-04-15T15:08:12.252Z",
    "dead": 22,
    "id": "IFuMrMvSjoiX5agYvllh",
    "infected": 1276,
    "recovered": 1254,
    "latitude": 33.875408,
    "pop": 94000000,
    "sick": 0,
    "invisible": false
  },
  {
    "infected": 295,
    "recovered": 0,
    "latitude": 37.2,
    "pop": 451000,
    "longitude": -8.16667,
    "name": "Algarve",
    "country": "PT",
    "lastUpdated": "2020-04-15T15:05:08.723Z",
    "dead": 9,
    "id": "IHqRHC8K3OZPN8gniM7V",
    "sick": 286,
    "invisible": false
  },
  {
    "infected": 9,
    "recovered": 0,
    "latitude": 3.883,
    "pop": 333194,
    "longitude": -77.0197,
    "name": "Buenaventura D.E.",
    "country": "CO",
    "lastUpdated": "2020-04-15T15:16:08.920Z",
    "dead": 0,
    "id": "IKWjRUo0SYgHQKdWjTvq",
    "sick": 9,
    "invisible": false
  },
  {
    "id": "INyu1R48Ppv8cfW4Nuz4",
    "infected": 4331,
    "recovered": 0,
    "latitude": 52.87,
    "pop": 4811000,
    "longitude": -0.995,
    "name": "East Midlands",
    "country": "GB",
    "lastUpdated": "2020-04-15T15:06:11.322Z",
    "dead": 0,
    "sick": 4331,
    "invisible": false
  },
  {
    "id": "ISRKMzEDojyrZ9iyWwex",
    "infected": 68,
    "recovered": 0,
    "latitude": 22.017,
    "pop": 1342600,
    "longitude": -102.317,
    "name": "Aguascalientes",
    "country": "MX",
    "lastUpdated": "2020-04-15T15:10:08.185Z",
    "dead": 2,
    "sick": 66,
    "invisible": false
  },
  {
    "latitude": 25.686613,
    "pop": 5321300,
    "longitude": -100.316116,
    "name": "Nuevo León",
    "country": "MX",
    "lastUpdated": "2020-04-15T15:10:08.185Z",
    "dead": 7,
    "id": "IdKbgzgKLpjBFh4UPOwu",
    "infected": 216,
    "recovered": 0,
    "sick": 209,
    "invisible": false
  },
  {
    "latitude": 28.632996,
    "pop": 3826900,
    "longitude": -106.069099,
    "name": "Chihuahua",
    "country": "MX",
    "lastUpdated": "2020-04-15T15:10:08.183Z",
    "dead": 18,
    "id": "IhhiYI6T0TX4CYVPcnmH",
    "infected": 75,
    "recovered": 0,
    "sick": 57,
    "invisible": false
  },
  {
    "infected": 622,
    "recovered": 0,
    "latitude": -49.3692,
    "pop": 480600,
    "longitude": -74.9225,
    "name": "Ñuble",
    "country": "CL",
    "lastUpdated": "2020-04-15T15:07:12.955Z",
    "dead": 8,
    "id": "ImnOiVx9Cb8Nw7cbRcQ7",
    "sick": 614,
    "invisible": false
  },
  {
    "lastUpdated": "2020-04-15T15:06:03.864Z",
    "dead": 3,
    "id": "InZ38sIqyK7FN7XAOZoX",
    "infected": 40,
    "recovered": 0,
    "latitude": 19.0558,
    "pop": 10980000,
    "longitude": -73.0513,
    "name": "Haiti",
    "country": "HT",
    "sick": 37,
    "invisible": false
  },
  {
    "infected": 14578,
    "recovered": 0,
    "latitude": 32.528564,
    "pop": 10520000,
    "longitude": -83.280125,
    "name": "Georgia (US)",
    "country": "US",
    "lastUpdated": "2020-04-15T15:14:21.012Z",
    "dead": 525,
    "id": "IvQkDJkTAsoIqPRAU25n",
    "sick": 14053,
    "invisible": false
  },
  {
    "longitude": 172.488081,
    "name": "New Zealand",
    "country": "NZ",
    "lastUpdated": "2020-04-15T15:06:03.853Z",
    "dead": 9,
    "id": "IvVhpOoGpH6JVkGyUhXN",
    "infected": 1386,
    "recovered": 728,
    "latitude": -42.8285,
    "pop": 4794000,
    "sick": 649,
    "invisible": false
  },
  {
    "infected": 1,
    "recovered": 1,
    "latitude": 28.218,
    "pop": 1255000,
    "longitude": 94.7278,
    "name": "Arunachal Pradesh",
    "country": "IN",
    "lastUpdated": "2020-04-15T15:11:01.920Z",
    "dead": 0,
    "id": "IwYKiIVY18NGwdGQFGWW",
    "sick": 0,
    "invisible": false
  },
  {
    "longitude": -66.5897,
    "name": "Venezuela",
    "country": "VE",
    "lastUpdated": "2020-04-15T15:06:03.860Z",
    "dead": 9,
    "id": "J3mZXlfEnnJx4CDZLvRG",
    "infected": 197,
    "recovered": 111,
    "latitude": 6.4238,
    "pop": 31980000,
    "sick": 77,
    "invisible": false
  },
  {
    "id": "JQByE4l2OA6sGOqIcWrM",
    "infected": 695,
    "recovered": 65,
    "latitude": 35.1264,
    "pop": 1170000,
    "longitude": 33.4299,
    "name": "Cyprus",
    "country": "CY",
    "lastUpdated": "2020-04-15T15:06:03.857Z",
    "dead": 12,
    "sick": 618,
    "invisible": false
  },
  {
    "latitude": 25.0961,
    "pop": 99020000,
    "longitude": 85.3131,
    "name": "Bihar",
    "country": "IN",
    "lastUpdated": "2020-04-15T15:11:01.918Z",
    "dead": 1,
    "id": "JR7hOGked7CZtIs2nCV5",
    "infected": 70,
    "recovered": 29,
    "sick": 40,
    "invisible": false
  },
  {
    "infected": 180,
    "recovered": 19,
    "latitude": 14.628434,
    "pop": 17250000,
    "longitude": -90.522713,
    "name": "Guatemala",
    "country": "GT",
    "lastUpdated": "2020-04-15T15:06:03.860Z",
    "dead": 5,
    "id": "JUWE6bG3b5oL7fKQMSvv",
    "sick": 156,
    "invisible": false
  },
  {
    "lastUpdated": "2020-04-15T15:06:03.852Z",
    "dead": 67,
    "id": "JcFsHSn2WvZ5LJW42ovG",
    "infected": 3307,
    "recovered": 500,
    "latitude": 49.8153,
    "pop": 602005,
    "longitude": 6.1296,
    "name": "Luxembourg",
    "country": "LU",
    "sick": 2740,
    "invisible": false
  },
  {
    "id": "JmOyaFe25yZCIV64JbZj",
    "infected": 10,
    "recovered": 0,
    "latitude": 8.8,
    "pop": 2049000,
    "longitude": -74.167,
    "name": "Bolívar",
    "country": "CO",
    "lastUpdated": "2020-04-15T15:16:08.920Z",
    "dead": 1,
    "sick": 9,
    "invisible": false
  },
  {
    "latitude": 31.4,
    "pop": 3648100,
    "longitude": -115.783,
    "name": "Baja California",
    "country": "MX",
    "lastUpdated": "2020-04-15T15:10:08.182Z",
    "dead": 50,
    "id": "Jp9ePErcc8i1aOozEAMf",
    "infected": 486,
    "recovered": 0,
    "sick": 436,
    "invisible": false
  },
  {
    "lastUpdated": "2020-04-15T15:16:08.920Z",
    "dead": 2,
    "id": "Jr8syCB0lydmPDXw8Q6N",
    "infected": 15,
    "recovered": 1,
    "latitude": 8.7479801,
    "pop": 1786500,
    "longitude": -75.8814316,
    "name": "Córdoba",
    "country": "CO",
    "sick": 12,
    "invisible": false
  },
  {
    "infected": 81,
    "recovered": 35,
    "latitude": 8.6195,
    "pop": 7798000,
    "longitude": 0.8248,
    "name": "Togo",
    "country": "TG",
    "lastUpdated": "2020-04-15T15:06:03.862Z",
    "dead": 3,
    "id": "JrBbirlBKGdWSdcDt7PF",
    "sick": 43,
    "invisible": false
  },
  {
    "latitude": 42.7339,
    "pop": 7050000,
    "longitude": 25.4858,
    "name": "Bulgaria",
    "country": "BG",
    "lastUpdated": "2020-04-15T15:06:03.856Z",
    "dead": 36,
    "id": "JzZ8sbqzjutThVjkPKPL",
    "infected": 747,
    "recovered": 105,
    "sick": 606,
    "invisible": false
  },
  {
    "latitude": 44.5,
    "pop": 1557000,
    "longitude": 8.833,
    "name": "Liguria",
    "country": "IT",
    "lastUpdated": "2020-04-15T14:55:09.050Z",
    "dead": 793,
    "id": "KLXicxFogWnu0dLp4bNK",
    "infected": 5808,
    "recovered": 1549,
    "sick": 3466,
    "invisible": false
  },
  {
    "latitude": 10.4631,
    "pop": 1201000,
    "longitude": -73.2532,
    "name": "Cesar",
    "country": "CO",
    "lastUpdated": "2020-04-15T15:16:08.919Z",
    "dead": 0,
    "id": "KpOz3WmiZkrXUMlUJNlV",
    "infected": 32,
    "recovered": 12,
    "sick": 20,
    "invisible": false
  },
  {
    "lastUpdated": "2020-04-15T14:55:09.052Z",
    "dead": 538,
    "id": "KrLrJbpDqqiXgUPGCCW9",
    "infected": 7527,
    "recovered": 637,
    "latitude": 43.4167,
    "pop": 3737000,
    "longitude": 11,
    "name": "Toscana",
    "country": "IT",
    "sick": 6352,
    "invisible": false
  },
  {
    "infected": 235,
    "recovered": 63,
    "latitude": 7.873054,
    "pop": 21440000,
    "longitude": 80.771797,
    "name": "Sri Lanka",
    "country": "LK",
    "lastUpdated": "2020-04-15T15:06:03.860Z",
    "dead": 7,
    "id": "KsWzJO06cf0d6LJ4ZNh9",
    "sick": 165,
    "invisible": false
  },
  {
    "infected": 502,
    "recovered": 16,
    "latitude": 15.9129,
    "pop": 49670000,
    "longitude": 79.74,
    "name": "Andhra Pradesh",
    "country": "IN",
    "lastUpdated": "2020-04-15T15:11:01.918Z",
    "dead": 11,
    "id": "KtQIo2DoqjELtPAlyDVO",
    "sick": 475,
    "invisible": false
  },
  {
    "recovered": 1986,
    "latitude": 61.52401,
    "pop": 144500000,
    "longitude": 105.318756,
    "name": "Russia",
    "country": "RU",
    "lastUpdated": "2020-04-15T15:06:03.849Z",
    "dead": 198,
    "id": "KwOuGBKSMRlmwftxAvLX",
    "infected": 24490,
    "sick": 22306,
    "invisible": false
  },
  {
    "infected": 35,
    "recovered": 13,
    "latitude": 18.0708,
    "pop": 32125,
    "longitude": -63.0501,
    "name": "Saint-Martin",
    "country": "FR",
    "lastUpdated": "2020-04-15T15:06:03.864Z",
    "dead": 2,
    "id": "LBUtrLDKJiupXjlUNTUe",
    "sick": 20,
    "invisible": false
  },
  {
    "infected": 79,
    "recovered": 55,
    "latitude": 47.166,
    "pop": 38557,
    "longitude": 9.5554,
    "name": "Liechtenstein",
    "country": "LI",
    "lastUpdated": "2020-04-15T15:06:03.863Z",
    "dead": 1,
    "id": "LTGEU2E9MFkrCcFhZYVk",
    "sick": 23,
    "invisible": false
  },
  {
    "latitude": 9.9456,
    "pop": 12720000,
    "longitude": -9.6966,
    "name": "Guinea",
    "country": "GN",
    "lastUpdated": "2020-04-15T15:06:03.858Z",
    "dead": 1,
    "id": "LU2QWt5ao8IJa8evNYVV",
    "infected": 404,
    "recovered": 31,
    "sick": 372,
    "invisible": false
  },
  {
    "longitude": -110.5,
    "name": "Sonora",
    "country": "MX",
    "lastUpdated": "2020-04-15T15:10:08.183Z",
    "dead": 12,
    "id": "LYCBHrA9ms6GcxpLGPCT",
    "infected": 88,
    "recovered": 0,
    "latitude": 29.6667,
    "pop": 3062000,
    "sick": 76,
    "invisible": false
  },
  {
    "recovered": 6,
    "latitude": 3.9193051,
    "pop": 563402,
    "longitude": -56.0277824,
    "name": "Suriname",
    "country": "SR",
    "lastUpdated": "2020-04-15T15:06:03.866Z",
    "dead": 1,
    "id": "LglKINHyQpYpFxjckbQ6",
    "infected": 10,
    "sick": 3,
    "invisible": false
  },
  {
    "infected": 301,
    "recovered": 0,
    "latitude": 52.9399,
    "pop": 1174000,
    "longitude": -106.4509,
    "name": "Saskatchewan",
    "country": "CA",
    "lastUpdated": "2020-04-15T15:06:01.397Z",
    "dead": 4,
    "id": "LkIDKY0CMAqzbwBHyYCP",
    "sick": 297,
    "invisible": false
  },
  {
    "infected": 6,
    "recovered": 0,
    "latitude": 24.2155,
    "pop": 636442,
    "longitude": -12.8858,
    "name": "Western Sahara",
    "country": "EH",
    "lastUpdated": "2020-04-15T15:06:03.867Z",
    "dead": 0,
    "id": "LooNn6RuMiDhQnwa9svw",
    "sick": 6,
    "invisible": false
  },
  {
    "infected": 2096,
    "recovered": 487,
    "latitude": 43.363129,
    "pop": 1022000,
    "longitude": -5.951843,
    "name": "Principado de Asturias",
    "country": "ES",
    "lastUpdated": "2020-04-15T15:11:03.229Z",
    "dead": 166,
    "id": "Lsga7AvYNnY0qQ5gEfV8",
    "sick": 1443,
    "invisible": false
  },
  {
    "infected": 2762,
    "recovered": 615,
    "latitude": 39.4937,
    "pop": 1065000,
    "longitude": -6.0679,
    "name": "Extremadura",
    "country": "ES",
    "lastUpdated": "2020-04-15T15:11:03.230Z",
    "dead": 342,
    "id": "LuEErlF7dVKI0eJsRjFm",
    "sick": 1805,
    "invisible": false
  },
  {
    "recovered": 0,
    "latitude": 21.0186,
    "pop": 5965000,
    "longitude": -101.2591,
    "name": "Guanajuato",
    "country": "MX",
    "lastUpdated": "2020-04-15T15:10:08.184Z",
    "dead": 6,
    "id": "M3wdiueFtwrUHiQ2rOXA",
    "infected": 103,
    "sick": 97,
    "invisible": false
  },
  {
    "infected": 2210,
    "recovered": 0,
    "latitude": 37.8393,
    "pop": 4468000,
    "longitude": -84.27,
    "name": "Kentucky",
    "country": "US",
    "lastUpdated": "2020-04-15T15:14:21.015Z",
    "dead": 115,
    "id": "MC8MXFw9iXYybnF8v7e6",
    "sick": 2095,
    "invisible": false
  },
  {
    "lastUpdated": "2020-04-15T15:06:11.323Z",
    "dead": 11005,
    "id": "MEjlm8VYdGA28TTTnQmf",
    "invisible": true,
    "infected": 9418,
    "recovered": 0,
    "latitude": 55.3781,
    "longitude": -3.436,
    "name": "Unknown UK region or state",
    "country": "GB",
    "sick": 0
  },
  {
    "infected": 10751,
    "recovered": 0,
    "latitude": 41.3006,
    "pop": 3689000,
    "longitude": -7.7441,
    "name": "Norte",
    "country": "PT",
    "lastUpdated": "2020-04-15T15:05:08.717Z",
    "dead": 339,
    "id": "MG4e9tulLJ010SZJvbYN",
    "sick": 10412,
    "invisible": false
  },
  {
    "infected": 6358,
    "recovered": 0,
    "latitude": 56.4907,
    "pop": 5450000,
    "longitude": -4.2026,
    "name": "Scotland",
    "country": "GB",
    "lastUpdated": "2020-04-15T15:06:11.316Z",
    "dead": 575,
    "id": "MObRYyIriHG337L8FyFC",
    "sick": 5783,
    "invisible": false
  },
  {
    "longitude": -86.1349,
    "name": "Indiana",
    "country": "US",
    "lastUpdated": "2020-04-15T15:14:21.013Z",
    "dead": 387,
    "id": "MOxDkmQ4wBi1CuAdVxDE",
    "infected": 8527,
    "recovered": 0,
    "latitude": 40.2672,
    "pop": 6692000,
    "sick": 8140,
    "invisible": false
  },
  {
    "latitude": 7.54,
    "pop": 24290000,
    "longitude": -5.5471,
    "name": "Ivory Coast",
    "country": "CI",
    "lastUpdated": "2020-04-15T15:06:03.857Z",
    "dead": 6,
    "id": "MdQOfc1gNh2DOqwSP6UV",
    "infected": 638,
    "recovered": 114,
    "sick": 518,
    "invisible": false
  },
  {
    "infected": 27554,
    "recovered": 14686,
    "latitude": 51.4332,
    "pop": 17910000,
    "longitude": 7.6616,
    "name": "Nordrhein-Westfalen",
    "country": "DE",
    "lastUpdated": "2020-04-15T15:00:11.520Z",
    "dead": 703,
    "id": "MjpYq3zQyAvSQlVVYjD2",
    "sick": 12165,
    "invisible": false
  },
  {
    "recovered": 75,
    "latitude": 37.330509,
    "pop": 6301000,
    "longitude": 105.977203,
    "name": "Ningxia",
    "country": "CN",
    "lastUpdated": "2020-04-15T15:08:12.252Z",
    "dead": 0,
    "id": "MntmjjuHljarCdt6aIeE",
    "infected": 75,
    "sick": 0,
    "invisible": false
  },
  {
    "infected": 323,
    "recovered": 0,
    "latitude": -3.20166586,
    "pop": 8513497,
    "longitude": -52.203499186,
    "name": "Pará",
    "country": "BR",
    "lastUpdated": "2020-04-15T15:09:07.452Z",
    "dead": 19,
    "id": "MuEB2UgkId5crsxi9zQT",
    "sick": 304,
    "invisible": false
  },
  {
    "id": "N3XsRBwJSsNclkEf7Zz5",
    "infected": 27080,
    "recovered": 11952,
    "latitude": 48.6616,
    "pop": 11020000,
    "longitude": 9.3501,
    "name": "Baden-Württemberg",
    "country": "DE",
    "lastUpdated": "2020-04-15T15:00:11.508Z",
    "dead": 816,
    "sick": 14312,
    "invisible": false
  },
  {
    "lastUpdated": "2020-04-15T15:06:03.853Z",
    "dead": 41,
    "id": "N7c13sCQF0G789XAVazJ",
    "infected": 1110,
    "recovered": 253,
    "latitude": 44.696652,
    "pop": 3507000,
    "longitude": 17.824332,
    "name": "Bosnia and Herzegovina",
    "country": "BA",
    "sick": 816,
    "invisible": false
  },
  {
    "lastUpdated": "2020-04-15T15:08:12.249Z",
    "dead": 0,
    "id": "NBRIGIRrJB1Ry8prDNAC",
    "infected": 186,
    "recovered": 135,
    "latitude": 37.242565,
    "pop": 36500000,
    "longitude": 111.856857,
    "name": "Shanxi",
    "country": "CN",
    "sick": 51,
    "invisible": false
  },
  {
    "infected": 5174,
    "recovered": 0,
    "latitude": 35.7596,
    "pop": 10380000,
    "longitude": -79.0193,
    "name": "North Carolina",
    "country": "US",
    "lastUpdated": "2020-04-15T15:14:21.014Z",
    "dead": 120,
    "id": "NC64Qp5kTqAfiTuR27k8",
    "sick": 5054,
    "invisible": false
  },
  {
    "longitude": 12.5316,
    "name": "Brandenburg",
    "country": "DE",
    "lastUpdated": "2020-04-15T15:00:11.518Z",
    "dead": 70,
    "id": "NJjo2gfBvnbK4xatrsUz",
    "infected": 2125,
    "recovered": 900,
    "latitude": 52.4125,
    "pop": 2504000,
    "sick": 1155,
    "invisible": false
  },
  {
    "latitude": 15.0979,
    "pop": 55144,
    "longitude": -145.6739,
    "name": "Northern Mariana Islands",
    "country": "MP",
    "lastUpdated": "2020-04-15T15:14:21.021Z",
    "dead": 2,
    "id": "NLLL6pJhJSw0lrDMD4uP",
    "infected": 13,
    "recovered": 0,
    "sick": 11,
    "invisible": false
  },
  {
    "recovered": 9,
    "latitude": 30.0668,
    "pop": 10080000,
    "longitude": 79.0193,
    "name": "Uttarakhand",
    "country": "IN",
    "lastUpdated": "2020-04-15T15:11:01.918Z",
    "dead": 0,
    "id": "NMeZEcGToxXfpi16PfFV",
    "infected": 37,
    "sick": 28,
    "invisible": false
  },
  {
    "latitude": 50.6521,
    "pop": 6243000,
    "longitude": 9.1624,
    "name": "Hessen",
    "country": "DE",
    "lastUpdated": "2020-04-15T15:00:11.519Z",
    "dead": 188,
    "id": "Nk5vPgUIXsWVfbWZf15O",
    "infected": 6278,
    "recovered": 2163,
    "sick": 3927,
    "invisible": false
  },
  {
    "latitude": 56.96776,
    "pop": 1920000,
    "longitude": 25.837107,
    "name": "Latvia",
    "country": "LV",
    "lastUpdated": "2020-04-15T15:06:03.857Z",
    "dead": 5,
    "id": "NmmMKy0YqA8StHdGzB5N",
    "infected": 666,
    "recovered": 44,
    "sick": 617,
    "invisible": false
  },
  {
    "recovered": 0,
    "latitude": -8.472372,
    "pop": 9496294,
    "longitude": -37.946777,
    "name": "Pernambuco",
    "country": "BR",
    "lastUpdated": "2020-04-15T15:09:07.452Z",
    "dead": 115,
    "id": "NyGlFL1gATK1Omv9qtcC",
    "infected": 1284,
    "sick": 1169,
    "invisible": false
  },
  {
    "infected": 59,
    "recovered": 4,
    "latitude": 6.4281,
    "pop": 4732000,
    "longitude": -9.4295,
    "name": "Liberia",
    "country": "LR",
    "lastUpdated": "2020-04-15T15:06:03.863Z",
    "dead": 6,
    "id": "O4g88K49HKEZLFXm5gxb",
    "sick": 49,
    "invisible": false
  },
  {
    "id": "ONU4CK8QjViFHKg2w5if",
    "infected": 3553,
    "recovered": 0,
    "latitude": 34.003307,
    "pop": 5084000,
    "longitude": -80.525613,
    "name": "South Carolina",
    "country": "US",
    "lastUpdated": "2020-04-15T15:14:21.015Z",
    "dead": 97,
    "sick": 3456,
    "invisible": false
  },
  {
    "infected": 3087,
    "recovered": 0,
    "latitude": 33.51822,
    "pop": 2987000,
    "longitude": -89.582775,
    "name": "Mississippi",
    "country": "US",
    "lastUpdated": "2020-04-15T15:14:21.015Z",
    "dead": 111,
    "id": "OYa0jFzdbAgo8zUsRv6q",
    "sick": 2976,
    "invisible": false
  },
  {
    "infected": 734,
    "recovered": 0,
    "latitude": 45.2538,
    "pop": 1338000,
    "longitude": -69.4455,
    "name": "Maine",
    "country": "US",
    "lastUpdated": "2020-04-15T15:14:21.020Z",
    "dead": 21,
    "id": "OcXNp9kNVSwrRlG3bNVN",
    "sick": 713,
    "invisible": false
  },
  {
    "longitude": 146.725256,
    "name": "Tasmania",
    "country": "AU",
    "lastUpdated": "2020-04-15T15:06:01.400Z",
    "dead": 6,
    "id": "OnOseaqWdnuP18oruABW",
    "infected": 168,
    "recovered": 53,
    "latitude": -41.915264,
    "pop": 515000,
    "sick": 109,
    "invisible": false
  },
  {
    "latitude": -16.35,
    "pop": 3441998,
    "longitude": -56.666668,
    "name": "Mato Grosso",
    "country": "BR",
    "lastUpdated": "2020-04-15T15:09:07.451Z",
    "dead": 4,
    "id": "P0GHFGUt1pkKTk5PM8uz",
    "infected": 138,
    "recovered": 0,
    "sick": 134,
    "invisible": false
  },
  {
    "longitude": -81.2546,
    "name": "Cayman Islands",
    "country": "KY",
    "lastUpdated": "2020-04-15T15:06:03.863Z",
    "dead": 1,
    "id": "P4mwRFLbrvT0t75uD8Wo",
    "infected": 54,
    "recovered": 6,
    "latitude": 19.3133,
    "pop": 61559,
    "sick": 47,
    "invisible": false
  },
  {
    "infected": 11,
    "recovered": 1,
    "latitude": 16.7424984,
    "pop": 5900,
    "longitude": -62.1873665,
    "name": "Montserrat",
    "country": "MS",
    "lastUpdated": "2020-04-15T15:06:03.866Z",
    "dead": 0,
    "id": "PEDkeFMTOZpvHiSVxBk7",
    "sick": 10,
    "invisible": false
  },
  {
    "infected": 134,
    "recovered": 49,
    "latitude": -1.9403,
    "pop": 12210000,
    "longitude": 29.8739,
    "name": "Rwanda",
    "country": "RW",
    "lastUpdated": "2020-04-15T15:06:03.861Z",
    "dead": 0,
    "id": "PEcgZGEkyhABztt1Ufgc",
    "sick": 85,
    "invisible": false
  },
  {
    "infected": 1695,
    "recovered": 0,
    "latitude": 46.7296,
    "pop": 5611000,
    "longitude": -94.6859,
    "name": "Minnesota",
    "country": "US",
    "lastUpdated": "2020-04-15T15:14:21.018Z",
    "dead": 79,
    "id": "PJvVYosLIhbcRZYnKX1R",
    "sick": 1616,
    "invisible": false
  },
  {
    "latitude": 40.6331,
    "pop": 12740000,
    "longitude": -89.3985,
    "name": "Illinois",
    "country": "US",
    "lastUpdated": "2020-04-15T15:14:21.011Z",
    "dead": 869,
    "id": "PTwQr9ijo0TBBsPH2sdJ",
    "infected": 23248,
    "recovered": 0,
    "sick": 22379,
    "invisible": false
  },
  {
    "recovered": 11,
    "latitude": 13.909444,
    "pop": 178844,
    "longitude": -60.978893,
    "name": "Saint Lucia",
    "country": "LC",
    "lastUpdated": "2020-04-15T15:06:03.865Z",
    "dead": 0,
    "id": "PjLqCeFdyzdZNcZxMkK1",
    "infected": 15,
    "sick": 4,
    "invisible": false
  },
  {
    "latitude": 42.6954,
    "pop": 649900,
    "longitude": -1.6761,
    "name": "Comunidad Foral de Navarra",
    "country": "ES",
    "lastUpdated": "2020-04-15T15:11:03.231Z",
    "dead": 252,
    "id": "PmUlsNx2uFLU797wwU39",
    "infected": 4246,
    "recovered": 808,
    "sick": 3186,
    "invisible": false
  },
  {
    "latitude": 34.201507,
    "pop": 11530000,
    "longitude": 9.460554,
    "name": "Tunisia",
    "country": "TN",
    "lastUpdated": "2020-04-15T15:06:03.856Z",
    "dead": 34,
    "id": "Pr76V4raf108uSRoEXac",
    "infected": 747,
    "recovered": 43,
    "sick": 670,
    "invisible": false
  },
  {
    "id": "PuQgOd9KWiMzGZXm11sR",
    "infected": 15,
    "recovered": 8,
    "latitude": -26.5225,
    "pop": 1367000,
    "longitude": 31.4659,
    "name": "Eswatini",
    "country": "SZ",
    "lastUpdated": "2020-04-15T15:06:03.865Z",
    "dead": 0,
    "sick": 7,
    "invisible": false
  },
  {
    "infected": 1299,
    "recovered": 1118,
    "latitude": -37.009609,
    "pop": 6359000,
    "longitude": 143.94853,
    "name": "Victoria",
    "country": "AU",
    "lastUpdated": "2020-04-15T15:06:01.397Z",
    "dead": 14,
    "id": "Q18mrGvFWTLX2BU9SqhQ",
    "sick": 167,
    "invisible": false
  },
  {
    "infected": 2271,
    "recovered": 1400,
    "latitude": 54.2194,
    "pop": 2890000,
    "longitude": 9.6961,
    "name": "Schleswig-Holstein",
    "country": "DE",
    "lastUpdated": "2020-04-15T15:00:11.521Z",
    "dead": 53,
    "id": "Q39XkabIYxt15mHINzTa",
    "sick": 818,
    "invisible": false
  },
  {
    "id": "QGpQNhuoVTUPHXvS7qcu",
    "infected": 700,
    "recovered": 0,
    "latitude": -27.953491,
    "pop": 11329605,
    "longitude": -52.031696,
    "name": "Rio Grande do Sul",
    "country": "BR",
    "lastUpdated": "2020-04-15T15:09:07.452Z",
    "dead": 18,
    "sick": 682,
    "invisible": false
  },
  {
    "recovered": 117,
    "latitude": 58.595272,
    "pop": 1328000,
    "longitude": 25.013607,
    "name": "Estonia",
    "country": "EE",
    "lastUpdated": "2020-04-15T15:06:03.853Z",
    "dead": 35,
    "id": "QR9go2hQKXjty7JHUYe4",
    "infected": 1400,
    "sick": 1248,
    "invisible": false
  },
  {
    "longitude": -40.336,
    "name": "Espírito Santo",
    "country": "BR",
    "lastUpdated": "2020-04-15T15:09:07.451Z",
    "dead": 17,
    "id": "QaWDLKH8SuwD0Qxq6c38",
    "infected": 463,
    "recovered": 0,
    "latitude": -20.318,
    "pop": 3972388,
    "sick": 446,
    "invisible": false
  },
  {
    "recovered": 0,
    "latitude": 20.3333,
    "pop": 8222700,
    "longitude": -103.6667,
    "name": "Jalisco",
    "country": "MX",
    "lastUpdated": "2020-04-15T15:10:08.185Z",
    "dead": 11,
    "id": "Qkho455pBwx88Gohs3hL",
    "infected": 165,
    "sick": 154,
    "invisible": false
  },
  {
    "latitude": -6.315,
    "pop": 8251000,
    "longitude": 143.9555,
    "name": "Papua New Guinea",
    "country": "PG",
    "lastUpdated": "2020-04-15T15:06:03.867Z",
    "dead": 0,
    "id": "QlZrE4nosm5WfdA2aCDg",
    "infected": 2,
    "recovered": 0,
    "sick": 2,
    "invisible": false
  },
  {
    "recovered": 0,
    "latitude": 18.3358,
    "pop": 107268,
    "longitude": -64.8963,
    "name": "U.S. Virgin Islands",
    "country": "US",
    "lastUpdated": "2020-04-15T15:14:21.021Z",
    "dead": 1,
    "id": "QqhD3YDMKXojvQY3Yu41",
    "infected": 51,
    "sick": 50,
    "invisible": false
  },
  {
    "lastUpdated": "2020-04-15T15:06:03.865Z",
    "dead": 0,
    "id": "Qy2qW2ep5wltnYjPJBxh",
    "infected": 16,
    "recovered": 8,
    "latitude": 15.414999,
    "pop": 71937,
    "longitude": -61.3709755,
    "name": "Dominica",
    "country": "DM",
    "sick": 8,
    "invisible": false
  },
  {
    "lastUpdated": "2020-04-15T15:16:08.919Z",
    "dead": 0,
    "id": "R3IHMWqIUhOJJTlrmbUZ",
    "infected": 9,
    "recovered": 1,
    "latitude": 5.167,
    "pop": 344027,
    "longitude": -72.167,
    "name": "Casanare",
    "country": "CO",
    "sick": 8,
    "invisible": false
  },
  {
    "infected": 3574,
    "recovered": 72,
    "latitude": 8.538,
    "pop": 4099000,
    "longitude": -80.7821,
    "name": "Panama",
    "country": "PA",
    "lastUpdated": "2020-04-15T15:10:08.422Z",
    "dead": 95,
    "id": "R8YCgephnxTufvcPWMgx",
    "sick": 3407,
    "invisible": false
  },
  {
    "lastUpdated": "2020-04-15T15:06:03.858Z",
    "dead": 31,
    "id": "RA2SE0p2bVhqo0P2hzGY",
    "infected": 419,
    "recovered": 9,
    "latitude": 15.2,
    "pop": 9265000,
    "longitude": -86.2419,
    "name": "Honduras",
    "country": "HN",
    "sick": 379,
    "invisible": false
  },
  {
    "infected": 120,
    "recovered": 0,
    "latitude": -18.4745998,
    "pop": 224500,
    "longitude": -70.2979202,
    "name": "Arica y Parinacota",
    "country": "CL",
    "lastUpdated": "2020-04-15T15:07:12.893Z",
    "dead": 1,
    "id": "RBt9RiwP7WUbMnJfD0lo",
    "sick": 119,
    "invisible": false
  },
  {
    "longitude": 13.8,
    "name": "Friuli Venezia Giulia",
    "country": "IT",
    "lastUpdated": "2020-04-15T14:55:09.048Z",
    "dead": 206,
    "id": "RCrDBCdBNYzgLNr0aB2H",
    "infected": 2520,
    "recovered": 1415,
    "latitude": 45.633331,
    "pop": 1216000,
    "sick": 899,
    "invisible": false
  },
  {
    "longitude": -93.0977,
    "name": "Iowa",
    "country": "US",
    "lastUpdated": "2020-04-15T15:14:21.018Z",
    "dead": 49,
    "id": "RX0KDu1AFrlCsrRso0nb",
    "infected": 1899,
    "recovered": 0,
    "latitude": 41.878,
    "pop": 3156000,
    "sick": 1850,
    "invisible": false
  },
  {
    "infected": 1242,
    "recovered": 118,
    "latitude": 4.624335,
    "pop": 7413000,
    "longitude": -74.063644,
    "name": "Bogotá D.C.",
    "country": "CO",
    "lastUpdated": "2020-04-15T15:16:08.880Z",
    "dead": 55,
    "id": "RZ6PCe5TZsO15JjDObwO",
    "sick": 1069,
    "invisible": false
  },
  {
    "lastUpdated": "2020-04-15T15:06:03.864Z",
    "dead": 1,
    "id": "RaJxbzlnRFTuj4B8IbpC",
    "infected": 35,
    "recovered": 9,
    "latitude": 26.3351002,
    "pop": 6846000,
    "longitude": 17.2283306,
    "name": "Libya",
    "country": "LY",
    "sick": 25,
    "invisible": false
  },
  {
    "lastUpdated": "2020-04-15T15:14:21.019Z",
    "dead": 69,
    "id": "Rf4uvBfP3GRDSHdZElRd",
    "infected": 1441,
    "recovered": 0,
    "latitude": 39.0119,
    "pop": 2912000,
    "longitude": -98.4842,
    "name": "Kansas",
    "country": "US",
    "sick": 1372,
    "invisible": false
  },
  {
    "longitude": 6.1878,
    "name": "Grand Est",
    "country": "FR",
    "lastUpdated": "2020-04-15T04:22:37.247Z",
    "dead": 2166,
    "id": "RmEgf1xeclWt7XCF9oiR",
    "infected": 17460,
    "recovered": 4928,
    "latitude": 48.6998,
    "pop": 5518000,
    "sick": 10366,
    "invisible": false
  },
  {
    "longitude": 4.451,
    "name": "Wallonia",
    "country": "BE",
    "lastUpdated": "2020-04-15T14:59:12.396Z",
    "dead": 1523,
    "id": "RryHraSohKQLAsdr1dHO",
    "infected": 9999,
    "recovered": 1860,
    "latitude": 50.4176,
    "pop": 3644000,
    "sick": 6616,
    "invisible": false
  },
  {
    "recovered": 0,
    "latitude": 51.2538,
    "pop": 14570000,
    "longitude": -85.3232,
    "name": "Ontario",
    "country": "CA",
    "lastUpdated": "2020-04-15T15:06:01.396Z",
    "dead": 334,
    "id": "Rx4TuyMpfGb3S8wYJX0x",
    "infected": 7953,
    "sick": 7619,
    "invisible": false
  },
  {
    "id": "S8ewN4zaYp8mjtuqqOTw",
    "infected": 13697,
    "recovered": 4521,
    "latitude": 41.652779,
    "pop": 2408000,
    "longitude": -4.723611,
    "name": "Castilla y León",
    "country": "ES",
    "lastUpdated": "2020-04-15T15:11:03.229Z",
    "dead": 1337,
    "sick": 7839,
    "invisible": false
  },
  {
    "recovered": 73,
    "latitude": 14.652027,
    "pop": 376480,
    "longitude": -61.011715,
    "name": "Martinique",
    "country": "FR",
    "lastUpdated": "2020-04-15T15:06:03.860Z",
    "dead": 8,
    "id": "SDdefnq1bc3ZNr7SpEsW",
    "infected": 158,
    "sick": 77,
    "invisible": false
  },
  {
    "lastUpdated": "2020-04-15T15:06:03.857Z",
    "dead": 8,
    "id": "SG9VWLOV3x2JsTkXmVSz",
    "infected": 636,
    "recovered": 17,
    "latitude": 7.9465,
    "pop": 28830000,
    "longitude": -1.0232,
    "name": "Ghana",
    "country": "GH",
    "sick": 611,
    "invisible": false
  },
  {
    "latitude": 46.818188,
    "pop": 8570000,
    "longitude": 8.227512,
    "name": "Switzerland",
    "country": "CH",
    "lastUpdated": "2020-04-15T15:06:03.849Z",
    "dead": 1226,
    "id": "SGe9sCPayMqh6RsGFaBA",
    "infected": 26336,
    "recovered": 14700,
    "sick": 10410,
    "invisible": false
  },
  {
    "longitude": -71.208,
    "name": "Quebec",
    "country": "CA",
    "lastUpdated": "2020-04-15T15:06:01.396Z",
    "dead": 435,
    "id": "SHoOE3NiJgWAlDVBzwYH",
    "infected": 14248,
    "recovered": 0,
    "latitude": 46.8139,
    "pop": 8485000,
    "sick": 13813,
    "invisible": false
  },
  {
    "recovered": 66,
    "latitude": 42.6026,
    "pop": 1831000,
    "longitude": 20.903,
    "name": "Kosovo",
    "country": "XK",
    "lastUpdated": "2020-04-15T15:10:08.385Z",
    "dead": 8,
    "id": "SMWvuMMuKp2QK7O2tNia",
    "infected": 387,
    "sick": 313,
    "invisible": false
  },
  {
    "infected": 7,
    "recovered": 6,
    "latitude": 15.2993,
    "pop": 1817000,
    "longitude": 74.124,
    "name": "Goa",
    "country": "IN",
    "lastUpdated": "2020-04-15T15:11:01.919Z",
    "dead": 0,
    "id": "SPcujsH2YlUaoAr8AiWF",
    "sick": 1,
    "invisible": false
  },
  {
    "infected": 284,
    "recovered": 0,
    "latitude": -16.328547,
    "pop": 6921161,
    "longitude": -48.953403,
    "name": "Goiás",
    "country": "BR",
    "lastUpdated": "2020-04-15T15:09:07.451Z",
    "dead": 15,
    "id": "SV5AMF59J61Vt4cXWLgy",
    "sick": 269,
    "invisible": false
  },
  {
    "infected": 956,
    "recovered": 72,
    "latitude": 39,
    "pop": 1957000,
    "longitude": 16.5,
    "name": "Calabria",
    "country": "IT",
    "lastUpdated": "2020-04-15T14:55:09.042Z",
    "dead": 68,
    "id": "SZdF624x0v1LlyzZjKFu",
    "sick": 816,
    "invisible": false
  },
  {
    "recovered": 0,
    "latitude": 41.4925,
    "pop": 1929000,
    "longitude": -99.9018,
    "name": "Nebraska",
    "country": "US",
    "lastUpdated": "2020-04-15T15:14:21.020Z",
    "dead": 20,
    "id": "SakhKQzKu1LRI8laqdQq",
    "infected": 901,
    "sick": 881,
    "invisible": false
  },
  {
    "latitude": -21.1151,
    "pop": 859959,
    "longitude": 55.5364,
    "name": "La Réunion",
    "country": "FR",
    "lastUpdated": "2020-04-15T15:06:03.859Z",
    "dead": 0,
    "id": "SgHzWAAYK1j2sipovxM6",
    "infected": 391,
    "recovered": 40,
    "sick": 351,
    "invisible": false
  },
  {
    "recovered": 96,
    "latitude": 12.565679,
    "pop": 16010000,
    "longitude": 104.990967,
    "name": "Cambodia",
    "country": "KH",
    "lastUpdated": "2020-04-15T15:06:03.861Z",
    "dead": 0,
    "id": "SioMALgUbo7peXmbco2f",
    "infected": 122,
    "sick": 26,
    "invisible": false
  },
  {
    "lastUpdated": "2020-04-15T15:14:21.021Z",
    "dead": 5,
    "id": "SsWhuEElU7dCTTuH5fdQ",
    "infected": 135,
    "recovered": 0,
    "latitude": 13.4443,
    "pop": 164229,
    "longitude": 144.7937,
    "name": "Guam",
    "country": "GU",
    "sick": 130,
    "invisible": false
  },
  {
    "infected": 254,
    "recovered": 21,
    "latitude": -4.0383,
    "pop": 81340000,
    "longitude": 21.7587,
    "name": "DR Congo",
    "country": "CD",
    "lastUpdated": "2020-04-15T15:06:03.860Z",
    "dead": 21,
    "id": "T3iRf8mTUTAzbKrORTap",
    "sick": 212,
    "invisible": false
  },
  {
    "infected": 5862,
    "recovered": 931,
    "latitude": 23.635796,
    "pop": 32940000,
    "longitude": 44.344334,
    "name": "Saudi Arabia",
    "country": "SA",
    "lastUpdated": "2020-04-15T15:06:03.851Z",
    "dead": 79,
    "id": "T7NffoeCgTUpAbOHvYwP",
    "sick": 4852,
    "invisible": false
  },
  {
    "longitude": -2.5396,
    "name": "La Rioja",
    "country": "ES",
    "lastUpdated": "2020-04-15T15:11:03.231Z",
    "dead": 246,
    "id": "TNDTapyb0k3l7Mds9q9R",
    "infected": 3457,
    "recovered": 1585,
    "latitude": 42.2871,
    "pop": 315700,
    "sick": 1626,
    "invisible": false
  },
  {
    "infected": 117,
    "recovered": 0,
    "latitude": 20.400417,
    "pop": 2207200,
    "longitude": -89.134857,
    "name": "Yucatán",
    "country": "MX",
    "lastUpdated": "2020-04-15T15:10:08.184Z",
    "dead": 8,
    "id": "TQCWbhIpJQBQxBjhCGVJ",
    "sick": 109,
    "invisible": false
  },
  {
    "infected": 136,
    "recovered": 108,
    "latitude": 4.506106,
    "pop": 428697,
    "longitude": 114.650692,
    "name": "Brunei",
    "country": "BN",
    "lastUpdated": "2020-04-15T15:06:03.861Z",
    "dead": 1,
    "id": "TQZmzsLhJqjtCSExAkCP",
    "sick": 27,
    "invisible": false
  },
  {
    "longitude": 4.3853,
    "name": "Auvergne-Rhône-Alpes",
    "country": "FR",
    "lastUpdated": "2020-04-15T04:22:14.430Z",
    "dead": 836,
    "id": "TT0MKODSjrxHvG19xZCa",
    "infected": 10106,
    "recovered": 3081,
    "latitude": 45.4471,
    "pop": 8027000,
    "sick": 6189,
    "invisible": false
  },
  {
    "recovered": 0,
    "latitude": 38.5667,
    "pop": 758700,
    "longitude": -7.9,
    "name": "Alentejo",
    "country": "PT",
    "lastUpdated": "2020-04-15T15:05:08.723Z",
    "dead": 0,
    "id": "TeoNTu4aw5riC04sTd73",
    "infected": 155,
    "sick": 155,
    "invisible": false
  },
  {
    "longitude": -105.461392,
    "name": "Colorado",
    "country": "US",
    "lastUpdated": "2020-04-15T15:14:21.013Z",
    "dead": 329,
    "id": "Th4dlpXXmSDgi1OHs36P",
    "infected": 7950,
    "recovered": 0,
    "latitude": 39.318928,
    "pop": 5696000,
    "sick": 7621,
    "invisible": false
  },
  {
    "infected": 528,
    "recovered": 177,
    "latitude": 12.2383,
    "pop": 19190000,
    "longitude": -1.5616,
    "name": "Burkina Faso",
    "country": "BF",
    "lastUpdated": "2020-04-15T15:06:03.857Z",
    "dead": 30,
    "id": "Tup6oDCHj6DgqZR3nQ3x",
    "sick": 321,
    "invisible": false
  },
  {
    "latitude": 12.104818,
    "pop": 112381,
    "longitude": -61.670761,
    "name": "Grenada",
    "country": "GD",
    "lastUpdated": "2020-04-15T15:06:03.866Z",
    "dead": 0,
    "id": "TvqURPN5xzVBXsmGP46N",
    "infected": 14,
    "recovered": 0,
    "sick": 14,
    "invisible": false
  },
  {
    "longitude": 12.56902,
    "name": "Denmark",
    "country": "DK",
    "lastUpdated": "2020-04-15T15:06:03.850Z",
    "dead": 309,
    "id": "Ty1AY3VLPJcRZgdBIERx",
    "infected": 6681,
    "recovered": 2748,
    "latitude": 55.675758,
    "pop": 5603000,
    "sick": 3624,
    "invisible": false
  },
  {
    "infected": 5481,
    "recovered": 0,
    "latitude": 53.9062,
    "pop": 5486000,
    "longitude": -1.0334,
    "name": "Yorkshire and The Humber",
    "country": "GB",
    "lastUpdated": "2020-04-15T15:06:11.322Z",
    "dead": 0,
    "id": "U0N7cIPJXAc4T6uKV60c",
    "sick": 5481,
    "invisible": false
  },
  {
    "infected": 784,
    "recovered": 761,
    "latitude": 36.395859,
    "pop": 100472400,
    "longitude": 118.769882,
    "name": "Shandong",
    "country": "CN",
    "lastUpdated": "2020-04-15T15:08:12.249Z",
    "dead": 7,
    "id": "U0tkTJ9CGsBuFJ2Gdoum",
    "sick": 16,
    "invisible": false
  },
  {
    "infected": 372,
    "recovered": 53,
    "latitude": 43.94236,
    "pop": 33400,
    "longitude": 12.457777,
    "name": "San Marino",
    "country": "SM",
    "lastUpdated": "2020-04-15T15:06:03.859Z",
    "dead": 36,
    "id": "U12rMD5GDW58Q0lIwrB1",
    "sick": 283,
    "invisible": false
  },
  {
    "longitude": 138.25293,
    "name": "Japan",
    "country": "JP",
    "lastUpdated": "2020-04-15T15:06:03.850Z",
    "dead": 146,
    "id": "U13Gy4BpRLAZ95bPmBXd",
    "infected": 8100,
    "recovered": 853,
    "latitude": 36.204823,
    "pop": 126800000,
    "sick": 7101,
    "invisible": false
  },
  {
    "recovered": 12,
    "latitude": 1.3733,
    "pop": 42860000,
    "longitude": 32.2903,
    "name": "Uganda",
    "country": "UG",
    "lastUpdated": "2020-04-15T15:06:03.863Z",
    "dead": 0,
    "id": "UCZXEgnHtxUoChWLR6fQ",
    "infected": 55,
    "sick": 43,
    "invisible": false
  },
  {
    "lastUpdated": "2020-04-15T15:06:03.865Z",
    "dead": 2,
    "id": "UIbrFy6kiTTF0D37Kqmp",
    "infected": 19,
    "recovered": 5,
    "latitude": -11.2027,
    "pop": 29780000,
    "longitude": 17.8739,
    "name": "Angola",
    "country": "AO",
    "sick": 12,
    "invisible": false
  },
  {
    "infected": 1704,
    "recovered": 511,
    "latitude": 48.202,
    "pop": 3329000,
    "longitude": -2.9326,
    "name": "Bretagne",
    "country": "FR",
    "lastUpdated": "2020-04-15T04:22:23.416Z",
    "dead": 149,
    "id": "URKMlJ7OTNldjpaxFbjE",
    "sick": 1044,
    "invisible": false
  },
  {
    "latitude": 53.5511,
    "pop": 1822000,
    "longitude": 9.9937,
    "name": "Hamburg",
    "country": "DE",
    "lastUpdated": "2020-04-15T15:00:11.519Z",
    "dead": 59,
    "id": "UfFaUECHINUutv1M9tzq",
    "infected": 3925,
    "recovered": 2000,
    "sick": 1866,
    "invisible": false
  },
  {
    "latitude": 22.774916,
    "pop": 1615000,
    "longitude": -102.586899,
    "name": "Zacatecas",
    "country": "MX",
    "lastUpdated": "2020-04-15T15:10:08.184Z",
    "dead": 2,
    "id": "UflxTAb4FnAwve7c5MbY",
    "infected": 19,
    "recovered": 0,
    "sick": 17,
    "invisible": false
  },
  {
    "lastUpdated": "2020-04-15T15:09:07.451Z",
    "dead": 4,
    "id": "UlA1ubOUhPtf9jjKxxhF",
    "infected": 115,
    "recovered": 0,
    "latitude": -20.4427795,
    "pop": 2748023,
    "longitude": -54.646389,
    "name": "Mato Grosso do Sul",
    "country": "BR",
    "sick": 111,
    "invisible": false
  },
  {
    "longitude": 132.551,
    "name": "Northern Territory",
    "country": "AU",
    "lastUpdated": "2020-04-15T15:06:01.400Z",
    "dead": 0,
    "id": "UrF45V1VqMo6YBib2KlL",
    "infected": 27,
    "recovered": 6,
    "latitude": -19.4914,
    "pop": 211945,
    "sick": 21,
    "invisible": false
  },
  {
    "recovered": 5,
    "latitude": 18.0424805,
    "pop": 41109,
    "longitude": -63.0548286,
    "name": "Sint Maarten",
    "country": "SX",
    "lastUpdated": "2020-04-15T15:06:03.863Z",
    "dead": 9,
    "id": "UsxgpiuFCtlR2CW1UUFm",
    "infected": 52,
    "sick": 38,
    "invisible": false
  },
  {
    "infected": 7656,
    "recovered": 0,
    "latitude": 52.4751,
    "pop": 5908000,
    "longitude": -1.8298,
    "name": "West Midlands",
    "country": "GB",
    "lastUpdated": "2020-04-15T15:06:11.322Z",
    "dead": 0,
    "id": "UzOGOMitJmaFTdh2FbvI",
    "sick": 7656,
    "invisible": false
  },
  {
    "longitude": 79.808206,
    "name": "Puducherry",
    "country": "IN",
    "lastUpdated": "2020-04-15T15:11:01.919Z",
    "dead": 0,
    "id": "V1qE740s3EUGyKGr6SVv",
    "infected": 7,
    "recovered": 1,
    "latitude": 11.943179,
    "pop": 241773,
    "sick": 6,
    "invisible": false
  },
  {
    "latitude": -45.5687,
    "pop": 25569,
    "longitude": -72.0597,
    "name": "Aysén",
    "country": "CL",
    "lastUpdated": "2020-04-15T15:07:12.955Z",
    "dead": 0,
    "id": "V9QxUhV4DyYK7iElEhXV",
    "infected": 7,
    "recovered": 0,
    "sick": 7,
    "invisible": false
  },
  {
    "longitude": -77.7812,
    "name": "Cuba",
    "country": "CU",
    "lastUpdated": "2020-04-15T15:06:03.856Z",
    "dead": 21,
    "id": "VAG9AcMABTf8oIAfELPh",
    "infected": 766,
    "recovered": 132,
    "latitude": 21.5218,
    "pop": 11480000,
    "sick": 613,
    "invisible": false
  },
  {
    "latitude": 25.181129,
    "pop": 45970000,
    "longitude": 101.864143,
    "name": "Yunnan",
    "country": "CN",
    "lastUpdated": "2020-04-15T15:08:12.250Z",
    "dead": 2,
    "id": "VIf8T8PD3ZzlzAm5eBCX",
    "infected": 184,
    "recovered": 176,
    "sick": 6,
    "invisible": false
  },
  {
    "lastUpdated": "2020-04-15T15:09:07.450Z",
    "dead": 90,
    "id": "VZQiSdZ7cUHgUZWgpNTP",
    "infected": 1484,
    "recovered": 0,
    "latitude": -3.117034,
    "pop": 4080611,
    "longitude": -60.02578,
    "name": "Amazonas",
    "country": "BR",
    "sick": 1394,
    "invisible": false
  },
  {
    "infected": 735,
    "recovered": 57,
    "latitude": 26.8467,
    "pop": 204200000,
    "longitude": 80.9462,
    "name": "Uttar Pradesh",
    "country": "IN",
    "lastUpdated": "2020-04-15T15:11:01.917Z",
    "dead": 11,
    "id": "VcKcLdCkC6YpPfIDnRVD",
    "sick": 667,
    "invisible": false
  },
  {
    "infected": 5,
    "recovered": 0,
    "latitude": 64.8255,
    "pop": 44826,
    "longitude": -124.8457,
    "name": "Northwest Territories",
    "country": "CA",
    "lastUpdated": "2020-04-15T15:06:01.401Z",
    "dead": 0,
    "id": "Vd3lLgrNsr81plzTgZkz",
    "sick": 5,
    "invisible": false
  },
  {
    "longitude": 3.838942,
    "name": "Islas Baleares",
    "country": "ES",
    "lastUpdated": "2020-04-15T15:11:03.229Z",
    "dead": 125,
    "id": "VyW0IR9vLMdgnKz1cC7j",
    "infected": 1606,
    "recovered": 881,
    "latitude": 39.999079,
    "pop": 1188000,
    "sick": 600,
    "invisible": false
  },
  {
    "latitude": 43.8927,
    "pop": 5893000,
    "longitude": 3.2828,
    "name": "Occitanie",
    "country": "FR",
    "lastUpdated": "2020-04-15T04:23:22.304Z",
    "dead": 266,
    "id": "WAnbFrEjtZDTCIYBt8rz",
    "infected": 3757,
    "recovered": 1360,
    "sick": 2131,
    "invisible": false
  },
  {
    "id": "WD502XimGXnWzqYg7zxL",
    "infected": 319,
    "recovered": 35,
    "latitude": 40.5,
    "pop": 567118,
    "longitude": 16.5,
    "name": "Basilicata",
    "country": "IT",
    "lastUpdated": "2020-04-15T14:55:09.041Z",
    "dead": 19,
    "sick": 265,
    "invisible": false
  },
  {
    "latitude": 24.6637,
    "pop": 2722000,
    "longitude": 93.9063,
    "name": "Manipur",
    "country": "IN",
    "lastUpdated": "2020-04-15T15:11:01.919Z",
    "dead": 0,
    "id": "WKsJQmcpWKxnp0nCwN77",
    "infected": 2,
    "recovered": 1,
    "sick": 1,
    "invisible": false
  },
  {
    "longitude": -63.067,
    "name": "Rondônia",
    "country": "BR",
    "lastUpdated": "2020-04-15T15:09:07.452Z",
    "dead": 2,
    "id": "WRqKCfMIJFjrjXLMud70",
    "infected": 64,
    "recovered": 0,
    "latitude": -9.933,
    "pop": 1757589,
    "sick": 62,
    "invisible": false
  },
  {
    "latitude": -30.5595,
    "pop": 56720000,
    "longitude": 22.9375,
    "name": "South Africa",
    "country": "ZA",
    "lastUpdated": "2020-04-15T15:06:03.852Z",
    "dead": 27,
    "id": "Whrue10NtwIObLvFFyBr",
    "infected": 2415,
    "recovered": 410,
    "sick": 1978,
    "invisible": false
  },
  {
    "recovered": 2,
    "latitude": 13.443182,
    "pop": 2101000,
    "longitude": -15.3101387,
    "name": "Gambia",
    "country": "GM",
    "lastUpdated": "2020-04-15T15:06:03.866Z",
    "dead": 1,
    "id": "Wk811YwpQxsOCfz8As86",
    "infected": 9,
    "sick": 6,
    "invisible": false
  },
  {
    "latitude": 19.352498,
    "pop": 17666800,
    "longitude": -99.625164,
    "name": "Estado de México",
    "country": "MX",
    "lastUpdated": "2020-04-15T15:10:08.185Z",
    "dead": 35,
    "id": "WpCXuQjYFLbozSpEhbrZ",
    "infected": 602,
    "recovered": 0,
    "sick": 567,
    "invisible": false
  },
  {
    "lastUpdated": "2020-04-15T15:06:03.853Z",
    "dead": 50,
    "id": "WpLayPPLIJ7VcHZdQaoM",
    "infected": 1231,
    "recovered": 49,
    "latitude": 23.685,
    "pop": 164700000,
    "longitude": 90.3563,
    "name": "Bangladesh",
    "country": "BD",
    "sick": 1132,
    "invisible": false
  },
  {
    "recovered": 0,
    "latitude": 20.836,
    "pop": 2100000,
    "longitude": -99.8508,
    "name": "Querétaro",
    "country": "MX",
    "lastUpdated": "2020-04-15T15:10:08.183Z",
    "dead": 4,
    "id": "Wt97UDm6jfYef6WBrS2w",
    "infected": 65,
    "sick": 61,
    "invisible": false
  },
  {
    "infected": 14432,
    "recovered": 2790,
    "latitude": 45.5,
    "pop": 4905000,
    "longitude": 11.75,
    "name": "Veneto",
    "country": "IT",
    "lastUpdated": "2020-04-15T14:55:09.053Z",
    "dead": 906,
    "id": "X2iRhHF6f9pUnJcxPc3J",
    "sick": 10736,
    "invisible": false
  },
  {
    "infected": 8,
    "recovered": 1,
    "latitude": -8.556856,
    "pop": 1311000,
    "longitude": 125.56031,
    "name": "Timor-Leste",
    "country": "TL",
    "lastUpdated": "2020-04-15T15:06:03.867Z",
    "dead": 0,
    "id": "X3GMAVINj2GDzIRVfo7n",
    "sick": 7,
    "invisible": false
  },
  {
    "infected": 17,
    "recovered": 12,
    "latitude": 34.152588,
    "pop": 274289,
    "longitude": 77.577049,
    "name": "Ladakh",
    "country": "IN",
    "lastUpdated": "2020-04-15T15:11:01.919Z",
    "dead": 0,
    "id": "X3PZqaJxtnlxcgP4tzya",
    "sick": 5,
    "invisible": false
  },
  {
    "latitude": 25.92448,
    "pop": 38560000,
    "longitude": 118.278992,
    "name": "Fujian",
    "country": "CN",
    "lastUpdated": "2020-04-15T15:08:12.249Z",
    "dead": 1,
    "id": "XBBw0iMPrmiEu3qogkbi",
    "infected": 353,
    "recovered": 331,
    "sick": 21,
    "invisible": false
  },
  {
    "lastUpdated": "2020-04-15T15:07:12.955Z",
    "dead": 6,
    "id": "XIYUg6ShQvWyEAJfyJzC",
    "infected": 429,
    "recovered": 0,
    "latitude": -52.368,
    "pop": 166533,
    "longitude": -70.9863,
    "name": "Magallanes",
    "country": "CL",
    "sick": 423,
    "invisible": false
  },
  {
    "latitude": 37.794597,
    "pop": 246746,
    "longitude": -25.506134,
    "name": "Açores",
    "country": "PT",
    "lastUpdated": "2020-04-15T15:05:08.723Z",
    "dead": 4,
    "id": "XhM7BCQK50gGQ2wIUtDq",
    "infected": 100,
    "recovered": 0,
    "sick": 96,
    "invisible": false
  },
  {
    "recovered": 260,
    "latitude": -32.5228,
    "pop": 3457000,
    "longitude": -55.7658,
    "name": "Uruguay",
    "country": "UY",
    "lastUpdated": "2020-04-15T15:06:03.858Z",
    "dead": 8,
    "id": "XrsuLstdybIqIvv0E0aJ",
    "infected": 492,
    "sick": 224,
    "invisible": false
  },
  {
    "latitude": 42.0396,
    "pop": 339178,
    "longitude": 9.0129,
    "name": "Corse",
    "country": "FR",
    "lastUpdated": "2020-04-15T04:22:31.731Z",
    "dead": 38,
    "id": "YGXgIObKVabP2CYEdcb9",
    "infected": 363,
    "recovered": 129,
    "sick": 196,
    "invisible": false
  },
  {
    "id": "YI9zIOUXJqAcgc0T80yb",
    "infected": 55,
    "recovered": 15,
    "latitude": 2.916112,
    "pop": 1126000,
    "longitude": -75.28344,
    "name": "Huila",
    "country": "CO",
    "lastUpdated": "2020-04-15T15:16:08.918Z",
    "dead": 3,
    "sick": 37,
    "invisible": false
  },
  {
    "longitude": 35.2332,
    "name": "Palestine",
    "country": "PS",
    "lastUpdated": "2020-04-15T15:06:03.859Z",
    "dead": 2,
    "id": "YMzKw0SnXG71VT7H1jff",
    "infected": 308,
    "recovered": 62,
    "latitude": 31.9522,
    "pop": 5052000,
    "sick": 244,
    "invisible": false
  },
  {
    "lastUpdated": "2020-04-15T15:10:08.182Z",
    "dead": 19,
    "id": "YP3nlz6AKyrnCWYb5mHA",
    "infected": 195,
    "recovered": 0,
    "latitude": 17.97,
    "pop": 2460900,
    "longitude": -92.5867,
    "name": "Tabasco",
    "country": "MX",
    "sick": 176,
    "invisible": false
  },
  {
    "infected": 43,
    "recovered": 0,
    "latitude": 11.8037491,
    "pop": 1955000,
    "longitude": -15.1804132,
    "name": "Guinea-Bissau",
    "country": "GW",
    "lastUpdated": "2020-04-15T15:06:03.864Z",
    "dead": 0,
    "id": "YZoy8ReFucvC3IFnWZHn",
    "sick": 43,
    "invisible": false
  },
  {
    "latitude": 64.2008,
    "pop": 737438,
    "longitude": -149.4937,
    "name": "Alaska",
    "country": "US",
    "lastUpdated": "2020-04-15T15:14:21.021Z",
    "dead": 9,
    "id": "YaCODTMD1KKRnrAlkg2u",
    "infected": 285,
    "recovered": 0,
    "sick": 276,
    "invisible": false
  },
  {
    "recovered": 5428,
    "latitude": 42.9896,
    "pop": 2178000,
    "longitude": -2.6189,
    "name": "País Vasco",
    "country": "ES",
    "lastUpdated": "2020-04-15T15:11:03.231Z",
    "dead": 902,
    "id": "YfA7o2lZP1DhV4JB6Umh",
    "infected": 11475,
    "sick": 5145,
    "invisible": false
  },
  {
    "lastUpdated": "2020-04-15T15:10:08.177Z",
    "dead": 5,
    "id": "YidRsOGDERjtbaIBGCdu",
    "infected": 46,
    "recovered": 0,
    "latitude": 16.8922,
    "pop": 4091400,
    "longitude": -96.4085,
    "name": "Oaxaca",
    "country": "MX",
    "sick": 41,
    "invisible": false
  },
  {
    "longitude": 126.99778,
    "name": "South Korea",
    "country": "KR",
    "lastUpdated": "2020-04-15T15:06:03.850Z",
    "dead": 225,
    "id": "Yw9uBekNlefXBcOCNMfP",
    "infected": 10591,
    "recovered": 7616,
    "latitude": 37.568291,
    "pop": 51470000,
    "sick": 2750,
    "invisible": false
  },
  {
    "latitude": 13.193887,
    "pop": 285719,
    "longitude": -59.543198,
    "name": "Barbados",
    "country": "BB",
    "lastUpdated": "2020-04-15T15:06:03.863Z",
    "dead": 5,
    "id": "YzZqZMJGvG6joQCdiuXC",
    "infected": 73,
    "recovered": 15,
    "sick": 53,
    "invisible": false
  },
  {
    "latitude": 52.2297,
    "pop": 37980000,
    "longitude": 21.0122,
    "name": "Poland",
    "country": "PL",
    "lastUpdated": "2020-04-15T15:06:03.850Z",
    "dead": 268,
    "id": "ZAZNuCK1VweBaTLCFzCk",
    "infected": 7408,
    "recovered": 668,
    "sick": 6472,
    "invisible": false
  },
  {
    "recovered": 0,
    "latitude": 19.167832,
    "pop": 4695300,
    "longitude": -101.893163,
    "name": "Michoacán",
    "country": "MX",
    "lastUpdated": "2020-04-15T15:10:08.184Z",
    "dead": 11,
    "id": "ZQSkzcEvJtBLgGbrf9gH",
    "infected": 68,
    "sick": 57,
    "invisible": false
  },
  {
    "latitude": -25.441105,
    "pop": 11348937,
    "longitude": -49.276855,
    "name": "Paraná",
    "country": "BR",
    "lastUpdated": "2020-04-15T15:09:07.451Z",
    "dead": 36,
    "id": "ZQwG7RjZDbW1H8toEEOL",
    "infected": 791,
    "recovered": 0,
    "sick": 755,
    "invisible": false
  },
  {
    "lastUpdated": "2020-04-15T15:06:03.865Z",
    "dead": 0,
    "id": "ZmzOT0sJgfWXEpRImItC",
    "infected": 16,
    "recovered": 0,
    "latitude": -17.713371,
    "pop": 905502,
    "longitude": 178.065033,
    "name": "Fiji",
    "country": "FJ",
    "sick": 16,
    "invisible": false
  },
  {
    "longitude": -73.0877,
    "name": "Connecticut",
    "country": "US",
    "lastUpdated": "2020-04-15T15:14:21.012Z",
    "dead": 671,
    "id": "Zqy0gftQzocR49jEJNMl",
    "infected": 13989,
    "recovered": 0,
    "latitude": 41.6032,
    "pop": 3573000,
    "sick": 13318,
    "invisible": false
  },
  {
    "lastUpdated": "2020-04-15T14:55:09.051Z",
    "dead": 728,
    "id": "Zwbjs4XN7P9s849Q3zFj",
    "infected": 5426,
    "recovered": 1603,
    "latitude": 43.616943,
    "pop": 1532000,
    "longitude": 13.516667,
    "name": "Marche",
    "country": "IT",
    "sick": 3095,
    "invisible": false
  },
  {
    "id": "a9OgUWo6ZSWA3HyF0xnj",
    "infected": 1569,
    "recovered": 1000,
    "latitude": 51.011,
    "pop": 2137000,
    "longitude": 10.8453,
    "name": "Thüringen",
    "country": "DE",
    "lastUpdated": "2020-04-15T15:00:11.521Z",
    "dead": 38,
    "sick": 531,
    "invisible": false
  },
  {
    "lastUpdated": "2020-04-15T15:06:01.397Z",
    "dead": 4,
    "id": "a9p9pAOsjg1WAjPGc2a6",
    "infected": 433,
    "recovered": 240,
    "latitude": -30.000233,
    "pop": 1677000,
    "longitude": 136.209152,
    "name": "South Australia",
    "country": "AU",
    "sick": 189,
    "invisible": false
  },
  {
    "recovered": 0,
    "latitude": -33.047237,
    "pop": 1790219,
    "longitude": -71.612686,
    "name": "Valparaíso",
    "country": "CL",
    "lastUpdated": "2020-04-15T15:07:12.954Z",
    "dead": 2,
    "id": "aNN8fCwDCMMdlpMC2Fml",
    "infected": 285,
    "sick": 283,
    "invisible": false
  },