[
  {
    "lastUpdated": "2020-07-09T14:45:06.177Z",
    "recovered": 21,
    "infected": 28,
    "id": "01b09TY4vmuZwzVuiRFK",
    "pop": 72600,
    "country": "CO",
    "longitude": -81.7006,
    "name": "San Andrés",
    "latitude": 12.5847,
    "dead": 0,
    "sick": 7,
    "invisible": false
  },
  {
    "latitude": 49.4482,
    "dead": 13,
    "lastUpdated": "2020-07-09T14:46:03.180Z",
    "recovered": 238,
    "infected": 252,
    "id": "0FOJefeLxQYXQ1CnJm9o",
    "pop": 63196,
    "country": "GG",
    "longitude": -2.5895,
    "name": "Guernsey",
    "alwaysShow": false,
    "sick": 1,
    "invisible": false
  },
  {
    "longitude": 14.333333,
    "name": "Campania",
    "latitude": 41.066666,
    "dead": 432,
    "lastUpdated": "2020-07-09T15:01:02.141Z",
    "recovered": 4090,
    "infected": 4750,
    "state": "72",
    "id": "0GJcws44NSPsDHAuxJhW",
    "pop": 5827000,
    "country": "IT",
    "sick": 228,
    "invisible": false
  },
  {
    "country": "CL",
    "longitude": -70.14222,
    "name": "Tarapacá",
    "latitude": -20.2167,
    "dead": 105,
    "lastUpdated": "2020-07-09T15:21:04.573Z",
    "recovered": 0,
    "infected": 6789,
    "id": "0HDQbiHe462xMCUV5HiI",
    "pop": 383870,
    "sick": 6684,
    "invisible": false
  },
  {
    "name": "Odisha",
    "latitude": 20.9517,
    "dead": 67,
    "lastUpdated": "2020-07-09T15:11:01.397Z",
    "recovered": 7407,
    "infected": 11201,
    "id": "0VG7S6aaK4eSo59fL9JO",
    "pop": 45990000,
    "country": "IN",
    "longitude": 85.0985,
    "sick": 3727,
    "invisible": false
  },
  {
    "recovered": 0,
    "infected": 4515,
    "id": "0XmCRqiK2ZaehoEJvfer",
    "pop": 2990300,
    "country": "MX",
    "longitude": -98.8582,
    "name": "Hidalgo",
    "latitude": 20.4737,
    "dead": 754,
    "lastUpdated": "2020-07-09T15:02:01.863Z",
    "sick": 3761,
    "invisible": false
  },
  {
    "id": "0jStOpTUNRaQYJqgmRoK",
    "pop": 427246,
    "country": "IN",
    "longitude": 92.6586,
    "name": "Andaman and Nicobar Islands",
    "latitude": 11.7401,
    "dead": 0,
    "lastUpdated": "2020-07-09T15:11:01.398Z",
    "recovered": 77,
    "infected": 151,
    "sick": 74,
    "invisible": false
  },
  {
    "recovered": 97272,
    "infected": 102110,
    "id": "0m4aECS0Z2DGFEr8ldgI",
    "pop": 2639000,
    "country": "QA",
    "longitude": 51.145517,
    "name": "Qatar",
    "latitude": 25.315058,
    "dead": 142,
    "lastUpdated": "2020-07-09T15:16:03.448Z",
    "sick": 4696,
    "invisible": false
  },
  {
    "lastUpdated": "2020-07-09T15:11:01.396Z",
    "recovered": 16826,
    "infected": 25911,
    "id": "0n54EMSDJcRoT1QEvw80",
    "pop": 90320000,
    "country": "IN",
    "longitude": 87.855,
    "name": "West Bengal",
    "latitude": 22.9868,
    "dead": 854,
    "sick": 8231,
    "invisible": false
  },
  {
    "id": "0s18o5DrDAHjbu5MFcrj",
    "pop": 73340000,
    "country": "IN",
    "longitude": 78.6569,
    "name": "Madhya Pradesh",
    "latitude": 22.9734,
    "dead": 634,
    "lastUpdated": "2020-07-09T15:11:01.396Z",
    "recovered": 12232,
    "infected": 16341,
    "sick": 3475,
    "invisible": false
  },
  {
    "longitude": -95.7129,
    "invisible": true,
    "name": "Unknown US state",
    "latitude": 37.0902,
    "dead": 0,
    "lastUpdated": "2020-07-09T15:16:03.444Z",
    "recovered": 1393363,
    "infected": 0,
    "id": "0tFoopNTs6e4tOoaltu2",
    "country": "US",
    "sick": 0
  },
  {
    "lastUpdated": "2020-07-09T14:53:04.637Z",
    "recovered": 314,
    "infected": 321,
    "id": "0x2HLhr5z5xAtEdO4iZm",
    "pop": 37330000,
    "country": "CN",
    "longitude": 108.472214,
    "name": "Shaanxi",
    "latitude": 35.64249,
    "dead": 3,
    "sick": 4,
    "invisible": false
  },
  {
    "latitude": 41.643351,
    "dead": 362,
    "lastUpdated": "2020-07-09T15:16:03.453Z",
    "recovered": 3624,
    "infected": 7572,
    "id": "19MvIhipqTyYv1H37Upw",
    "pop": 2077000,
    "country": "MK",
    "longitude": 21.668393,
    "name": "North Macedonia",
    "sick": 3586,
    "invisible": false
  },
  {
    "lastUpdated": "2020-07-09T15:07:08.305Z",
    "recovered": 258,
    "infected": 261,
    "state": "NL",
    "id": "1DOMOmCWDtva46OVSZLv",
    "pop": 521542,
    "country": "CA",
    "longitude": -57.6604,
    "name": "Newfoundland and Labrador",
    "latitude": 53.1355,
    "dead": 3,
    "sick": 0,
    "invisible": false
  },
  {
    "country": "CN",
    "longitude": 96.779286,
    "name": "Qinghai",
    "latitude": 35.801933,
    "dead": 0,
    "lastUpdated": "2020-07-09T14:53:04.640Z",
    "recovered": 18,
    "infected": 18,
    "id": "1Fap7rZu9SIRqf5TG9Dg",
    "pop": 5627000,
    "sick": 0,
    "invisible": false
  },
  {
    "latitude": 23.6345,
    "dead": 0,
    "lastUpdated": "2020-07-09T15:16:03.445Z",
    "recovered": 167795,
    "infected": 0,
    "id": "1YXQMlVL3fUeDZmcVfJw",
    "pop": 126200000,
    "country": "MX",
    "longitude": -102.5528,
    "invisible": true,
    "name": "Unknown Mexico state",
    "sick": 0
  },
  {
    "latitude": 55.0555,
    "dead": 38,
    "lastUpdated": "2020-07-09T15:00:09.528Z",
    "recovered": 2512,
    "infected": 4374,
    "id": "1at5nIap9H51v32otlQl",
    "pop": 1960000,
    "country": "RU",
    "longitude": 73.3167,
    "name": "Omsk Oblast",
    "sick": 1824,
    "invisible": false
  },
  {
    "id": "1eTSQyfp8RoDPeFrIwun",
    "pop": 4376000,
    "country": "IT",
    "longitude": 8.206944,
    "name": "Piemonte",
    "latitude": 44.9,
    "dead": 4107,
    "lastUpdated": "2020-07-09T15:01:02.144Z",
    "recovered": 26212,
    "infected": 31459,
    "state": "21",
    "sick": 1140,
    "invisible": false
  },
  {
    "latitude": 51.993,
    "dead": 0,
    "lastUpdated": "2020-07-09T15:03:01.756Z",
    "recovered": 0,
    "infected": 155,
    "id": "1j1OurxLTpZYuWIWwQ9F",
    "pop": 1003000,
    "country": "PL",
    "longitude": 15.461,
    "name": "Lubuskie",
    "sick": 155,
    "invisible": false
  },
  {
    "recovered": 11549,
    "infected": 18471,
    "id": "1qTPB8X3tyLyIdsb5TN3",
    "pop": 3550000,
    "country": "MD",
    "longitude": 28.3699,
    "name": "Moldova",
    "latitude": 47.4116,
    "dead": 615,
    "lastUpdated": "2020-07-09T15:16:03.452Z",
    "sick": 6307,
    "invisible": false
  },
  {
    "lastUpdated": "2020-07-09T15:17:07.428Z",
    "recovered": 0,
    "infected": 8304,
    "id": "22PJOAThcDFKgSbyQIkD",
    "country": "US",
    "longitude": -95.7129,
    "invisible": true,
    "name": "Federal Bureau of Prisons",
    "latitude": 37.0902,
    "dead": 95,
    "sick": 8209
  },
  {
    "recovered": 1,
    "infected": 1,
    "id": "25qIBtsW2nfQj3pwBKg9",
    "pop": 3180000,
    "country": "CN",
    "longitude": 88.787865,
    "name": "Tibet",
    "latitude": 30.15336,
    "dead": 0,
    "lastUpdated": "2020-07-09T14:53:04.640Z",
    "sick": 0,
    "invisible": false
  },
  {
    "longitude": 115.66779,
    "name": "Indonesia",
    "latitude": -1.572184,
    "dead": 3417,
    "lastUpdated": "2020-07-09T15:16:03.448Z",
    "recovered": 32651,
    "infected": 70736,
    "id": "2KHYUb5t3lwzVVmDjwNX",
    "pop": 264000000,
    "country": "ID",
    "sick": 34668,
    "invisible": false
  },
  {
    "latitude": 43.807191,
    "dead": 224,
    "lastUpdated": "2020-07-09T15:17:07.427Z",
    "recovered": 0,
    "infected": 10817,
    "state": "OR",
    "id": "2OrsssmGUs4XCzaZzvTv",
    "pop": 4191000,
    "country": "US",
    "longitude": -120.585594,
    "name": "Oregon",
    "sick": 10593,
    "invisible": false
  },
  {
    "latitude": -23.65,
    "dead": 197,
    "lastUpdated": "2020-07-09T15:21:04.574Z",
    "recovered": 0,
    "infected": 10825,
    "id": "2c5HBZ1ffkCVXnMYUWnY",
    "pop": 425000,
    "country": "CL",
    "longitude": -70.400002,
    "name": "Antofagasta",
    "sick": 10628,
    "invisible": false
  },
  {
    "lastUpdated": "2020-07-09T15:06:02.166Z",
    "recovered": 0,
    "infected": 30524,
    "state": "AP",
    "id": "2dzhyWsBSPpENWlNew0b",
    "pop": 9029000,
    "country": "BR",
    "longitude": -51.070534,
    "name": "Amapá",
    "latitude": 0.035574,
    "dead": 462,
    "sick": 30062,
    "invisible": false
  },
  {
    "name": "Jilin",
    "latitude": 43.851921,
    "dead": 2,
    "lastUpdated": "2020-07-09T14:53:04.639Z",
    "recovered": 153,
    "infected": 155,
    "id": "2jxHvSsxdnom0nPNvOT8",
    "pop": 27460000,
    "country": "CN",
    "longitude": 126.548103,
    "sick": 0,
    "invisible": false
  },
  {
    "recovered": 176,
    "infected": 180,
    "id": "2p11BjSAs3wVyymgqBOe",
    "pop": 34571,
    "country": "GI",
    "longitude": -5.3536,
    "name": "Gibraltar",
    "latitude": 36.1408,
    "dead": 0,
    "lastUpdated": "2020-07-09T15:16:03.463Z",
    "sick": 4,
    "invisible": false
  },
  {
    "name": "Centre-Val de Loire",
    "latitude": 47.7516,
    "dead": 549,
    "lastUpdated": "2020-07-08T23:21:28.506Z",
    "recovered": 1988,
    "infected": 4528,
    "id": "2sLNkkHpyaHx7dD3aMDO",
    "pop": 2567000,
    "country": "FR",
    "longitude": 1.6751,
    "sick": 1991,
    "invisible": false
  },
  {
    "name": "Umbria",
    "latitude": 42.565044,
    "dead": 80,
    "lastUpdated": "2020-07-09T15:01:02.144Z",
    "recovered": 1360,
    "infected": 1447,
    "state": "55",
    "id": "319tiZOMczx1y0DfvOib",
    "pop": 884640,
    "country": "IT",
    "longitude": 12.643751,
    "sick": 7,
    "invisible": false
  },
  {
    "lastUpdated": "2020-07-09T14:45:06.177Z",
    "recovered": 189,
    "infected": 623,
    "id": "38T96Q3XNjt5FSJygPed",
    "pop": 1355000,
    "country": "CO",
    "longitude": -76.6131592,
    "name": "Cauca",
    "latitude": 2.43823,
    "dead": 22,
    "sick": 412,
    "invisible": false
  },
  {
    "lastUpdated": "2020-07-09T15:16:03.458Z",
    "recovered": 1348,
    "infected": 1895,
    "id": "3IlPjAbP5qVMn1nlgLTJ",
    "pop": 17090000,
    "country": "ZM",
    "longitude": 27.849332,
    "name": "Zambia",
    "latitude": -13.133896,
    "dead": 42,
    "sick": 505,
    "invisible": false
  },
  {
    "name": "Montenegro",
    "latitude": 42.7044,
    "dead": 17,
    "lastUpdated": "2020-07-09T15:16:03.460Z",
    "recovered": 320,
    "infected": 960,
    "id": "3LstMSN5XMYBkxbe5HN7",
    "pop": 631219,
    "country": "ME",
    "longitude": 19.3958,
    "sick": 623,
    "invisible": false
  },
  {
    "longitude": 149.0124,
    "name": "Australian Capital Territory",
    "latitude": -35.4735,
    "dead": 3,
    "lastUpdated": "2020-07-09T07:28:27.526Z",
    "recovered": 105,
    "infected": 108,
    "state": "ACT",
    "id": "3OZoQsKrzxZ18EKyfGE6",
    "pop": 418440,
    "country": "AU",
    "sick": 0,
    "invisible": false
  },
  {
    "latitude": 57.8992,
    "dead": 22,
    "lastUpdated": "2020-07-09T15:00:09.526Z",
    "recovered": 4140,
    "infected": 5147,
    "id": "3PfzjWjvOkfgxc672BHQ",
    "pop": 608000,
    "country": "RU",
    "longitude": 38.8389,
    "name": "Yaroslavl Oblast",
    "sick": 985,
    "invisible": false
  },
  {
    "latitude": 51.8873,
    "dead": 25,
    "lastUpdated": "2020-07-09T15:00:09.525Z",
    "recovered": 2007,
    "infected": 5280,
    "id": "3PpqgIUJAtzxo1j7z56i",
    "pop": 321000,
    "country": "RU",
    "longitude": 95.626,
    "name": "Tuva",
    "sick": 3248,
    "invisible": false
  },
  {
    "recovered": 8727,
    "infected": 14033,
    "id": "3cCbnJCsK7mKlTO08K1o",
    "pop": 30940000,
    "country": "IN",
    "longitude": 92.9376,
    "name": "Assam",
    "latitude": 26.2006,
    "dead": 24,
    "lastUpdated": "2020-07-09T15:11:01.397Z",
    "sick": 5282,
    "invisible": false
  },
  {
    "latitude": 40.4173,
    "dead": 2998,
    "lastUpdated": "2020-07-09T15:17:07.425Z",
    "recovered": 0,
    "infected": 60217,
    "state": "OH",
    "id": "3fC3bAyIRUquOQOEnQNe",
    "pop": 11690000,
    "country": "US",
    "longitude": -82.9071,
    "name": "Ohio",
    "sick": 57219,
    "invisible": false
  },
  {
    "latitude": 25,
    "dead": 1508,
    "lastUpdated": "2020-07-09T15:02:01.859Z",
    "recovered": 0,
    "infected": 9526,
    "id": "3kFCzJguabtBvXaHxgiu",
    "pop": 3066400,
    "country": "MX",
    "longitude": -107.5,
    "name": "Sinaloa",
    "sick": 8018,
    "invisible": false
  },
  {
    "country": "CO",
    "longitude": -76.522224,
    "name": "Valle del Cauca",
    "latitude": 3.420556,
    "dead": 396,
    "lastUpdated": "2020-07-09T14:45:06.172Z",
    "recovered": 4809,
    "infected": 11210,
    "id": "3mC2LveOpXV8P1PmQGUj",
    "pop": 4708300,
    "sick": 6005,
    "invisible": false
  },
  {
    "country": "MR",
    "longitude": -10.9408,
    "name": "Mauritania",
    "latitude": 21.0079,
    "dead": 139,
    "lastUpdated": "2020-07-09T15:16:03.454Z",
    "recovered": 1994,
    "infected": 5087,
    "id": "4NnFMekRK2m14IlnZZoj",
    "pop": 4420000,
    "sick": 2954,
    "invisible": false
  },
  {
    "country": "CA",
    "longitude": -127.6476,
    "name": "British Columbia",
    "latitude": 53.7267,
    "dead": 186,
    "lastUpdated": "2020-07-09T15:07:08.304Z",
    "recovered": 2660,
    "infected": 3008,
    "state": "BC",
    "id": "4hfZRUoUgI4a3vrG0GBk",
    "pop": 5071000,
    "sick": 162,
    "invisible": false
  },
  {
    "name": "Rio de Janeiro",
    "latitude": -22.908333,
    "dead": 10970,
    "lastUpdated": "2020-07-09T15:06:02.158Z",
    "recovered": 0,
    "infected": 126329,
    "state": "RJ",
    "id": "4kq0z3kh5zt3YAUWxvtE",
    "pop": 17159960,
    "country": "BR",
    "longitude": -43.196388,
    "sick": 115359,
    "invisible": false
  },
  {
    "longitude": -41.280857,
    "name": "Bahia",
    "latitude": -11.409874,
    "dead": 2277,
    "lastUpdated": "2020-07-09T15:06:02.158Z",
    "recovered": 0,
    "infected": 95536,
    "state": "BA",
    "id": "4yDbkEyqsNzZJjfrciYV",
    "pop": 14812617,
    "country": "BR",
    "sick": 93259,
    "invisible": false
  },
  {
    "latitude": 40.3426,
    "dead": 274,
    "lastUpdated": "2020-07-09T15:16:03.451Z",
    "recovered": 13100,
    "infected": 21916,
    "id": "4zqzRm2xHn0CDVOUQJ8p",
    "pop": 9898000,
    "country": "AZ",
    "longitude": 47.93802,
    "name": "Azerbaijan",
    "sick": 8542,
    "invisible": false
  },
  {
    "name": "Tamaulipas",
    "latitude": 22.233105,
    "dead": 579,
    "lastUpdated": "2020-07-09T15:02:01.862Z",
    "recovered": 0,
    "infected": 8738,
    "id": "54cfsdsRF76XVHWtZs19",
    "pop": 3672300,
    "country": "MX",
    "longitude": -97.861099,
    "sick": 8159,
    "invisible": false
  },
  {
    "name": "Flanders",
    "latitude": 51.0109,
    "dead": 4903,
    "lastUpdated": "2020-07-09T15:07:06.716Z",
    "recovered": 9427,
    "infected": 34898,
    "state": "VLG",
    "id": "57ydD48mLRD2YoyteJZj",
    "pop": 6596000,
    "country": "BE",
    "longitude": 3.7265,
    "sick": 20568,
    "invisible": false
  },
  {
    "latitude": 25.025885,
    "dead": 11,
    "lastUpdated": "2020-07-09T15:16:03.465Z",
    "recovered": 89,
    "infected": 106,
    "id": "5MHegCUO9L3LiAU7DDey",
    "pop": 395361,
    "country": "BS",
    "longitude": -78.035889,
    "name": "Bahamas",
    "sick": 6,
    "invisible": false
  },
  {
    "state": "NSW",
    "id": "5N16a2OXXRpsEFanw0TC",
    "pop": 7544000,
    "country": "AU",
    "longitude": 146.921097,
    "name": "New South Wales",
    "latitude": -31.253218,
    "dead": 49,
    "lastUpdated": "2020-07-09T07:28:27.533Z",
    "recovered": 2986,
    "infected": 3433,
    "sick": 398,
    "invisible": false
  },
  {
    "lastUpdated": "2020-07-09T15:16:03.457Z",
    "recovered": 333,
    "infected": 2021,
    "id": "5N4PRxsCDzzwk7R200V1",
    "pop": 12580000,
    "country": "SS",
    "longitude": 31.3069782,
    "name": "South Sudan",
    "latitude": 6.8769908,
    "dead": 38,
    "sick": 1650,
    "invisible": false
  },
  {
    "recovered": 9970,
    "infected": 15511,
    "state": "VC",
    "id": "5Va9A7CXR8AXdUz4HTJj",
    "pop": 4975000,
    "country": "ES",
    "longitude": -0.7533,
    "name": "C. Valenciana",
    "latitude": 39.484,
    "dead": 1432,
    "lastUpdated": "2020-07-08T23:10:26.231Z",
    "sick": 4109,
    "invisible": false
  },
  {
    "latitude": -20.9043045,
    "dead": 0,
    "lastUpdated": "2020-07-09T15:16:03.467Z",
    "recovered": 21,
    "infected": 21,
    "id": "5fg04eyDwFw3kEXnrxez",
    "pop": 280460,
    "country": "NC",
    "longitude": 165.618042,
    "name": "New Caledonia",
    "sick": 0,
    "invisible": false
  },
  {
    "latitude": 28.394857,
    "dead": 35,
    "lastUpdated": "2020-07-09T15:16:03.452Z",
    "recovered": 7891,
    "infected": 16531,
    "id": "5gXZIjRgAvd6xWN1LOv8",
    "pop": 29300000,
    "country": "NP",
    "longitude": 84.124008,
    "name": "Nepal",
    "sick": 8605,
    "invisible": false
  },
  {
    "latitude": 12.879721,
    "dead": 1314,
    "lastUpdated": "2020-07-09T15:16:03.449Z",
    "recovered": 12813,
    "infected": 51754,
    "id": "5pwmh7aSdGRKqRbnuyc0",
    "pop": 104900000,
    "country": "PH",
    "longitude": 121.774017,
    "name": "Philippines",
    "sick": 37627,
    "invisible": false
  },
  {
    "longitude": 31.053028,
    "name": "Zimbabwe",
    "latitude": -17.824858,
    "dead": 9,
    "lastUpdated": "2020-07-09T15:16:03.460Z",
    "recovered": 206,
    "infected": 885,
    "id": "5qtR9nx4BLwu1ODTniaY",
    "pop": 14802190,
    "country": "ZW",
    "sick": 670,
    "invisible": false
  },
  {
    "infected": 7981,
    "recovered": 0,
    "pop": 356890,
    "country": "US",
    "lastUpdated": "2020-07-09T15:17:07.429Z",
    "state": "NA",
    "id": "5vkKgxTaKq1IH0Go357L",
    "longitude": -109.188,
    "invisible": false,
    "name": "Navajo Nation",
    "dead": 382,
    "latitude": 36.0672,
    "sick": 7599
  },
  {
    "latitude": 19.432241,
    "dead": 7303,
    "lastUpdated": "2020-07-09T15:02:01.861Z",
    "recovered": 0,
    "infected": 54405,
    "id": "61E7TGjUwAo9xu6Y6gAH",
    "pop": 8781300,
    "country": "MX",
    "longitude": -99.177254,
    "name": "Ciudad de México",
    "sick": 47102,
    "invisible": false
  },
  {
    "id": "63KYOuWe41mvqWQrJbr2",
    "pop": 1012000,
    "country": "RU",
    "longitude": 35.1889,
    "name": "Kaluga Oblast",
    "latitude": 54.3873,
    "dead": 49,
    "lastUpdated": "2020-07-09T15:00:09.523Z",
    "recovered": 4360,
    "infected": 6458,
    "sick": 2049,
    "invisible": false
  },
  {
    "name": "Lithuania",
    "latitude": 55.621011,
    "dead": 79,
    "lastUpdated": "2020-07-09T15:16:03.458Z",
    "recovered": 1564,
    "infected": 1857,
    "id": "694ON7d0mRJDeM1gHBTR",
    "pop": 2794000,
    "country": "LT",
    "longitude": 23.804991,
    "sick": 214,
    "invisible": false
  },
  {
    "latitude": 51.1781,
    "dead": 0,
    "lastUpdated": "2020-07-09T15:13:17.224Z",
    "recovered": 0,
    "infected": 34029,
    "state": "EN",
    "id": "6IQAsvrmBv0HPdeTnh4x",
    "pop": 9175000,
    "country": "GB",
    "longitude": -0.5596,
    "name": "South East",
    "sick": 34029,
    "invisible": false
  },
  {
    "latitude": 22.396427,
    "dead": 7,
    "lastUpdated": "2020-07-09T15:16:03.459Z",
    "recovered": 1176,
    "infected": 1366,
    "id": "6IcHIIH0zXpY0POmBZTv",
    "pop": 7392000,
    "country": "HK",
    "longitude": 114.109497,
    "name": "Hong Kong",
    "sick": 183,
    "invisible": false
  },
  {
    "latitude": -8.65,
    "dead": 404,
    "lastUpdated": "2020-07-09T15:06:02.166Z",
    "recovered": 0,
    "infected": 15167,
    "state": "AC",
    "id": "6LQesrx5bHJsVUi1TXBp",
    "pop": 869265,
    "country": "BR",
    "longitude": -72.4,
    "name": "Acre",
    "sick": 14763,
    "invisible": false
  },
  {
    "lastUpdated": "2020-07-09T15:16:03.459Z",
    "recovered": 333,
    "infected": 1199,
    "id": "6SlpghTyB6lpMFvx3g9U",
    "pop": 11180000,
    "country": "BJ",
    "longitude": 2.3158,
    "name": "Benin",
    "latitude": 9.3077,
    "dead": 21,
    "sick": 845,
    "invisible": false
  },
  {
    "name": "Lombardia",
    "latitude": 45.6667,
    "dead": 16725,
    "lastUpdated": "2020-07-09T15:01:02.143Z",
    "recovered": 69466,
    "infected": 94651,
    "state": "25",
    "id": "6ZHcvMIzVWIaRnc4R3Qp",
    "pop": 10040000,
    "country": "IT",
    "longitude": 9.5,
    "sick": 8460,
    "invisible": false
  },
  {
    "lastUpdated": "2020-07-09T15:16:03.459Z",
    "recovered": 1429,
    "infected": 1776,
    "id": "6ahNiyKDSDAftCctgLH3",
    "pop": 2067000,
    "country": "SI",
    "longitude": 14.5058,
    "name": "Slovenia",
    "latitude": 46.0569,
    "dead": 111,
    "sick": 236,
    "invisible": false
  },
  {
    "longitude": -70.331398,
    "name": "Atacama",
    "latitude": -27.3667908,
    "dead": 7,
    "lastUpdated": "2020-07-09T15:21:04.574Z",
    "recovered": 0,
    "infected": 1357,
    "id": "6nyns7UGGgkU7pxrHf8i",
    "pop": 300000,
    "country": "CL",
    "sick": 1350,
    "invisible": false
  },
  {
    "recovered": 2682,
    "infected": 5871,
    "id": "6pBi38TUgYfFm0bry2uh",
    "pop": 2025000,
    "country": "GA",
    "longitude": 11.6094,
    "name": "Gabon",
    "latitude": -0.8037,
    "dead": 46,
    "lastUpdated": "2020-07-09T15:16:03.454Z",
    "sick": 3143,
    "invisible": false
  },
  {
    "country": "MX",
    "longitude": -100.9792,
    "name": "San Luis Potosí",
    "latitude": 22.1498,
    "dead": 249,
    "lastUpdated": "2020-07-09T15:02:01.862Z",
    "recovered": 0,
    "infected": 3978,
    "id": "6vjIVg1gSANFZghV7xtS",
    "pop": 2831900,
    "sick": 3729,
    "invisible": false
  },
  {
    "name": "Saint-Barthélémy",
    "alwaysShow": true,
    "latitude": 17.901672,
    "dead": 0,
    "lastUpdated": "2020-07-09T15:16:03.468Z",
    "recovered": 6,
    "infected": 6,
    "id": "78Ox26bNHDA2Pk2b3Uwn",
    "pop": 9131,
    "country": "FR",
    "longitude": -62.818544,
    "sick": 0,
    "invisible": false
  },
  {
    "longitude": 18.633,
    "name": "Pomorskie",
    "latitude": 54.367,
    "dead": 38,
    "lastUpdated": "2020-07-09T15:03:01.753Z",
    "recovered": 0,
    "infected": 693,
    "id": "7JDx6UJiwGSJyL1fChaJ",
    "pop": 2305000,
    "country": "PL",
    "sick": 655,
    "invisible": false
  },
  {
    "longitude": -2.9381,
    "name": "Melilla",
    "latitude": 35.2923,
    "dead": 2,
    "lastUpdated": "2020-07-08T23:12:39.905Z",
    "recovered": 125,
    "infected": 139,
    "state": "ML",
    "id": "7UASdZTZ1nPzzBwSTEA9",
    "pop": 84690,
    "country": "ES",
    "sick": 12,
    "invisible": false
  },
  {
    "name": "Antigua and Barbuda",
    "latitude": 17.0608,
    "dead": 3,
    "lastUpdated": "2020-07-09T15:16:03.466Z",
    "recovered": 57,
    "infected": 73,
    "id": "7hVFcEV7nV0MrQr3LHrl",
    "pop": 102012,
    "country": "AG",
    "longitude": -61.7964,
    "sick": 13,
    "invisible": false
  },
  {
    "recovered": 45562,
    "infected": 49293,
    "state": "BY",
    "id": "7kCrrlOBE3jN6FtOVNUB",
    "pop": 13000000,
    "country": "DE",
    "longitude": 11.4979,
    "name": "Bayern",
    "latitude": 48.7904,
    "dead": 2652,
    "lastUpdated": "2020-07-09T15:00:08.316Z",
    "sick": 1079,
    "invisible": false
  },
  {
    "longitude": 19.0402,
    "name": "Hungary",
    "latitude": 47.4979,
    "dead": 591,
    "lastUpdated": "2020-07-09T15:16:03.455Z",
    "recovered": 2887,
    "infected": 4220,
    "id": "7rYC2iFB50c55Ihgbs4Q",
    "pop": 9773000,
    "country": "HU",
    "sick": 742,
    "invisible": false
  },
  {
    "country": "CO",
    "longitude": -74.7813,
    "name": "Barranquilla D.E.",
    "latitude": 10.9685,
    "dead": 983,
    "lastUpdated": "2020-07-09T14:45:06.176Z",
    "recovered": 6202,
    "infected": 16271,
    "id": "7tqLvLyXcBDK808nJv0m",
    "pop": 1206000,
    "sick": 9086,
    "invisible": false
  },
  {
    "latitude": 7.3697,
    "dead": 359,
    "lastUpdated": "2020-07-09T15:16:03.452Z",
    "recovered": 11525,
    "infected": 14916,
    "id": "8C0d7WVCjyUGtnc2gUAR",
    "pop": 24050000,
    "country": "CM",
    "longitude": 12.3547,
    "name": "Cameroon",
    "sick": 3032,
    "invisible": false
  },
  {
    "state": "BRU",
    "id": "8DOZWbN6bDdgaLXVlUEu",
    "pop": 1209000,
    "country": "BE",
    "longitude": 4.3517,
    "name": "Brussels",
    "latitude": 50.8503,
    "dead": 1486,
    "lastUpdated": "2020-07-09T15:07:06.717Z",
    "recovered": 2817,
    "infected": 6442,
    "sick": 2139,
    "invisible": false
  },
  {
    "latitude": -16.2902,
    "dead": 1577,
    "lastUpdated": "2020-07-09T15:16:03.450Z",
    "recovered": 12883,
    "infected": 42984,
    "id": "8RihJrXw4NQXPxaRxr1u",
    "pop": 11050000,
    "country": "BO",
    "longitude": -63.5887,
    "name": "Bolivia",
    "sick": 28524,
    "invisible": false
  },
  {
    "country": "VC",
    "longitude": -61.2872,
    "name": "St. Vincent Grenadines",
    "latitude": 12.9843,
    "dead": 0,
    "lastUpdated": "2020-07-09T15:16:03.466Z",
    "recovered": 29,
    "infected": 29,
    "id": "8ZTySQROQejkDAad0qxQ",
    "pop": 109897,
    "sick": 0,
    "invisible": false
  },
  {
    "latitude": 1.352083,
    "dead": 26,
    "lastUpdated": "2020-07-09T15:16:03.450Z",
    "recovered": 41323,
    "infected": 45423,
    "id": "8pA3fM4xC2c2wv1b4TnE",
    "pop": 5621000,
    "country": "SG",
    "longitude": 103.819839,
    "name": "Singapore",
    "sick": 4074,
    "invisible": false
  },
  {
    "name": "Pays de la Loire",
    "latitude": 47.2184,
    "dead": 470,
    "lastUpdated": "2020-07-08T23:23:51.662Z",
    "recovered": 2104,
    "infected": 4216,
    "id": "98hwAoohgWEOQVa3NlM5",
    "pop": 3787000,
    "country": "FR",
    "longitude": -1.5536,
    "sick": 1642,
    "invisible": false
  },
  {
    "latitude": 19.30754,
    "dead": 270,
    "lastUpdated": "2020-07-09T15:02:01.862Z",
    "recovered": 0,
    "infected": 2727,
    "id": "9DAvxOObTqIvMOU93nlY",
    "pop": 952300,
    "country": "MX",
    "longitude": -90.19885,
    "name": "Campeche",
    "sick": 2457,
    "invisible": false
  },
  {
    "id": "9DPOkpIqrFy9mR4e9fuv",
    "pop": 40530000,
    "country": "SD",
    "longitude": 30.2176,
    "name": "Sudan",
    "latitude": 12.8628,
    "dead": 636,
    "lastUpdated": "2020-07-09T15:16:03.453Z",
    "recovered": 5074,
    "infected": 10084,
    "sick": 4374,
    "invisible": false
  },
  {
    "latitude": 58.5501,
    "dead": 22,
    "lastUpdated": "2020-07-09T15:00:09.531Z",
    "recovered": 1151,
    "infected": 1778,
    "id": "9JFYfvpcejMIgYlHpngA",
    "pop": 643000,
    "country": "RU",
    "longitude": 43.9541,
    "name": "Kostroma Oblast",
    "sick": 605,
    "invisible": false
  },
  {
    "lastUpdated": "2020-07-09T15:16:03.451Z",
    "recovered": 20969,
    "infected": 30789,
    "id": "9QcETqEcM2fTv9zRvx5T",
    "pop": 19530000,
    "country": "RO",
    "longitude": 24.966761,
    "name": "Romania",
    "latitude": 45.943161,
    "dead": 1834,
    "sick": 7986,
    "invisible": false
  },
  {
    "country": "NI",
    "longitude": -86.251389,
    "name": "Nicaragua",
    "latitude": 12.136389,
    "dead": 91,
    "lastUpdated": "2020-07-09T15:16:03.455Z",
    "recovered": 1993,
    "infected": 2846,
    "id": "9Y5wmCqNCC6ZrenM31uA",
    "pop": 6218000,
    "sick": 762,
    "invisible": false
  },
  {
    "name": "Mali",
    "latitude": 17.5706921,
    "dead": 120,
    "lastUpdated": "2020-07-09T15:16:03.457Z",
    "recovered": 1597,
    "infected": 2358,
    "id": "9dIzxqDSVqPyINkHqwGv",
    "pop": 18540000,
    "country": "ML",
    "longitude": -3.996166,
    "sick": 641,
    "invisible": false
  },
  {
    "lastUpdated": "2020-07-09T15:16:03.453Z",
    "recovered": 6800,
    "infected": 7273,
    "id": "9p6OCdZbUUwBLA60Gk3W",
    "pop": 5513000,
    "country": "FI",
    "longitude": 25.748152,
    "name": "Finland",
    "latitude": 61.92411,
    "dead": 329,
    "sick": 144,
    "invisible": false
  },
  {
    "lastUpdated": "2020-07-09T15:00:09.520Z",
    "recovered": 6050,
    "infected": 10106,
    "id": "A6Us0fpQVCc85SoIqzg3",
    "pop": 2876000,
    "country": "RU",
    "longitude": 95.1104,
    "name": "Krasnoyarsk Krai",
    "latitude": 64.248,
    "dead": 195,
    "sick": 3861,
    "invisible": false
  },
  {
    "lastUpdated": "2020-07-09T15:17:07.427Z",
    "recovered": 0,
    "infected": 5952,
    "state": "NH",
    "id": "A84CwQ52kA46Hr7pn6Bm",
    "pop": 1356000,
    "country": "US",
    "longitude": -71.590315,
    "name": "New Hampshire",
    "latitude": 43.311643,
    "dead": 386,
    "sick": 5566,
    "invisible": false
  },
  {
    "longitude": -71.412257,
    "name": "Rhode Island",
    "latitude": 41.823261,
    "dead": 971,
    "lastUpdated": "2020-07-09T15:17:07.426Z",
    "recovered": 0,
    "infected": 17204,
    "state": "RI",
    "id": "AEUWUHS65qvjEslew11c",
    "pop": 1057000,
    "country": "US",
    "sick": 16233,
    "invisible": false
  },
  {
    "lastUpdated": "2020-07-09T15:01:02.141Z",
    "recovered": 23415,
    "infected": 28755,
    "state": "45",
    "id": "AJ9jQ0iyKsafsmf5yHAR",
    "pop": 4453000,
    "country": "IT",
    "longitude": 11.327591,
    "name": "Emilia-Romagna",
    "latitude": 44.498955,
    "dead": 4269,
    "sick": 1071,
    "invisible": false
  },
  {
    "state": "SL",
    "id": "AKjFRQGnzuuZQhv5Qwx7",
    "pop": 990509,
    "country": "DE",
    "longitude": 7.023,
    "name": "Saarland",
    "latitude": 49.3964,
    "dead": 178,
    "lastUpdated": "2020-07-09T15:00:08.323Z",
    "recovered": 2617,
    "infected": 2831,
    "sick": 36,
    "invisible": false
  },
  {
    "name": "Chelyabinsk Oblast",
    "latitude": 54.4319,
    "dead": 88,
    "lastUpdated": "2020-07-09T15:00:09.521Z",
    "recovered": 4652,
    "infected": 8391,
    "id": "AOapJ3gElQApd8Gnt8EL",
    "pop": 3493000,
    "country": "RU",
    "longitude": 60.8789,
    "sick": 3651,
    "invisible": false
  },
  {
    "name": "Maule",
    "latitude": -35.717,
    "dead": 78,
    "lastUpdated": "2020-07-09T15:21:04.575Z",
    "recovered": 0,
    "infected": 6581,
    "id": "APTPgjAsjFi0nsGyJV7M",
    "pop": 1125002,
    "country": "CL",
    "longitude": -71.167,
    "sick": 6503,
    "invisible": false
  },
  {
    "name": "Greenland",
    "latitude": 71.7069,
    "dead": 0,
    "lastUpdated": "2020-07-09T15:16:03.467Z",
    "recovered": 13,
    "infected": 13,
    "id": "APaZzlGCEeuoLBtzTJMe",
    "pop": 56171,
    "country": "GL",
    "longitude": -42.6043,
    "sick": 0,
    "invisible": false
  },
  {
    "recovered": 2371,
    "infected": 3257,
    "id": "ATxF6ZoDJ2ibdE6ZRYIX",
    "pop": 984000,
    "country": "RU",
    "longitude": 112.4061,
    "name": "Buryatia",
    "latitude": 54.8331,
    "dead": 24,
    "lastUpdated": "2020-07-09T15:00:09.530Z",
    "sick": 862,
    "invisible": false
  },
  {
    "id": "AVCpxeh0fuH2WrHWNDYH",
    "pop": 971395,
    "country": "CA",
    "longitude": -63.582687,
    "name": "Nova Scotia",
    "latitude": 45.65107,
    "dead": 63,
    "lastUpdated": "2020-07-09T15:07:08.305Z",
    "recovered": 998,
    "infected": 1066,
    "state": "NS",
    "sick": 5,
    "invisible": false
  },
  {
    "lastUpdated": "2020-07-09T15:17:07.427Z",
    "recovered": 0,
    "infected": 1371,
    "state": "MT",
    "id": "AcULcZBozObOhwuRKMjJ",
    "pop": 1062000,
    "country": "US",
    "longitude": -109.128641,
    "name": "Montana",
    "latitude": 47.012918,
    "dead": 23,
    "sick": 1348,
    "invisible": false
  },
  {
    "lastUpdated": "2020-07-09T15:16:03.454Z",
    "recovered": 5067,
    "infected": 6410,
    "id": "AiIGs3ybYZZhm1ytVopr",
    "pop": 9275000,
    "country": "TJ",
    "longitude": 71.2761,
    "name": "Tajikistan",
    "latitude": 38.861,
    "dead": 54,
    "sick": 1289,
    "invisible": false
  },
  {
    "latitude": 27.285971,
    "dead": 1,
    "lastUpdated": "2020-07-09T14:53:04.639Z",
    "recovered": 931,
    "infected": 932,
    "id": "AmBYm5J6E9Cuez1FQjiN",
    "pop": 45200000,
    "country": "CN",
    "longitude": 116.01609,
    "name": "Jiangxi",
    "sick": 0,
    "invisible": false
  },
  {
    "state": "WA",
    "id": "AoLhHdTydeWTfmp9koEX",
    "pop": 3136000,
    "country": "GB",
    "longitude": -3.7837,
    "name": "Wales",
    "latitude": 52.1307,
    "dead": 1540,
    "lastUpdated": "2020-07-09T15:13:17.222Z",
    "recovered": 0,
    "infected": 15929,
    "sick": 14389,
    "invisible": false
  },
  {
    "id": "Avls64fLKoEsBFH0Ol0b",
    "pop": 537000,
    "country": "RU",
    "longitude": 90.3982,
    "name": "Khakassia",
    "latitude": 53.0452,
    "dead": 19,
    "lastUpdated": "2020-07-09T15:00:09.530Z",
    "recovered": 1634,
    "infected": 2187,
    "sick": 534,
    "invisible": false
  },
  {
    "longitude": 1.659626,
    "name": "Algeria",
    "latitude": 28.033886,
    "dead": 978,
    "lastUpdated": "2020-07-09T15:16:03.452Z",
    "recovered": 12329,
    "infected": 17348,
    "id": "AwN0CScPDApcLFgz6e3z",
    "pop": 41320000,
    "country": "DZ",
    "sick": 4041,
    "invisible": false
  },
  {
    "lastUpdated": "2020-07-09T15:16:03.455Z",
    "recovered": 2323,
    "infected": 3416,
    "id": "B82Ef45M8cDu4q7VsSHF",
    "pop": 4076000,
    "country": "HR",
    "longitude": 15.2,
    "name": "Croatia",
    "latitude": 45.099998,
    "dead": 115,
    "sick": 978,
    "invisible": false
  },
  {
    "latitude": 17.6077881,
    "dead": 68,
    "lastUpdated": "2020-07-09T15:16:03.459Z",
    "recovered": 976,
    "infected": 1097,
    "id": "BENubqQInFUJzhpZTsLT",
    "pop": 23716000,
    "country": "NE",
    "longitude": 8.081666,
    "name": "Niger",
    "sick": 53,
    "invisible": false
  },
  {
    "latitude": 39.509109,
    "dead": 3288,
    "lastUpdated": "2020-07-09T15:17:07.424Z",
    "recovered": 0,
    "infected": 71447,
    "state": "MD",
    "id": "BF51mWl51fgEcyBpCSzb",
    "pop": 6043000,
    "country": "US",
    "longitude": -76.98432,
    "name": "Maryland",
    "sick": 68159,
    "invisible": false
  },
  {
    "name": "Belarus",
    "latitude": 53.709808,
    "dead": 449,
    "lastUpdated": "2020-07-09T15:16:03.449Z",
    "recovered": 53609,
    "infected": 64411,
    "id": "BGg6yVU5VP71B8NXU0oh",
    "pop": 9508000,
    "country": "BY",
    "longitude": 27.953388,
    "sick": 10353,
    "invisible": false
  },
  {
    "latitude": 48.8799,
    "dead": 434,
    "lastUpdated": "2020-07-08T23:23:17.503Z",
    "recovered": 1680,
    "infected": 3611,
    "id": "BGtoyzb7y54LVlJ91rbf",
    "pop": 3319000,
    "country": "FR",
    "longitude": 0.1713,
    "name": "Normandie",
    "sick": 1497,
    "invisible": false
  },
  {
    "latitude": 50.7772,
    "dead": 0,
    "lastUpdated": "2020-07-09T15:13:17.225Z",
    "recovered": 0,
    "infected": 12811,
    "state": "EN",
    "id": "BQqMOlPFD36ZEDTGd3WC",
    "pop": 5616000,
    "country": "GB",
    "longitude": -3.9995,
    "name": "South West",
    "sick": 12811,
    "invisible": false
  },
  {
    "lastUpdated": "2020-07-09T15:17:07.423Z",
    "recovered": 0,
    "infected": 108614,
    "state": "AZ",
    "id": "BTEESCuD2ZbS1afunR2A",
    "pop": 7172000,
    "country": "US",
    "longitude": -111.093735,
    "name": "Arizona",
    "latitude": 34.048927,
    "dead": 1963,
    "sick": 106651,
    "invisible": false
  },
  {
    "name": "Smolensk Oblast",
    "latitude": 54.9883,
    "dead": 74,
    "lastUpdated": "2020-07-09T15:00:09.527Z",
    "recovered": 2801,
    "infected": 4944,
    "id": "BUb7oDHcBM4lQ5cufNoG",
    "pop": 949000,
    "country": "RU",
    "longitude": 32.6677,
    "sick": 2069,
    "invisible": false
  },
  {
    "lastUpdated": "2020-07-09T15:00:09.529Z",
    "recovered": 3172,
    "infected": 3614,
    "id": "BWojXmuKU3szKlS7CE4k",
    "pop": 1283000,
    "country": "RU",
    "longitude": 50.2097,
    "name": "Kirov Oblast",
    "latitude": 58.4199,
    "dead": 42,
    "sick": 400,
    "invisible": false
  },
  {
    "name": "Zachodniopomorskie",
    "latitude": 53.428543,
    "dead": 23,
    "lastUpdated": "2020-07-09T15:03:01.756Z",
    "recovered": 0,
    "infected": 623,
    "id": "BZwZOAlDJ8AIiaRVLyC9",
    "pop": 1676000,
    "country": "PL",
    "longitude": 14.552812,
    "sick": 600,
    "invisible": false
  },
  {
    "name": "Unknown Chile region",
    "latitude": -33.4489,
    "dead": 0,
    "lastUpdated": "2020-07-09T15:16:03.445Z",
    "recovered": 271703,
    "infected": 0,
    "id": "BbiuZcm8oURX7cZwaa5U",
    "country": "CL",
    "longitude": -70.6693,
    "invisible": true,
    "sick": 0
  },
  {
    "latitude": -13.2543,
    "dead": 25,
    "lastUpdated": "2020-07-09T15:16:03.458Z",
    "recovered": 369,
    "infected": 1942,
    "id": "BfT8o5DaEixC6JIZ28kY",
    "pop": 18620000,
    "country": "MW",
    "longitude": 34.3015,
    "name": "Malawi",
    "sick": 1548,
    "invisible": false
  },
  {
    "id": "BnpMamidC5yYzeK8tPUL",
    "pop": 10860000,
    "country": "BI",
    "longitude": 29.9188862,
    "name": "Burundi",
    "latitude": -3.3730559,
    "dead": 1,
    "lastUpdated": "2020-07-09T15:16:03.463Z",
    "recovered": 118,
    "infected": 191,
    "sick": 72,
    "invisible": false
  },
  {
    "recovered": 0,
    "infected": 5301,
    "id": "BrToMzyq8y2xdwXn75kM",
    "pop": 5385000,
    "country": "PL",
    "longitude": 21.002,
    "name": "Mazowieckie",
    "latitude": 52.257,
    "dead": 350,
    "lastUpdated": "2020-07-09T15:03:01.752Z",
    "sick": 4951,
    "invisible": false
  },
  {
    "recovered": 2104,
    "infected": 2394,
    "id": "C25xSDm4iYibX5RYML14",
    "pop": 74751,
    "country": "CO",
    "longitude": -71.347573,
    "name": "Amazonas (Colombia)",
    "latitude": -1.333845,
    "dead": 98,
    "lastUpdated": "2020-07-09T14:45:06.178Z",
    "sick": 192,
    "invisible": false
  },
  {
    "longitude": -73.982597,
    "name": "New York",
    "latitude": 40.719042,
    "dead": 32311,
    "lastUpdated": "2020-07-09T15:17:07.421Z",
    "recovered": 0,
    "infected": 424263,
    "state": "NY",
    "id": "C3BCUzV80z9GfiuByIcr",
    "pop": 19540000,
    "country": "US",
    "sick": 391952,
    "invisible": false
  },
  {
    "longitude": -67.92389,
    "name": "Guainía",
    "latitude": 3.86528,
    "dead": 1,
    "lastUpdated": "2020-07-09T14:45:06.179Z",
    "recovered": 11,
    "infected": 14,
    "id": "C5YXFiytAc1w9swtVGLz",
    "pop": 42800,
    "country": "CO",
    "sick": 2,
    "invisible": false
  },
  {
    "lastUpdated": "2020-07-09T15:16:03.452Z",
    "recovered": 8010,
    "infected": 12814,
    "id": "C6S76AggdWVU8G22jFHQ",
    "pop": 10650000,
    "country": "CZ",
    "longitude": 15.359413,
    "name": "Czechia",
    "latitude": 49.731626,
    "dead": 351,
    "sick": 4453,
    "invisible": false
  },
  {
    "recovered": 26073,
    "infected": 30931,
    "id": "C7cj4nwRITs13KnaJrQ2",
    "pop": 1493000,
    "country": "BH",
    "longitude": 50.557701,
    "name": "Bahrain",
    "latitude": 26.0667,
    "dead": 101,
    "lastUpdated": "2020-07-09T15:16:03.450Z",
    "sick": 4757,
    "invisible": false
  },
  {
    "lastUpdated": "2020-07-09T14:45:06.178Z",
    "recovered": 413,
    "infected": 1000,
    "id": "CA9LaAl3bNaeAqBuozn4",
    "pop": 1285400,
    "country": "CO",
    "longitude": -74.4057,
    "name": "Magdalena",
    "latitude": 10.4113,
    "dead": 105,
    "sick": 482,
    "invisible": false
  },
  {
    "lastUpdated": "2020-07-09T15:02:01.862Z",
    "recovered": 0,
    "infected": 6484,
    "id": "CCUFp4urvgXPo5unfMGy",
    "pop": 3073500,
    "country": "MX",
    "longitude": -101.430756,
    "name": "Coahuila",
    "latitude": 26.909979,
    "dead": 318,
    "sick": 6166,
    "invisible": false
  },
  {
    "id": "CKZCZTPlrcq5fbfUPA9k",
    "pop": 68890000,
    "country": "IN",
    "longitude": 74.2179,
    "name": "Rajasthan",
    "latitude": 27.0238,
    "dead": 489,
    "lastUpdated": "2020-07-09T15:11:01.396Z",
    "recovered": 16877,
    "infected": 22212,
    "sick": 4846,
    "invisible": false
  },
  {
    "id": "CX8z9U1iABNBhc1VK2Dy",
    "pop": 218000,
    "country": "RU",
    "longitude": 86.2199,
    "name": "Altai",
    "latitude": 50.6182,
    "dead": 1,
    "lastUpdated": "2020-07-09T15:00:09.532Z",
    "recovered": 462,
    "infected": 962,
    "sick": 499,
    "invisible": false
  },
  {
    "name": "El Salvador",
    "latitude": 13.803,
    "dead": 243,
    "lastUpdated": "2020-07-09T15:16:03.453Z",
    "recovered": 5289,
    "infected": 8844,
    "id": "Cgvmtle61ehMvCzRzYx7",
    "pop": 6378000,
    "country": "SV",
    "longitude": -88.9053,
    "sick": 3312,
    "invisible": false
  },
  {
    "latitude": 62.6643,
    "dead": 4,
    "lastUpdated": "2020-07-09T15:00:09.532Z",
    "recovered": 556,
    "infected": 978,
    "id": "D4WkbqyUXY1pazbOxfKx",
    "pop": 144000,
    "country": "RU",
    "longitude": 153.915,
    "name": "Magadan Oblast",
    "sick": 418,
    "invisible": false
  },
  {
    "lastUpdated": "2020-07-09T15:00:09.530Z",
    "recovered": 1571,
    "infected": 2771,
    "id": "DAp3PFow4BuCMYWWTo3i",
    "pop": 1078000,
    "country": "RU",
    "longitude": 82.6765,
    "name": "Tomsk Oblast",
    "latitude": 58.897,
    "dead": 21,
    "sick": 1179,
    "invisible": false
  },
  {
    "lastUpdated": "2020-07-09T15:16:03.451Z",
    "recovered": 18000,
    "infected": 30346,
    "id": "DCJCtZoBTWQ4mzdDNljD",
    "pop": 2973000,
    "country": "AM",
    "longitude": 44.818474,
    "name": "Armenia",
    "latitude": 40.259003,
    "dead": 535,
    "sick": 11811,
    "invisible": false
  },
  {
    "latitude": 5.535,
    "dead": 13,
    "lastUpdated": "2020-07-09T14:45:06.177Z",
    "recovered": 252,
    "infected": 446,
    "id": "DJJraANgQbEqz1wBBtZz",
    "pop": 1278000,
    "country": "CO",
    "longitude": -73.368,
    "name": "Boyacá",
    "sick": 181,
    "invisible": false
  },
  {
    "lastUpdated": "2020-07-09T15:00:09.529Z",
    "recovered": 2605,
    "infected": 3717,
    "id": "DKwy7USk22oXUQGEvO42",
    "pop": 834000,
    "country": "RU",
    "longitude": 44.0684,
    "name": "Mordovia",
    "latitude": 54.2369,
    "dead": 28,
    "sick": 1084,
    "invisible": false
  },
  {
    "name": "North West",
    "latitude": 53.6221,
    "dead": 0,
    "lastUpdated": "2020-07-09T15:13:17.224Z",
    "recovered": 0,
    "infected": 43107,
    "state": "EN",
    "id": "DPwBt2aJuwF0O71vwfM9",
    "pop": 7300000,
    "country": "GB",
    "longitude": -2.5945,
    "sick": 43107,
    "invisible": false
  },
  {
    "country": "BM",
    "longitude": -64.75737,
    "name": "Bermuda",
    "latitude": 32.3213844,
    "dead": 9,
    "lastUpdated": "2020-07-09T15:16:03.464Z",
    "recovered": 137,
    "infected": 149,
    "id": "DZyTD0Mu5WIcK6yTcJ91",
    "pop": 65440,
    "sick": 3,
    "invisible": false
  },
  {
    "longitude": -71.7979,
    "name": "Turks and Caicos",
    "latitude": 21.694,
    "dead": 2,
    "lastUpdated": "2020-07-09T15:16:03.466Z",
    "recovered": 11,
    "infected": 55,
    "id": "DaMrRSIGJXIG36nW0Pnc",
    "pop": 35446,
    "country": "TC",
    "sick": 42,
    "invisible": false
  },
  {
    "id": "Dbng0NBTH41EEwBxhMzE",
    "pop": 2035000,
    "country": "ES",
    "longitude": -3.0977,
    "name": "Castilla La Mancha",
    "latitude": 39.2796,
    "dead": 3029,
    "lastUpdated": "2020-07-08T23:10:54.129Z",
    "recovered": 6392,
    "infected": 26941,
    "state": "CM",
    "sick": 17520,
    "invisible": false
  },
  {
    "longitude": 20.006,
    "name": "Malopolskie",
    "latitude": 50.023,
    "dead": 45,
    "lastUpdated": "2020-07-09T15:03:01.752Z",
    "recovered": 0,
    "infected": 1947,
    "id": "DcQ3D0WkacXEbv6iznRB",
    "pop": 3361000,
    "country": "PL",
    "sick": 1902,
    "invisible": false
  },
  {
    "latitude": 22.192039,
    "dead": 0,
    "lastUpdated": "2020-07-09T15:16:03.466Z",
    "recovered": 45,
    "infected": 46,
    "id": "DdBt8qsG6A3g92oOR3ow",
    "pop": 622567,
    "country": "MO",
    "longitude": 113.551262,
    "name": "Macao",
    "sick": 1,
    "invisible": false
  },
  {
    "latitude": 25.467,
    "dead": 1,
    "lastUpdated": "2020-07-09T15:11:01.399Z",
    "recovered": 45,
    "infected": 113,
    "id": "Dh0O1vmhrVfmsCsfZCUg",
    "pop": 2651000,
    "country": "IN",
    "longitude": 91.3662,
    "name": "Meghalaya",
    "sick": 67,
    "invisible": false
  },
  {
    "latitude": 47.6853,
    "dead": 152,
    "lastUpdated": "2020-07-09T15:00:09.520Z",
    "recovered": 7610,
    "infected": 10441,
    "id": "DqzAhNFTJFQVm88ma21P",
    "pop": 4220000,
    "country": "RU",
    "longitude": 41.8259,
    "name": "Rostov Oblast",
    "sick": 2679,
    "invisible": false
  },
  {
    "id": "DrGzziUglmBognCGY7R2",
    "pop": 577737,
    "country": "US",
    "longitude": -107.534868,
    "name": "Wyoming",
    "latitude": 42.962334,
    "dead": 21,
    "lastUpdated": "2020-07-09T15:17:07.427Z",
    "recovered": 0,
    "infected": 1740,
    "state": "WY",
    "sick": 1719,
    "invisible": false
  },
  {
    "lastUpdated": "2020-07-09T15:16:03.455Z",
    "recovered": 1374,
    "infected": 3622,
    "id": "Dtr1lap1RpJpXJdXGJiW",
    "pop": 10740000,
    "country": "GR",
    "longitude": 23.7275,
    "name": "Greece",
    "latitude": 37.9838,
    "dead": 193,
    "sick": 2055,
    "invisible": false
  },
  {
    "latitude": 58.8232,
    "dead": 91,
    "lastUpdated": "2020-07-09T15:00:09.528Z",
    "recovered": 3199,
    "infected": 4225,
    "id": "E8vIyXLVNtcY9dxLHICp",
    "pop": 2623000,
    "country": "RU",
    "longitude": 56.5872,
    "name": "Perm Krai",
    "sick": 935,
    "invisible": false
  },
  {
    "latitude": 56.9634,
    "dead": 18,
    "lastUpdated": "2020-07-09T15:00:09.529Z",
    "recovered": 2319,
    "infected": 3785,
    "id": "EHKZ6ivhrJUs3XqNDBOw",
    "pop": 3692000,
    "country": "RU",
    "longitude": 66.9483,
    "name": "Tyumen Oblast",
    "sick": 1448,
    "invisible": false
  },
  {
    "latitude": 25.03841,
    "dead": 7,
    "lastUpdated": "2020-07-09T15:16:03.462Z",
    "recovered": 438,
    "infected": 449,
    "id": "EKTfs8e7M6DXzI1HqyyX",
    "pop": 23780000,
    "country": "TW",
    "longitude": 121.563698,
    "name": "Taiwan",
    "sick": 4,
    "invisible": false
  },
  {
    "longitude": -84.387618,
    "name": "Costa Rica",
    "latitude": 10.327273,
    "dead": 25,
    "lastUpdated": "2020-07-09T15:16:03.454Z",
    "recovered": 1929,
    "infected": 5836,
    "id": "EQzJvzVHKjs8kLmK7BMu",
    "pop": 4906000,
    "country": "CR",
    "sick": 3882,
    "invisible": false
  },
  {
    "country": "IN",
    "longitude": 71.1924,
    "name": "Gujarat",
    "latitude": 22.2587,
    "dead": 1994,
    "lastUpdated": "2020-07-09T15:11:01.396Z",
    "recovered": 27313,
    "infected": 38419,
    "id": "ERwk9R9en4m9WbdoMbIg",
    "pop": 62700000,
    "sick": 9112,
    "invisible": false
  },
  {
    "name": "Arkhangelsk Oblast",
    "latitude": 63.2853,
    "dead": 83,
    "lastUpdated": "2020-07-09T15:00:09.522Z",
    "recovered": 3685,
    "infected": 6647,
    "id": "EVMBsgCJedjHy91mDYEC",
    "pop": 1155000,
    "country": "RU",
    "longitude": 42.5884,
    "sick": 2879,
    "invisible": false
  },
  {
    "id": "Esl5UlCVB9s8pmGB5Ofr",
    "pop": 1055000,
    "country": "IN",
    "longitude": 76.7794,
    "name": "Chandigarh",
    "latitude": 30.7333,
    "dead": 7,
    "lastUpdated": "2020-07-09T15:11:01.398Z",
    "recovered": 403,
    "infected": 523,
    "sick": 113,
    "invisible": false
  },
  {
    "longitude": 22.653,
    "name": "Lubelskie",
    "latitude": 51.24,
    "dead": 19,
    "lastUpdated": "2020-07-09T15:03:01.753Z",
    "recovered": 0,
    "infected": 747,
    "id": "Esy1La2CxwH5uB8bGVWZ",
    "pop": 2148000,
    "country": "PL",
    "sick": 728,
    "invisible": false
  },
  {
    "state": "PR",
    "id": "F4rPrEVGAIMM5rfPEMv4",
    "longitude": -66.664513,
    "name": "Puerto Rico",
    "alwaysShow": true,
    "dead": 159,
    "latitude": 18.200178,
    "infected": 8862,
    "recovered": 0,
    "pop": 3195000,
    "country": "US",
    "lastUpdated": "2020-07-09T15:17:07.428Z",
    "sick": 8703,
    "invisible": false
  },
  {
    "latitude": 4.862437,
    "dead": 71,
    "lastUpdated": "2020-07-09T14:45:06.176Z",
    "recovered": 1736,
    "infected": 3417,
    "id": "F7MED5VwEhi3JvJu6KjB",
    "pop": 2919000,
    "country": "CO",
    "longitude": -74.058655,
    "name": "Cundinamarca",
    "sick": 1610,
    "invisible": false
  },
  {
    "latitude": -11.6455,
    "dead": 7,
    "lastUpdated": "2020-07-09T15:16:03.462Z",
    "recovered": 272,
    "infected": 313,
    "id": "F8LnLqvuWoWh8awBqiw1",
    "pop": 832322,
    "country": "KM",
    "longitude": 43.3333,
    "name": "Comoros",
    "sick": 34,
    "invisible": false
  },
  {
    "name": "Afghanistan",
    "latitude": 33.93911,
    "dead": 957,
    "lastUpdated": "2020-07-09T15:16:03.450Z",
    "recovered": 20847,
    "infected": 33908,
    "id": "FCDmlmnIIswd8bQiUjfN",
    "pop": 35530000,
    "country": "AF",
    "longitude": 67.709953,
    "sick": 12104,
    "invisible": false
  },
  {
    "latitude": 29.431585,
    "dead": 6,
    "lastUpdated": "2020-07-09T14:53:04.638Z",
    "recovered": 575,
    "infected": 582,
    "id": "FErOU1m4Tj7jIkRam3vF",
    "pop": 30480000,
    "country": "CN",
    "longitude": 106.912254,
    "name": "Chongqing",
    "sick": 1,
    "invisible": false
  },
  {
    "latitude": 29.311661,
    "dead": 382,
    "lastUpdated": "2020-07-09T15:16:03.449Z",
    "recovered": 42686,
    "infected": 52840,
    "id": "FZsUkhxBEgqsPb4eO0PN",
    "pop": 4137000,
    "country": "KW",
    "longitude": 47.481766,
    "name": "Kuwait",
    "sick": 9772,
    "invisible": false
  },
  {
    "lastUpdated": "2020-07-09T15:06:02.166Z",
    "recovered": 0,
    "infected": 32490,
    "state": "SE",
    "id": "FboWeolpM62SZCLwdilT",
    "pop": 2278308,
    "country": "BR",
    "longitude": -37.0717,
    "name": "Sergipe",
    "latitude": -10.9111,
    "dead": 875,
    "sick": 31615,
    "invisible": false
  },
  {
    "lastUpdated": "2020-07-09T15:11:01.396Z",
    "recovered": 78161,
    "infected": 126581,
    "id": "FeS45oMNC27pI17F0xEV",
    "pop": 67860000,
    "country": "IN",
    "longitude": 78.6569,
    "name": "Tamil Nadu",
    "latitude": 11.1271,
    "dead": 1765,
    "sick": 46655,
    "invisible": false
  },
  {
    "recovered": 20426,
    "infected": 40790,
    "id": "FuiVEJvWb0QMCpxJ3563",
    "pop": 10770000,
    "country": "DO",
    "longitude": -70.430399,
    "name": "Dominican Republic",
    "latitude": 18.947829,
    "dead": 842,
    "lastUpdated": "2020-07-09T15:16:03.450Z",
    "sick": 19522,
    "invisible": false
  },
  {
    "id": "FyC551oNwmENxbr9Yght",
    "pop": 35190000,
    "country": "IN",
    "longitude": 79.0193,
    "name": "Telengana",
    "latitude": 18.1124,
    "dead": 324,
    "lastUpdated": "2020-07-09T15:11:01.396Z",
    "recovered": 17279,
    "infected": 29536,
    "sick": 11933,
    "invisible": false
  },
  {
    "latitude": 48.669,
    "dead": 28,
    "lastUpdated": "2020-07-09T15:16:03.458Z",
    "recovered": 1477,
    "infected": 1851,
    "id": "FzIDXoqWnTI3nUfhPyT2",
    "pop": 5450000,
    "country": "SK",
    "longitude": 19.699,
    "name": "Slovakia",
    "sick": 346,
    "invisible": false
  },
  {
    "name": "Pakistan",
    "latitude": 30.37532,
    "dead": 4983,
    "lastUpdated": "2020-07-09T15:16:03.446Z",
    "recovered": 145311,
    "infected": 240848,
    "id": "GAp7Wb6IMhdgbvEtMza9",
    "pop": 197000000,
    "country": "PK",
    "longitude": 69.345116,
    "sick": 90554,
    "invisible": false
  },
  {
    "id": "GGru8cG08mANO8XDDUtZ",
    "pop": 27980000,
    "country": "IN",
    "longitude": 75.3412,
    "name": "Punjab",
    "latitude": 31.1471,
    "dead": 183,
    "lastUpdated": "2020-07-09T15:11:01.397Z",
    "recovered": 4945,
    "infected": 7140,
    "sick": 2012,
    "invisible": false
  },
  {
    "country": "AE",
    "longitude": 53.847816,
    "name": "United Arab Emirates",
    "latitude": 23.424076,
    "dead": 328,
    "lastUpdated": "2020-07-09T15:16:03.449Z",
    "recovered": 43570,
    "infected": 53577,
    "id": "GHzBIsHy2GiBc5JV2HMs",
    "pop": 9400000,
    "sick": 9679,
    "invisible": false
  },
  {
    "name": "Grand Princess",
    "latitude": 37.0902,
    "dead": 3,
    "lastUpdated": "2020-07-09T15:17:07.429Z",
    "recovered": 0,
    "infected": 103,
    "id": "GLViSIjDjwvptOphedAu",
    "country": "US",
    "longitude": -95.7129,
    "invisible": true,
    "sick": 100
  },
  {
    "longitude": -0.1278,
    "name": "London",
    "latitude": 51.5074,
    "dead": 0,
    "lastUpdated": "2020-07-09T15:13:17.224Z",
    "recovered": 0,
    "infected": 33985,
    "state": "EN",
    "id": "GPtoS0Yy2EnNafpmmTqY",
    "pop": 10100000,
    "country": "GB",
    "sick": 33985,
    "invisible": false
  },
  {
    "latitude": 36.621981,
    "dead": 6723,
    "lastUpdated": "2020-07-09T15:17:07.422Z",
    "recovered": 0,
    "infected": 296075,
    "state": "CA",
    "id": "Gh46r6vuaY7fbGt3IboN",
    "pop": 39560000,
    "country": "US",
    "longitude": -119.339046,
    "name": "California",
    "sick": 289352,
    "invisible": false
  },
  {
    "latitude": 20.4283,
    "dead": 1,
    "lastUpdated": "2020-07-09T15:11:01.398Z",
    "recovered": 205,
    "infected": 456,
    "id": "GljWeVnun6o9DeW6rlEm",
    "pop": 343709,
    "country": "IN",
    "longitude": 72.8397,
    "name": "Dadra and Nagar Haveli",
    "sick": 250,
    "invisible": false
  },
  {
    "lastUpdated": "2020-07-09T15:17:07.426Z",
    "recovered": 0,
    "infected": 17893,
    "state": "OK",
    "id": "GpF8ULuKOQiFDCUHN44h",
    "pop": 3943000,
    "country": "US",
    "longitude": -97.145514,
    "name": "Oklahoma",
    "latitude": 35.87189,
    "dead": 407,
    "sick": 17486,
    "invisible": false
  },
  {
    "recovered": 8,
    "infected": 121,
    "id": "Gr09a1wn3BnMqjQbgEun",
    "pop": 256627,
    "country": "CO",
    "longitude": -71.557,
    "name": "Arauca",
    "latitude": 6.492,
    "dead": 0,
    "lastUpdated": "2020-07-09T14:45:06.178Z",
    "sick": 113,
    "invisible": false
  },
  {
    "latitude": 57.1057,
    "dead": 53,
    "lastUpdated": "2020-07-09T15:00:09.525Z",
    "recovered": 3331,
    "infected": 5304,
    "id": "GsecjBfopdgTOnyRgtCA",
    "pop": 1014000,
    "country": "RU",
    "longitude": 41.483,
    "name": "Ivanovo Oblast",
    "sick": 1920,
    "invisible": false
  },
  {
    "longitude": 11.35,
    "name": "P.A. Bolzano",
    "latitude": 46.5,
    "dead": 292,
    "lastUpdated": "2020-07-09T15:01:02.144Z",
    "recovered": 2275,
    "infected": 2650,
    "state": "BA",
    "id": "Gzx6GX1qhBm714BkEC6l",
    "pop": 520891,
    "country": "IT",
    "sick": 83,
    "invisible": false
  },
  {
    "latitude": 42.83263,
    "dead": 1,
    "lastUpdated": "2020-07-09T14:53:04.637Z",
    "recovered": 237,
    "infected": 244,
    "id": "H3JeVigVbo5CSYfZG4WI",
    "pop": 24710000,
    "country": "CN",
    "longitude": 113.750972,
    "name": "Inner Mongolia",
    "sick": 6,
    "invisible": false
  },
  {
    "longitude": -116.724977,
    "name": "Nevada",
    "latitude": 39.74536,
    "dead": 553,
    "lastUpdated": "2020-07-09T15:17:07.426Z",
    "recovered": 0,
    "infected": 24301,
    "state": "NV",
    "id": "H3bDg4eV30up4WWrIDAS",
    "pop": 3034000,
    "country": "US",
    "sick": 23748,
    "invisible": false
  },
  {
    "latitude": -3.731862,
    "dead": 6665,
    "lastUpdated": "2020-07-09T15:06:02.158Z",
    "recovered": 0,
    "infected": 128471,
    "state": "CE",
    "id": "HEMWNnFxeFEoeOCBOLJD",
    "pop": 9075649,
    "country": "BR",
    "longitude": -38.526669,
    "name": "Ceará",
    "sick": 121806,
    "invisible": false
  },
  {
    "longitude": 75.7139,
    "name": "Karnataka",
    "latitude": 15.3173,
    "dead": 488,
    "lastUpdated": "2020-07-09T15:11:01.396Z",
    "recovered": 12835,
    "infected": 31105,
    "id": "HN5mGmxlqlSeFSNeu1K5",
    "pop": 64060000,
    "country": "IN",
    "sick": 17782,
    "invisible": false
  },
  {
    "latitude": 27.5142,
    "dead": 0,
    "lastUpdated": "2020-07-09T15:16:03.466Z",
    "recovered": 55,
    "infected": 80,
    "id": "HRDpwyxpqW9RN0xLFyNu",
    "pop": 807610,
    "country": "BT",
    "longitude": 90.4336,
    "name": "Bhutan",
    "sick": 25,
    "invisible": false
  },
  {
    "lastUpdated": "2020-07-09T15:16:03.452Z",
    "recovered": 7082,
    "infected": 11447,
    "id": "HRTA10dtrruDEwjJEGMp",
    "pop": 32390000,
    "country": "UZ",
    "longitude": 64.5853,
    "name": "Uzbekistan",
    "latitude": 41.3775,
    "dead": 49,
    "sick": 4316,
    "invisible": false
  },
  {
    "name": "New Mexico",
    "latitude": 34.138916,
    "dead": 527,
    "lastUpdated": "2020-07-09T15:17:07.427Z",
    "recovered": 0,
    "infected": 14017,
    "state": "NM",
    "id": "HSSFomRju0doHhWgW8On",
    "pop": 2095000,
    "country": "US",
    "longitude": -105.576255,
    "sick": 13490,
    "invisible": false
  },
  {
    "latitude": -40.231,
    "dead": 11,
    "lastUpdated": "2020-07-09T15:21:04.576Z",
    "recovered": 0,
    "infected": 740,
    "id": "HZkACHjW7NlYjg8vEMj2",
    "pop": 412812,
    "country": "CL",
    "longitude": -72.3311,
    "name": "Los Ríos",
    "sick": 729,
    "invisible": false
  },
  {
    "latitude": 53.6127,
    "dead": 21,
    "lastUpdated": "2020-07-09T15:00:08.322Z",
    "recovered": 776,
    "infected": 809,
    "state": "MV",
    "id": "He1gSS1v50t06i3YrqvB",
    "pop": 1635000,
    "country": "DE",
    "longitude": 12.4296,
    "name": "Mecklenburg-Vorpommern",
    "sick": 12,
    "invisible": false
  },
  {
    "lastUpdated": "2020-07-09T15:01:02.138Z",
    "recovered": 2701,
    "infected": 3310,
    "state": "65",
    "id": "I9EqrZfbPnkioNU4wZGz",
    "pop": 1315000,
    "country": "IT",
    "longitude": 13.75,
    "name": "Abruzzo",
    "latitude": 42.25,
    "dead": 464,
    "sick": 145,
    "invisible": false
  },
  {
    "id": "IAX0OQLVnUwU7FX0ENF1",
    "pop": 113460000,
    "country": "CN",
    "longitude": 113.373448,
    "name": "Guangdong",
    "latitude": 23.363855,
    "dead": 8,
    "lastUpdated": "2020-07-09T14:53:04.637Z",
    "recovered": 1631,
    "infected": 1647,
    "sick": 8,
    "invisible": false
  },
  {
    "name": "Henan",
    "latitude": 33.875408,
    "dead": 22,
    "lastUpdated": "2020-07-09T14:53:04.638Z",
    "recovered": 1254,
    "infected": 1276,
    "id": "IFuMrMvSjoiX5agYvllh",
    "pop": 94000000,
    "country": "CN",
    "longitude": 113.484016,
    "sick": 0,
    "invisible": false
  },
  {
    "latitude": 37.2,
    "dead": 15,
    "lastUpdated": "2020-07-09T15:23:02.069Z",
    "recovered": 0,
    "infected": 683,
    "id": "IHqRHC8K3OZPN8gniM7V",
    "pop": 451000,
    "country": "PT",
    "longitude": -8.16667,
    "name": "Algarve",
    "sick": 668,
    "invisible": false
  },
  {
    "lastUpdated": "2020-07-09T14:45:06.178Z",
    "recovered": 998,
    "infected": 1636,
    "id": "IKWjRUo0SYgHQKdWjTvq",
    "pop": 333194,
    "country": "CO",
    "longitude": -77.0197,
    "name": "Buenaventura D.E.",
    "latitude": 3.883,
    "dead": 102,
    "sick": 536,
    "invisible": false
  },
  {
    "name": "East Midlands",
    "latitude": 52.87,
    "dead": 0,
    "lastUpdated": "2020-07-09T15:13:17.223Z",
    "recovered": 0,
    "infected": 21639,
    "state": "EN",
    "id": "INyu1R48Ppv8cfW4Nuz4",
    "pop": 4811000,
    "country": "GB",
    "longitude": -0.995,
    "sick": 21639,
    "invisible": false
  },
  {
    "latitude": 22.017,
    "dead": 176,
    "lastUpdated": "2020-07-09T15:02:01.863Z",
    "recovered": 0,
    "infected": 3449,
    "id": "ISRKMzEDojyrZ9iyWwex",
    "pop": 1342600,
    "country": "MX",
    "longitude": -102.317,
    "name": "Aguascalientes",
    "sick": 3273,
    "invisible": false
  },
  {
    "latitude": 25.686613,
    "dead": 533,
    "lastUpdated": "2020-07-09T15:02:01.863Z",
    "recovered": 0,
    "infected": 16665,
    "id": "IdKbgzgKLpjBFh4UPOwu",
    "pop": 5321300,
    "country": "MX",
    "longitude": -100.316116,
    "name": "Nuevo León",
    "sick": 16132,
    "invisible": false
  },
  {
    "recovered": 0,
    "infected": 5098,
    "id": "IhhiYI6T0TX4CYVPcnmH",
    "pop": 3826900,
    "country": "MX",
    "longitude": -106.069099,
    "name": "Chihuahua",
    "latitude": 28.632996,
    "dead": 705,
    "lastUpdated": "2020-07-09T15:02:01.860Z",
    "sick": 4393,
    "invisible": false
  },
  {
    "name": "Ñuble",
    "latitude": -36.7,
    "dead": 35,
    "lastUpdated": "2020-07-09T15:21:04.575Z",
    "recovered": 0,
    "infected": 2700,
    "id": "ImnOiVx9Cb8Nw7cbRcQ7",
    "pop": 480600,
    "country": "CL",
    "longitude": -72.57,
    "sick": 2665,
    "invisible": false
  },
  {
    "name": "Haiti",
    "latitude": 19.0558,
    "dead": 123,
    "lastUpdated": "2020-07-09T15:16:03.454Z",
    "recovered": 2181,
    "infected": 6486,
    "id": "InZ38sIqyK7FN7XAOZoX",
    "pop": 10980000,
    "country": "HT",
    "longitude": -73.0513,
    "sick": 4182,
    "invisible": false
  },
  {
    "state": "GA",
    "id": "IvQkDJkTAsoIqPRAU25n",
    "pop": 10520000,
    "country": "US",
    "longitude": -83.280125,
    "name": "Georgia (US)",
    "latitude": 32.528564,
    "dead": 2922,
    "lastUpdated": "2020-07-09T15:17:07.423Z",
    "recovered": 0,
    "infected": 103890,
    "sick": 100968,
    "invisible": false
  },
  {
    "longitude": 172.488081,
    "name": "New Zealand",
    "latitude": -42.8285,
    "dead": 22,
    "lastUpdated": "2020-07-09T15:16:03.459Z",
    "recovered": 1494,
    "infected": 1540,
    "id": "IvVhpOoGpH6JVkGyUhXN",
    "pop": 4794000,
    "country": "NZ",
    "sick": 24,
    "invisible": false
  },
  {
    "longitude": 94.7278,
    "name": "Arunachal Pradesh",
    "latitude": 28.218,
    "dead": 2,
    "lastUpdated": "2020-07-09T15:11:01.398Z",
    "recovered": 109,
    "infected": 287,
    "id": "IwYKiIVY18NGwdGQFGWW",
    "pop": 1255000,
    "country": "IN",
    "sick": 176,
    "invisible": false
  },
  {
    "id": "J3mZXlfEnnJx4CDZLvRG",
    "pop": 28870000,
    "country": "VE",
    "longitude": -66.5897,
    "name": "Venezuela",
    "latitude": 6.4238,
    "dead": 75,
    "lastUpdated": "2020-07-09T15:16:03.453Z",
    "recovered": 2100,
    "infected": 8008,
    "sick": 5833,
    "invisible": false
  },
  {
    "lastUpdated": "2020-07-09T14:45:06.179Z",
    "recovered": 11,
    "infected": 39,
    "id": "JEMCwkwXK39jd1lZ7VgJ",
    "pop": 107932,
    "country": "CO",
    "longitude": -72.633,
    "name": "Guaviare",
    "latitude": 2.567,
    "dead": 0,
    "sick": 28,
    "invisible": false
  },
  {
    "latitude": 44.8229,
    "dead": 14,
    "lastUpdated": "2020-07-09T15:00:09.530Z",
    "recovered": 1626,
    "infected": 2187,
    "id": "JOJVBvOnsLDJPVeYJaI2",
    "pop": 453000,
    "country": "RU",
    "longitude": 40.1754,
    "name": "Adygea",
    "sick": 547,
    "invisible": false
  },
  {
    "recovered": 839,
    "infected": 1008,
    "id": "JQByE4l2OA6sGOqIcWrM",
    "pop": 1170000,
    "country": "CY",
    "longitude": 33.4299,
    "name": "Cyprus",
    "latitude": 35.1264,
    "dead": 19,
    "lastUpdated": "2020-07-09T15:16:03.460Z",
    "sick": 150,
    "invisible": false
  },
  {
    "country": "IN",
    "longitude": 85.3131,
    "name": "Bihar",
    "latitude": 25.0961,
    "dead": 109,
    "lastUpdated": "2020-07-09T15:11:01.397Z",
    "recovered": 9792,
    "infected": 13978,
    "id": "JR7hOGked7CZtIs2nCV5",
    "pop": 99020000,
    "sick": 4077,
    "invisible": false
  },
  {
    "name": "Guatemala",
    "latitude": 14.628434,
    "dead": 1053,
    "lastUpdated": "2020-07-09T15:16:03.451Z",
    "recovered": 3718,
    "infected": 25411,
    "id": "JUWE6bG3b5oL7fKQMSvv",
    "pop": 17250000,
    "country": "GT",
    "longitude": -90.522713,
    "sick": 20640,
    "invisible": false
  },
  {
    "lastUpdated": "2020-07-09T15:16:03.454Z",
    "recovered": 4056,
    "infected": 4650,
    "id": "JcFsHSn2WvZ5LJW42ovG",
    "pop": 602005,
    "country": "LU",
    "longitude": 6.1296,
    "name": "Luxembourg",
    "latitude": 49.8153,
    "dead": 110,
    "sick": 484,
    "invisible": false
  },
  {
    "lastUpdated": "2020-07-09T14:45:06.178Z",
    "recovered": 469,
    "infected": 1217,
    "id": "JmOyaFe25yZCIV64JbZj",
    "pop": 2049000,
    "country": "CO",
    "longitude": -74.167,
    "name": "Bolívar",
    "latitude": 8.8,
    "dead": 53,
    "sick": 695,
    "invisible": false
  },
  {
    "latitude": 31.4,
    "dead": 2130,
    "lastUpdated": "2020-07-09T15:02:01.859Z",
    "recovered": 0,
    "infected": 10286,
    "id": "Jp9ePErcc8i1aOozEAMf",
    "pop": 3648100,
    "country": "MX",
    "longitude": -115.783,
    "name": "Baja California",
    "sick": 8156,
    "invisible": false
  },
  {
    "recovered": 298,
    "infected": 1264,
    "id": "Jr8syCB0lydmPDXw8Q6N",
    "pop": 1786500,
    "country": "CO",
    "longitude": -75.8814316,
    "name": "Córdoba",
    "latitude": 8.7479801,
    "dead": 97,
    "lastUpdated": "2020-07-09T14:45:06.178Z",
    "sick": 869,
    "invisible": false
  },
  {
    "longitude": 0.8248,
    "name": "Togo",
    "latitude": 8.6195,
    "dead": 15,
    "lastUpdated": "2020-07-09T15:16:03.461Z",
    "recovered": 475,
    "infected": 695,
    "id": "JrBbirlBKGdWSdcDt7PF",
    "pop": 7798000,
    "country": "TG",
    "sick": 205,
    "invisible": false
  },
  {
    "recovered": 3166,
    "infected": 6342,
    "id": "JzZ8sbqzjutThVjkPKPL",
    "pop": 7050000,
    "country": "BG",
    "longitude": 25.4858,
    "name": "Bulgaria",
    "latitude": 42.7339,
    "dead": 259,
    "lastUpdated": "2020-07-09T15:16:03.454Z",
    "sick": 2917,
    "invisible": false
  },
  {
    "longitude": 20.709,
    "name": "Świętokrzyskie",
    "latitude": 50.823,
    "dead": 41,
    "lastUpdated": "2020-07-09T15:03:01.753Z",
    "recovered": 0,
    "infected": 851,
    "id": "KGrK7gafkeWjmU6sHQd2",
    "pop": 1263000,
    "country": "PL",
    "sick": 810,
    "invisible": false
  },
  {
    "name": "Sverdlovsk Oblast",
    "latitude": 59.0077,
    "dead": 144,
    "lastUpdated": "2020-07-09T15:00:09.520Z",
    "recovered": 9243,
    "infected": 15068,
    "id": "KLBR5QHW6DePaGcFxlqH",
    "pop": 4325000,
    "country": "RU",
    "longitude": 61.9316,
    "sick": 5681,
    "invisible": false
  },
  {
    "name": "Liguria",
    "latitude": 44.5,
    "dead": 1558,
    "lastUpdated": "2020-07-09T15:01:02.143Z",
    "recovered": 8161,
    "infected": 10006,
    "state": "42",
    "id": "KLXicxFogWnu0dLp4bNK",
    "pop": 1557000,
    "country": "IT",
    "longitude": 8.833,
    "sick": 287,
    "invisible": false
  },
  {
    "country": "RU",
    "longitude": 47.9608,
    "name": "Mari El Republic",
    "latitude": 56.4385,
    "dead": 24,
    "lastUpdated": "2020-07-09T15:00:09.530Z",
    "recovered": 2876,
    "infected": 3213,
    "id": "KUnAVGJH6fLwFetE8A2x",
    "pop": 682000,
    "sick": 313,
    "invisible": false
  },
  {
    "lastUpdated": "2020-07-09T14:45:06.177Z",
    "recovered": 687,
    "infected": 1359,
    "id": "KpOz3WmiZkrXUMlUJNlV",
    "pop": 1201000,
    "country": "CO",
    "longitude": -73.2532,
    "name": "Cesar",
    "latitude": 10.4631,
    "dead": 32,
    "sick": 640,
    "invisible": false
  },
  {
    "latitude": 43.4167,
    "dead": 1118,
    "lastUpdated": "2020-07-09T15:01:02.144Z",
    "recovered": 8854,
    "infected": 10313,
    "state": "52",
    "id": "KrLrJbpDqqiXgUPGCCW9",
    "pop": 3737000,
    "country": "IT",
    "longitude": 11,
    "name": "Toscana",
    "sick": 341,
    "invisible": false
  },
  {
    "recovered": 1979,
    "infected": 2151,
    "id": "KsWzJO06cf0d6LJ4ZNh9",
    "pop": 21440000,
    "country": "LK",
    "longitude": 80.771797,
    "name": "Sri Lanka",
    "latitude": 7.873054,
    "dead": 11,
    "lastUpdated": "2020-07-09T15:16:03.457Z",
    "sick": 161,
    "invisible": false
  },
  {
    "id": "KtQIo2DoqjELtPAlyDVO",
    "pop": 49670000,
    "country": "IN",
    "longitude": 79.74,
    "name": "Andhra Pradesh",
    "latitude": 15.9129,
    "dead": 277,
    "lastUpdated": "2020-07-09T15:11:01.396Z",
    "recovered": 12154,
    "infected": 23814,
    "sick": 11383,
    "invisible": false
  },
  {
    "lastUpdated": "2020-07-09T15:16:03.466Z",
    "recovered": 37,
    "infected": 43,
    "id": "LBUtrLDKJiupXjlUNTUe",
    "pop": 32125,
    "country": "FR",
    "longitude": -63.0501,
    "name": "Saint-Martin",
    "alwaysShow": true,
    "latitude": 18.0708,
    "dead": 3,
    "sick": 3,
    "invisible": false
  },
  {
    "id": "LD8TNScpLrLRvgpQAn9T",
    "pop": 747000,
    "country": "RU",
    "longitude": 36.9242,
    "name": "Oryol Oblast",
    "latitude": 52.7856,
    "dead": 75,
    "lastUpdated": "2020-07-09T15:00:09.528Z",
    "recovered": 3476,
    "infected": 4883,
    "sick": 1332,
    "invisible": false
  },
  {
    "name": "Liechtenstein",
    "latitude": 47.166,
    "dead": 1,
    "lastUpdated": "2020-07-09T15:16:03.466Z",
    "recovered": 81,
    "infected": 84,
    "id": "LTGEU2E9MFkrCcFhZYVk",
    "pop": 38557,
    "country": "LI",
    "longitude": 9.5554,
    "sick": 2,
    "invisible": false
  },
  {
    "name": "Guinea",
    "latitude": 9.9456,
    "dead": 34,
    "lastUpdated": "2020-07-09T15:16:03.454Z",
    "recovered": 4577,
    "infected": 5697,
    "id": "LU2QWt5ao8IJa8evNYVV",
    "pop": 12720000,
    "country": "GN",
    "longitude": -9.6966,
    "sick": 1086,
    "invisible": false
  },
  {
    "latitude": 29.6667,
    "dead": 1055,
    "lastUpdated": "2020-07-09T15:02:01.860Z",
    "recovered": 0,
    "infected": 11052,
    "id": "LYCBHrA9ms6GcxpLGPCT",
    "pop": 3062000,
    "country": "MX",
    "longitude": -110.5,
    "name": "Sonora",
    "sick": 9997,
    "invisible": false
  },
  {
    "country": "SR",
    "longitude": -56.0277824,
    "name": "Suriname",
    "latitude": 3.9193051,
    "dead": 17,
    "lastUpdated": "2020-07-09T15:16:03.461Z",
    "recovered": 435,
    "infected": 671,
    "id": "LglKINHyQpYpFxjckbQ6",
    "pop": 563402,
    "sick": 219,
    "invisible": false
  },
  {
    "lastUpdated": "2020-07-09T15:07:08.305Z",
    "recovered": 746,
    "infected": 808,
    "state": "SK",
    "id": "LkIDKY0CMAqzbwBHyYCP",
    "pop": 1174000,
    "country": "CA",
    "longitude": -106.4509,
    "name": "Saskatchewan",
    "latitude": 52.9399,
    "dead": 15,
    "sick": 47,
    "invisible": false
  },
  {
    "name": "Western Sahara",
    "latitude": 24.2155,
    "dead": 1,
    "lastUpdated": "2020-07-09T15:16:03.467Z",
    "recovered": 8,
    "infected": 10,
    "id": "LooNn6RuMiDhQnwa9svw",
    "pop": 636442,
    "country": "EH",
    "longitude": -12.8858,
    "sick": 1,
    "invisible": false
  },
  {
    "longitude": -5.951843,
    "name": "Principado de Asturias",
    "latitude": 43.363129,
    "dead": 334,
    "lastUpdated": "2020-07-08T23:12:58.237Z",
    "recovered": 1063,
    "infected": 3421,
    "state": "AS",
    "id": "Lsga7AvYNnY0qQ5gEfV8",
    "pop": 1022000,
    "country": "ES",
    "sick": 2024,
    "invisible": false
  },
  {
    "latitude": 39.4937,
    "dead": 519,
    "lastUpdated": "2020-07-08T23:12:06.291Z",
    "recovered": 2652,
    "infected": 4077,
    "state": "EX",
    "id": "LuEErlF7dVKI0eJsRjFm",
    "pop": 1065000,
    "country": "ES",
    "longitude": -6.0679,
    "name": "Extremadura",
    "sick": 906,
    "invisible": false
  },
  {
    "longitude": -101.2591,
    "name": "Guanajuato",
    "latitude": 21.0186,
    "dead": 736,
    "lastUpdated": "2020-07-09T15:02:01.862Z",
    "recovered": 0,
    "infected": 12026,
    "id": "M3wdiueFtwrUHiQ2rOXA",
    "pop": 5965000,
    "country": "MX",
    "sick": 11290,
    "invisible": false
  },
  {
    "latitude": 37.8393,
    "dead": 608,
    "lastUpdated": "2020-07-09T15:17:07.426Z",
    "recovered": 0,
    "infected": 17919,
    "state": "KY",
    "id": "MC8MXFw9iXYybnF8v7e6",
    "pop": 4468000,
    "country": "US",
    "longitude": -84.27,
    "name": "Kentucky",
    "sick": 17311,
    "invisible": false
  },
  {
    "name": "Unknown UK region or state",
    "latitude": 55.3781,
    "dead": 40018,
    "lastUpdated": "2020-07-09T15:13:17.225Z",
    "recovered": 0,
    "infected": 11567,
    "id": "MEjlm8VYdGA28TTTnQmf",
    "country": "GB",
    "longitude": -3.436,
    "invisible": true,
    "sick": 0
  },
  {
    "lastUpdated": "2020-07-09T15:23:02.068Z",
    "recovered": 0,
    "infected": 17957,
    "id": "MG4e9tulLJ010SZJvbYN",
    "pop": 3689000,
    "country": "PT",
    "longitude": -7.7441,
    "name": "Norte",
    "latitude": 41.3006,
    "dead": 821,
    "sick": 17136,
    "invisible": false
  },
  {
    "recovered": 0,
    "infected": 18309,
    "state": "SC",
    "id": "MObRYyIriHG337L8FyFC",
    "pop": 5450000,
    "country": "GB",
    "longitude": -4.2026,
    "name": "Scotland",
    "latitude": 56.4907,
    "dead": 2489,
    "lastUpdated": "2020-07-09T14:43:16.879Z",
    "sick": 15820,
    "invisible": false
  },
  {
    "state": "IN",
    "id": "MOxDkmQ4wBi1CuAdVxDE",
    "pop": 6692000,
    "country": "US",
    "longitude": -86.1349,
    "name": "Indiana",
    "latitude": 40.2672,
    "dead": 2732,
    "lastUpdated": "2020-07-09T15:17:07.425Z",
    "recovered": 0,
    "infected": 49063,
    "sick": 46331,
    "invisible": false
  },
  {
    "longitude": -5.5471,
    "name": "Ivory Coast",
    "latitude": 7.54,
    "dead": 78,
    "lastUpdated": "2020-07-09T15:16:03.452Z",
    "recovered": 5571,
    "infected": 11504,
    "id": "MdQOfc1gNh2DOqwSP6UV",
    "pop": 24290000,
    "country": "CI",
    "sick": 5855,
    "invisible": false
  },
  {
    "recovered": 40655,
    "infected": 44431,
    "state": "NW",
    "id": "MjpYq3zQyAvSQlVVYjD2",
    "pop": 17910000,
    "country": "DE",
    "longitude": 7.6616,
    "name": "Nordrhein-Westfalen",
    "latitude": 51.4332,
    "dead": 1715,
    "lastUpdated": "2020-07-09T15:00:08.323Z",
    "sick": 2061,
    "invisible": false
  },
  {
    "latitude": 37.330509,
    "dead": 0,
    "lastUpdated": "2020-07-09T14:53:04.639Z",
    "recovered": 75,
    "infected": 75,
    "id": "MntmjjuHljarCdt6aIeE",
    "pop": 6301000,
    "country": "CN",
    "longitude": 105.977203,
    "name": "Ningxia",
    "sick": 0,
    "invisible": false
  },
  {
    "lastUpdated": "2020-07-09T15:06:02.158Z",
    "recovered": 0,
    "infected": 118744,
    "state": "PA",
    "id": "MuEB2UgkId5crsxi9zQT",
    "pop": 8513497,
    "country": "BR",
    "longitude": -52.203499186,
    "name": "Pará",
    "latitude": -3.20166586,
    "dead": 5169,
    "sick": 113575,
    "invisible": false
  },
  {
    "lastUpdated": "2020-07-09T15:00:09.528Z",
    "recovered": 2772,
    "infected": 4093,
    "id": "N0KGfqgROVOjAxWcd8wi",
    "pop": 1150000,
    "country": "RU",
    "longitude": 39.2032,
    "name": "Lipetsk Oblast",
    "latitude": 52.5265,
    "dead": 19,
    "sick": 1302,
    "invisible": false
  },
  {
    "longitude": 9.3501,
    "name": "Baden-Württemberg",
    "latitude": 48.6616,
    "dead": 1893,
    "lastUpdated": "2020-07-09T15:00:08.315Z",
    "recovered": 33615,
    "infected": 36342,
    "state": "BW",
    "id": "N3XsRBwJSsNclkEf7Zz5",
    "pop": 11020000,
    "country": "DE",
    "sick": 834,
    "invisible": false
  },
  {
    "name": "Bosnia and Herzegovina",
    "latitude": 44.696652,
    "dead": 214,
    "lastUpdated": "2020-07-09T15:16:03.454Z",
    "recovered": 2815,
    "infected": 6086,
    "id": "N7c13sCQF0G789XAVazJ",
    "pop": 3507000,
    "country": "BA",
    "longitude": 17.824332,
    "sick": 3057,
    "invisible": false
  },
  {
    "latitude": 37.242565,
    "dead": 0,
    "lastUpdated": "2020-07-09T14:53:04.638Z",
    "recovered": 198,
    "infected": 199,
    "id": "NBRIGIRrJB1Ry8prDNAC",
    "pop": 36500000,
    "country": "CN",
    "longitude": 111.856857,
    "name": "Shanxi",
    "sick": 1,
    "invisible": false
  },
  {
    "id": "NC64Qp5kTqAfiTuR27k8",
    "pop": 10380000,
    "country": "US",
    "longitude": -79.0193,
    "name": "North Carolina",
    "latitude": 35.7596,
    "dead": 1468,
    "lastUpdated": "2020-07-09T15:17:07.424Z",
    "recovered": 0,
    "infected": 77610,
    "state": "NC",
    "sick": 76142,
    "invisible": false
  },
  {
    "latitude": 52.4125,
    "dead": 177,
    "lastUpdated": "2020-07-09T15:00:08.320Z",
    "recovered": 3261,
    "infected": 3538,
    "state": "BB",
    "id": "NJjo2gfBvnbK4xatrsUz",
    "pop": 2504000,
    "country": "DE",
    "longitude": 12.5316,
    "name": "Brandenburg",
    "sick": 100,
    "invisible": false
  },
  {
    "dead": 2,
    "latitude": 15.0979,
    "infected": 31,
    "recovered": 0,
    "pop": 55144,
    "country": "US",
    "lastUpdated": "2020-07-09T15:17:07.428Z",
    "state": "MP",
    "id": "NLLL6pJhJSw0lrDMD4uP",
    "longitude": 145.6739,
    "name": "Northern Mariana Islands",
    "alwaysShow": true,
    "sick": 29,
    "invisible": false
  },
  {
    "id": "NMeZEcGToxXfpi16PfFV",
    "pop": 10080000,
    "country": "IN",
    "longitude": 79.0193,
    "name": "Uttarakhand",
    "latitude": 30.0668,
    "dead": 46,
    "lastUpdated": "2020-07-09T15:11:01.397Z",
    "recovered": 2672,
    "infected": 3305,
    "sick": 587,
    "invisible": false
  },
  {
    "name": "Hessen",
    "latitude": 50.6521,
    "dead": 521,
    "lastUpdated": "2020-07-09T15:00:08.322Z",
    "recovered": 10194,
    "infected": 11076,
    "state": "HE",
    "id": "Nk5vPgUIXsWVfbWZf15O",
    "pop": 6243000,
    "country": "DE",
    "longitude": 9.1624,
    "sick": 361,
    "invisible": false
  },
  {
    "id": "NmmMKy0YqA8StHdGzB5N",
    "pop": 1920000,
    "country": "LV",
    "longitude": 25.837107,
    "name": "Latvia",
    "latitude": 56.96776,
    "dead": 30,
    "lastUpdated": "2020-07-09T15:16:03.459Z",
    "recovered": 1019,
    "infected": 1154,
    "sick": 105,
    "invisible": false
  },
  {
    "lastUpdated": "2020-07-09T15:06:02.165Z",
    "recovered": 0,
    "infected": 67604,
    "state": "PE",
    "id": "NyGlFL1gATK1Omv9qtcC",
    "pop": 9496294,
    "country": "BR",
    "longitude": -37.946777,
    "name": "Pernambuco",
    "latitude": -8.472372,
    "dead": 5323,
    "sick": 62281,
    "invisible": false
  },
  {
    "latitude": 6.4281,
    "dead": 42,
    "lastUpdated": "2020-07-09T15:16:03.460Z",
    "recovered": 398,
    "infected": 957,
    "id": "O4g88K49HKEZLFXm5gxb",
    "pop": 4732000,
    "country": "LR",
    "longitude": -9.4295,
    "name": "Liberia",
    "sick": 517,
    "invisible": false
  },
  {
    "id": "O5fNOGWKosps6JTrzkpn",
    "pop": 2350000,
    "country": "RU",
    "longitude": 82.6759,
    "name": "Altai Krai",
    "latitude": 51.7936,
    "dead": 49,
    "lastUpdated": "2020-07-09T15:00:09.526Z",
    "recovered": 3577,
    "infected": 5121,
    "sick": 1495,
    "invisible": false
  },
  {
    "country": "RU",
    "longitude": 116.9677,
    "name": "Zabaykalsky Krai",
    "latitude": 53.0929,
    "dead": 44,
    "lastUpdated": "2020-07-09T15:00:09.529Z",
    "recovered": 2595,
    "infected": 3516,
    "id": "O6PDzAxKENYbLsLjPx2K",
    "pop": 1072000,
    "sick": 877,
    "invisible": false
  },
  {
    "recovered": 0,
    "infected": 48909,
    "state": "SC",
    "id": "ONU4CK8QjViFHKg2w5if",
    "pop": 5084000,
    "country": "US",
    "longitude": -80.525613,
    "name": "South Carolina",
    "latitude": 34.003307,
    "dead": 884,
    "lastUpdated": "2020-07-09T15:17:07.425Z",
    "sick": 48025,
    "invisible": false
  },
  {
    "lastUpdated": "2020-07-09T15:17:07.425Z",
    "recovered": 0,
    "infected": 32888,
    "state": "MS",
    "id": "OYa0jFzdbAgo8zUsRv6q",
    "pop": 2987000,
    "country": "US",
    "longitude": -89.582775,
    "name": "Mississippi",
    "latitude": 33.51822,
    "dead": 1188,
    "sick": 31700,
    "invisible": false
  },
  {
    "country": "US",
    "longitude": -69.4455,
    "name": "Maine",
    "latitude": 45.2538,
    "dead": 111,
    "lastUpdated": "2020-07-09T15:17:07.427Z",
    "recovered": 0,
    "infected": 3486,
    "state": "ME",
    "id": "OcXNp9kNVSwrRlG3bNVN",
    "pop": 1338000,
    "sick": 3375,
    "invisible": false
  },
  {
    "latitude": 43.4052,
    "dead": 71,
    "lastUpdated": "2020-07-09T15:00:09.530Z",
    "recovered": 2512,
    "infected": 3228,
    "id": "OlKS5SPydHY2TedStFuf",
    "pop": 488000,
    "country": "RU",
    "longitude": 44.8203,
    "name": "Ingushetia",
    "sick": 645,
    "invisible": false
  },
  {
    "lastUpdated": "2020-07-09T07:28:27.534Z",
    "recovered": 215,
    "infected": 228,
    "state": "TAS",
    "id": "OnOseaqWdnuP18oruABW",
    "pop": 515000,
    "country": "AU",
    "longitude": 146.725256,
    "name": "Tasmania",
    "latitude": -41.915264,
    "dead": 13,
    "sick": 0,
    "invisible": false
  },
  {
    "id": "P0GHFGUt1pkKTk5PM8uz",
    "pop": 3441998,
    "country": "BR",
    "longitude": -56.666668,
    "name": "Mato Grosso",
    "latitude": -16.35,
    "dead": 882,
    "lastUpdated": "2020-07-09T15:06:02.166Z",
    "recovered": 0,
    "infected": 23835,
    "state": "MT",
    "sick": 22953,
    "invisible": false
  },
  {
    "latitude": 56.1553,
    "dead": 84,
    "lastUpdated": "2020-07-09T15:00:09.528Z",
    "recovered": 3526,
    "infected": 4785,
    "id": "P2I90oqdFSoVk03AaGo4",
    "pop": 1378000,
    "country": "RU",
    "longitude": 40.5927,
    "name": "Vladimir Oblast",
    "sick": 1175,
    "invisible": false
  },
  {
    "country": "KY",
    "longitude": -81.2546,
    "name": "Cayman Islands",
    "latitude": 19.3133,
    "dead": 1,
    "lastUpdated": "2020-07-09T15:16:03.463Z",
    "recovered": 197,
    "infected": 201,
    "id": "P4mwRFLbrvT0t75uD8Wo",
    "pop": 61559,
    "sick": 3,
    "invisible": false
  },
  {
    "latitude": 16.7424984,
    "dead": 1,
    "lastUpdated": "2020-07-09T15:16:03.467Z",
    "recovered": 10,
    "infected": 11,
    "id": "PEDkeFMTOZpvHiSVxBk7",
    "pop": 5900,
    "country": "MS",
    "longitude": -62.1873665,
    "name": "Montserrat",
    "sick": 0,
    "invisible": false
  },
  {
    "id": "PEcgZGEkyhABztt1Ufgc",
    "pop": 12210000,
    "country": "RW",
    "longitude": 29.8739,
    "name": "Rwanda",
    "latitude": -1.9403,
    "dead": 3,
    "lastUpdated": "2020-07-09T15:16:03.459Z",
    "recovered": 610,
    "infected": 1194,
    "sick": 581,
    "invisible": false
  },
  {
    "longitude": 56.1645,
    "name": "Bashkortostan",
    "latitude": 54.2312,
    "dead": 19,
    "lastUpdated": "2020-07-09T15:00:09.523Z",
    "recovered": 3759,
    "infected": 5778,
    "id": "PHlHdeqYd6KgxsJGfEz0",
    "pop": 4063000,
    "country": "RU",
    "sick": 2000,
    "invisible": false
  },
  {
    "latitude": 46.7296,
    "dead": 1523,
    "lastUpdated": "2020-07-09T15:17:07.425Z",
    "recovered": 0,
    "infected": 39589,
    "state": "MN",
    "id": "PJvVYosLIhbcRZYnKX1R",
    "pop": 5611000,
    "country": "US",
    "longitude": -94.6859,
    "name": "Minnesota",
    "sick": 38066,
    "invisible": false
  },
  {
    "longitude": -89.3985,
    "name": "Illinois",
    "latitude": 40.6331,
    "dead": 7309,
    "lastUpdated": "2020-07-09T15:17:07.423Z",
    "recovered": 0,
    "infected": 150554,
    "state": "IL",
    "id": "PTwQr9ijo0TBBsPH2sdJ",
    "pop": 12740000,
    "country": "US",
    "sick": 143245,
    "invisible": false
  },
  {
    "lastUpdated": "2020-07-09T15:16:03.467Z",
    "recovered": 19,
    "infected": 22,
    "id": "PjLqCeFdyzdZNcZxMkK1",
    "pop": 178844,
    "country": "LC",
    "longitude": -60.978893,
    "name": "Saint Lucia",
    "latitude": 13.909444,
    "dead": 0,
    "sick": 3,
    "invisible": false
  },
  {
    "latitude": 42.6954,
    "dead": 528,
    "lastUpdated": "2020-07-08T23:11:35.785Z",
    "recovered": 3905,
    "infected": 8647,
    "state": "NC",
    "id": "PmUlsNx2uFLU797wwU39",
    "pop": 649900,
    "country": "ES",
    "longitude": -1.6761,
    "name": "Comunidad Foral de Navarra",
    "sick": 4214,
    "invisible": false
  },
  {
    "name": "Tunisia",
    "latitude": 34.201507,
    "dead": 50,
    "lastUpdated": "2020-07-09T15:16:03.459Z",
    "recovered": 1050,
    "infected": 1221,
    "id": "Pr76V4raf108uSRoEXac",
    "pop": 11530000,
    "country": "TN",
    "longitude": 9.460554,
    "sick": 121,
    "invisible": false
  },
  {
    "id": "PuQgOd9KWiMzGZXm11sR",
    "pop": 1367000,
    "country": "SZ",
    "longitude": 31.4659,
    "name": "Eswatini",
    "latitude": -26.5225,
    "dead": 14,
    "lastUpdated": "2020-07-09T15:16:03.459Z",
    "recovered": 588,
    "infected": 1138,
    "sick": 536,
    "invisible": false
  },
  {
    "longitude": 143.94853,
    "name": "Victoria",
    "latitude": -37.009609,
    "dead": 20,
    "lastUpdated": "2020-07-09T07:28:27.534Z",
    "recovered": 2142,
    "infected": 2368,
    "state": "VIC",
    "id": "Q18mrGvFWTLX2BU9SqhQ",
    "pop": 6359000,
    "country": "AU",
    "sick": 206,
    "invisible": false
  },
  {
    "lastUpdated": "2020-07-09T15:00:08.324Z",
    "recovered": 3005,
    "infected": 3208,
    "state": "SH",
    "id": "Q39XkabIYxt15mHINzTa",
    "pop": 2890000,
    "country": "DE",
    "longitude": 9.6961,
    "name": "Schleswig-Holstein",
    "latitude": 54.2194,
    "dead": 158,
    "sick": 45,
    "invisible": false
  },
  {
    "name": "Rio Grande do Sul",
    "latitude": -27.953491,
    "dead": 825,
    "lastUpdated": "2020-07-09T15:06:02.166Z",
    "recovered": 0,
    "infected": 35557,
    "state": "RS",
    "id": "QGpQNhuoVTUPHXvS7qcu",
    "pop": 11329605,
    "country": "BR",
    "longitude": -52.031696,
    "sick": 34732,
    "invisible": false
  },
  {
    "name": "Chuvashia",
    "latitude": 55.5596,
    "dead": 43,
    "lastUpdated": "2020-07-09T15:00:09.523Z",
    "recovered": 3107,
    "infected": 5657,
    "id": "QGyuno7Bc4kwuvGFgMiO",
    "pop": 1231000,
    "country": "RU",
    "longitude": 46.9284,
    "sick": 2507,
    "invisible": false
  },
  {
    "longitude": 25.013607,
    "name": "Estonia",
    "latitude": 58.595272,
    "dead": 69,
    "lastUpdated": "2020-07-09T15:16:03.458Z",
    "recovered": 1889,
    "infected": 2011,
    "id": "QR9go2hQKXjty7JHUYe4",
    "pop": 1328000,
    "country": "EE",
    "sick": 53,
    "invisible": false
  },
  {
    "latitude": 63.8631,
    "dead": 35,
    "lastUpdated": "2020-07-09T15:00:09.528Z",
    "recovered": 2124,
    "infected": 4028,
    "id": "QTafh5fpbS8abcuyEjaL",
    "pop": 840000,
    "country": "RU",
    "longitude": 54.8313,
    "name": "Komi Republic",
    "sick": 1869,
    "invisible": false
  },
  {
    "country": "BR",
    "longitude": -40.336,
    "name": "Espírito Santo",
    "latitude": -20.318,
    "dead": 1911,
    "lastUpdated": "2020-07-09T15:06:02.165Z",
    "recovered": 0,
    "infected": 58537,
    "state": "ES",
    "id": "QaWDLKH8SuwD0Qxq6c38",
    "pop": 3972388,
    "sick": 56626,
    "invisible": false
  },
  {
    "lastUpdated": "2020-07-09T15:00:09.523Z",
    "recovered": 3831,
    "infected": 6512,
    "id": "Qh73PKA4KWeuPoqZfWXz",
    "pop": 795000,
    "country": "RU",
    "longitude": 35.0884,
    "name": "Murmansk Oblast",
    "latitude": 67.8443,
    "dead": 23,
    "sick": 2658,
    "invisible": false
  },
  {
    "name": "Jalisco",
    "latitude": 20.3333,
    "dead": 909,
    "lastUpdated": "2020-07-09T15:02:01.863Z",
    "recovered": 0,
    "infected": 16459,
    "id": "Qkho455pBwx88Gohs3hL",
    "pop": 8222700,
    "country": "MX",
    "longitude": -103.6667,
    "sick": 15550,
    "invisible": false
  },
  {
    "lastUpdated": "2020-07-09T15:16:03.467Z",
    "recovered": 8,
    "infected": 11,
    "id": "QlZrE4nosm5WfdA2aCDg",
    "pop": 8251000,
    "country": "PG",
    "longitude": 143.9555,
    "name": "Papua New Guinea",
    "latitude": -6.315,
    "dead": 0,
    "sick": 3,
    "invisible": false
  },
  {
    "lastUpdated": "2020-07-09T15:17:07.428Z",
    "state": "VI",
    "id": "QqhD3YDMKXojvQY3Yu41",
    "longitude": -64.8963,
    "name": "U.S. Virgin Islands",
    "alwaysShow": true,
    "dead": 6,
    "latitude": 18.3358,
    "infected": 144,
    "recovered": 0,
    "pop": 107268,
    "country": "US",
    "sick": 138,
    "invisible": false
  },
  {
    "id": "Qy2qW2ep5wltnYjPJBxh",
    "pop": 71937,
    "country": "DM",
    "longitude": -61.3709755,
    "name": "Dominica",
    "latitude": 15.414999,
    "dead": 0,
    "lastUpdated": "2020-07-09T15:16:03.467Z",
    "recovered": 18,
    "infected": 18,
    "sick": 0,
    "invisible": false
  },
  {
    "recovered": 49,
    "infected": 91,
    "id": "R3IHMWqIUhOJJTlrmbUZ",
    "pop": 344027,
    "country": "CO",
    "longitude": -72.167,
    "name": "Casanare",
    "latitude": 5.167,
    "dead": 0,
    "lastUpdated": "2020-07-09T14:45:06.177Z",
    "sick": 42,
    "invisible": false
  },
  {
    "country": "PA",
    "longitude": -80.7821,
    "name": "Panama",
    "latitude": 8.538,
    "dead": 819,
    "lastUpdated": "2020-07-09T15:16:03.450Z",
    "recovered": 19469,
    "infected": 41251,
    "id": "R8YCgephnxTufvcPWMgx",
    "pop": 4099000,
    "sick": 20963,
    "invisible": false
  },
  {
    "longitude": -86.2419,
    "name": "Honduras",
    "latitude": 15.2,
    "dead": 694,
    "lastUpdated": "2020-07-09T15:16:03.451Z",
    "recovered": 2721,
    "infected": 25978,
    "id": "RA2SE0p2bVhqo0P2hzGY",
    "pop": 9265000,
    "country": "HN",
    "sick": 22563,
    "invisible": false
  },
  {
    "lastUpdated": "2020-07-09T15:21:04.573Z",
    "recovered": 0,
    "infected": 2179,
    "id": "RBt9RiwP7WUbMnJfD0lo",
    "pop": 224500,
    "country": "CL",
    "longitude": -70.2979202,
    "name": "Arica y Parinacota",
    "latitude": -18.4745998,
    "dead": 24,
    "sick": 2155,
    "invisible": false
  },
  {
    "state": "36",
    "id": "RCrDBCdBNYzgLNr0aB2H",
    "pop": 1216000,
    "country": "IT",
    "longitude": 13.8,
    "name": "Friuli Venezia Giulia",
    "latitude": 45.633331,
    "dead": 345,
    "lastUpdated": "2020-07-09T15:01:02.142Z",
    "recovered": 2904,
    "infected": 3331,
    "sick": 82,
    "invisible": false
  },
  {
    "longitude": -93.0977,
    "name": "Iowa",
    "latitude": 41.878,
    "dead": 739,
    "lastUpdated": "2020-07-09T15:17:07.425Z",
    "recovered": 0,
    "infected": 33012,
    "state": "IA",
    "id": "RX0KDu1AFrlCsrRso0nb",
    "pop": 3156000,
    "country": "US",
    "sick": 32273,
    "invisible": false
  },
  {
    "longitude": -74.063644,
    "name": "Bogotá D.C.",
    "latitude": 4.624335,
    "dead": 921,
    "lastUpdated": "2020-07-09T14:45:06.170Z",
    "recovered": 15566,
    "infected": 40737,
    "id": "RZ6PCe5TZsO15JjDObwO",
    "pop": 7413000,
    "country": "CO",
    "sick": 24250,
    "invisible": false
  },
  {
    "name": "Libya",
    "latitude": 26.3351002,
    "dead": 36,
    "lastUpdated": "2020-07-09T15:16:03.459Z",
    "recovered": 306,
    "infected": 1268,
    "id": "RaJxbzlnRFTuj4B8IbpC",
    "pop": 6846000,
    "country": "LY",
    "longitude": 17.2283306,
    "sick": 926,
    "invisible": false
  },
  {
    "state": "KS",
    "id": "Rf4uvBfP3GRDSHdZElRd",
    "pop": 2912000,
    "country": "US",
    "longitude": -98.4842,
    "name": "Kansas",
    "latitude": 39.0119,
    "dead": 292,
    "lastUpdated": "2020-07-09T15:17:07.426Z",
    "recovered": 0,
    "infected": 17748,
    "sick": 17456,
    "invisible": false
  },
  {
    "longitude": 6.1878,
    "name": "Grand Est",
    "latitude": 48.6998,
    "dead": 3583,
    "lastUpdated": "2020-07-08T23:22:00.511Z",
    "recovered": 12322,
    "infected": 26224,
    "id": "RmEgf1xeclWt7XCF9oiR",
    "pop": 5518000,
    "country": "FR",
    "sick": 10319,
    "invisible": false
  },
  {
    "lastUpdated": "2020-07-09T15:07:06.717Z",
    "recovered": 4915,
    "infected": 19428,
    "state": "WAL",
    "id": "RryHraSohKQLAsdr1dHO",
    "pop": 3644000,
    "country": "BE",
    "longitude": 4.451,
    "name": "Wallonia",
    "latitude": 50.4176,
    "dead": 3389,
    "sick": 11124,
    "invisible": false
  },
  {
    "longitude": -85.3232,
    "name": "Ontario",
    "latitude": 51.2538,
    "dead": 2700,
    "lastUpdated": "2020-07-09T15:07:08.299Z",
    "recovered": 31805,
    "infected": 36178,
    "state": "ON",
    "id": "Rx4TuyMpfGb3S8wYJX0x",
    "pop": 14570000,
    "country": "CA",
    "sick": 1673,
    "invisible": false
  },
  {
    "latitude": 41.652779,
    "dead": 2788,
    "lastUpdated": "2020-07-08T23:11:02.640Z",
    "recovered": 8716,
    "infected": 26069,
    "state": "CL",
    "id": "S8ewN4zaYp8mjtuqqOTw",
    "pop": 2408000,
    "country": "ES",
    "longitude": -4.723611,
    "name": "Castilla y León",
    "sick": 14565,
    "invisible": false
  },
  {
    "lastUpdated": "2020-07-09T15:16:03.462Z",
    "recovered": 98,
    "infected": 249,
    "id": "SDdefnq1bc3ZNr7SpEsW",
    "pop": 376480,
    "country": "FR",
    "longitude": -61.011715,
    "name": "Martinique",
    "alwaysShow": true,
    "latitude": 14.652027,
    "dead": 14,
    "sick": 137,
    "invisible": false
  },
  {
    "id": "SG9VWLOV3x2JsTkXmVSz",
    "pop": 28830000,
    "country": "GH",
    "longitude": -1.0232,
    "name": "Ghana",
    "latitude": 7.9465,
    "dead": 129,
    "lastUpdated": "2020-07-09T15:16:03.451Z",
    "recovered": 17564,
    "infected": 22822,
    "sick": 5129,
    "invisible": false
  },
  {
    "latitude": 46.818188,
    "dead": 1966,
    "lastUpdated": "2020-07-09T15:16:03.450Z",
    "recovered": 29400,
    "infected": 32586,
    "id": "SGe9sCPayMqh6RsGFaBA",
    "pop": 8570000,
    "country": "CH",
    "longitude": 8.227512,
    "name": "Switzerland",
    "sick": 1220,
    "invisible": false
  },
  {
    "name": "Yakutia",
    "latitude": 66.7613,
    "dead": 34,
    "lastUpdated": "2020-07-09T15:00:09.528Z",
    "recovered": 3883,
    "infected": 4656,
    "id": "SGhKBmmh5hss7hrNR8hK",
    "pop": 964000,
    "country": "RU",
    "longitude": 124.1238,
    "sick": 739,
    "invisible": false
  },
  {
    "lastUpdated": "2020-07-09T15:07:08.304Z",
    "recovered": 25534,
    "infected": 56079,
    "state": "QC",
    "id": "SHoOE3NiJgWAlDVBzwYH",
    "pop": 8485000,
    "country": "CA",
    "longitude": -71.208,
    "name": "Quebec",
    "latitude": 46.8139,
    "dead": 5603,
    "sick": 24942,
    "invisible": false
  },
  {
    "lastUpdated": "2020-07-09T15:10:01.669Z",
    "recovered": 2003,
    "infected": 3886,
    "id": "SMWvuMMuKp2QK7O2tNia",
    "pop": 1831000,
    "country": "XK",
    "longitude": 20.903,
    "name": "Kosovo",
    "latitude": 42.6026,
    "dead": 82,
    "sick": 1801,
    "invisible": false
  },
  {
    "recovered": 3412,
    "infected": 4904,
    "id": "SNWCQwRwqYfxX8HZndTA",
    "pop": 1913000,
    "country": "RU",
    "longitude": 135,
    "name": "Primorsky Krai",
    "latitude": 45.0526,
    "dead": 56,
    "lastUpdated": "2020-07-09T15:00:09.527Z",
    "sick": 1436,
    "invisible": false
  },
  {
    "lastUpdated": "2020-07-09T15:11:01.397Z",
    "recovered": 1207,
    "infected": 2039,
    "id": "SPcujsH2YlUaoAr8AiWF",
    "pop": 1817000,
    "country": "IN",
    "longitude": 74.124,
    "name": "Goa",
    "latitude": 15.2993,
    "dead": 8,
    "sick": 824,
    "invisible": false
  },
  {
    "state": "GO",
    "id": "SV5AMF59J61Vt4cXWLgy",
    "pop": 6921161,
    "country": "BR",
    "longitude": -48.953403,
    "name": "Goiás",
    "latitude": -16.328547,
    "dead": 733,
    "lastUpdated": "2020-07-09T15:06:02.166Z",
    "recovered": 0,
    "infected": 32664,
    "sick": 31931,
    "invisible": false
  },
  {
    "lastUpdated": "2020-07-09T14:45:06.179Z",
    "recovered": 1,
    "infected": 1,
    "id": "SYFarIS62W0EW9bOaJmN",
    "pop": 75500,
    "country": "CO",
    "longitude": -68.436,
    "name": "Vichada",
    "latitude": 6.181,
    "dead": 0,
    "sick": 0,
    "invisible": false
  },
  {
    "lastUpdated": "2020-07-09T15:01:02.140Z",
    "recovered": 1060,
    "infected": 1185,
    "state": "78",
    "id": "SZdF624x0v1LlyzZjKFu",
    "pop": 1957000,
    "country": "IT",
    "longitude": 16.5,
    "name": "Calabria",
    "latitude": 39,
    "dead": 97,
    "sick": 28,
    "invisible": false
  },
  {
    "country": "US",
    "longitude": -99.9018,
    "name": "Nebraska",
    "latitude": 41.4925,
    "dead": 282,
    "lastUpdated": "2020-07-09T15:17:07.426Z",
    "recovered": 0,
    "infected": 20425,
    "state": "NE",
    "id": "SakhKQzKu1LRI8laqdQq",
    "pop": 1929000,
    "sick": 20143,
    "invisible": false
  },
  {
    "longitude": 55.5364,
    "name": "La Réunion",
    "alwaysShow": true,
    "latitude": -21.1151,
    "dead": 3,
    "lastUpdated": "2020-07-09T15:16:03.461Z",
    "recovered": 472,
    "infected": 566,
    "id": "SgHzWAAYK1j2sipovxM6",
    "pop": 859959,
    "country": "FR",
    "sick": 91,
    "invisible": false
  },
  {
    "recovered": 131,
    "infected": 141,
    "id": "SioMALgUbo7peXmbco2f",
    "pop": 16010000,
    "country": "KH",
    "longitude": 104.990967,
    "name": "Cambodia",
    "latitude": 12.565679,
    "dead": 0,
    "lastUpdated": "2020-07-09T15:16:03.465Z",
    "sick": 10,
    "invisible": false
  },
  {
    "pop": 164229,
    "country": "US",
    "lastUpdated": "2020-07-09T15:17:07.428Z",
    "state": "GU",
    "id": "SsWhuEElU7dCTTuH5fdQ",
    "longitude": 144.7937,
    "name": "Guam",
    "alwaysShow": true,
    "dead": 5,
    "latitude": 13.4443,
    "infected": 309,
    "recovered": 0,
    "sick": 304,
    "invisible": false
  },
  {
    "id": "SuCr5emUaJ9RHTll1P1p",
    "country": "PL",
    "longitude": 19.1344,
    "invisible": true,
    "name": "Unknown Poland region",
    "latitude": 51.9189,
    "dead": 0,
    "lastUpdated": "2020-07-09T15:16:03.450Z",
    "recovered": 25477,
    "infected": 0,
    "sick": 0
  },
  {
    "latitude": 57.067,
    "dead": 19,
    "lastUpdated": "2020-07-09T15:00:09.531Z",
    "recovered": 1300,
    "infected": 1623,
    "id": "Sx03z01BJCAbrYkWhEaD",
    "pop": 1513000,
    "country": "RU",
    "longitude": 53.0278,
    "name": "Udmurtia",
    "sick": 304,
    "invisible": false
  },
  {
    "id": "T3iRf8mTUTAzbKrORTap",
    "pop": 84070000,
    "country": "CD",
    "longitude": 21.7587,
    "name": "DR Congo",
    "latitude": -4.0383,
    "dead": 189,
    "lastUpdated": "2020-07-09T15:16:03.453Z",
    "recovered": 3513,
    "infected": 7846,
    "sick": 4144,
    "invisible": false
  },
  {
    "lastUpdated": "2020-07-09T15:16:03.447Z",
    "recovered": 161096,
    "infected": 223327,
    "id": "T7NffoeCgTUpAbOHvYwP",
    "pop": 32940000,
    "country": "SA",
    "longitude": 44.344334,
    "name": "Saudi Arabia",
    "latitude": 23.635796,
    "dead": 2100,
    "sick": 60131,
    "invisible": false
  },
  {
    "country": "ES",
    "longitude": -2.5396,
    "name": "La Rioja",
    "latitude": 42.2871,
    "dead": 366,
    "lastUpdated": "2020-07-08T23:12:33.022Z",
    "recovered": 3107,
    "infected": 5474,
    "state": "RI",
    "id": "TNDTapyb0k3l7Mds9q9R",
    "pop": 315700,
    "sick": 2001,
    "invisible": false
  },
  {
    "id": "TQCWbhIpJQBQxBjhCGVJ",
    "pop": 2207200,
    "country": "MX",
    "longitude": -89.134857,
    "name": "Yucatán",
    "latitude": 20.400417,
    "dead": 562,
    "lastUpdated": "2020-07-09T15:02:01.862Z",
    "recovered": 0,
    "infected": 5538,
    "sick": 4976,
    "invisible": false
  },
  {
    "lastUpdated": "2020-07-09T15:16:03.464Z",
    "recovered": 138,
    "infected": 141,
    "id": "TQZmzsLhJqjtCSExAkCP",
    "pop": 428697,
    "country": "BN",
    "longitude": 114.650692,
    "name": "Brunei",
    "latitude": 4.506106,
    "dead": 3,
    "sick": 0,
    "invisible": false
  },
  {
    "latitude": 45.4471,
    "dead": 1743,
    "lastUpdated": "2020-07-08T23:20:40.448Z",
    "recovered": 7774,
    "infected": 15503,
    "state": "",
    "id": "TT0MKODSjrxHvG19xZCa",
    "pop": 8027000,
    "country": "FR",
    "longitude": 4.3853,
    "name": "Auvergne-Rhône-Alpes",
    "sick": 5986,
    "invisible": false
  },
  {
    "name": "Alentejo",
    "latitude": 38.5667,
    "dead": 18,
    "lastUpdated": "2020-07-09T15:23:02.069Z",
    "recovered": 0,
    "infected": 562,
    "id": "TeoNTu4aw5riC04sTd73",
    "pop": 758700,
    "country": "PT",
    "longitude": -7.9,
    "sick": 544,
    "invisible": false
  },