[
  {
    "lastUpdated": "2020-07-03T12:30:05.276Z",
    "recovered": 21,
    "infected": 28,
    "id": "01b09TY4vmuZwzVuiRFK",
    "pop": 72600,
    "country": "CO",
    "longitude": -81.7006,
    "name": "San Andrés",
    "latitude": 12.5847,
    "dead": 0,
    "sick": 7,
    "invisible": false
  },
  {
    "lastUpdated": "2020-07-03T12:15:10.085Z",
    "recovered": 238,
    "infected": 252,
    "id": "0FOJefeLxQYXQ1CnJm9o",
    "pop": 63196,
    "country": "GG",
    "longitude": -2.5895,
    "name": "Guernsey",
    "alwaysShow": false,
    "latitude": 49.4482,
    "dead": 13,
    "sick": 1,
    "invisible": false
  },
  {
    "state": "72",
    "id": "0GJcws44NSPsDHAuxJhW",
    "pop": 5827000,
    "country": "IT",
    "longitude": 14.333333,
    "name": "Campania",
    "latitude": 41.066666,
    "dead": 432,
    "lastUpdated": "2020-07-03T12:31:01.668Z",
    "recovered": 4080,
    "infected": 4702,
    "sick": 190,
    "invisible": false
  },
  {
    "lastUpdated": "2020-07-03T12:51:10.576Z",
    "recovered": 0,
    "infected": 6215,
    "id": "0HDQbiHe462xMCUV5HiI",
    "pop": 383870,
    "country": "CL",
    "longitude": -70.14222,
    "name": "Tarapacá",
    "latitude": -20.2167,
    "dead": 95,
    "sick": 6120,
    "invisible": false
  },
  {
    "id": "0VG7S6aaK4eSo59fL9JO",
    "pop": 45990000,
    "country": "IN",
    "longitude": 85.0985,
    "name": "Odisha",
    "latitude": 20.9517,
    "dead": 37,
    "lastUpdated": "2020-07-03T12:41:01.121Z",
    "recovered": 5705,
    "infected": 8106,
    "sick": 2364,
    "invisible": false
  },
  {
    "latitude": 20.4737,
    "dead": 679,
    "lastUpdated": "2020-07-03T12:32:01.624Z",
    "recovered": 0,
    "infected": 4079,
    "id": "0XmCRqiK2ZaehoEJvfer",
    "pop": 2990300,
    "country": "MX",
    "longitude": -98.8582,
    "name": "Hidalgo",
    "sick": 3400,
    "invisible": false
  },
  {
    "lastUpdated": "2020-07-03T12:41:01.128Z",
    "recovered": 51,
    "infected": 116,
    "id": "0jStOpTUNRaQYJqgmRoK",
    "pop": 427246,
    "country": "IN",
    "longitude": 92.6586,
    "name": "Andaman and Nicobar Islands",
    "latitude": 11.7401,
    "dead": 0,
    "sick": 65,
    "invisible": false
  },
  {
    "recovered": 88583,
    "infected": 98653,
    "id": "0m4aECS0Z2DGFEr8ldgI",
    "pop": 2639000,
    "country": "QA",
    "longitude": 51.145517,
    "name": "Qatar",
    "latitude": 25.315058,
    "dead": 121,
    "lastUpdated": "2020-07-03T12:46:08.665Z",
    "sick": 9949,
    "invisible": false
  },
  {
    "recovered": 13037,
    "infected": 19819,
    "id": "0n54EMSDJcRoT1QEvw80",
    "pop": 90320000,
    "country": "IN",
    "longitude": 87.855,
    "name": "West Bengal",
    "latitude": 22.9868,
    "dead": 699,
    "lastUpdated": "2020-07-03T12:41:01.118Z",
    "sick": 6083,
    "invisible": false
  },
  {
    "id": "0s18o5DrDAHjbu5MFcrj",
    "pop": 73340000,
    "country": "IN",
    "longitude": 78.6569,
    "name": "Madhya Pradesh",
    "latitude": 22.9734,
    "dead": 589,
    "lastUpdated": "2020-07-03T12:41:01.119Z",
    "recovered": 10815,
    "infected": 14106,
    "sick": 2702,
    "invisible": false
  },
  {
    "name": "Unknown US state",
    "latitude": 37.0902,
    "dead": 0,
    "lastUpdated": "2020-07-03T12:46:08.662Z",
    "recovered": 1191838,
    "infected": 0,
    "id": "0tFoopNTs6e4tOoaltu2",
    "country": "US",
    "longitude": -95.7129,
    "invisible": true,
    "sick": 0
  },
  {
    "country": "CN",
    "longitude": 108.472214,
    "name": "Shaanxi",
    "latitude": 35.64249,
    "dead": 3,
    "lastUpdated": "2020-07-03T12:38:11.117Z",
    "recovered": 310,
    "infected": 320,
    "id": "0x2HLhr5z5xAtEdO4iZm",
    "pop": 37330000,
    "sick": 7,
    "invisible": false
  },
  {
    "longitude": 21.668393,
    "name": "North Macedonia",
    "latitude": 41.643351,
    "dead": 321,
    "lastUpdated": "2020-07-03T12:46:08.670Z",
    "recovered": 2748,
    "infected": 6625,
    "id": "19MvIhipqTyYv1H37Upw",
    "pop": 2077000,
    "country": "MK",
    "sick": 3556,
    "invisible": false
  },
  {
    "lastUpdated": "2020-07-03T12:40:01.613Z",
    "recovered": 0,
    "infected": 261,
    "state": "NL",
    "id": "1DOMOmCWDtva46OVSZLv",
    "pop": 521542,
    "country": "CA",
    "longitude": -57.6604,
    "name": "Newfoundland and Labrador",
    "latitude": 53.1355,
    "dead": 3,
    "sick": 258,
    "invisible": false
  },
  {
    "longitude": 96.779286,
    "name": "Qinghai",
    "latitude": 35.801933,
    "dead": 0,
    "lastUpdated": "2020-07-03T12:38:11.122Z",
    "recovered": 18,
    "infected": 18,
    "id": "1Fap7rZu9SIRqf5TG9Dg",
    "pop": 5627000,
    "country": "CN",
    "sick": 0,
    "invisible": false
  },
  {
    "name": "Unknown Mexico state",
    "latitude": 23.6345,
    "dead": 0,
    "lastUpdated": "2020-07-03T12:46:08.664Z",
    "recovered": 142593,
    "infected": 0,
    "id": "1YXQMlVL3fUeDZmcVfJw",
    "pop": 126200000,
    "country": "MX",
    "longitude": -102.5528,
    "invisible": true,
    "sick": 0
  },
  {
    "latitude": 55.0555,
    "dead": 30,
    "lastUpdated": "2020-07-03T12:30:23.222Z",
    "recovered": 2079,
    "infected": 3863,
    "id": "1at5nIap9H51v32otlQl",
    "pop": 1960000,
    "country": "RU",
    "longitude": 73.3167,
    "name": "Omsk Oblast",
    "sick": 1754,
    "invisible": false
  },
  {
    "recovered": 25983,
    "infected": 31378,
    "state": "21",
    "id": "1eTSQyfp8RoDPeFrIwun",
    "pop": 4376000,
    "country": "IT",
    "longitude": 8.206944,
    "name": "Piemonte",
    "latitude": 44.9,
    "dead": 4096,
    "lastUpdated": "2020-07-03T12:31:01.669Z",
    "sick": 1299,
    "invisible": false
  },
  {
    "lastUpdated": "2020-07-03T12:33:01.918Z",
    "recovered": 0,
    "infected": 151,
    "id": "1j1OurxLTpZYuWIWwQ9F",
    "pop": 1003000,
    "country": "PL",
    "longitude": 15.461,
    "name": "Lubuskie",
    "latitude": 51.993,
    "dead": 0,
    "sick": 151,
    "invisible": false
  },
  {
    "lastUpdated": "2020-07-03T12:46:08.669Z",
    "recovered": 9846,
    "infected": 17150,
    "id": "1qTPB8X3tyLyIdsb5TN3",
    "pop": 3550000,
    "country": "MD",
    "longitude": 28.3699,
    "name": "Moldova",
    "latitude": 47.4116,
    "dead": 560,
    "sick": 6744,
    "invisible": false
  },
  {
    "latitude": 37.0902,
    "dead": 92,
    "lastUpdated": "2020-07-03T12:47:01.942Z",
    "recovered": 0,
    "infected": 7618,
    "id": "22PJOAThcDFKgSbyQIkD",
    "country": "US",
    "longitude": -95.7129,
    "invisible": true,
    "name": "Federal Bureau of Prisons",
    "sick": 7526
  },
  {
    "name": "Tibet",
    "latitude": 30.15336,
    "dead": 0,
    "lastUpdated": "2020-07-03T12:38:11.122Z",
    "recovered": 1,
    "infected": 1,
    "id": "25qIBtsW2nfQj3pwBKg9",
    "pop": 3180000,
    "country": "CN",
    "longitude": 88.787865,
    "sick": 0,
    "invisible": false
  },
  {
    "id": "2KHYUb5t3lwzVVmDjwNX",
    "pop": 264000000,
    "country": "ID",
    "longitude": 115.66779,
    "name": "Indonesia",
    "latitude": -1.572184,
    "dead": 3036,
    "lastUpdated": "2020-07-03T12:46:08.666Z",
    "recovered": 27568,
    "infected": 60695,
    "sick": 30091,
    "invisible": false
  },
  {
    "name": "Oregon",
    "latitude": 43.807191,
    "dead": 209,
    "lastUpdated": "2020-07-03T12:47:01.936Z",
    "recovered": 0,
    "infected": 9294,
    "state": "OR",
    "id": "2OrsssmGUs4XCzaZzvTv",
    "pop": 4191000,
    "country": "US",
    "longitude": -120.585594,
    "sick": 9085,
    "invisible": false
  },
  {
    "recovered": 0,
    "infected": 9285,
    "id": "2c5HBZ1ffkCVXnMYUWnY",
    "pop": 425000,
    "country": "CL",
    "longitude": -70.400002,
    "name": "Antofagasta",
    "latitude": -23.65,
    "dead": 163,
    "lastUpdated": "2020-07-03T12:51:10.577Z",
    "sick": 9122,
    "invisible": false
  },
  {
    "id": "2dzhyWsBSPpENWlNew0b",
    "pop": 9029000,
    "country": "BR",
    "longitude": -51.070534,
    "name": "Amapá",
    "latitude": 0.035574,
    "dead": 427,
    "lastUpdated": "2020-07-03T12:15:08.144Z",
    "recovered": 0,
    "infected": 29153,
    "state": "AP",
    "sick": 28726,
    "invisible": false
  },
  {
    "longitude": 126.548103,
    "name": "Jilin",
    "latitude": 43.851921,
    "dead": 2,
    "lastUpdated": "2020-07-03T12:38:11.121Z",
    "recovered": 153,
    "infected": 155,
    "id": "2jxHvSsxdnom0nPNvOT8",
    "pop": 27460000,
    "country": "CN",
    "sick": 0,
    "invisible": false
  },
  {
    "recovered": 176,
    "infected": 178,
    "id": "2p11BjSAs3wVyymgqBOe",
    "pop": 34571,
    "country": "GI",
    "longitude": -5.3536,
    "name": "Gibraltar",
    "latitude": 36.1408,
    "dead": 0,
    "lastUpdated": "2020-07-03T12:46:08.684Z",
    "sick": 2,
    "invisible": false
  },
  {
    "id": "2sLNkkHpyaHx7dD3aMDO",
    "pop": 2567000,
    "country": "FR",
    "longitude": 1.6751,
    "name": "Centre-Val de Loire",
    "latitude": 47.7516,
    "dead": 547,
    "lastUpdated": "2020-07-02T23:45:03.469Z",
    "recovered": 1955,
    "infected": 4481,
    "sick": 1979,
    "invisible": false
  },
  {
    "recovered": 1353,
    "infected": 1444,
    "state": "55",
    "id": "319tiZOMczx1y0DfvOib",
    "pop": 884640,
    "country": "IT",
    "longitude": 12.643751,
    "name": "Umbria",
    "latitude": 42.565044,
    "dead": 80,
    "lastUpdated": "2020-07-03T12:31:01.670Z",
    "sick": 11,
    "invisible": false
  },
  {
    "longitude": -76.6131592,
    "name": "Cauca",
    "latitude": 2.43823,
    "dead": 20,
    "lastUpdated": "2020-07-03T12:30:05.275Z",
    "recovered": 161,
    "infected": 467,
    "id": "38T96Q3XNjt5FSJygPed",
    "pop": 1355000,
    "country": "CO",
    "sick": 286,
    "invisible": false
  },
  {
    "country": "ZM",
    "longitude": 27.849332,
    "name": "Zambia",
    "latitude": -13.133896,
    "dead": 30,
    "lastUpdated": "2020-07-03T12:46:08.674Z",
    "recovered": 1348,
    "infected": 1632,
    "id": "3IlPjAbP5qVMn1nlgLTJ",
    "pop": 17090000,
    "sick": 254,
    "invisible": false
  },
  {
    "name": "Montenegro",
    "latitude": 42.7044,
    "dead": 12,
    "lastUpdated": "2020-07-03T12:46:08.682Z",
    "recovered": 315,
    "infected": 616,
    "id": "3LstMSN5XMYBkxbe5HN7",
    "pop": 631219,
    "country": "ME",
    "longitude": 19.3958,
    "sick": 289,
    "invisible": false
  },
  {
    "longitude": 149.0124,
    "name": "Australian Capital Territory",
    "latitude": -35.4735,
    "dead": 3,
    "lastUpdated": "2020-07-03T12:43:21.864Z",
    "recovered": 105,
    "infected": 108,
    "state": "ACT",
    "id": "3OZoQsKrzxZ18EKyfGE6",
    "pop": 418440,
    "country": "AU",
    "sick": 0,
    "invisible": false
  },
  {
    "lastUpdated": "2020-07-03T12:30:23.216Z",
    "recovered": 3556,
    "infected": 4909,
    "id": "3PfzjWjvOkfgxc672BHQ",
    "pop": 608000,
    "country": "RU",
    "longitude": 38.8389,
    "name": "Yaroslavl Oblast",
    "latitude": 57.8992,
    "dead": 19,
    "sick": 1334,
    "invisible": false
  },
  {
    "recovered": 1381,
    "infected": 4827,
    "id": "3PpqgIUJAtzxo1j7z56i",
    "pop": 321000,
    "country": "RU",
    "longitude": 95.626,
    "name": "Tuva",
    "latitude": 51.8873,
    "dead": 3,
    "lastUpdated": "2020-07-03T12:30:23.216Z",
    "sick": 3443,
    "invisible": false
  },
  {
    "lastUpdated": "2020-07-03T12:41:01.119Z",
    "recovered": 6107,
    "infected": 9435,
    "id": "3cCbnJCsK7mKlTO08K1o",
    "pop": 30940000,
    "country": "IN",
    "longitude": 92.9376,
    "name": "Assam",
    "latitude": 26.2006,
    "dead": 14,
    "sick": 3314,
    "invisible": false
  },
  {
    "name": "Ohio",
    "latitude": 40.4173,
    "dead": 2910,
    "lastUpdated": "2020-07-03T12:47:01.934Z",
    "recovered": 0,
    "infected": 54166,
    "state": "OH",
    "id": "3fC3bAyIRUquOQOEnQNe",
    "pop": 11690000,
    "country": "US",
    "longitude": -82.9071,
    "sick": 51256,
    "invisible": false
  },
  {
    "lastUpdated": "2020-07-03T12:32:01.622Z",
    "recovered": 0,
    "infected": 8613,
    "id": "3kFCzJguabtBvXaHxgiu",
    "pop": 3066400,
    "country": "MX",
    "longitude": -107.5,
    "name": "Sinaloa",
    "latitude": 25,
    "dead": 1356,
    "sick": 7257,
    "invisible": false
  },
  {
    "latitude": 3.420556,
    "dead": 335,
    "lastUpdated": "2020-07-03T12:30:05.273Z",
    "recovered": 4070,
    "infected": 9383,
    "id": "3mC2LveOpXV8P1PmQGUj",
    "pop": 4708300,
    "country": "CO",
    "longitude": -76.522224,
    "name": "Valle del Cauca",
    "sick": 4978,
    "invisible": false
  },
  {
    "lastUpdated": "2020-07-03T12:46:08.671Z",
    "recovered": 1727,
    "infected": 4606,
    "id": "4NnFMekRK2m14IlnZZoj",
    "pop": 4420000,
    "country": "MR",
    "longitude": -10.9408,
    "name": "Mauritania",
    "latitude": 21.0079,
    "dead": 129,
    "sick": 2750,
    "invisible": false
  },
  {
    "recovered": 0,
    "infected": 2940,
    "state": "BC",
    "id": "4hfZRUoUgI4a3vrG0GBk",
    "pop": 5071000,
    "country": "CA",
    "longitude": -127.6476,
    "name": "British Columbia",
    "latitude": 53.7267,
    "dead": 177,
    "lastUpdated": "2020-07-03T12:40:01.612Z",
    "sick": 2763,
    "invisible": false
  },
  {
    "lastUpdated": "2020-07-03T12:15:08.142Z",
    "recovered": 0,
    "infected": 116823,
    "state": "RJ",
    "id": "4kq0z3kh5zt3YAUWxvtE",
    "pop": 17159960,
    "country": "BR",
    "longitude": -43.196388,
    "name": "Rio de Janeiro",
    "latitude": -22.908333,
    "dead": 10332,
    "sick": 106491,
    "invisible": false
  },
  {
    "recovered": 0,
    "infected": 79349,
    "state": "BA",
    "id": "4yDbkEyqsNzZJjfrciYV",
    "pop": 14812617,
    "country": "BR",
    "longitude": -41.280857,
    "name": "Bahia",
    "latitude": -11.409874,
    "dead": 1947,
    "lastUpdated": "2020-07-03T12:15:08.143Z",
    "sick": 77402,
    "invisible": false
  },
  {
    "name": "Azerbaijan",
    "latitude": 40.3426,
    "dead": 228,
    "lastUpdated": "2020-07-03T12:46:08.668Z",
    "recovered": 10425,
    "infected": 18684,
    "id": "4zqzRm2xHn0CDVOUQJ8p",
    "pop": 9898000,
    "country": "AZ",
    "longitude": 47.93802,
    "sick": 8031,
    "invisible": false
  },
  {
    "latitude": 22.233105,
    "dead": 473,
    "lastUpdated": "2020-07-03T12:32:01.624Z",
    "recovered": 0,
    "infected": 7321,
    "id": "54cfsdsRF76XVHWtZs19",
    "pop": 3672300,
    "country": "MX",
    "longitude": -97.861099,
    "name": "Tamaulipas",
    "sick": 6848,
    "invisible": false
  },
  {
    "lastUpdated": "2020-07-03T12:37:12.144Z",
    "recovered": 9370,
    "infected": 34602,
    "state": "VLG",
    "id": "57ydD48mLRD2YoyteJZj",
    "pop": 6596000,
    "country": "BE",
    "longitude": 3.7265,
    "name": "Flanders",
    "latitude": 51.0109,
    "dead": 4896,
    "sick": 20336,
    "invisible": false
  },
  {
    "latitude": 25.025885,
    "dead": 11,
    "lastUpdated": "2020-07-03T12:46:08.684Z",
    "recovered": 89,
    "infected": 104,
    "id": "5MHegCUO9L3LiAU7DDey",
    "pop": 395361,
    "country": "BS",
    "longitude": -78.035889,
    "name": "Bahamas",
    "sick": 4,
    "invisible": false
  },
  {
    "latitude": -31.253218,
    "dead": 49,
    "lastUpdated": "2020-07-03T12:43:21.865Z",
    "recovered": 2978,
    "infected": 3184,
    "state": "NSW",
    "id": "5N16a2OXXRpsEFanw0TC",
    "pop": 7544000,
    "country": "AU",
    "longitude": 146.921097,
    "name": "New South Wales",
    "sick": 157,
    "invisible": false
  },
  {
    "recovered": 333,
    "infected": 2021,
    "id": "5N4PRxsCDzzwk7R200V1",
    "pop": 12580000,
    "country": "SS",
    "longitude": 31.3069782,
    "name": "South Sudan",
    "latitude": 6.8769908,
    "dead": 38,
    "lastUpdated": "2020-07-03T12:46:08.674Z",
    "sick": 1650,
    "invisible": false
  },
  {
    "latitude": 39.484,
    "dead": 1432,
    "lastUpdated": "2020-07-02T23:29:22.422Z",
    "recovered": 9970,
    "infected": 15426,
    "state": "VC",
    "id": "5Va9A7CXR8AXdUz4HTJj",
    "pop": 4975000,
    "country": "ES",
    "longitude": -0.7533,
    "name": "C. Valenciana",
    "sick": 4024,
    "invisible": false
  },
  {
    "id": "5fg04eyDwFw3kEXnrxez",
    "pop": 280460,
    "country": "NC",
    "longitude": 165.618042,
    "name": "New Caledonia",
    "latitude": -20.9043045,
    "dead": 0,
    "lastUpdated": "2020-07-03T12:46:08.687Z",
    "recovered": 21,
    "infected": 21,
    "sick": 0,
    "invisible": false
  },
  {
    "id": "5gXZIjRgAvd6xWN1LOv8",
    "pop": 29300000,
    "country": "NP",
    "longitude": 84.124008,
    "name": "Nepal",
    "latitude": 28.394857,
    "dead": 32,
    "lastUpdated": "2020-07-03T12:46:08.669Z",
    "recovered": 6143,
    "infected": 15259,
    "sick": 9084,
    "invisible": false
  },
  {
    "recovered": 11073,
    "infected": 40336,
    "id": "5pwmh7aSdGRKqRbnuyc0",
    "pop": 104900000,
    "country": "PH",
    "longitude": 121.774017,
    "name": "Philippines",
    "latitude": 12.879721,
    "dead": 1280,
    "lastUpdated": "2020-07-03T12:46:08.667Z",
    "sick": 27983,
    "invisible": false
  },
  {
    "recovered": 173,
    "infected": 617,
    "id": "5qtR9nx4BLwu1ODTniaY",
    "pop": 14802190,
    "country": "ZW",
    "longitude": 31.053028,
    "name": "Zimbabwe",
    "latitude": -17.824858,
    "dead": 7,
    "lastUpdated": "2020-07-03T12:46:08.681Z",
    "sick": 437,
    "invisible": false
  },
  {
    "dead": 369,
    "latitude": 36.0672,
    "infected": 7613,
    "recovered": 0,
    "pop": 356890,
    "country": "US",
    "lastUpdated": "2020-07-03T12:47:01.942Z",
    "state": "NA",
    "id": "5vkKgxTaKq1IH0Go357L",
    "longitude": -109.188,
    "invisible": false,
    "name": "Navajo Nation",
    "sick": 7244
  },
  {
    "longitude": -99.177254,
    "name": "Ciudad de México",
    "latitude": 19.432241,
    "dead": 6750,
    "lastUpdated": "2020-07-03T12:32:01.623Z",
    "recovered": 0,
    "infected": 49573,
    "id": "61E7TGjUwAo9xu6Y6gAH",
    "pop": 8781300,
    "country": "MX",
    "sick": 42823,
    "invisible": false
  },
  {
    "recovered": 3801,
    "infected": 6170,
    "id": "63KYOuWe41mvqWQrJbr2",
    "pop": 1012000,
    "country": "RU",
    "longitude": 35.1889,
    "name": "Kaluga Oblast",
    "latitude": 54.3873,
    "dead": 45,
    "lastUpdated": "2020-07-03T12:30:23.215Z",
    "sick": 2324,
    "invisible": false
  },
  {
    "id": "694ON7d0mRJDeM1gHBTR",
    "pop": 2794000,
    "country": "LT",
    "longitude": 23.804991,
    "name": "Lithuania",
    "latitude": 55.621011,
    "dead": 79,
    "lastUpdated": "2020-07-03T12:46:08.674Z",
    "recovered": 1539,
    "infected": 1828,
    "sick": 210,
    "invisible": false
  },
  {
    "id": "6IQAsvrmBv0HPdeTnh4x",
    "pop": 9175000,
    "country": "GB",
    "longitude": -0.5596,
    "name": "South East",
    "latitude": 51.1781,
    "dead": 0,
    "lastUpdated": "2020-07-03T12:43:09.579Z",
    "recovered": 0,
    "infected": 33650,
    "state": "EN",
    "sick": 33650,
    "invisible": false
  },
  {
    "name": "Hong Kong",
    "latitude": 22.396427,
    "dead": 7,
    "lastUpdated": "2020-07-03T12:46:08.675Z",
    "recovered": 1120,
    "infected": 1243,
    "id": "6IcHIIH0zXpY0POmBZTv",
    "pop": 7392000,
    "country": "HK",
    "longitude": 114.109497,
    "sick": 116,
    "invisible": false
  },
  {
    "state": "AC",
    "id": "6LQesrx5bHJsVUi1TXBp",
    "pop": 869265,
    "country": "BR",
    "longitude": -72.4,
    "name": "Acre",
    "latitude": -8.65,
    "dead": 378,
    "lastUpdated": "2020-07-03T12:15:08.145Z",
    "recovered": 0,
    "infected": 14048,
    "sick": 13670,
    "invisible": false
  },
  {
    "lastUpdated": "2020-07-03T12:46:08.675Z",
    "recovered": 333,
    "infected": 1199,
    "id": "6SlpghTyB6lpMFvx3g9U",
    "pop": 11180000,
    "country": "BJ",
    "longitude": 2.3158,
    "name": "Benin",
    "latitude": 9.3077,
    "dead": 21,
    "sick": 845,
    "invisible": false
  },
  {
    "longitude": 9.5,
    "name": "Lombardia",
    "latitude": 45.6667,
    "dead": 16671,
    "lastUpdated": "2020-07-03T12:31:01.669Z",
    "recovered": 67610,
    "infected": 94108,
    "state": "25",
    "id": "6ZHcvMIzVWIaRnc4R3Qp",
    "pop": 10040000,
    "country": "IT",
    "sick": 9827,
    "invisible": false
  },
  {
    "latitude": 46.0569,
    "dead": 111,
    "lastUpdated": "2020-07-03T12:46:08.674Z",
    "recovered": 1384,
    "infected": 1650,
    "id": "6ahNiyKDSDAftCctgLH3",
    "pop": 2067000,
    "country": "SI",
    "longitude": 14.5058,
    "name": "Slovenia",
    "sick": 155,
    "invisible": false
  },
  {
    "lastUpdated": "2020-07-03T12:51:10.577Z",
    "recovered": 0,
    "infected": 1135,
    "id": "6nyns7UGGgkU7pxrHf8i",
    "pop": 300000,
    "country": "CL",
    "longitude": -70.331398,
    "name": "Atacama",
    "latitude": -27.3667908,
    "dead": 2,
    "sick": 1133,
    "invisible": false
  },
  {
    "longitude": 11.6094,
    "name": "Gabon",
    "latitude": -0.8037,
    "dead": 42,
    "lastUpdated": "2020-07-03T12:46:08.671Z",
    "recovered": 2508,
    "infected": 5513,
    "id": "6pBi38TUgYfFm0bry2uh",
    "pop": 2025000,
    "country": "GA",
    "sick": 2963,
    "invisible": false
  },
  {
    "id": "6vjIVg1gSANFZghV7xtS",
    "pop": 2831900,
    "country": "MX",
    "longitude": -100.9792,
    "name": "San Luis Potosí",
    "latitude": 22.1498,
    "dead": 206,
    "lastUpdated": "2020-07-03T12:32:01.624Z",
    "recovered": 0,
    "infected": 3324,
    "sick": 3118,
    "invisible": false
  },
  {
    "lastUpdated": "2020-07-03T12:46:08.688Z",
    "recovered": 6,
    "infected": 6,
    "id": "78Ox26bNHDA2Pk2b3Uwn",
    "pop": 9131,
    "country": "FR",
    "longitude": -62.818544,
    "name": "Saint-Barthélémy",
    "alwaysShow": true,
    "latitude": 17.901672,
    "dead": 0,
    "sick": 0,
    "invisible": false
  },
  {
    "lastUpdated": "2020-07-03T12:33:01.918Z",
    "recovered": 0,
    "infected": 681,
    "id": "7JDx6UJiwGSJyL1fChaJ",
    "pop": 2305000,
    "country": "PL",
    "longitude": 18.633,
    "name": "Pomorskie",
    "latitude": 54.367,
    "dead": 38,
    "sick": 643,
    "invisible": false
  },
  {
    "latitude": 35.2923,
    "dead": 2,
    "lastUpdated": "2020-07-02T23:31:59.763Z",
    "recovered": 125,
    "infected": 139,
    "state": "ML",
    "id": "7UASdZTZ1nPzzBwSTEA9",
    "pop": 84690,
    "country": "ES",
    "longitude": -2.9381,
    "name": "Melilla",
    "sick": 12,
    "invisible": false
  },
  {
    "longitude": -61.7964,
    "name": "Antigua and Barbuda",
    "latitude": 17.0608,
    "dead": 3,
    "lastUpdated": "2020-07-03T12:46:08.685Z",
    "recovered": 23,
    "infected": 69,
    "id": "7hVFcEV7nV0MrQr3LHrl",
    "pop": 102012,
    "country": "AG",
    "sick": 43,
    "invisible": false
  },
  {
    "lastUpdated": "2020-07-03T02:00:03.116Z",
    "recovered": 45289,
    "infected": 48909,
    "state": "BY",
    "id": "7kCrrlOBE3jN6FtOVNUB",
    "pop": 13000000,
    "country": "DE",
    "longitude": 11.4979,
    "name": "Bayern",
    "latitude": 48.7904,
    "dead": 2639,
    "sick": 981,
    "invisible": false
  },
  {
    "name": "Hungary",
    "latitude": 47.4979,
    "dead": 588,
    "lastUpdated": "2020-07-03T12:46:08.672Z",
    "recovered": 2752,
    "infected": 4172,
    "id": "7rYC2iFB50c55Ihgbs4Q",
    "pop": 9773000,
    "country": "HU",
    "longitude": 19.0402,
    "sick": 832,
    "invisible": false
  },
  {
    "id": "7tqLvLyXcBDK808nJv0m",
    "pop": 1206000,
    "country": "CO",
    "longitude": -74.7813,
    "name": "Barranquilla D.E.",
    "latitude": 10.9685,
    "dead": 774,
    "lastUpdated": "2020-07-03T12:30:05.275Z",
    "recovered": 4618,
    "infected": 13745,
    "sick": 8353,
    "invisible": false
  },
  {
    "lastUpdated": "2020-07-03T12:46:08.669Z",
    "recovered": 10100,
    "infected": 12592,
    "id": "8C0d7WVCjyUGtnc2gUAR",
    "pop": 24050000,
    "country": "CM",
    "longitude": 12.3547,
    "name": "Cameroon",
    "latitude": 7.3697,
    "dead": 313,
    "sick": 2179,
    "invisible": false
  },
  {
    "id": "8DOZWbN6bDdgaLXVlUEu",
    "pop": 1209000,
    "country": "BE",
    "longitude": 4.3517,
    "name": "Brussels",
    "latitude": 50.8503,
    "dead": 1484,
    "lastUpdated": "2020-07-03T12:37:12.151Z",
    "recovered": 2813,
    "infected": 6364,
    "state": "BRU",
    "sick": 2067,
    "invisible": false
  },
  {
    "name": "Bolivia",
    "latitude": -16.2902,
    "dead": 1271,
    "lastUpdated": "2020-07-03T12:46:08.667Z",
    "recovered": 10358,
    "infected": 35528,
    "id": "8RihJrXw4NQXPxaRxr1u",
    "pop": 11050000,
    "country": "BO",
    "longitude": -63.5887,
    "sick": 23899,
    "invisible": false
  },
  {
    "lastUpdated": "2020-07-03T12:46:08.685Z",
    "recovered": 29,
    "infected": 29,
    "id": "8ZTySQROQejkDAad0qxQ",
    "pop": 109897,
    "country": "VC",
    "longitude": -61.2872,
    "name": "St. Vincent Grenadines",
    "latitude": 12.9843,
    "dead": 0,
    "sick": 0,
    "invisible": false
  },
  {
    "lastUpdated": "2020-07-03T12:46:08.666Z",
    "recovered": 39429,
    "infected": 44479,
    "id": "8pA3fM4xC2c2wv1b4TnE",
    "pop": 5621000,
    "country": "SG",
    "longitude": 103.819839,
    "name": "Singapore",
    "latitude": 1.352083,
    "dead": 26,
    "sick": 5024,
    "invisible": false
  },
  {
    "name": "Pays de la Loire",
    "latitude": 47.2184,
    "dead": 469,
    "lastUpdated": "2020-07-02T23:47:36.118Z",
    "recovered": 2085,
    "infected": 4152,
    "id": "98hwAoohgWEOQVa3NlM5",
    "pop": 3787000,
    "country": "FR",
    "longitude": -1.5536,
    "sick": 1598,
    "invisible": false
  },
  {
    "recovered": 0,
    "infected": 2213,
    "id": "9DAvxOObTqIvMOU93nlY",
    "pop": 952300,
    "country": "MX",
    "longitude": -90.19885,
    "name": "Campeche",
    "latitude": 19.30754,
    "dead": 223,
    "lastUpdated": "2020-07-03T12:32:01.624Z",
    "sick": 1990,
    "invisible": false
  },
  {
    "longitude": 30.2176,
    "name": "Sudan",
    "latitude": 12.8628,
    "dead": 604,
    "lastUpdated": "2020-07-03T12:46:08.669Z",
    "recovered": 4624,
    "infected": 9663,
    "id": "9DPOkpIqrFy9mR4e9fuv",
    "pop": 40530000,
    "country": "SD",
    "sick": 4435,
    "invisible": false
  },
  {
    "name": "Kostroma Oblast",
    "latitude": 58.5501,
    "dead": 21,
    "lastUpdated": "2020-07-03T12:30:23.224Z",
    "recovered": 999,
    "infected": 1632,
    "id": "9JFYfvpcejMIgYlHpngA",
    "pop": 643000,
    "country": "RU",
    "longitude": 43.9541,
    "sick": 612,
    "invisible": false
  },
  {
    "lastUpdated": "2020-07-03T10:01:11.542Z",
    "recovered": 20433,
    "infected": 27746,
    "id": "9QcETqEcM2fTv9zRvx5T",
    "pop": 19530000,
    "country": "RO",
    "longitude": 24.966761,
    "name": "Romania",
    "latitude": 45.943161,
    "dead": 1687,
    "sick": 5626,
    "invisible": false
  },
  {
    "name": "Nicaragua",
    "latitude": 12.136389,
    "dead": 83,
    "lastUpdated": "2020-07-03T12:46:08.672Z",
    "recovered": 1238,
    "infected": 2519,
    "id": "9Y5wmCqNCC6ZrenM31uA",
    "pop": 6218000,
    "country": "NI",
    "longitude": -86.251389,
    "sick": 1198,
    "invisible": false
  },
  {
    "latitude": 17.5706921,
    "dead": 117,
    "lastUpdated": "2020-07-03T12:46:08.673Z",
    "recovered": 1502,
    "infected": 2260,
    "id": "9dIzxqDSVqPyINkHqwGv",
    "pop": 18540000,
    "country": "ML",
    "longitude": -3.996166,
    "name": "Mali",
    "sick": 641,
    "invisible": false
  },
  {
    "recovered": 6700,
    "infected": 7242,
    "id": "9p6OCdZbUUwBLA60Gk3W",
    "pop": 5513000,
    "country": "FI",
    "longitude": 25.748152,
    "name": "Finland",
    "latitude": 61.92411,
    "dead": 328,
    "lastUpdated": "2020-07-03T12:46:08.670Z",
    "sick": 214,
    "invisible": false
  },
  {
    "id": "A6Us0fpQVCc85SoIqzg3",
    "pop": 2876000,
    "country": "RU",
    "longitude": 95.1104,
    "name": "Krasnoyarsk Krai",
    "latitude": 64.248,
    "dead": 146,
    "lastUpdated": "2020-07-03T12:30:23.213Z",
    "recovered": 4708,
    "infected": 9316,
    "sick": 4462,
    "invisible": false
  },
  {
    "name": "New Hampshire",
    "latitude": 43.311643,
    "dead": 375,
    "lastUpdated": "2020-07-03T12:47:01.936Z",
    "recovered": 0,
    "infected": 5822,
    "state": "NH",
    "id": "A84CwQ52kA46Hr7pn6Bm",
    "pop": 1356000,
    "country": "US",
    "longitude": -71.590315,
    "sick": 5447,
    "invisible": false
  },
  {
    "longitude": -71.412257,
    "name": "Rhode Island",
    "latitude": 41.823261,
    "dead": 959,
    "lastUpdated": "2020-07-03T12:47:01.935Z",
    "recovered": 0,
    "infected": 16941,
    "state": "RI",
    "id": "AEUWUHS65qvjEslew11c",
    "pop": 1057000,
    "country": "US",
    "sick": 15982,
    "invisible": false
  },
  {
    "latitude": 44.498955,
    "dead": 4265,
    "lastUpdated": "2020-07-03T12:31:01.669Z",
    "recovered": 23267,
    "infected": 28535,
    "state": "45",
    "id": "AJ9jQ0iyKsafsmf5yHAR",
    "pop": 4453000,
    "country": "IT",
    "longitude": 11.327591,
    "name": "Emilia-Romagna",
    "sick": 1003,
    "invisible": false
  },
  {
    "longitude": 7.023,
    "name": "Saarland",
    "latitude": 49.3964,
    "dead": 177,
    "lastUpdated": "2020-07-03T02:00:03.122Z",
    "recovered": 2617,
    "infected": 2828,
    "state": "SL",
    "id": "AKjFRQGnzuuZQhv5Qwx7",
    "pop": 990509,
    "country": "DE",
    "sick": 34,
    "invisible": false
  },
  {
    "longitude": 60.8789,
    "name": "Chelyabinsk Oblast",
    "latitude": 54.4319,
    "dead": 88,
    "lastUpdated": "2020-07-03T12:30:23.214Z",
    "recovered": 3900,
    "infected": 7602,
    "id": "AOapJ3gElQApd8Gnt8EL",
    "pop": 3493000,
    "country": "RU",
    "sick": 3614,
    "invisible": false
  },
  {
    "name": "Maule",
    "latitude": -35.717,
    "dead": 53,
    "lastUpdated": "2020-07-03T12:51:10.578Z",
    "recovered": 0,
    "infected": 5820,
    "id": "APTPgjAsjFi0nsGyJV7M",
    "pop": 1125002,
    "country": "CL",
    "longitude": -71.167,
    "sick": 5767,
    "invisible": false
  },
  {
    "name": "Greenland",
    "latitude": 71.7069,
    "dead": 0,
    "lastUpdated": "2020-07-03T12:46:08.687Z",
    "recovered": 13,
    "infected": 13,
    "id": "APaZzlGCEeuoLBtzTJMe",
    "pop": 56171,
    "country": "GL",
    "longitude": -42.6043,
    "sick": 0,
    "invisible": false
  },
  {
    "lastUpdated": "2020-07-03T12:30:23.223Z",
    "recovered": 2112,
    "infected": 3034,
    "id": "ATxF6ZoDJ2ibdE6ZRYIX",
    "pop": 984000,
    "country": "RU",
    "longitude": 112.4061,
    "name": "Buryatia",
    "latitude": 54.8331,
    "dead": 21,
    "sick": 901,
    "invisible": false
  },
  {
    "latitude": 45.65107,
    "dead": 63,
    "lastUpdated": "2020-07-03T12:40:01.612Z",
    "recovered": 0,
    "infected": 1064,
    "state": "NS",
    "id": "AVCpxeh0fuH2WrHWNDYH",
    "pop": 971395,
    "country": "CA",
    "longitude": -63.582687,
    "name": "Nova Scotia",
    "sick": 1001,
    "invisible": false
  },
  {
    "lastUpdated": "2020-07-03T12:47:01.937Z",
    "recovered": 0,
    "infected": 1083,
    "state": "MT",
    "id": "AcULcZBozObOhwuRKMjJ",
    "pop": 1062000,
    "country": "US",
    "longitude": -109.128641,
    "name": "Montana",
    "latitude": 47.012918,
    "dead": 22,
    "sick": 1061,
    "invisible": false
  },
  {
    "longitude": 71.2761,
    "name": "Tajikistan",
    "latitude": 38.861,
    "dead": 52,
    "lastUpdated": "2020-07-03T12:46:08.671Z",
    "recovered": 4690,
    "infected": 6058,
    "id": "AiIGs3ybYZZhm1ytVopr",
    "pop": 9275000,
    "country": "TJ",
    "sick": 1316,
    "invisible": false
  },
  {
    "lastUpdated": "2020-07-03T12:38:11.118Z",
    "recovered": 931,
    "infected": 932,
    "id": "AmBYm5J6E9Cuez1FQjiN",
    "pop": 45200000,
    "country": "CN",
    "longitude": 116.01609,
    "name": "Jiangxi",
    "latitude": 27.285971,
    "dead": 1,
    "sick": 0,
    "invisible": false
  },
  {
    "state": "WA",
    "id": "AoLhHdTydeWTfmp9koEX",
    "pop": 3136000,
    "country": "GB",
    "longitude": -3.7837,
    "name": "Wales",
    "latitude": 52.1307,
    "dead": 1524,
    "lastUpdated": "2020-07-03T12:43:09.577Z",
    "recovered": 0,
    "infected": 15815,
    "sick": 14291,
    "invisible": false
  },
  {
    "id": "Avls64fLKoEsBFH0Ol0b",
    "pop": 537000,
    "country": "RU",
    "longitude": 90.3982,
    "name": "Khakassia",
    "latitude": 53.0452,
    "dead": 17,
    "lastUpdated": "2020-07-03T12:30:23.224Z",
    "recovered": 1373,
    "infected": 1973,
    "sick": 583,
    "invisible": false
  },
  {
    "longitude": 1.659626,
    "name": "Algeria",
    "latitude": 28.033886,
    "dead": 928,
    "lastUpdated": "2020-07-03T12:46:08.669Z",
    "recovered": 10342,
    "infected": 14657,
    "id": "AwN0CScPDApcLFgz6e3z",
    "pop": 41320000,
    "country": "DZ",
    "sick": 3387,
    "invisible": false
  },
  {
    "longitude": 15.2,
    "name": "Croatia",
    "latitude": 45.099998,
    "dead": 112,
    "lastUpdated": "2020-07-03T12:46:08.672Z",
    "recovered": 2168,
    "infected": 3008,
    "id": "B82Ef45M8cDu4q7VsSHF",
    "pop": 4076000,
    "country": "HR",
    "sick": 728,
    "invisible": false
  },
  {
    "id": "BENubqQInFUJzhpZTsLT",
    "pop": 23716000,
    "country": "NE",
    "longitude": 8.081666,
    "name": "Niger",
    "latitude": 17.6077881,
    "dead": 68,
    "lastUpdated": "2020-07-03T12:46:08.676Z",
    "recovered": 959,
    "infected": 1081,
    "sick": 54,
    "invisible": false
  },
  {
    "recovered": 0,
    "infected": 68423,
    "state": "MD",
    "id": "BF51mWl51fgEcyBpCSzb",
    "pop": 6043000,
    "country": "US",
    "longitude": -76.98432,
    "name": "Maryland",
    "latitude": 39.509109,
    "dead": 3212,
    "lastUpdated": "2020-07-03T12:47:01.934Z",
    "sick": 65211,
    "invisible": false
  },
  {
    "name": "Belarus",
    "latitude": 53.709808,
    "dead": 405,
    "lastUpdated": "2020-07-03T12:46:08.665Z",
    "recovered": 48738,
    "infected": 62698,
    "id": "BGg6yVU5VP71B8NXU0oh",
    "pop": 9508000,
    "country": "BY",
    "longitude": 27.953388,
    "sick": 13555,
    "invisible": false
  },
  {
    "id": "BGtoyzb7y54LVlJ91rbf",
    "pop": 3319000,
    "country": "FR",
    "longitude": 0.1713,
    "name": "Normandie",
    "latitude": 48.8799,
    "dead": 434,
    "lastUpdated": "2020-07-02T23:46:55.165Z",
    "recovered": 1660,
    "infected": 3561,
    "sick": 1467,
    "invisible": false
  },
  {
    "lastUpdated": "2020-07-03T12:43:09.579Z",
    "recovered": 0,
    "infected": 12713,
    "state": "EN",
    "id": "BQqMOlPFD36ZEDTGd3WC",
    "pop": 5616000,
    "country": "GB",
    "longitude": -3.9995,
    "name": "South West",
    "latitude": 50.7772,
    "dead": 0,
    "sick": 12713,
    "invisible": false
  },
  {
    "longitude": -111.093735,
    "name": "Arizona",
    "latitude": 34.048927,
    "dead": 1757,
    "lastUpdated": "2020-07-03T12:47:01.933Z",
    "recovered": 0,
    "infected": 87425,
    "state": "AZ",
    "id": "BTEESCuD2ZbS1afunR2A",
    "pop": 7172000,
    "country": "US",
    "sick": 85668,
    "invisible": false
  },
  {
    "name": "Smolensk Oblast",
    "latitude": 54.9883,
    "dead": 66,
    "lastUpdated": "2020-07-03T12:30:23.216Z",
    "recovered": 2512,
    "infected": 4702,
    "id": "BUb7oDHcBM4lQ5cufNoG",
    "pop": 949000,
    "country": "RU",
    "longitude": 32.6677,
    "sick": 2124,
    "invisible": false
  },
  {
    "country": "RU",
    "longitude": 50.2097,
    "name": "Kirov Oblast",
    "latitude": 58.4199,
    "dead": 40,
    "lastUpdated": "2020-07-03T12:30:23.222Z",
    "recovered": 2747,
    "infected": 3321,
    "id": "BWojXmuKU3szKlS7CE4k",
    "pop": 1283000,
    "sick": 534,
    "invisible": false
  },
  {
    "name": "Zachodniopomorskie",
    "latitude": 53.428543,
    "dead": 22,
    "lastUpdated": "2020-07-03T12:33:01.918Z",
    "recovered": 0,
    "infected": 613,
    "id": "BZwZOAlDJ8AIiaRVLyC9",
    "pop": 1676000,
    "country": "PL",
    "longitude": 14.552812,
    "sick": 591,
    "invisible": false
  },
  {
    "lastUpdated": "2020-07-03T12:46:08.664Z",
    "recovered": 249247,
    "infected": 0,
    "id": "BbiuZcm8oURX7cZwaa5U",
    "country": "CL",
    "longitude": -70.6693,
    "invisible": true,
    "name": "Unknown Chile region",
    "latitude": -33.4489,
    "dead": 0,
    "sick": 0
  },
  {
    "id": "BfT8o5DaEixC6JIZ28kY",
    "pop": 18620000,
    "country": "MW",
    "longitude": 34.3015,
    "name": "Malawi",
    "latitude": -13.2543,
    "dead": 16,
    "lastUpdated": "2020-07-03T12:46:08.674Z",
    "recovered": 317,
    "infected": 1402,
    "sick": 1069,
    "invisible": false
  },
  {
    "longitude": 29.9188862,
    "name": "Burundi",
    "latitude": -3.3730559,
    "dead": 1,
    "lastUpdated": "2020-07-03T12:46:08.684Z",
    "recovered": 115,
    "infected": 170,
    "id": "BnpMamidC5yYzeK8tPUL",
    "pop": 10860000,
    "country": "BI",
    "sick": 54,
    "invisible": false
  },
  {
    "country": "PL",
    "longitude": 21.002,
    "name": "Mazowieckie",
    "latitude": 52.257,
    "dead": 342,
    "lastUpdated": "2020-07-03T12:33:01.916Z",
    "recovered": 0,
    "infected": 5124,
    "id": "BrToMzyq8y2xdwXn75kM",
    "pop": 5385000,
    "sick": 4782,
    "invisible": false
  },
  {
    "lastUpdated": "2020-07-03T12:30:05.277Z",
    "recovered": 1960,
    "infected": 2325,
    "id": "C25xSDm4iYibX5RYML14",
    "pop": 74751,
    "country": "CO",
    "longitude": -71.347573,
    "name": "Amazonas (Colombia)",
    "latitude": -1.333845,
    "dead": 89,
    "sick": 276,
    "invisible": false
  },
  {
    "id": "C3BCUzV80z9GfiuByIcr",
    "pop": 19540000,
    "country": "US",
    "longitude": -73.982597,
    "name": "New York",
    "latitude": 40.719042,
    "dead": 32166,
    "lastUpdated": "2020-07-03T12:47:01.932Z",
    "recovered": 0,
    "infected": 419640,
    "state": "NY",
    "sick": 387474,
    "invisible": false
  },
  {
    "lastUpdated": "2020-07-03T12:30:05.277Z",
    "recovered": 2,
    "infected": 14,
    "id": "C5YXFiytAc1w9swtVGLz",
    "pop": 42800,
    "country": "CO",
    "longitude": -67.92389,
    "name": "Guainía",
    "latitude": 3.86528,
    "dead": 1,
    "sick": 11,
    "invisible": false
  },
  {
    "lastUpdated": "2020-07-03T12:46:08.669Z",
    "recovered": 7822,
    "infected": 12178,
    "id": "C6S76AggdWVU8G22jFHQ",
    "pop": 10650000,
    "country": "CZ",
    "longitude": 15.359413,
    "name": "Czechia",
    "latitude": 49.731626,
    "dead": 353,
    "sick": 4003,
    "invisible": false
  },
  {
    "id": "C7cj4nwRITs13KnaJrQ2",
    "pop": 1493000,
    "country": "BH",
    "longitude": 50.557701,
    "name": "Bahrain",
    "latitude": 26.0667,
    "dead": 94,
    "lastUpdated": "2020-07-03T12:46:08.668Z",
    "recovered": 22583,
    "infected": 27837,
    "sick": 5160,
    "invisible": false
  },
  {
    "latitude": 10.4113,
    "dead": 87,
    "lastUpdated": "2020-07-03T12:30:05.276Z",
    "recovered": 361,
    "infected": 896,
    "id": "CA9LaAl3bNaeAqBuozn4",
    "pop": 1285400,
    "country": "CO",
    "longitude": -74.4057,
    "name": "Magdalena",
    "sick": 448,
    "invisible": false
  },
  {
    "longitude": -101.430756,
    "name": "Coahuila",
    "latitude": 26.909979,
    "dead": 240,
    "lastUpdated": "2020-07-03T12:32:01.623Z",
    "recovered": 0,
    "infected": 5213,
    "id": "CCUFp4urvgXPo5unfMGy",
    "pop": 3073500,
    "country": "MX",
    "sick": 4973,
    "invisible": false
  },
  {
    "recovered": 15043,
    "infected": 18785,
    "id": "CKZCZTPlrcq5fbfUPA9k",
    "pop": 68890000,
    "country": "IN",
    "longitude": 74.2179,
    "name": "Rajasthan",
    "latitude": 27.0238,
    "dead": 435,
    "lastUpdated": "2020-07-03T12:41:01.118Z",
    "sick": 3307,
    "invisible": false
  },
  {
    "latitude": 50.6182,
    "dead": 1,
    "lastUpdated": "2020-07-03T12:30:23.225Z",
    "recovered": 328,
    "infected": 777,
    "id": "CX8z9U1iABNBhc1VK2Dy",
    "pop": 218000,
    "country": "RU",
    "longitude": 86.2199,
    "name": "Altai",
    "sick": 448,
    "invisible": false
  },
  {
    "lastUpdated": "2020-07-03T12:46:08.670Z",
    "recovered": 4268,
    "infected": 7267,
    "id": "Cgvmtle61ehMvCzRzYx7",
    "pop": 6378000,
    "country": "SV",
    "longitude": -88.9053,
    "name": "El Salvador",
    "latitude": 13.803,
    "dead": 202,
    "sick": 2797,
    "invisible": false
  },
  {
    "id": "D4WkbqyUXY1pazbOxfKx",
    "pop": 144000,
    "country": "RU",
    "longitude": 153.915,
    "name": "Magadan Oblast",
    "latitude": 62.6643,
    "dead": 4,
    "lastUpdated": "2020-07-03T12:30:23.225Z",
    "recovered": 460,
    "infected": 875,
    "sick": 411,
    "invisible": false
  },
  {
    "recovered": 1243,
    "infected": 2417,
    "id": "DAp3PFow4BuCMYWWTo3i",
    "pop": 1078000,
    "country": "RU",
    "longitude": 82.6765,
    "name": "Tomsk Oblast",
    "latitude": 58.897,
    "dead": 17,
    "lastUpdated": "2020-07-03T12:30:23.223Z",
    "sick": 1157,
    "invisible": false
  },
  {
    "id": "DCJCtZoBTWQ4mzdDNljD",
    "pop": 2973000,
    "country": "AM",
    "longitude": 44.818474,
    "name": "Armenia",
    "latitude": 40.259003,
    "dead": 469,
    "lastUpdated": "2020-07-03T12:46:08.668Z",
    "recovered": 15484,
    "infected": 27320,
    "sick": 11367,
    "invisible": false
  },
  {
    "recovered": 234,
    "infected": 405,
    "id": "DJJraANgQbEqz1wBBtZz",
    "pop": 1278000,
    "country": "CO",
    "longitude": -73.368,
    "name": "Boyacá",
    "latitude": 5.535,
    "dead": 12,
    "lastUpdated": "2020-07-03T12:30:05.276Z",
    "sick": 159,
    "invisible": false
  },
  {
    "latitude": 54.2369,
    "dead": 27,
    "lastUpdated": "2020-07-03T12:30:23.222Z",
    "recovered": 2370,
    "infected": 3505,
    "id": "DKwy7USk22oXUQGEvO42",
    "pop": 834000,
    "country": "RU",
    "longitude": 44.0684,
    "name": "Mordovia",
    "sick": 1108,
    "invisible": false
  },
  {
    "lastUpdated": "2020-07-03T12:43:09.579Z",
    "recovered": 0,
    "infected": 42393,
    "state": "EN",
    "id": "DPwBt2aJuwF0O71vwfM9",
    "pop": 7300000,
    "country": "GB",
    "longitude": -2.5945,
    "name": "North West",
    "latitude": 53.6221,
    "dead": 0,
    "sick": 42393,
    "invisible": false
  },
  {
    "recovered": 135,
    "infected": 146,
    "id": "DZyTD0Mu5WIcK6yTcJ91",
    "pop": 65440,
    "country": "BM",
    "longitude": -64.75737,
    "name": "Bermuda",
    "latitude": 32.3213844,
    "dead": 9,
    "lastUpdated": "2020-07-03T12:46:08.684Z",
    "sick": 2,
    "invisible": false
  },
  {
    "name": "Turks and Caicos",
    "latitude": 21.694,
    "dead": 2,
    "lastUpdated": "2020-07-03T12:46:08.685Z",
    "recovered": 11,
    "infected": 44,
    "id": "DaMrRSIGJXIG36nW0Pnc",
    "pop": 35446,
    "country": "TC",
    "longitude": -71.7979,
    "sick": 31,
    "invisible": false
  },
  {
    "longitude": -3.0977,
    "name": "Castilla La Mancha",
    "latitude": 39.2796,
    "dead": 3026,
    "lastUpdated": "2020-07-02T23:30:25.559Z",
    "recovered": 6392,
    "infected": 26821,
    "state": "CM",
    "id": "Dbng0NBTH41EEwBxhMzE",
    "pop": 2035000,
    "country": "ES",
    "sick": 17403,
    "invisible": false
  },
  {
    "longitude": 20.006,
    "name": "Malopolskie",
    "latitude": 50.023,
    "dead": 44,
    "lastUpdated": "2020-07-03T12:33:01.917Z",
    "recovered": 0,
    "infected": 1805,
    "id": "DcQ3D0WkacXEbv6iznRB",
    "pop": 3361000,
    "country": "PL",
    "sick": 1761,
    "invisible": false
  },
  {
    "recovered": 45,
    "infected": 46,
    "id": "DdBt8qsG6A3g92oOR3ow",
    "pop": 622567,
    "country": "MO",
    "longitude": 113.551262,
    "name": "Macao",
    "latitude": 22.192039,
    "dead": 0,
    "lastUpdated": "2020-07-03T12:46:08.685Z",
    "sick": 1,
    "invisible": false
  },
  {
    "longitude": 91.3662,
    "name": "Meghalaya",
    "latitude": 25.467,
    "dead": 1,
    "lastUpdated": "2020-07-03T12:41:01.128Z",
    "recovered": 43,
    "infected": 62,
    "id": "Dh0O1vmhrVfmsCsfZCUg",
    "pop": 2651000,
    "country": "IN",
    "sick": 18,
    "invisible": false
  },
  {
    "id": "DqzAhNFTJFQVm88ma21P",
    "pop": 4220000,
    "country": "RU",
    "longitude": 41.8259,
    "name": "Rostov Oblast",
    "latitude": 47.6853,
    "dead": 134,
    "lastUpdated": "2020-07-03T12:30:23.213Z",
    "recovered": 6444,
    "infected": 9888,
    "sick": 3310,
    "invisible": false
  },
  {
    "latitude": 42.962334,
    "dead": 20,
    "lastUpdated": "2020-07-03T12:47:01.937Z",
    "recovered": 0,
    "infected": 1550,
    "state": "WY",
    "id": "DrGzziUglmBognCGY7R2",
    "pop": 577737,
    "country": "US",
    "longitude": -107.534868,
    "name": "Wyoming",
    "sick": 1530,
    "invisible": false
  },
  {
    "lastUpdated": "2020-07-03T12:46:08.672Z",
    "recovered": 1374,
    "infected": 3458,
    "id": "Dtr1lap1RpJpXJdXGJiW",
    "pop": 10740000,
    "country": "GR",
    "longitude": 23.7275,
    "name": "Greece",
    "latitude": 37.9838,
    "dead": 192,
    "sick": 1892,
    "invisible": false
  },
  {
    "longitude": 56.5872,
    "name": "Perm Krai",
    "latitude": 58.8232,
    "dead": 80,
    "lastUpdated": "2020-07-03T12:30:23.222Z",
    "recovered": 2928,
    "infected": 3857,
    "id": "E8vIyXLVNtcY9dxLHICp",
    "pop": 2623000,
    "country": "RU",
    "sick": 849,
    "invisible": false
  },
  {
    "longitude": 66.9483,
    "name": "Tyumen Oblast",
    "latitude": 56.9634,
    "dead": 18,
    "lastUpdated": "2020-07-03T12:30:23.223Z",
    "recovered": 2013,
    "infected": 3316,
    "id": "EHKZ6ivhrJUs3XqNDBOw",
    "pop": 3692000,
    "country": "RU",
    "sick": 1285,
    "invisible": false
  },
  {
    "latitude": 25.03841,
    "dead": 7,
    "lastUpdated": "2020-07-03T12:46:08.682Z",
    "recovered": 438,
    "infected": 449,
    "id": "EKTfs8e7M6DXzI1HqyyX",
    "pop": 23780000,
    "country": "TW",
    "longitude": 121.563698,
    "name": "Taiwan",
    "sick": 4,
    "invisible": false
  },
  {
    "id": "EQzJvzVHKjs8kLmK7BMu",
    "pop": 4906000,
    "country": "CR",
    "longitude": -84.387618,
    "name": "Costa Rica",
    "latitude": 10.327273,
    "dead": 18,
    "lastUpdated": "2020-07-03T12:46:08.672Z",
    "recovered": 1589,
    "infected": 4023,
    "sick": 2416,
    "invisible": false
  },
  {
    "name": "Gujarat",
    "latitude": 22.2587,
    "dead": 1887,
    "lastUpdated": "2020-07-03T12:41:01.117Z",
    "recovered": 24601,
    "infected": 33999,
    "id": "ERwk9R9en4m9WbdoMbIg",
    "pop": 62700000,
    "country": "IN",
    "longitude": 71.1924,
    "sick": 7511,
    "invisible": false
  },
  {
    "id": "EVMBsgCJedjHy91mDYEC",
    "pop": 1155000,
    "country": "RU",
    "longitude": 42.5884,
    "name": "Arkhangelsk Oblast",
    "latitude": 63.2853,
    "dead": 64,
    "lastUpdated": "2020-07-03T12:30:23.215Z",
    "recovered": 3127,
    "infected": 5909,
    "sick": 2718,
    "invisible": false
  },
  {
    "country": "IN",
    "longitude": 76.7794,
    "name": "Chandigarh",
    "latitude": 30.7333,
    "dead": 6,
    "lastUpdated": "2020-07-03T12:41:01.127Z",
    "recovered": 389,
    "infected": 450,
    "id": "Esl5UlCVB9s8pmGB5Ofr",
    "pop": 1055000,
    "sick": 55,
    "invisible": false
  },
  {
    "longitude": 22.653,
    "name": "Lubelskie",
    "latitude": 51.24,
    "dead": 18,
    "lastUpdated": "2020-07-03T12:33:01.918Z",
    "recovered": 0,
    "infected": 668,
    "id": "Esy1La2CxwH5uB8bGVWZ",
    "pop": 2148000,
    "country": "PL",
    "sick": 650,
    "invisible": false
  },
  {
    "infected": 7683,
    "recovered": 0,
    "pop": 3195000,
    "country": "US",
    "lastUpdated": "2020-07-03T12:47:01.937Z",
    "state": "PR",
    "id": "F4rPrEVGAIMM5rfPEMv4",
    "longitude": -66.664513,
    "name": "Puerto Rico",
    "alwaysShow": true,
    "dead": 154,
    "latitude": 18.200178,
    "sick": 7529,
    "invisible": false
  },
  {
    "longitude": -74.058655,
    "name": "Cundinamarca",
    "latitude": 4.862437,
    "dead": 58,
    "lastUpdated": "2020-07-03T12:30:05.275Z",
    "recovered": 1498,
    "infected": 3006,
    "id": "F7MED5VwEhi3JvJu6KjB",
    "pop": 2919000,
    "country": "CO",
    "sick": 1450,
    "invisible": false
  },
  {
    "longitude": 43.3333,
    "name": "Comoros",
    "latitude": -11.6455,
    "dead": 7,
    "lastUpdated": "2020-07-03T12:46:08.683Z",
    "recovered": 200,
    "infected": 303,
    "id": "F8LnLqvuWoWh8awBqiw1",
    "pop": 832322,
    "country": "KM",
    "sick": 96,
    "invisible": false
  },
  {
    "recovered": 17331,
    "infected": 32324,
    "id": "FCDmlmnIIswd8bQiUjfN",
    "pop": 35530000,
    "country": "AF",
    "longitude": 67.709953,
    "name": "Afghanistan",
    "latitude": 33.93911,
    "dead": 819,
    "lastUpdated": "2020-07-03T12:46:08.667Z",
    "sick": 14174,
    "invisible": false
  },
  {
    "longitude": 106.912254,
    "name": "Chongqing",
    "latitude": 29.431585,
    "dead": 6,
    "lastUpdated": "2020-07-03T12:38:11.118Z",
    "recovered": 574,
    "infected": 582,
    "id": "FErOU1m4Tj7jIkRam3vF",
    "pop": 30480000,
    "country": "CN",
    "sick": 2,
    "invisible": false
  },
  {
    "lastUpdated": "2020-07-03T12:46:08.666Z",
    "recovered": 39276,
    "infected": 48672,
    "id": "FZsUkhxBEgqsPb4eO0PN",
    "pop": 4137000,
    "country": "KW",
    "longitude": 47.481766,
    "name": "Kuwait",
    "latitude": 29.311661,
    "dead": 360,
    "sick": 9036,
    "invisible": false
  },
  {
    "name": "Sergipe",
    "latitude": -10.9111,
    "dead": 725,
    "lastUpdated": "2020-07-03T12:15:08.144Z",
    "recovered": 0,
    "infected": 26612,
    "state": "SE",
    "id": "FboWeolpM62SZCLwdilT",
    "pop": 2278308,
    "country": "BR",
    "longitude": -37.0717,
    "sick": 25887,
    "invisible": false
  },
  {
    "id": "FeS45oMNC27pI17F0xEV",
    "pop": 67860000,
    "country": "IN",
    "longitude": 78.6569,
    "name": "Tamil Nadu",
    "latitude": 11.1271,
    "dead": 1321,
    "lastUpdated": "2020-07-03T12:41:01.117Z",
    "recovered": 56021,
    "infected": 98392,
    "sick": 41050,
    "invisible": false
  },
  {
    "longitude": -70.430399,
    "name": "Dominican Republic",
    "latitude": 18.947829,
    "dead": 765,
    "lastUpdated": "2020-07-03T12:46:08.667Z",
    "recovered": 18141,
    "infected": 34197,
    "id": "FuiVEJvWb0QMCpxJ3563",
    "pop": 10770000,
    "country": "DO",
    "sick": 15291,
    "invisible": false
  },
  {
    "latitude": 18.1124,
    "dead": 275,
    "lastUpdated": "2020-07-03T12:41:01.119Z",
    "recovered": 9069,
    "infected": 18570,
    "id": "FyC551oNwmENxbr9Yght",
    "pop": 35190000,
    "country": "IN",
    "longitude": 79.0193,
    "name": "Telengana",
    "sick": 9226,
    "invisible": false
  },
  {
    "latitude": 48.669,
    "dead": 28,
    "lastUpdated": "2020-07-03T12:46:08.674Z",
    "recovered": 1466,
    "infected": 1720,
    "id": "FzIDXoqWnTI3nUfhPyT2",
    "pop": 5450000,
    "country": "SK",
    "longitude": 19.699,
    "name": "Slovakia",
    "sick": 226,
    "invisible": false
  },
  {
    "recovered": 113623,
    "infected": 221896,
    "id": "GAp7Wb6IMhdgbvEtMza9",
    "pop": 197000000,
    "country": "PK",
    "longitude": 69.345116,
    "name": "Pakistan",
    "latitude": 30.37532,
    "dead": 4551,
    "lastUpdated": "2020-07-03T12:46:08.664Z",
    "sick": 103722,
    "invisible": false
  },
  {
    "latitude": 31.1471,
    "dead": 152,
    "lastUpdated": "2020-07-03T12:41:01.121Z",
    "recovered": 4144,
    "infected": 5784,
    "id": "GGru8cG08mANO8XDDUtZ",
    "pop": 27980000,
    "country": "IN",
    "longitude": 75.3412,
    "name": "Punjab",
    "sick": 1488,
    "invisible": false
  },
  {
    "latitude": 23.424076,
    "dead": 317,
    "lastUpdated": "2020-07-03T12:46:08.666Z",
    "recovered": 38664,
    "infected": 49469,
    "id": "GHzBIsHy2GiBc5JV2HMs",
    "pop": 9400000,
    "country": "AE",
    "longitude": 53.847816,
    "name": "United Arab Emirates",
    "sick": 10488,
    "invisible": false
  },
  {
    "latitude": 37.0902,
    "dead": 3,
    "lastUpdated": "2020-07-03T12:47:01.942Z",
    "recovered": 0,
    "infected": 103,
    "id": "GLViSIjDjwvptOphedAu",
    "country": "US",
    "longitude": -95.7129,
    "invisible": true,
    "name": "Grand Princess",
    "sick": 100
  },
  {
    "lastUpdated": "2020-07-03T12:43:09.579Z",
    "recovered": 0,
    "infected": 33729,
    "state": "EN",
    "id": "GPtoS0Yy2EnNafpmmTqY",
    "pop": 10100000,
    "country": "GB",
    "longitude": -0.1278,
    "name": "London",
    "latitude": 51.5074,
    "dead": 0,
    "sick": 33729,
    "invisible": false
  },
  {
    "longitude": -119.339046,
    "name": "California",
    "latitude": 36.621981,
    "dead": 6262,
    "lastUpdated": "2020-07-03T12:47:01.933Z",
    "recovered": 0,
    "infected": 247743,
    "state": "CA",
    "id": "Gh46r6vuaY7fbGt3IboN",
    "pop": 39560000,
    "country": "US",
    "sick": 241481,
    "invisible": false
  },
  {
    "name": "Dadra and Nagar Haveli",
    "latitude": 20.4283,
    "dead": 0,
    "lastUpdated": "2020-07-03T12:41:01.127Z",
    "recovered": 125,
    "infected": 268,
    "id": "GljWeVnun6o9DeW6rlEm",
    "pop": 343709,
    "country": "IN",
    "longitude": 72.8397,
    "sick": 143,
    "invisible": false
  },
  {
    "longitude": -97.145514,
    "name": "Oklahoma",
    "latitude": 35.87189,
    "dead": 395,
    "lastUpdated": "2020-07-03T12:47:01.935Z",
    "recovered": 0,
    "infected": 14539,
    "state": "OK",
    "id": "GpF8ULuKOQiFDCUHN44h",
    "pop": 3943000,
    "country": "US",
    "sick": 14144,
    "invisible": false
  },
  {
    "id": "Gr09a1wn3BnMqjQbgEun",
    "pop": 256627,
    "country": "CO",
    "longitude": -71.557,
    "name": "Arauca",
    "latitude": 6.492,
    "dead": 0,
    "lastUpdated": "2020-07-03T12:30:05.277Z",
    "recovered": 7,
    "infected": 81,
    "sick": 74,
    "invisible": false
  },
  {
    "name": "Ivanovo Oblast",
    "latitude": 57.1057,
    "dead": 48,
    "lastUpdated": "2020-07-03T12:30:23.216Z",
    "recovered": 3073,
    "infected": 4898,
    "id": "GsecjBfopdgTOnyRgtCA",
    "pop": 1014000,
    "country": "RU",
    "longitude": 41.483,
    "sick": 1777,
    "invisible": false
  },
  {
    "latitude": 46.5,
    "dead": 292,
    "lastUpdated": "2020-07-03T12:31:01.669Z",
    "recovered": 2266,
    "infected": 2642,
    "state": "BA",
    "id": "Gzx6GX1qhBm714BkEC6l",
    "pop": 520891,
    "country": "IT",
    "longitude": 11.35,
    "name": "P.A. Bolzano",
    "sick": 84,
    "invisible": false
  },
  {
    "lastUpdated": "2020-07-03T12:38:11.120Z",
    "recovered": 237,
    "infected": 238,
    "id": "H3JeVigVbo5CSYfZG4WI",
    "pop": 24710000,
    "country": "CN",
    "longitude": 113.750972,
    "name": "Inner Mongolia",
    "latitude": 42.83263,
    "dead": 1,
    "sick": 0,
    "invisible": false
  },
  {
    "recovered": 0,
    "infected": 19733,
    "state": "NV",
    "id": "H3bDg4eV30up4WWrIDAS",
    "pop": 3034000,
    "country": "US",
    "longitude": -116.724977,
    "name": "Nevada",
    "latitude": 39.74536,
    "dead": 525,
    "lastUpdated": "2020-07-03T12:47:01.935Z",
    "sick": 19208,
    "invisible": false
  },
  {
    "country": "BR",
    "longitude": -38.526669,
    "name": "Ceará",
    "latitude": -3.731862,
    "dead": 6284,
    "lastUpdated": "2020-07-03T12:15:08.143Z",
    "recovered": 0,
    "infected": 115524,
    "state": "CE",
    "id": "HEMWNnFxeFEoeOCBOLJD",
    "pop": 9075649,
    "sick": 109240,
    "invisible": false
  },
  {
    "latitude": 15.3173,
    "dead": 272,
    "lastUpdated": "2020-07-03T12:41:01.119Z",
    "recovered": 8336,
    "infected": 18016,
    "id": "HN5mGmxlqlSeFSNeu1K5",
    "pop": 64060000,
    "country": "IN",
    "longitude": 75.7139,
    "name": "Karnataka",
    "sick": 9408,
    "invisible": false
  },
  {
    "name": "Bhutan",
    "latitude": 27.5142,
    "dead": 0,
    "lastUpdated": "2020-07-03T12:46:08.685Z",
    "recovered": 50,
    "infected": 77,
    "id": "HRDpwyxpqW9RN0xLFyNu",
    "pop": 807610,
    "country": "BT",
    "longitude": 90.4336,
    "sick": 27,
    "invisible": false
  },
  {
    "lastUpdated": "2020-07-03T12:46:08.670Z",
    "recovered": 6161,
    "infected": 9326,
    "id": "HRTA10dtrruDEwjJEGMp",
    "pop": 32390000,
    "country": "UZ",
    "longitude": 64.5853,
    "name": "Uzbekistan",
    "latitude": 41.3775,
    "dead": 28,
    "sick": 3137,
    "invisible": false
  },
  {
    "latitude": 34.138916,
    "dead": 503,
    "lastUpdated": "2020-07-03T12:47:01.936Z",
    "recovered": 0,
    "infected": 12520,
    "state": "NM",
    "id": "HSSFomRju0doHhWgW8On",
    "pop": 2095000,
    "country": "US",
    "longitude": -105.576255,
    "name": "New Mexico",
    "sick": 12017,
    "invisible": false
  },
  {
    "longitude": -72.3311,
    "name": "Los Ríos",
    "latitude": -40.231,
    "dead": 10,
    "lastUpdated": "2020-07-03T12:51:10.578Z",
    "recovered": 0,
    "infected": 708,
    "id": "HZkACHjW7NlYjg8vEMj2",
    "pop": 412812,
    "country": "CL",
    "sick": 698,
    "invisible": false
  },
  {
    "latitude": 53.6127,
    "dead": 21,
    "lastUpdated": "2020-07-03T12:30:02.557Z",
    "recovered": 769,
    "infected": 808,
    "state": "MV",
    "id": "He1gSS1v50t06i3YrqvB",
    "pop": 1635000,
    "country": "DE",
    "longitude": 12.4296,
    "name": "Mecklenburg-Vorpommern",
    "sick": 18,
    "invisible": false
  },
  {
    "lastUpdated": "2020-07-03T12:31:01.668Z",
    "recovered": 2668,
    "infected": 3292,
    "state": "65",
    "id": "I9EqrZfbPnkioNU4wZGz",
    "pop": 1315000,
    "country": "IT",
    "longitude": 13.75,
    "name": "Abruzzo",
    "latitude": 42.25,
    "dead": 464,
    "sick": 160,
    "invisible": false
  },
  {
    "latitude": 23.363855,
    "dead": 8,
    "lastUpdated": "2020-07-03T12:38:11.117Z",
    "recovered": 1629,
    "infected": 1642,
    "id": "IAX0OQLVnUwU7FX0ENF1",
    "pop": 113460000,
    "country": "CN",
    "longitude": 113.373448,
    "name": "Guangdong",
    "sick": 5,
    "invisible": false
  },
  {
    "recovered": 1254,
    "infected": 1276,
    "id": "IFuMrMvSjoiX5agYvllh",
    "pop": 94000000,
    "country": "CN",
    "longitude": 113.484016,
    "name": "Henan",
    "latitude": 33.875408,
    "dead": 22,
    "lastUpdated": "2020-07-03T12:38:11.118Z",
    "sick": 0,
    "invisible": false
  },
  {
    "lastUpdated": "2020-07-03T12:53:08.739Z",
    "recovered": 0,
    "infected": 639,
    "id": "IHqRHC8K3OZPN8gniM7V",
    "pop": 451000,
    "country": "PT",
    "longitude": -8.16667,
    "name": "Algarve",
    "latitude": 37.2,
    "dead": 15,
    "sick": 624,
    "invisible": false
  },
  {
    "latitude": 3.883,
    "dead": 90,
    "lastUpdated": "2020-07-03T12:30:05.276Z",
    "recovered": 822,
    "infected": 1521,
    "id": "IKWjRUo0SYgHQKdWjTvq",
    "pop": 333194,
    "country": "CO",
    "longitude": -77.0197,
    "name": "Buenaventura D.E.",
    "sick": 609,
    "invisible": false
  },
  {
    "recovered": 0,
    "infected": 20860,
    "state": "EN",
    "id": "INyu1R48Ppv8cfW4Nuz4",
    "pop": 4811000,
    "country": "GB",
    "longitude": -0.995,
    "name": "East Midlands",
    "latitude": 52.87,
    "dead": 0,
    "lastUpdated": "2020-07-03T12:43:09.578Z",
    "sick": 20860,
    "invisible": false
  },
  {
    "longitude": -102.317,
    "name": "Aguascalientes",
    "latitude": 22.017,
    "dead": 156,
    "lastUpdated": "2020-07-03T12:32:01.625Z",
    "recovered": 0,
    "infected": 3172,
    "id": "ISRKMzEDojyrZ9iyWwex",
    "pop": 1342600,
    "country": "MX",
    "sick": 3016,
    "invisible": false
  },
  {
    "longitude": -100.316116,
    "name": "Nuevo León",
    "latitude": 25.686613,
    "dead": 414,
    "lastUpdated": "2020-07-03T12:32:01.624Z",
    "recovered": 0,
    "infected": 12388,
    "id": "IdKbgzgKLpjBFh4UPOwu",
    "pop": 5321300,
    "country": "MX",
    "sick": 11974,
    "invisible": false
  },
  {
    "longitude": -106.069099,
    "name": "Chihuahua",
    "latitude": 28.632996,
    "dead": 658,
    "lastUpdated": "2020-07-03T12:32:01.622Z",
    "recovered": 0,
    "infected": 4626,
    "id": "IhhiYI6T0TX4CYVPcnmH",
    "pop": 3826900,
    "country": "MX",
    "sick": 3968,
    "invisible": false
  },
  {
    "id": "ImnOiVx9Cb8Nw7cbRcQ7",
    "pop": 480600,
    "country": "CL",
    "longitude": -72.57,
    "name": "Ñuble",
    "latitude": -36.7,
    "dead": 33,
    "lastUpdated": "2020-07-03T12:51:10.578Z",
    "recovered": 0,
    "infected": 2447,
    "sick": 2414,
    "invisible": false
  },
  {
    "lastUpdated": "2020-07-03T12:46:08.671Z",
    "recovered": 1141,
    "infected": 6101,
    "id": "InZ38sIqyK7FN7XAOZoX",
    "pop": 10980000,
    "country": "HT",
    "longitude": -73.0513,
    "name": "Haiti",
    "latitude": 19.0558,
    "dead": 110,
    "sick": 4850,
    "invisible": false
  },
  {
    "latitude": 32.528564,
    "dead": 2849,
    "lastUpdated": "2020-07-03T12:47:01.933Z",
    "recovered": 0,
    "infected": 87709,
    "state": "GA",
    "id": "IvQkDJkTAsoIqPRAU25n",
    "pop": 10520000,
    "country": "US",
    "longitude": -83.280125,
    "name": "Georgia (US)",
    "sick": 84860,
    "invisible": false
  },
  {
    "longitude": 172.488081,
    "name": "New Zealand",
    "latitude": -42.8285,
    "dead": 22,
    "lastUpdated": "2020-07-03T12:46:08.674Z",
    "recovered": 1490,
    "infected": 1530,
    "id": "IvVhpOoGpH6JVkGyUhXN",
    "pop": 4794000,
    "country": "NZ",
    "sick": 18,
    "invisible": false
  },
  {
    "latitude": 28.218,
    "dead": 1,
    "lastUpdated": "2020-07-03T12:41:01.127Z",
    "recovered": 71,
    "infected": 232,
    "id": "IwYKiIVY18NGwdGQFGWW",
    "pop": 1255000,
    "country": "IN",
    "longitude": 94.7278,
    "name": "Arunachal Pradesh",
    "sick": 160,
    "invisible": false
  },
  {
    "id": "J3mZXlfEnnJx4CDZLvRG",
    "pop": 28870000,
    "country": "VE",
    "longitude": -66.5897,
    "name": "Venezuela",
    "latitude": 6.4238,
    "dead": 57,
    "lastUpdated": "2020-07-03T12:46:08.670Z",
    "recovered": 2100,
    "infected": 6273,
    "sick": 4116,
    "invisible": false
  },
  {
    "latitude": 2.567,
    "dead": 0,
    "lastUpdated": "2020-07-03T12:30:05.277Z",
    "recovered": 7,
    "infected": 39,
    "id": "JEMCwkwXK39jd1lZ7VgJ",
    "pop": 107932,
    "country": "CO",
    "longitude": -72.633,
    "name": "Guaviare",
    "sick": 32,
    "invisible": false
  },
  {
    "name": "Adygea",
    "latitude": 44.8229,
    "dead": 14,
    "lastUpdated": "2020-07-03T12:30:23.224Z",
    "recovered": 1414,
    "infected": 2039,
    "id": "JOJVBvOnsLDJPVeYJaI2",
    "pop": 453000,
    "country": "RU",
    "longitude": 40.1754,
    "sick": 611,
    "invisible": false
  },
  {
    "latitude": 35.1264,
    "dead": 19,
    "lastUpdated": "2020-07-03T12:46:08.677Z",
    "recovered": 833,
    "infected": 999,
    "id": "JQByE4l2OA6sGOqIcWrM",
    "pop": 1170000,
    "country": "CY",
    "longitude": 33.4299,
    "name": "Cyprus",
    "sick": 147,
    "invisible": false
  },
  {
    "longitude": 85.3131,
    "name": "Bihar",
    "latitude": 25.0961,
    "dead": 78,
    "lastUpdated": "2020-07-03T12:41:01.119Z",
    "recovered": 7994,
    "infected": 10914,
    "id": "JR7hOGked7CZtIs2nCV5",
    "pop": 99020000,
    "country": "IN",
    "sick": 2842,
    "invisible": false
  },
  {
    "latitude": 14.628434,
    "dead": 843,
    "lastUpdated": "2020-07-03T12:46:08.668Z",
    "recovered": 3279,
    "infected": 20072,
    "id": "JUWE6bG3b5oL7fKQMSvv",
    "pop": 17250000,
    "country": "GT",
    "longitude": -90.522713,
    "name": "Guatemala",
    "sick": 15950,
    "invisible": false
  },
  {
    "latitude": 49.8153,
    "dead": 110,
    "lastUpdated": "2020-07-03T12:46:08.671Z",
    "recovered": 4012,
    "infected": 4395,
    "id": "JcFsHSn2WvZ5LJW42ovG",
    "pop": 602005,
    "country": "LU",
    "longitude": 6.1296,
    "name": "Luxembourg",
    "sick": 273,
    "invisible": false
  },
  {
    "lastUpdated": "2020-07-03T12:30:05.276Z",
    "recovered": 332,
    "infected": 1039,
    "id": "JmOyaFe25yZCIV64JbZj",
    "pop": 2049000,
    "country": "CO",
    "longitude": -74.167,
    "name": "Bolívar",
    "latitude": 8.8,
    "dead": 43,
    "sick": 664,
    "invisible": false
  },
  {
    "latitude": 31.4,
    "dead": 1954,
    "lastUpdated": "2020-07-03T12:32:01.622Z",
    "recovered": 0,
    "infected": 9423,
    "id": "Jp9ePErcc8i1aOozEAMf",
    "pop": 3648100,
    "country": "MX",
    "longitude": -115.783,
    "name": "Baja California",
    "sick": 7469,
    "invisible": false
  },
  {
    "longitude": -75.8814316,
    "name": "Córdoba",
    "latitude": 8.7479801,
    "dead": 57,
    "lastUpdated": "2020-07-03T12:30:05.276Z",
    "recovered": 246,
    "infected": 893,
    "id": "Jr8syCB0lydmPDXw8Q6N",
    "pop": 1786500,
    "country": "CO",
    "sick": 590,
    "invisible": false
  },
  {
    "latitude": 8.6195,
    "dead": 14,
    "lastUpdated": "2020-07-03T12:46:08.681Z",
    "recovered": 424,
    "infected": 667,
    "id": "JrBbirlBKGdWSdcDt7PF",
    "pop": 7798000,
    "country": "TG",
    "longitude": 0.8248,
    "name": "Togo",
    "sick": 229,
    "invisible": false
  },
  {
    "name": "Bulgaria",
    "latitude": 42.7339,
    "dead": 232,
    "lastUpdated": "2020-07-03T12:46:08.671Z",
    "recovered": 2802,
    "infected": 5315,
    "id": "JzZ8sbqzjutThVjkPKPL",
    "pop": 7050000,
    "country": "BG",
    "longitude": 25.4858,
    "sick": 2281,
    "invisible": false
  },
  {
    "latitude": 50.823,
    "dead": 40,
    "lastUpdated": "2020-07-03T12:33:01.918Z",
    "recovered": 0,
    "infected": 822,
    "id": "KGrK7gafkeWjmU6sHQd2",
    "pop": 1263000,
    "country": "PL",
    "longitude": 20.709,
    "name": "Świętokrzyskie",
    "sick": 782,
    "invisible": false
  },
  {
    "country": "RU",
    "longitude": 61.9316,
    "name": "Sverdlovsk Oblast",
    "latitude": 59.0077,
    "dead": 114,
    "lastUpdated": "2020-07-03T12:30:23.213Z",
    "recovered": 7936,
    "infected": 13499,
    "id": "KLBR5QHW6DePaGcFxlqH",
    "pop": 4325000,
    "sick": 5449,
    "invisible": false
  },
  {
    "lastUpdated": "2020-07-03T12:31:01.669Z",
    "recovered": 8145,
    "infected": 9984,
    "state": "42",
    "id": "KLXicxFogWnu0dLp4bNK",
    "pop": 1557000,
    "country": "IT",
    "longitude": 8.833,
    "name": "Liguria",
    "latitude": 44.5,
    "dead": 1558,
    "sick": 281,
    "invisible": false
  },
  {
    "id": "KUnAVGJH6fLwFetE8A2x",
    "pop": 682000,
    "country": "RU",
    "longitude": 47.9608,
    "name": "Mari El Republic",
    "latitude": 56.4385,
    "dead": 23,
    "lastUpdated": "2020-07-03T12:30:23.223Z",
    "recovered": 2842,
    "infected": 3045,
    "sick": 180,
    "invisible": false
  },
  {
    "longitude": -73.2532,
    "name": "Cesar",
    "latitude": 10.4631,
    "dead": 26,
    "lastUpdated": "2020-07-03T12:30:05.276Z",
    "recovered": 493,
    "infected": 1076,
    "id": "KpOz3WmiZkrXUMlUJNlV",
    "pop": 1201000,
    "country": "CO",
    "sick": 557,
    "invisible": false
  },
  {
    "lastUpdated": "2020-07-03T12:31:01.670Z",
    "recovered": 8825,
    "infected": 10258,
    "state": "52",
    "id": "KrLrJbpDqqiXgUPGCCW9",
    "pop": 3737000,
    "country": "IT",
    "longitude": 11,
    "name": "Toscana",
    "latitude": 43.4167,
    "dead": 1109,
    "sick": 324,
    "invisible": false
  },
  {
    "name": "Sri Lanka",
    "latitude": 7.873054,
    "dead": 11,
    "lastUpdated": "2020-07-03T12:46:08.673Z",
    "recovered": 1863,
    "infected": 2066,
    "id": "KsWzJO06cf0d6LJ4ZNh9",
    "pop": 21440000,
    "country": "LK",
    "longitude": 80.771797,
    "sick": 192,
    "invisible": false
  },
  {
    "id": "KtQIo2DoqjELtPAlyDVO",
    "pop": 49670000,
    "country": "IN",
    "longitude": 79.74,
    "name": "Andhra Pradesh",
    "latitude": 15.9129,
    "dead": 206,
    "lastUpdated": "2020-07-03T12:41:01.119Z",
    "recovered": 7632,
    "infected": 16934,
    "sick": 9096,
    "invisible": false
  },
  {
    "lastUpdated": "2020-07-03T12:46:08.685Z",
    "recovered": 37,
    "infected": 43,
    "id": "LBUtrLDKJiupXjlUNTUe",
    "pop": 32125,
    "country": "FR",
    "longitude": -63.0501,
    "name": "Saint-Martin",
    "alwaysShow": true,
    "latitude": 18.0708,
    "dead": 3,
    "sick": 3,
    "invisible": false
  },
  {
    "longitude": 36.9242,
    "name": "Oryol Oblast",
    "latitude": 52.7856,
    "dead": 69,
    "lastUpdated": "2020-07-03T12:30:23.217Z",
    "recovered": 3028,
    "infected": 4610,
    "id": "LD8TNScpLrLRvgpQAn9T",
    "pop": 747000,
    "country": "RU",
    "sick": 1513,
    "invisible": false
  },
  {
    "longitude": 9.5554,
    "name": "Liechtenstein",
    "latitude": 47.166,
    "dead": 1,
    "lastUpdated": "2020-07-03T12:46:08.685Z",
    "recovered": 81,
    "infected": 83,
    "id": "LTGEU2E9MFkrCcFhZYVk",
    "pop": 38557,
    "country": "LI",
    "sick": 1,
    "invisible": false
  },
  {
    "latitude": 9.9456,
    "dead": 33,
    "lastUpdated": "2020-07-03T12:46:08.671Z",
    "recovered": 4392,
    "infected": 5450,
    "id": "LU2QWt5ao8IJa8evNYVV",
    "pop": 12720000,
    "country": "GN",
    "longitude": -9.6966,
    "name": "Guinea",
    "sick": 1025,
    "invisible": false
  },
  {
    "latitude": 29.6667,
    "dead": 909,
    "lastUpdated": "2020-07-03T12:32:01.623Z",
    "recovered": 0,
    "infected": 8976,
    "id": "LYCBHrA9ms6GcxpLGPCT",
    "pop": 3062000,
    "country": "MX",
    "longitude": -110.5,
    "name": "Sonora",
    "sick": 8067,
    "invisible": false
  },
  {
    "longitude": -56.0277824,
    "name": "Suriname",
    "latitude": 3.9193051,
    "dead": 13,
    "lastUpdated": "2020-07-03T12:46:08.682Z",
    "recovered": 254,
    "infected": 547,
    "id": "LglKINHyQpYpFxjckbQ6",
    "pop": 563402,
    "country": "SR",
    "sick": 280,
    "invisible": false
  },
  {
    "state": "SK",
    "id": "LkIDKY0CMAqzbwBHyYCP",
    "pop": 1174000,
    "country": "CA",
    "longitude": -106.4509,
    "name": "Saskatchewan",
    "latitude": 52.9399,
    "dead": 14,
    "lastUpdated": "2020-07-03T12:40:01.613Z",
    "recovered": 0,
    "infected": 795,
    "sick": 781,
    "invisible": false
  },
  {
    "lastUpdated": "2020-07-03T12:46:08.688Z",
    "recovered": 8,
    "infected": 10,
    "id": "LooNn6RuMiDhQnwa9svw",
    "pop": 636442,
    "country": "EH",
    "longitude": -12.8858,
    "name": "Western Sahara",
    "latitude": 24.2155,
    "dead": 1,
    "sick": 1,
    "invisible": false
  },
  {
    "name": "Principado de Asturias",
    "latitude": 43.363129,
    "dead": 334,
    "lastUpdated": "2020-07-02T23:32:15.574Z",
    "recovered": 1063,
    "infected": 3420,
    "state": "AS",
    "id": "Lsga7AvYNnY0qQ5gEfV8",
    "pop": 1022000,
    "country": "ES",
    "longitude": -5.951843,
    "sick": 2023,
    "invisible": false
  },
  {
    "state": "EX",
    "id": "LuEErlF7dVKI0eJsRjFm",
    "pop": 1065000,
    "country": "ES",
    "longitude": -6.0679,
    "name": "Extremadura",
    "latitude": 39.4937,
    "dead": 519,
    "lastUpdated": "2020-07-02T23:31:27.988Z",
    "recovered": 2652,
    "infected": 4041,
    "sick": 870,
    "invisible": false
  },
  {
    "longitude": -101.2591,
    "name": "Guanajuato",
    "latitude": 21.0186,
    "dead": 593,
    "lastUpdated": "2020-07-03T12:32:01.623Z",
    "recovered": 0,
    "infected": 9760,
    "id": "M3wdiueFtwrUHiQ2rOXA",
    "pop": 5965000,
    "country": "MX",
    "sick": 9167,
    "invisible": false
  },
  {
    "name": "Kentucky",
    "latitude": 37.8393,
    "dead": 581,
    "lastUpdated": "2020-07-03T12:47:01.935Z",
    "recovered": 0,
    "infected": 16079,
    "state": "KY",
    "id": "MC8MXFw9iXYybnF8v7e6",
    "pop": 4468000,
    "country": "US",
    "longitude": -84.27,
    "sick": 15498,
    "invisible": false
  },
  {
    "recovered": 0,
    "infected": 8175,
    "id": "MEjlm8VYdGA28TTTnQmf",
    "country": "GB",
    "longitude": -3.436,
    "invisible": true,
    "name": "Unknown UK region or state",
    "latitude": 55.3781,
    "dead": 39434,
    "lastUpdated": "2020-07-03T12:43:09.580Z",
    "sick": 0
  },
  {
    "longitude": -7.7441,
    "name": "Norte",
    "latitude": 41.3006,
    "dead": 819,
    "lastUpdated": "2020-07-03T12:53:08.738Z",
    "recovered": 0,
    "infected": 17624,
    "id": "MG4e9tulLJ010SZJvbYN",
    "pop": 3689000,
    "country": "PT",
    "sick": 16805,
    "invisible": false
  },
  {
    "recovered": 0,
    "infected": 18264,
    "state": "SC",
    "id": "MObRYyIriHG337L8FyFC",
    "pop": 5450000,
    "country": "GB",
    "longitude": -4.2026,
    "name": "Scotland",
    "latitude": 56.4907,
    "dead": 2486,
    "lastUpdated": "2020-07-03T12:43:09.578Z",
    "sick": 15778,
    "invisible": false
  },
  {
    "name": "Indiana",
    "latitude": 40.2672,
    "dead": 2662,
    "lastUpdated": "2020-07-03T12:47:01.934Z",
    "recovered": 0,
    "infected": 46387,
    "state": "IN",
    "id": "MOxDkmQ4wBi1CuAdVxDE",
    "pop": 6692000,
    "country": "US",
    "longitude": -86.1349,
    "sick": 43725,
    "invisible": false
  },
  {
    "longitude": -5.5471,
    "name": "Ivory Coast",
    "latitude": 7.54,
    "dead": 68,
    "lastUpdated": "2020-07-03T12:46:08.669Z",
    "recovered": 4660,
    "infected": 9992,
    "id": "MdQOfc1gNh2DOqwSP6UV",
    "pop": 24290000,
    "country": "CI",
    "sick": 5264,
    "invisible": false
  },
  {
    "recovered": 39391,
    "infected": 43669,
    "state": "NW",
    "id": "MjpYq3zQyAvSQlVVYjD2",
    "pop": 17910000,
    "country": "DE",
    "longitude": 7.6616,
    "name": "Nordrhein-Westfalen",
    "latitude": 51.4332,
    "dead": 1698,
    "lastUpdated": "2020-07-03T12:30:02.558Z",
    "sick": 2580,
    "invisible": false
  },
  {
    "lastUpdated": "2020-07-03T12:38:11.122Z",
    "recovered": 75,
    "infected": 75,
    "id": "MntmjjuHljarCdt6aIeE",
    "pop": 6301000,
    "country": "CN",
    "longitude": 105.977203,
    "name": "Ningxia",
    "latitude": 37.330509,
    "dead": 0,
    "sick": 0,
    "invisible": false
  },
  {
    "latitude": -3.20166586,
    "dead": 5004,
    "lastUpdated": "2020-07-03T12:15:08.143Z",
    "recovered": 0,
    "infected": 108067,
    "state": "PA",
    "id": "MuEB2UgkId5crsxi9zQT",
    "pop": 8513497,
    "country": "BR",
    "longitude": -52.203499186,
    "name": "Pará",
    "sick": 103063,
    "invisible": false
  },
  {
    "recovered": 2473,
    "infected": 3888,
    "id": "N0KGfqgROVOjAxWcd8wi",
    "pop": 1150000,
    "country": "RU",
    "longitude": 39.2032,
    "name": "Lipetsk Oblast",
    "latitude": 52.5265,
    "dead": 17,
    "lastUpdated": "2020-07-03T12:30:23.222Z",
    "sick": 1398,
    "invisible": false
  },
  {
    "recovered": 33455,
    "infected": 36174,
    "state": "BW",
    "id": "N3XsRBwJSsNclkEf7Zz5",
    "pop": 11020000,
    "country": "DE",
    "longitude": 9.3501,
    "name": "Baden-Württemberg",
    "latitude": 48.6616,
    "dead": 1891,
    "lastUpdated": "2020-07-03T12:30:02.554Z",
    "sick": 828,
    "invisible": false
  },
  {
    "country": "BA",
    "longitude": 17.824332,
    "name": "Bosnia and Herzegovina",
    "latitude": 44.696652,
    "dead": 191,
    "lastUpdated": "2020-07-03T12:46:08.671Z",
    "recovered": 2550,
    "infected": 4962,
    "id": "N7c13sCQF0G789XAVazJ",
    "pop": 3507000,
    "sick": 2221,
    "invisible": false
  },
  {
    "name": "Shanxi",
    "latitude": 37.242565,
    "dead": 0,
    "lastUpdated": "2020-07-03T12:38:11.121Z",
    "recovered": 198,
    "infected": 198,
    "id": "NBRIGIRrJB1Ry8prDNAC",
    "pop": 36500000,
    "country": "CN",
    "longitude": 111.856857,
    "sick": 0,
    "invisible": false
  },
  {
    "state": "NC",
    "id": "NC64Qp5kTqAfiTuR27k8",
    "pop": 10380000,
    "country": "US",
    "longitude": -79.0193,
    "name": "North Carolina",
    "latitude": 35.7596,
    "dead": 1416,
    "lastUpdated": "2020-07-03T12:47:01.934Z",
    "recovered": 0,
    "infected": 68508,
    "sick": 67092,
    "invisible": false
  },
  {
    "longitude": 12.5316,
    "name": "Brandenburg",
    "latitude": 52.4125,
    "dead": 176,
    "lastUpdated": "2020-07-03T12:30:02.556Z",
    "recovered": 3210,
    "infected": 3507,
    "state": "BB",
    "id": "NJjo2gfBvnbK4xatrsUz",
    "pop": 2504000,
    "country": "DE",
    "sick": 121,
    "invisible": false
  },
  {
    "dead": 2,
    "latitude": 15.0979,
    "infected": 31,
    "recovered": 0,
    "pop": 55144,
    "country": "US",
    "lastUpdated": "2020-07-03T12:47:01.937Z",
    "state": "MP",
    "id": "NLLL6pJhJSw0lrDMD4uP",
    "longitude": 145.6739,
    "name": "Northern Mariana Islands",
    "alwaysShow": true,
    "sick": 29,
    "invisible": false
  },
  {
    "longitude": 79.0193,
    "name": "Uttarakhand",
    "latitude": 30.0668,
    "dead": 42,
    "lastUpdated": "2020-07-03T12:41:01.121Z",
    "recovered": 2405,
    "infected": 2984,
    "id": "NMeZEcGToxXfpi16PfFV",
    "pop": 10080000,
    "country": "IN",
    "sick": 537,
    "invisible": false
  },
  {
    "longitude": 9.1624,
    "name": "Hessen",
    "latitude": 50.6521,
    "dead": 514,
    "lastUpdated": "2020-07-03T12:30:02.557Z",
    "recovered": 10056,
    "infected": 10934,
    "state": "HE",
    "id": "Nk5vPgUIXsWVfbWZf15O",
    "pop": 6243000,
    "country": "DE",
    "sick": 364,
    "invisible": false
  },
  {
    "longitude": 25.837107,
    "name": "Latvia",
    "latitude": 56.96776,
    "dead": 30,
    "lastUpdated": "2020-07-03T12:46:08.675Z",
    "recovered": 997,
    "infected": 1122,
    "id": "NmmMKy0YqA8StHdGzB5N",
    "pop": 1920000,
    "country": "LV",
    "sick": 95,
    "invisible": false
  },
  {
    "longitude": -37.946777,
    "name": "Pernambuco",
    "latitude": -8.472372,
    "dead": 4968,
    "lastUpdated": "2020-07-03T12:15:08.143Z",
    "recovered": 0,
    "infected": 61119,
    "state": "PE",
    "id": "NyGlFL1gATK1Omv9qtcC",
    "pop": 9496294,
    "country": "BR",
    "sick": 56151,
    "invisible": false
  },
  {
    "latitude": 6.4281,
    "dead": 37,
    "lastUpdated": "2020-07-03T12:46:08.681Z",
    "recovered": 338,
    "infected": 819,
    "id": "O4g88K49HKEZLFXm5gxb",
    "pop": 4732000,
    "country": "LR",
    "longitude": -9.4295,
    "name": "Liberia",
    "sick": 444,
    "invisible": false
  },
  {
    "id": "O5fNOGWKosps6JTrzkpn",
    "pop": 2350000,
    "country": "RU",
    "longitude": 82.6759,
    "name": "Altai Krai",
    "latitude": 51.7936,
    "dead": 40,
    "lastUpdated": "2020-07-03T12:30:23.218Z",
    "recovered": 3077,
    "infected": 4207,
    "sick": 1090,
    "invisible": false
  },
  {
    "longitude": 116.9677,
    "name": "Zabaykalsky Krai",
    "latitude": 53.0929,
    "dead": 42,
    "lastUpdated": "2020-07-03T12:30:23.223Z",
    "recovered": 2184,
    "infected": 3260,
    "id": "O6PDzAxKENYbLsLjPx2K",
    "pop": 1072000,
    "country": "RU",
    "sick": 1034,
    "invisible": false
  },
  {
    "recovered": 0,
    "infected": 39701,
    "state": "SC",
    "id": "ONU4CK8QjViFHKg2w5if",
    "pop": 5084000,
    "country": "US",
    "longitude": -80.525613,
    "name": "South Carolina",
    "latitude": 34.003307,
    "dead": 784,
    "lastUpdated": "2020-07-03T12:47:01.934Z",
    "sick": 38917,
    "invisible": false
  },
  {
    "recovered": 0,
    "infected": 28770,
    "state": "MS",
    "id": "OYa0jFzdbAgo8zUsRv6q",
    "pop": 2987000,
    "country": "US",
    "longitude": -89.582775,
    "name": "Mississippi",
    "latitude": 33.51822,
    "dead": 1092,
    "lastUpdated": "2020-07-03T12:47:01.935Z",
    "sick": 27678,
    "invisible": false
  },
  {
    "name": "Maine",
    "latitude": 45.2538,
    "dead": 105,
    "lastUpdated": "2020-07-03T12:47:01.936Z",
    "recovered": 0,
    "infected": 3328,
    "state": "ME",
    "id": "OcXNp9kNVSwrRlG3bNVN",
    "pop": 1338000,
    "country": "US",
    "longitude": -69.4455,
    "sick": 3223,
    "invisible": false
  },
  {
    "lastUpdated": "2020-07-03T12:30:23.223Z",
    "recovered": 2486,
    "infected": 3112,
    "id": "OlKS5SPydHY2TedStFuf",
    "pop": 488000,
    "country": "RU",
    "longitude": 44.8203,
    "name": "Ingushetia",
    "latitude": 43.4052,
    "dead": 69,
    "sick": 557,
    "invisible": false
  },
  {
    "lastUpdated": "2020-07-03T12:43:21.865Z",
    "recovered": 215,
    "infected": 228,
    "state": "TAS",
    "id": "OnOseaqWdnuP18oruABW",
    "pop": 515000,
    "country": "AU",
    "longitude": 146.725256,
    "name": "Tasmania",
    "latitude": -41.915264,
    "dead": 13,
    "sick": 0,
    "invisible": false
  },
  {
    "longitude": -56.666668,
    "name": "Mato Grosso",
    "latitude": -16.35,
    "dead": 674,
    "lastUpdated": "2020-07-03T12:15:08.144Z",
    "recovered": 0,
    "infected": 17727,
    "state": "MT",
    "id": "P0GHFGUt1pkKTk5PM8uz",
    "pop": 3441998,
    "country": "BR",
    "sick": 17053,
    "invisible": false
  },
  {
    "lastUpdated": "2020-07-03T12:30:23.217Z",
    "recovered": 2985,
    "infected": 4505,
    "id": "P2I90oqdFSoVk03AaGo4",
    "pop": 1378000,
    "country": "RU",
    "longitude": 40.5927,
    "name": "Vladimir Oblast",
    "latitude": 56.1553,
    "dead": 68,
    "sick": 1452,
    "invisible": false
  },
  {
    "recovered": 194,
    "infected": 201,
    "id": "P4mwRFLbrvT0t75uD8Wo",
    "pop": 61559,
    "country": "KY",
    "longitude": -81.2546,
    "name": "Cayman Islands",
    "latitude": 19.3133,
    "dead": 1,
    "lastUpdated": "2020-07-03T12:46:08.683Z",
    "sick": 6,
    "invisible": false
  },
  {
    "recovered": 10,
    "infected": 11,
    "id": "PEDkeFMTOZpvHiSVxBk7",
    "pop": 5900,
    "country": "MS",
    "longitude": -62.1873665,
    "name": "Montserrat",
    "latitude": 16.7424984,
    "dead": 1,
    "lastUpdated": "2020-07-03T12:46:08.687Z",
    "sick": 0,
    "invisible": false
  },
  {
    "latitude": -1.9403,
    "dead": 3,
    "lastUpdated": "2020-07-03T12:46:08.677Z",
    "recovered": 493,
    "infected": 1063,
    "id": "PEcgZGEkyhABztt1Ufgc",
    "pop": 12210000,
    "country": "RW",
    "longitude": 29.8739,
    "name": "Rwanda",
    "sick": 567,
    "invisible": false
  },
  {
    "country": "RU",
    "longitude": 56.1645,
    "name": "Bashkortostan",
    "latitude": 54.2312,
    "dead": 18,
    "lastUpdated": "2020-07-03T12:30:23.215Z",
    "recovered": 3201,
    "infected": 5497,
    "id": "PHlHdeqYd6KgxsJGfEz0",
    "pop": 4063000,
    "sick": 2278,
    "invisible": false
  },
  {
    "longitude": -94.6859,
    "name": "Minnesota",
    "latitude": 46.7296,
    "dead": 1495,
    "lastUpdated": "2020-07-03T12:47:01.935Z",
    "recovered": 0,
    "infected": 37210,
    "state": "MN",
    "id": "PJvVYosLIhbcRZYnKX1R",
    "pop": 5611000,
    "country": "US",
    "sick": 35715,
    "invisible": false
  },
  {
    "longitude": -89.3985,
    "name": "Illinois",
    "latitude": 40.6331,
    "dead": 7188,
    "lastUpdated": "2020-07-03T12:47:01.933Z",
    "recovered": 0,
    "infected": 145935,
    "state": "IL",
    "id": "PTwQr9ijo0TBBsPH2sdJ",
    "pop": 12740000,
    "country": "US",
    "sick": 138747,
    "invisible": false
  },
  {
    "id": "PjLqCeFdyzdZNcZxMkK1",
    "pop": 178844,
    "country": "LC",
    "longitude": -60.978893,
    "name": "Saint Lucia",
    "latitude": 13.909444,
    "dead": 0,
    "lastUpdated": "2020-07-03T12:46:08.687Z",
    "recovered": 19,
    "infected": 22,
    "sick": 3,
    "invisible": false
  },
  {
    "lastUpdated": "2020-07-02T23:31:08.103Z",
    "recovered": 3905,
    "infected": 8633,
    "state": "NC",
    "id": "PmUlsNx2uFLU797wwU39",
    "pop": 649900,
    "country": "ES",
    "longitude": -1.6761,
    "name": "Comunidad Foral de Navarra",
    "latitude": 42.6954,
    "dead": 528,
    "sick": 4200,
    "invisible": false
  },
  {
    "latitude": 34.201507,
    "dead": 50,
    "lastUpdated": "2020-07-03T12:46:08.675Z",
    "recovered": 1039,
    "infected": 1178,
    "id": "Pr76V4raf108uSRoEXac",
    "pop": 11530000,
    "country": "TN",
    "longitude": 9.460554,
    "name": "Tunisia",
    "sick": 89,
    "invisible": false
  },
  {
    "country": "SZ",
    "longitude": 31.4659,
    "name": "Eswatini",
    "latitude": -26.5225,
    "dead": 11,
    "lastUpdated": "2020-07-03T12:46:08.681Z",
    "recovered": 452,
    "infected": 873,
    "id": "PuQgOd9KWiMzGZXm11sR",
    "pop": 1367000,
    "sick": 410,
    "invisible": false
  },
  {
    "latitude": -37.009609,
    "dead": 20,
    "lastUpdated": "2020-07-03T02:58:27.527Z",
    "recovered": 1906,
    "infected": 2099,
    "state": "VIC",
    "id": "Q18mrGvFWTLX2BU9SqhQ",
    "pop": 6359000,
    "country": "AU",
    "longitude": 143.94853,
    "name": "Victoria",
    "sick": 173,
    "invisible": false
  },
  {
    "recovered": 2986,
    "infected": 3186,
    "state": "SH",
    "id": "Q39XkabIYxt15mHINzTa",
    "pop": 2890000,
    "country": "DE",
    "longitude": 9.6961,
    "name": "Schleswig-Holstein",
    "latitude": 54.2194,
    "dead": 157,
    "lastUpdated": "2020-07-03T12:30:02.558Z",
    "sick": 43,
    "invisible": false
  },
  {
    "longitude": -52.031696,
    "name": "Rio Grande do Sul",
    "latitude": -27.953491,
    "dead": 663,
    "lastUpdated": "2020-07-03T12:15:08.144Z",
    "recovered": 0,
    "infected": 29195,
    "state": "RS",
    "id": "QGpQNhuoVTUPHXvS7qcu",
    "pop": 11329605,
    "country": "BR",
    "sick": 28532,
    "invisible": false
  },
  {
    "id": "QGyuno7Bc4kwuvGFgMiO",
    "pop": 1231000,
    "country": "RU",
    "longitude": 46.9284,
    "name": "Chuvashia",
    "latitude": 55.5596,
    "dead": 34,
    "lastUpdated": "2020-07-03T12:30:23.215Z",
    "recovered": 2960,
    "infected": 5253,
    "sick": 2259,
    "invisible": false
  },
  {
    "name": "Estonia",
    "latitude": 58.595272,
    "dead": 69,
    "lastUpdated": "2020-07-03T12:46:08.674Z",
    "recovered": 1859,
    "infected": 1991,
    "id": "QR9go2hQKXjty7JHUYe4",
    "pop": 1328000,
    "country": "EE",
    "longitude": 25.013607,
    "sick": 63,
    "invisible": false
  },
  {
    "longitude": 54.8313,
    "name": "Komi Republic",
    "latitude": 63.8631,
    "dead": 34,
    "lastUpdated": "2020-07-03T12:30:23.222Z",
    "recovered": 1870,
    "infected": 3577,
    "id": "QTafh5fpbS8abcuyEjaL",
    "pop": 840000,
    "country": "RU",
    "sick": 1673,
    "invisible": false
  },
  {
    "state": "ES",
    "id": "QaWDLKH8SuwD0Qxq6c38",
    "pop": 3972388,
    "country": "BR",
    "longitude": -40.336,
    "name": "Espírito Santo",
    "latitude": -20.318,
    "dead": 1728,
    "lastUpdated": "2020-07-03T12:15:08.143Z",
    "recovered": 0,
    "infected": 50240,
    "sick": 48512,
    "invisible": false
  },
  {
    "name": "Murmansk Oblast",
    "latitude": 67.8443,
    "dead": 18,
    "lastUpdated": "2020-07-03T12:30:23.215Z",
    "recovered": 3632,
    "infected": 5632,
    "id": "Qh73PKA4KWeuPoqZfWXz",
    "pop": 795000,
    "country": "RU",
    "longitude": 35.0884,
    "sick": 1982,
    "invisible": false
  },
  {
    "id": "Qkho455pBwx88Gohs3hL",
    "pop": 8222700,
    "country": "MX",
    "longitude": -103.6667,
    "name": "Jalisco",
    "latitude": 20.3333,
    "dead": 755,
    "lastUpdated": "2020-07-03T12:32:01.624Z",
    "recovered": 0,
    "infected": 13183,
    "sick": 12428,
    "invisible": false
  },
  {
    "latitude": -6.315,
    "dead": 0,
    "lastUpdated": "2020-07-03T12:46:08.687Z",
    "recovered": 8,
    "infected": 11,
    "id": "QlZrE4nosm5WfdA2aCDg",
    "pop": 8251000,
    "country": "PG",
    "longitude": 143.9555,
    "name": "Papua New Guinea",
    "sick": 3,
    "invisible": false
  },
  {
    "dead": 6,
    "latitude": 18.3358,
    "infected": 98,
    "recovered": 0,
    "pop": 107268,
    "country": "US",
    "lastUpdated": "2020-07-03T12:47:01.942Z",
    "state": "VI",
    "id": "QqhD3YDMKXojvQY3Yu41",
    "longitude": -64.8963,
    "name": "U.S. Virgin Islands",
    "alwaysShow": true,
    "sick": 92,
    "invisible": false
  },
  {
    "name": "Dominica",
    "latitude": 15.414999,
    "dead": 0,
    "lastUpdated": "2020-07-03T12:46:08.687Z",
    "recovered": 18,
    "infected": 18,
    "id": "Qy2qW2ep5wltnYjPJBxh",
    "pop": 71937,
    "country": "DM",
    "longitude": -61.3709755,
    "sick": 0,
    "invisible": false
  },
  {
    "latitude": 5.167,
    "dead": 0,
    "lastUpdated": "2020-07-03T12:30:05.276Z",
    "recovered": 47,
    "infected": 69,
    "id": "R3IHMWqIUhOJJTlrmbUZ",
    "pop": 344027,
    "country": "CO",
    "longitude": -72.167,
    "name": "Casanare",
    "sick": 22,
    "invisible": false
  },
  {
    "country": "PA",
    "longitude": -80.7821,
    "name": "Panama",
    "latitude": 8.538,
    "dead": 667,
    "lastUpdated": "2020-07-03T12:46:08.667Z",
    "recovered": 16445,
    "infected": 35237,
    "id": "R8YCgephnxTufvcPWMgx",
    "pop": 4099000,
    "sick": 18125,
    "invisible": false
  },
  {
    "longitude": -86.2419,
    "name": "Honduras",
    "latitude": 15.2,
    "dead": 591,
    "lastUpdated": "2020-07-03T12:46:08.668Z",
    "recovered": 2190,
    "infected": 21120,
    "id": "RA2SE0p2bVhqo0P2hzGY",
    "pop": 9265000,
    "country": "HN",
    "sick": 18339,
    "invisible": false
  },
  {
    "id": "RBt9RiwP7WUbMnJfD0lo",
    "pop": 224500,
    "country": "CL",
    "longitude": -70.2979202,
    "name": "Arica y Parinacota",
    "latitude": -18.4745998,
    "dead": 21,
    "lastUpdated": "2020-07-03T12:51:10.570Z",
    "recovered": 0,
    "infected": 1832,
    "sick": 1811,
    "invisible": false
  },
  {
    "recovered": 2907,
    "infected": 3314,
    "state": "36",
    "id": "RCrDBCdBNYzgLNr0aB2H",
    "pop": 1216000,
    "country": "IT",
    "longitude": 13.8,
    "name": "Friuli Venezia Giulia",
    "latitude": 45.633331,
    "dead": 345,
    "lastUpdated": "2020-07-03T12:31:01.669Z",
    "sick": 62,
    "invisible": false
  },
  {
    "longitude": -93.0977,
    "name": "Iowa",
    "latitude": 41.878,
    "dead": 719,
    "lastUpdated": "2020-07-03T12:47:01.935Z",
    "recovered": 0,
    "infected": 30259,
    "state": "IA",
    "id": "RX0KDu1AFrlCsrRso0nb",
    "pop": 3156000,
    "country": "US",
    "sick": 29540,
    "invisible": false
  },
  {
    "lastUpdated": "2020-07-03T12:30:05.272Z",
    "recovered": 13299,
    "infected": 32726,
    "id": "RZ6PCe5TZsO15JjDObwO",
    "pop": 7413000,
    "country": "CO",
    "longitude": -74.063644,
    "name": "Bogotá D.C.",
    "latitude": 4.624335,
    "dead": 732,
    "sick": 18695,
    "invisible": false
  },
  {
    "lastUpdated": "2020-07-03T12:46:08.680Z",
    "recovered": 224,
    "infected": 891,
    "id": "RaJxbzlnRFTuj4B8IbpC",
    "pop": 6846000,
    "country": "LY",
    "longitude": 17.2283306,
    "name": "Libya",
    "latitude": 26.3351002,
    "dead": 26,
    "sick": 641,
    "invisible": false
  },
  {
    "longitude": -98.4842,
    "name": "Kansas",
    "latitude": 39.0119,
    "dead": 280,
    "lastUpdated": "2020-07-03T12:47:01.935Z",
    "recovered": 0,
    "infected": 15159,
    "state": "KS",
    "id": "Rf4uvBfP3GRDSHdZElRd",
    "pop": 2912000,
    "country": "US",
    "sick": 14879,
    "invisible": false
  },
  {
    "longitude": 6.1878,
    "name": "Grand Est",
    "latitude": 48.6998,
    "dead": 3573,
    "lastUpdated": "2020-07-02T23:45:34.515Z",
    "recovered": 12186,
    "infected": 25864,
    "id": "RmEgf1xeclWt7XCF9oiR",
    "pop": 5518000,
    "country": "FR",
    "sick": 10105,
    "invisible": false
  },
  {
    "latitude": 50.4176,
    "dead": 3385,
    "lastUpdated": "2020-07-03T12:37:12.151Z",
    "recovered": 4890,
    "infected": 19344,
    "state": "WAL",
    "id": "RryHraSohKQLAsdr1dHO",
    "pop": 3644000,
    "country": "BE",
    "longitude": 4.451,
    "name": "Wallonia",
    "sick": 11069,
    "invisible": false
  },
  {
    "recovered": 0,
    "infected": 37242,
    "state": "ON",
    "id": "Rx4TuyMpfGb3S8wYJX0x",
    "pop": 14570000,
    "country": "CA",
    "longitude": -85.3232,
    "name": "Ontario",
    "latitude": 51.2538,
    "dead": 2737,
    "lastUpdated": "2020-07-03T12:40:01.612Z",
    "sick": 34505,
    "invisible": false
  },
  {
    "latitude": 41.652779,
    "dead": 2787,
    "lastUpdated": "2020-07-02T23:30:40.473Z",
    "recovered": 8716,
    "infected": 26041,
    "state": "CL",
    "id": "S8ewN4zaYp8mjtuqqOTw",
    "pop": 2408000,
    "country": "ES",
    "longitude": -4.723611,
    "name": "Castilla y León",
    "sick": 14538,
    "invisible": false
  },
  {
    "id": "SDdefnq1bc3ZNr7SpEsW",
    "pop": 376480,
    "country": "FR",
    "longitude": -61.011715,
    "name": "Martinique",
    "alwaysShow": true,
    "latitude": 14.652027,
    "dead": 14,
    "lastUpdated": "2020-07-03T12:46:08.683Z",
    "recovered": 98,
    "infected": 242,
    "sick": 130,
    "invisible": false
  },
  {
    "longitude": -1.0232,
    "name": "Ghana",
    "latitude": 7.9465,
    "dead": 117,
    "lastUpdated": "2020-07-03T12:46:08.668Z",
    "recovered": 13550,
    "infected": 18134,
    "id": "SG9VWLOV3x2JsTkXmVSz",
    "pop": 28830000,
    "country": "GH",
    "sick": 4467,
    "invisible": false
  },
  {
    "name": "Switzerland",
    "latitude": 46.818188,
    "dead": 1965,
    "lastUpdated": "2020-07-03T12:46:08.667Z",
    "recovered": 29200,
    "infected": 32101,
    "id": "SGe9sCPayMqh6RsGFaBA",
    "pop": 8570000,
    "country": "CH",
    "longitude": 8.227512,
    "sick": 936,
    "invisible": false
  },
  {
    "name": "Yakutia",
    "latitude": 66.7613,
    "dead": 32,
    "lastUpdated": "2020-07-03T12:30:23.218Z",
    "recovered": 3247,
    "infected": 4365,
    "id": "SGhKBmmh5hss7hrNR8hK",
    "pop": 964000,
    "country": "RU",
    "longitude": 124.1238,
    "sick": 1086,
    "invisible": false
  },
  {
    "longitude": -71.208,
    "name": "Quebec",
    "latitude": 46.8139,
    "dead": 5541,
    "lastUpdated": "2020-07-03T12:40:01.611Z",
    "recovered": 0,
    "infected": 55593,
    "state": "QC",
    "id": "SHoOE3NiJgWAlDVBzwYH",
    "pop": 8485000,
    "country": "CA",
    "sick": 50052,
    "invisible": false
  },
  {
    "country": "XK",
    "longitude": 20.903,
    "name": "Kosovo",
    "latitude": 42.6026,
    "dead": 55,
    "lastUpdated": "2020-07-03T12:10:10.490Z",
    "recovered": 1707,
    "infected": 3064,
    "id": "SMWvuMMuKp2QK7O2tNia",
    "pop": 1831000,
    "sick": 1302,
    "invisible": false
  },
  {
    "recovered": 2973,
    "infected": 4533,
    "id": "SNWCQwRwqYfxX8HZndTA",
    "pop": 1913000,
    "country": "RU",
    "longitude": 135,
    "name": "Primorsky Krai",
    "latitude": 45.0526,
    "dead": 49,
    "lastUpdated": "2020-07-03T12:30:23.217Z",
    "sick": 1511,
    "invisible": false
  },
  {
    "lastUpdated": "2020-07-03T12:41:01.124Z",
    "recovered": 734,
    "infected": 1482,
    "id": "SPcujsH2YlUaoAr8AiWF",
    "pop": 1817000,
    "country": "IN",
    "longitude": 74.124,
    "name": "Goa",
    "latitude": 15.2993,
    "dead": 4,
    "sick": 744,
    "invisible": false
  },
  {
    "lastUpdated": "2020-07-03T12:15:08.144Z",
    "recovered": 0,
    "infected": 26263,
    "state": "GO",
    "id": "SV5AMF59J61Vt4cXWLgy",
    "pop": 6921161,
    "country": "BR",
    "longitude": -48.953403,
    "name": "Goiás",
    "latitude": -16.328547,
    "dead": 545,
    "sick": 25718,
    "invisible": false
  },
  {
    "name": "Vichada",
    "latitude": 6.181,
    "dead": 0,
    "lastUpdated": "2020-07-03T12:30:05.277Z",
    "recovered": 1,
    "infected": 1,
    "id": "SYFarIS62W0EW9bOaJmN",
    "pop": 75500,
    "country": "CO",
    "longitude": -68.436,
    "sick": 0,
    "invisible": false
  },
  {
    "state": "78",
    "id": "SZdF624x0v1LlyzZjKFu",
    "pop": 1957000,
    "country": "IT",
    "longitude": 16.5,
    "name": "Calabria",
    "latitude": 39,
    "dead": 97,
    "lastUpdated": "2020-07-03T12:31:01.668Z",
    "recovered": 1059,
    "infected": 1181,
    "sick": 25,
    "invisible": false
  },
  {
    "country": "US",
    "longitude": -99.9018,
    "name": "Nebraska",
    "latitude": 41.4925,
    "dead": 282,
    "lastUpdated": "2020-07-03T12:47:01.935Z",
    "recovered": 0,
    "infected": 19452,
    "state": "NE",
    "id": "SakhKQzKu1LRI8laqdQq",
    "pop": 1929000,
    "sick": 19170,
    "invisible": false
  },
  {
    "longitude": 55.5364,
    "name": "La Réunion",
    "alwaysShow": true,
    "latitude": -21.1151,
    "dead": 2,
    "lastUpdated": "2020-07-03T12:46:08.682Z",
    "recovered": 472,
    "infected": 531,
    "id": "SgHzWAAYK1j2sipovxM6",
    "pop": 859959,
    "country": "FR",
    "sick": 57,
    "invisible": false
  },
  {
    "longitude": 104.990967,
    "name": "Cambodia",
    "latitude": 12.565679,
    "dead": 0,
    "lastUpdated": "2020-07-03T12:46:08.684Z",
    "recovered": 131,
    "infected": 141,
    "id": "SioMALgUbo7peXmbco2f",
    "pop": 16010000,
    "country": "KH",
    "sick": 10,
    "invisible": false
  },
  {
    "pop": 164229,
    "country": "US",
    "lastUpdated": "2020-07-03T12:47:01.937Z",
    "state": "GU",
    "id": "SsWhuEElU7dCTTuH5fdQ",
    "longitude": 144.7937,
    "name": "Guam",
    "alwaysShow": true,
    "dead": 5,
    "latitude": 13.4443,
    "infected": 280,
    "recovered": 0,
    "sick": 275,
    "invisible": false
  },
  {
    "latitude": 51.9189,
    "dead": 0,
    "lastUpdated": "2020-07-03T12:46:08.667Z",
    "recovered": 22651,
    "infected": 0,
    "id": "SuCr5emUaJ9RHTll1P1p",
    "country": "PL",
    "longitude": 19.1344,
    "invisible": true,
    "name": "Unknown Poland region",
    "sick": 0
  },
  {
    "country": "RU",
    "longitude": 53.0278,
    "name": "Udmurtia",
    "latitude": 57.067,
    "dead": 16,
    "lastUpdated": "2020-07-03T12:30:23.224Z",
    "recovered": 1098,
    "infected": 1476,
    "id": "Sx03z01BJCAbrYkWhEaD",
    "pop": 1513000,
    "sick": 362,
    "invisible": false
  },
  {
    "lastUpdated": "2020-07-03T12:46:08.670Z",
    "recovered": 2684,
    "infected": 7311,
    "id": "T3iRf8mTUTAzbKrORTap",
    "pop": 84070000,
    "country": "CD",
    "longitude": 21.7587,
    "name": "DR Congo",
    "latitude": -4.0383,
    "dead": 179,
    "sick": 4448,
    "invisible": false
  },
  {
    "name": "Saudi Arabia",
    "latitude": 23.635796,
    "dead": 1802,
    "lastUpdated": "2020-07-03T12:46:08.664Z",
    "recovered": 140614,
    "infected": 201801,
    "id": "T7NffoeCgTUpAbOHvYwP",
    "pop": 32940000,
    "country": "SA",
    "longitude": 44.344334,
    "sick": 59385,
    "invisible": false
  },
  {
    "name": "La Rioja",
    "latitude": 42.2871,
    "dead": 366,
    "lastUpdated": "2020-07-02T23:31:53.212Z",
    "recovered": 3107,
    "infected": 5473,
    "state": "RI",
    "id": "TNDTapyb0k3l7Mds9q9R",
    "pop": 315700,
    "country": "ES",
    "longitude": -2.5396,
    "sick": 2000,
    "invisible": false
  },
  {
    "longitude": -89.134857,
    "name": "Yucatán",
    "latitude": 20.400417,
    "dead": 474,
    "lastUpdated": "2020-07-03T12:32:01.623Z",
    "recovered": 0,
    "infected": 4601,
    "id": "TQCWbhIpJQBQxBjhCGVJ",
    "pop": 2207200,
    "country": "MX",
    "sick": 4127,
    "invisible": false
  },
  {
    "longitude": 114.650692,
    "name": "Brunei",
    "latitude": 4.506106,
    "dead": 3,
    "lastUpdated": "2020-07-03T12:46:08.684Z",
    "recovered": 138,
    "infected": 141,
    "id": "TQZmzsLhJqjtCSExAkCP",
    "pop": 428697,
    "country": "BN",
    "sick": 0,
    "invisible": false
  },
  {
    "name": "Auvergne-Rhône-Alpes",
    "latitude": 45.4471,
    "dead": 1738,
    "lastUpdated": "2020-07-02T23:44:19.423Z",
    "recovered": 7733,
    "infected": 15307,
    "state": "",
    "id": "TT0MKODSjrxHvG19xZCa",
    "pop": 8027000,
    "country": "FR",
    "longitude": 4.3853,
    "sick": 5836,
    "invisible": false
  },
  {
    "id": "TeoNTu4aw5riC04sTd73",
    "pop": 758700,
    "country": "PT",
    "longitude": -7.9,
    "name": "Alentejo",
    "latitude": 38.5667,
    "dead": 9,
    "lastUpdated": "2020-07-03T12:53:08.739Z",
    "recovered": 0,
    "infected": 499,
    "sick": 490,
    "invisible": false
  },