[
  {
    "latitude": 12.5847,
    "pop": 72600,
    "longitude": -81.7006,
    "name": "San Andrés",
    "country": "CO",
    "lastUpdated": "2020-05-10T09:41:08.458Z",
    "dead": 0,
    "id": "01b09TY4vmuZwzVuiRFK",
    "infected": 6,
    "recovered": 4,
    "sick": 2,
    "invisible": false
  },
  {
    "latitude": 49.4482,
    "pop": 63196,
    "longitude": -2.5895,
    "name": "Guernsey",
    "country": "GG",
    "lastUpdated": "2020-05-10T08:56:09.851Z",
    "dead": 13,
    "id": "0FOJefeLxQYXQ1CnJm9o",
    "infected": 252,
    "recovered": 226,
    "sick": 13,
    "invisible": false
  },
  {
    "longitude": 14.333333,
    "name": "Campania",
    "country": "IT",
    "lastUpdated": "2020-05-10T09:31:10.196Z",
    "dead": 388,
    "id": "0GJcws44NSPsDHAuxJhW",
    "infected": 4576,
    "recovered": 2223,
    "latitude": 41.066666,
    "pop": 5827000,
    "sick": 1965,
    "invisible": false
  },
  {
    "longitude": -70.14222,
    "name": "Tarapacá",
    "country": "CL",
    "lastUpdated": "2020-05-10T09:41:07.333Z",
    "dead": 1,
    "id": "0HDQbiHe462xMCUV5HiI",
    "infected": 485,
    "recovered": 0,
    "latitude": -20.2167,
    "pop": 383870,
    "sick": 484,
    "invisible": false
  },
  {
    "latitude": 20.9517,
    "pop": 45990000,
    "longitude": 85.0985,
    "name": "Odisha",
    "country": "IN",
    "lastUpdated": "2020-05-10T09:41:09.195Z",
    "dead": 3,
    "id": "0VG7S6aaK4eSo59fL9JO",
    "infected": 352,
    "recovered": 68,
    "sick": 281,
    "invisible": false
  },
  {
    "longitude": -98.8582,
    "name": "Hidalgo",
    "country": "MX",
    "lastUpdated": "2020-05-10T09:32:09.004Z",
    "dead": 75,
    "id": "0XmCRqiK2ZaehoEJvfer",
    "infected": 496,
    "recovered": 0,
    "latitude": 20.4737,
    "pop": 2990300,
    "sick": 421,
    "invisible": false
  },
  {
    "longitude": 92.6586,
    "name": "Andaman and Nicobar Islands",
    "country": "IN",
    "lastUpdated": "2020-05-10T09:41:09.196Z",
    "dead": 0,
    "id": "0jStOpTUNRaQYJqgmRoK",
    "infected": 33,
    "recovered": 33,
    "latitude": 11.7401,
    "pop": 427246,
    "sick": 0,
    "invisible": false
  },
  {
    "latitude": 25.315058,
    "pop": 2639000,
    "longitude": 51.145517,
    "name": "Qatar",
    "country": "QA",
    "lastUpdated": "2020-05-10T09:40:02.357Z",
    "dead": 13,
    "id": "0m4aECS0Z2DGFEr8ldgI",
    "infected": 21331,
    "recovered": 2449,
    "sick": 18869,
    "invisible": false
  },
  {
    "recovered": 372,
    "latitude": 22.9868,
    "pop": 90320000,
    "longitude": 87.855,
    "name": "West Bengal",
    "country": "IN",
    "lastUpdated": "2020-05-10T09:41:09.195Z",
    "dead": 171,
    "id": "0n54EMSDJcRoT1QEvw80",
    "infected": 1786,
    "sick": 1243,
    "invisible": false
  },
  {
    "infected": 3457,
    "recovered": 1480,
    "latitude": 22.9734,
    "pop": 73340000,
    "longitude": 78.6569,
    "name": "Madhya Pradesh",
    "country": "IN",
    "lastUpdated": "2020-05-10T09:41:09.194Z",
    "dead": 211,
    "id": "0s18o5DrDAHjbu5MFcrj",
    "sick": 1766,
    "invisible": false
  },
  {
    "id": "0tFoopNTs6e4tOoaltu2",
    "invisible": true,
    "infected": 0,
    "recovered": 238080,
    "latitude": 37.0902,
    "longitude": -95.7129,
    "name": "Unknown US state",
    "country": "US",
    "lastUpdated": "2020-05-10T09:40:02.354Z",
    "dead": 0,
    "sick": 0
  },
  {
    "infected": 308,
    "recovered": 293,
    "latitude": 35.64249,
    "pop": 37330000,
    "longitude": 108.472214,
    "name": "Shaanxi",
    "country": "CN",
    "lastUpdated": "2020-05-10T09:38:11.685Z",
    "dead": 3,
    "id": "0x2HLhr5z5xAtEdO4iZm",
    "sick": 12,
    "invisible": false
  },
  {
    "id": "19MvIhipqTyYv1H37Upw",
    "infected": 1622,
    "recovered": 1112,
    "latitude": 41.643351,
    "pop": 2077000,
    "longitude": 21.668393,
    "name": "North Macedonia",
    "country": "MK",
    "lastUpdated": "2020-05-10T09:40:02.362Z",
    "dead": 91,
    "sick": 419,
    "invisible": false
  },
  {
    "recovered": 0,
    "latitude": 53.1355,
    "pop": 521542,
    "longitude": -57.6604,
    "name": "Newfoundland and Labrador",
    "country": "CA",
    "lastUpdated": "2020-05-10T09:27:01.379Z",
    "dead": 3,
    "id": "1DOMOmCWDtva46OVSZLv",
    "infected": 261,
    "sick": 258,
    "invisible": false
  },
  {
    "recovered": 18,
    "latitude": 35.801933,
    "pop": 5627000,
    "longitude": 96.779286,
    "name": "Qinghai",
    "country": "CN",
    "lastUpdated": "2020-05-10T09:38:11.687Z",
    "dead": 0,
    "id": "1Fap7rZu9SIRqf5TG9Dg",
    "infected": 18,
    "sick": 0,
    "invisible": false
  },
  {
    "id": "1YXQMlVL3fUeDZmcVfJw",
    "invisible": true,
    "infected": 0,
    "recovered": 21824,
    "latitude": 23.6345,
    "pop": 126200000,
    "longitude": -102.5528,
    "name": "Unknown Mexico state",
    "country": "MX",
    "lastUpdated": "2020-05-10T09:40:02.357Z",
    "dead": 0,
    "sick": 0
  },
  {
    "lastUpdated": "2020-05-10T09:30:20.956Z",
    "dead": 6,
    "id": "1at5nIap9H51v32otlQl",
    "infected": 279,
    "recovered": 54,
    "latitude": 55.0555,
    "pop": 1960000,
    "longitude": 73.3167,
    "name": "Omsk Oblast",
    "country": "RU",
    "sick": 219,
    "invisible": false
  },
  {
    "lastUpdated": "2020-05-10T09:31:10.197Z",
    "dead": 3331,
    "id": "1eTSQyfp8RoDPeFrIwun",
    "infected": 28549,
    "recovered": 11284,
    "latitude": 44.9,
    "pop": 4376000,
    "longitude": 8.206944,
    "name": "Piemonte",
    "country": "IT",
    "sick": 13934,
    "invisible": false
  },
  {
    "infected": 92,
    "recovered": 0,
    "latitude": 51.993,
    "pop": 1003000,
    "longitude": 15.461,
    "name": "Lubuskie",
    "country": "PL",
    "lastUpdated": "2020-05-10T09:33:08.895Z",
    "dead": 0,
    "id": "1j1OurxLTpZYuWIWwQ9F",
    "sick": 92,
    "invisible": false
  },
  {
    "lastUpdated": "2020-05-10T09:40:02.360Z",
    "dead": 161,
    "id": "1qTPB8X3tyLyIdsb5TN3",
    "infected": 4867,
    "recovered": 1925,
    "latitude": 47.4116,
    "pop": 3550000,
    "longitude": 28.3699,
    "name": "Moldova",
    "country": "MD",
    "sick": 2781,
    "invisible": false
  },
  {
    "latitude": 37.0902,
    "longitude": -95.7129,
    "name": "Federal Bureau of Prisons",
    "country": "US",
    "lastUpdated": "2020-05-10T09:39:01.893Z",
    "dead": 46,
    "id": "22PJOAThcDFKgSbyQIkD",
    "invisible": true,
    "infected": 3580,
    "recovered": 0,
    "sick": 3534
  },
  {
    "infected": 1,
    "recovered": 1,
    "latitude": 30.15336,
    "pop": 3180000,
    "longitude": 88.787865,
    "name": "Tibet",
    "country": "CN",
    "lastUpdated": "2020-05-10T09:38:11.687Z",
    "dead": 0,
    "id": "25qIBtsW2nfQj3pwBKg9",
    "sick": 0,
    "invisible": false
  },
  {
    "recovered": 2698,
    "latitude": -1.572184,
    "pop": 264000000,
    "longitude": 115.66779,
    "name": "Indonesia",
    "country": "ID",
    "lastUpdated": "2020-05-10T09:40:02.358Z",
    "dead": 973,
    "id": "2KHYUb5t3lwzVVmDjwNX",
    "infected": 14032,
    "sick": 10361,
    "invisible": false
  },
  {
    "longitude": -120.585594,
    "name": "Oregon",
    "country": "US",
    "lastUpdated": "2020-05-10T09:39:01.891Z",
    "dead": 127,
    "id": "2OrsssmGUs4XCzaZzvTv",
    "infected": 3160,
    "recovered": 0,
    "latitude": 43.807191,
    "pop": 4191000,
    "sick": 3033,
    "invisible": false
  },
  {
    "latitude": -23.65,
    "pop": 425000,
    "longitude": -70.400002,
    "name": "Antofagasta",
    "country": "CL",
    "lastUpdated": "2020-05-10T09:41:07.334Z",
    "dead": 10,
    "id": "2c5HBZ1ffkCVXnMYUWnY",
    "infected": 947,
    "recovered": 0,
    "sick": 937,
    "invisible": false
  },
  {
    "recovered": 0,
    "latitude": 0.035574,
    "pop": 9029000,
    "longitude": -51.070534,
    "name": "Amapá",
    "country": "BR",
    "lastUpdated": "2020-05-10T09:38:08.733Z",
    "dead": 69,
    "id": "2dzhyWsBSPpENWlNew0b",
    "infected": 2493,
    "sick": 2424,
    "invisible": false
  },
  {
    "id": "2jxHvSsxdnom0nPNvOT8",
    "infected": 124,
    "recovered": 105,
    "latitude": 43.851921,
    "pop": 27460000,
    "longitude": 126.548103,
    "name": "Jilin",
    "country": "CN",
    "lastUpdated": "2020-05-10T09:38:11.684Z",
    "dead": 1,
    "sick": 18,
    "invisible": false
  },
  {
    "longitude": -5.3536,
    "name": "Gibraltar",
    "country": "GI",
    "lastUpdated": "2020-05-10T09:40:02.369Z",
    "dead": 0,
    "id": "2p11BjSAs3wVyymgqBOe",
    "infected": 146,
    "recovered": 143,
    "latitude": 36.1408,
    "pop": 34571,
    "sick": 3,
    "invisible": false
  },
  {
    "infected": 3973,
    "recovered": 1433,
    "latitude": 47.7516,
    "pop": 2567000,
    "longitude": 1.6751,
    "name": "Centre-Val de Loire",
    "country": "FR",
    "lastUpdated": "2020-05-09T23:35:07.022Z",
    "dead": 441,
    "id": "2sLNkkHpyaHx7dD3aMDO",
    "sick": 2099,
    "invisible": false
  },
  {
    "lastUpdated": "2020-05-10T09:31:10.199Z",
    "dead": 71,
    "id": "319tiZOMczx1y0DfvOib",
    "infected": 1407,
    "recovered": 1225,
    "latitude": 42.565044,
    "pop": 884640,
    "longitude": 12.643751,
    "name": "Umbria",
    "country": "IT",
    "sick": 111,
    "invisible": false
  },
  {
    "latitude": 2.43823,
    "pop": 1355000,
    "longitude": -76.6131592,
    "name": "Cauca",
    "country": "CO",
    "lastUpdated": "2020-05-10T09:41:08.458Z",
    "dead": 4,
    "id": "38T96Q3XNjt5FSJygPed",
    "infected": 42,
    "recovered": 18,
    "sick": 20,
    "invisible": false
  },
  {
    "lastUpdated": "2020-05-10T09:40:02.367Z",
    "dead": 7,
    "id": "3IlPjAbP5qVMn1nlgLTJ",
    "infected": 252,
    "recovered": 112,
    "latitude": -13.133896,
    "pop": 17090000,
    "longitude": 27.849332,
    "name": "Zambia",
    "country": "ZM",
    "sick": 133,
    "invisible": false
  },
  {
    "latitude": 42.7044,
    "pop": 631219,
    "longitude": 19.3958,
    "name": "Montenegro",
    "country": "ME",
    "lastUpdated": "2020-05-10T09:40:02.367Z",
    "dead": 8,
    "id": "3LstMSN5XMYBkxbe5HN7",
    "infected": 324,
    "recovered": 274,
    "sick": 42,
    "invisible": false
  },
  {
    "id": "3OZoQsKrzxZ18EKyfGE6",
    "infected": 107,
    "recovered": 104,
    "latitude": -35.4735,
    "pop": 418440,
    "longitude": 149.0124,
    "name": "Australian Capital Territory",
    "country": "AU",
    "lastUpdated": "2020-05-10T09:46:24.567Z",
    "dead": 3,
    "sick": 0,
    "invisible": false
  },
  {
    "infected": 1114,
    "recovered": 162,
    "latitude": 57.8992,
    "pop": 608000,
    "longitude": 38.8389,
    "name": "Yaroslavl Oblast",
    "country": "RU",
    "lastUpdated": "2020-05-10T09:30:20.947Z",
    "dead": 11,
    "id": "3PfzjWjvOkfgxc672BHQ",
    "sick": 941,
    "invisible": false
  },
  {
    "infected": 81,
    "recovered": 29,
    "latitude": 51.8873,
    "pop": 321000,
    "longitude": 95.626,
    "name": "Tuva",
    "country": "RU",
    "lastUpdated": "2020-05-10T09:30:20.957Z",
    "dead": 0,
    "id": "3PpqgIUJAtzxo1j7z56i",
    "sick": 52,
    "invisible": false
  },
  {
    "latitude": 26.2006,
    "pop": 30940000,
    "longitude": 92.9376,
    "name": "Assam",
    "country": "IN",
    "lastUpdated": "2020-05-10T04:41:07.987Z",
    "dead": 2,
    "id": "3cCbnJCsK7mKlTO08K1o",
    "infected": 63,
    "recovered": 35,
    "sick": 26,
    "invisible": false
  },
  {
    "latitude": 40.4173,
    "pop": 11690000,
    "longitude": -82.9071,
    "name": "Ohio",
    "country": "US",
    "lastUpdated": "2020-05-10T09:39:01.888Z",
    "dead": 1331,
    "id": "3fC3bAyIRUquOQOEnQNe",
    "infected": 23697,
    "recovered": 0,
    "sick": 22366,
    "invisible": false
  },
  {
    "latitude": 25,
    "pop": 3066400,
    "longitude": -107.5,
    "name": "Sinaloa",
    "country": "MX",
    "lastUpdated": "2020-05-10T09:32:09.003Z",
    "dead": 211,
    "id": "3kFCzJguabtBvXaHxgiu",
    "infected": 1425,
    "recovered": 0,
    "sick": 1214,
    "invisible": false
  },
  {
    "infected": 1265,
    "recovered": 375,
    "latitude": 3.420556,
    "pop": 4708300,
    "longitude": -76.522224,
    "name": "Valle del Cauca",
    "country": "CO",
    "lastUpdated": "2020-05-10T09:41:08.450Z",
    "dead": 72,
    "id": "3mC2LveOpXV8P1PmQGUj",
    "sick": 818,
    "invisible": false
  },
  {
    "recovered": 6,
    "latitude": 21.0079,
    "pop": 4420000,
    "longitude": -10.9408,
    "name": "Mauritania",
    "country": "MR",
    "lastUpdated": "2020-05-10T09:40:02.374Z",
    "dead": 1,
    "id": "4NnFMekRK2m14IlnZZoj",
    "infected": 8,
    "sick": 1,
    "invisible": false
  },
  {
    "id": "4hfZRUoUgI4a3vrG0GBk",
    "infected": 2330,
    "recovered": 0,
    "latitude": 53.7267,
    "pop": 5071000,
    "longitude": -127.6476,
    "name": "British Columbia",
    "country": "CA",
    "lastUpdated": "2020-05-10T09:27:01.378Z",
    "dead": 129,
    "sick": 2201,
    "invisible": false
  },
  {
    "latitude": -22.908333,
    "pop": 17159960,
    "longitude": -43.196388,
    "name": "Rio de Janeiro",
    "country": "BR",
    "lastUpdated": "2020-05-10T09:38:08.736Z",
    "dead": 1653,
    "id": "4kq0z3kh5zt3YAUWxvtE",
    "infected": 16929,
    "recovered": 0,
    "sick": 15276,
    "invisible": false
  },
  {
    "infected": 5174,
    "recovered": 0,
    "latitude": -11.409874,
    "pop": 14812617,
    "longitude": -41.280857,
    "name": "Bahia",
    "country": "BR",
    "lastUpdated": "2020-05-10T09:38:08.734Z",
    "dead": 196,
    "id": "4yDbkEyqsNzZJjfrciYV",
    "sick": 4978,
    "invisible": false
  },
  {
    "latitude": 40.3426,
    "pop": 9898000,
    "longitude": 47.93802,
    "name": "Azerbaijan",
    "country": "AZ",
    "lastUpdated": "2020-05-10T09:40:02.361Z",
    "dead": 31,
    "id": "4zqzRm2xHn0CDVOUQJ8p",
    "infected": 2422,
    "recovered": 1620,
    "sick": 771,
    "invisible": false
  },
  {
    "latitude": 22.233105,
    "pop": 3672300,
    "longitude": -97.861099,
    "name": "Tamaulipas",
    "country": "MX",
    "lastUpdated": "2020-05-10T09:32:09.004Z",
    "dead": 42,
    "id": "54cfsdsRF76XVHWtZs19",
    "infected": 799,
    "recovered": 0,
    "sick": 757,
    "invisible": false
  },
  {
    "id": "57ydD48mLRD2YoyteJZj",
    "infected": 29233,
    "recovered": 7465,
    "latitude": 51.0109,
    "pop": 6596000,
    "longitude": 3.7265,
    "name": "Flanders",
    "country": "BE",
    "lastUpdated": "2020-05-10T09:26:05.321Z",
    "dead": 4244,
    "sick": 17524,
    "invisible": false
  },
  {
    "recovered": 37,
    "latitude": 25.025885,
    "pop": 395361,
    "longitude": -78.035889,
    "name": "Bahamas",
    "country": "BS",
    "lastUpdated": "2020-05-10T09:40:02.370Z",
    "dead": 11,
    "id": "5MHegCUO9L3LiAU7DDey",
    "infected": 92,
    "sick": 44,
    "invisible": false
  },
  {
    "lastUpdated": "2020-05-10T09:46:24.581Z",
    "dead": 44,
    "id": "5N16a2OXXRpsEFanw0TC",
    "infected": 3051,
    "recovered": 2515,
    "latitude": -31.253218,
    "pop": 7544000,
    "longitude": 146.921097,
    "name": "New South Wales",
    "country": "AU",
    "sick": 492,
    "invisible": false
  },
  {
    "lastUpdated": "2020-05-10T09:40:02.369Z",
    "dead": 0,
    "id": "5N4PRxsCDzzwk7R200V1",
    "infected": 120,
    "recovered": 2,
    "latitude": 6.8769908,
    "pop": 12580000,
    "longitude": 31.3069782,
    "name": "South Sudan",
    "country": "SS",
    "sick": 118,
    "invisible": false
  },
  {
    "recovered": 8861,
    "latitude": 39.484,
    "pop": 4975000,
    "longitude": -0.7533,
    "name": "C. Valenciana",
    "country": "ES",
    "lastUpdated": "2020-05-10T09:32:09.387Z",
    "dead": 1323,
    "id": "5Va9A7CXR8AXdUz4HTJj",
    "infected": 13840,
    "sick": 3656,
    "invisible": false
  },
  {
    "recovered": 18,
    "latitude": -20.9043045,
    "pop": 280460,
    "longitude": 165.618042,
    "name": "New Caledonia",
    "country": "NC",
    "lastUpdated": "2020-05-10T09:40:02.372Z",
    "dead": 0,
    "id": "5fg04eyDwFw3kEXnrxez",
    "infected": 18,
    "sick": 0,
    "invisible": false
  },
  {
    "id": "5gXZIjRgAvd6xWN1LOv8",
    "infected": 110,
    "recovered": 31,
    "latitude": 28.394857,
    "pop": 29300000,
    "longitude": 84.124008,
    "name": "Nepal",
    "country": "NP",
    "lastUpdated": "2020-05-10T09:40:02.370Z",
    "dead": 0,
    "sick": 79,
    "invisible": false
  },
  {
    "lastUpdated": "2020-05-10T09:40:02.358Z",
    "dead": 719,
    "id": "5pwmh7aSdGRKqRbnuyc0",
    "infected": 10794,
    "recovered": 1924,
    "latitude": 12.879721,
    "pop": 104900000,
    "longitude": 121.774017,
    "name": "Philippines",
    "country": "PH",
    "sick": 8151,
    "invisible": false
  },
  {
    "id": "5qtR9nx4BLwu1ODTniaY",
    "infected": 36,
    "recovered": 9,
    "latitude": -17.824858,
    "pop": 14802190,
    "longitude": 31.053028,
    "name": "Zimbabwe",
    "country": "ZW",
    "lastUpdated": "2020-05-10T09:40:02.371Z",
    "dead": 4,
    "sick": 23,
    "invisible": false
  },
  {
    "longitude": -109.188,
    "name": "Navajo Nation",
    "country": "US",
    "lastUpdated": "2020-05-10T09:39:01.893Z",
    "dead": 96,
    "id": "5vkKgxTaKq1IH0Go357L",
    "invisible": true,
    "infected": 2876,
    "recovered": 0,
    "latitude": 36.0672,
    "pop": 356890,
    "sick": 2780
  },
  {
    "longitude": -99.177254,
    "name": "Ciudad de México",
    "country": "MX",
    "lastUpdated": "2020-05-10T09:32:09.003Z",
    "dead": 696,
    "id": "61E7TGjUwAo9xu6Y6gAH",
    "infected": 9218,
    "recovered": 0,
    "latitude": 19.432241,
    "pop": 8781300,
    "sick": 8522,
    "invisible": false
  },
  {
    "recovered": 228,
    "latitude": 54.3873,
    "pop": 1012000,
    "longitude": 35.1889,
    "name": "Kaluga Oblast",
    "country": "RU",
    "lastUpdated": "2020-05-10T09:30:20.935Z",
    "dead": 15,
    "id": "63KYOuWe41mvqWQrJbr2",
    "infected": 1730,
    "sick": 1487,
    "invisible": false
  },
  {
    "longitude": 23.804991,
    "name": "Lithuania",
    "country": "LT",
    "lastUpdated": "2020-05-10T09:40:02.363Z",
    "dead": 50,
    "id": "694ON7d0mRJDeM1gHBTR",
    "infected": 1479,
    "recovered": 828,
    "latitude": 55.621011,
    "pop": 2794000,
    "sick": 601,
    "invisible": false
  },
  {
    "latitude": 51.1781,
    "pop": 9175000,
    "longitude": -0.5596,
    "name": "South East",
    "country": "GB",
    "lastUpdated": "2020-05-10T09:38:13.464Z",
    "dead": 0,
    "id": "6IQAsvrmBv0HPdeTnh4x",
    "infected": 19119,
    "recovered": 0,
    "sick": 19119,
    "invisible": false
  },
  {
    "latitude": 22.396427,
    "pop": 7392000,
    "longitude": 114.109497,
    "name": "Hong Kong",
    "country": "HK",
    "lastUpdated": "2020-05-10T09:40:02.363Z",
    "dead": 4,
    "id": "6IcHIIH0zXpY0POmBZTv",
    "infected": 1045,
    "recovered": 967,
    "sick": 74,
    "invisible": false
  },
  {
    "infected": 1335,
    "recovered": 0,
    "latitude": -8.65,
    "pop": 869265,
    "longitude": -72.4,
    "name": "Acre",
    "country": "BR",
    "lastUpdated": "2020-05-10T09:38:08.726Z",
    "dead": 39,
    "id": "6LQesrx5bHJsVUi1TXBp",
    "sick": 1296,
    "invisible": false
  },
  {
    "infected": 284,
    "recovered": 62,
    "latitude": 9.3077,
    "pop": 11180000,
    "longitude": 2.3158,
    "name": "Benin",
    "country": "BJ",
    "lastUpdated": "2020-05-10T09:40:02.367Z",
    "dead": 2,
    "id": "6SlpghTyB6lpMFvx3g9U",
    "sick": 220,
    "invisible": false
  },
  {
    "infected": 81225,
    "recovered": 36039,
    "latitude": 45.6667,
    "pop": 10040000,
    "longitude": 9.5,
    "name": "Lombardia",
    "country": "IT",
    "lastUpdated": "2020-05-10T09:31:10.197Z",
    "dead": 14924,
    "id": "6ZHcvMIzVWIaRnc4R3Qp",
    "sick": 30262,
    "invisible": false
  },
  {
    "latitude": 46.0569,
    "pop": 2067000,
    "longitude": 14.5058,
    "name": "Slovenia",
    "country": "SI",
    "lastUpdated": "2020-05-10T09:40:02.363Z",
    "dead": 101,
    "id": "6ahNiyKDSDAftCctgLH3",
    "infected": 1454,
    "recovered": 255,
    "sick": 1098,
    "invisible": false
  },
  {
    "recovered": 0,
    "latitude": -27.3667908,
    "pop": 300000,
    "longitude": -70.331398,
    "name": "Atacama",
    "country": "CL",
    "lastUpdated": "2020-05-10T09:41:07.335Z",
    "dead": 0,
    "id": "6nyns7UGGgkU7pxrHf8i",
    "infected": 117,
    "sick": 117,
    "invisible": false
  },
  {
    "infected": 661,
    "recovered": 110,
    "latitude": -0.8037,
    "pop": 2025000,
    "longitude": 11.6094,
    "name": "Gabon",
    "country": "GA",
    "lastUpdated": "2020-05-10T09:40:02.365Z",
    "dead": 8,
    "id": "6pBi38TUgYfFm0bry2uh",
    "sick": 543,
    "invisible": false
  },
  {
    "infected": 271,
    "recovered": 0,
    "latitude": 22.1498,
    "pop": 2831900,
    "longitude": -100.9792,
    "name": "San Luis Potosí",
    "country": "MX",
    "lastUpdated": "2020-05-10T09:32:09.004Z",
    "dead": 16,
    "id": "6vjIVg1gSANFZghV7xtS",
    "sick": 255,
    "invisible": false
  },
  {
    "latitude": 17.901672,
    "pop": 9131,
    "longitude": -62.818544,
    "name": "Saint-Barthélémy",
    "country": "FR",
    "lastUpdated": "2020-05-10T09:40:02.374Z",
    "dead": 0,
    "id": "78Ox26bNHDA2Pk2b3Uwn",
    "infected": 6,
    "recovered": 6,
    "sick": 0,
    "invisible": false
  },
  {
    "latitude": 54.367,
    "pop": 2305000,
    "longitude": 18.633,
    "name": "Pomorskie",
    "country": "PL",
    "lastUpdated": "2020-05-10T09:33:08.895Z",
    "dead": 24,
    "id": "7JDx6UJiwGSJyL1fChaJ",
    "infected": 481,
    "recovered": 0,
    "sick": 457,
    "invisible": false
  },
  {
    "longitude": -2.9381,
    "name": "Melilla",
    "country": "ES",
    "lastUpdated": "2020-05-10T09:32:09.388Z",
    "dead": 2,
    "id": "7UASdZTZ1nPzzBwSTEA9",
    "infected": 132,
    "recovered": 111,
    "latitude": 35.2923,
    "pop": 84690,
    "sick": 19,
    "invisible": false
  },
  {
    "longitude": -61.7964,
    "name": "Antigua and Barbuda",
    "country": "AG",
    "lastUpdated": "2020-05-10T09:40:02.371Z",
    "dead": 3,
    "id": "7hVFcEV7nV0MrQr3LHrl",
    "infected": 25,
    "recovered": 19,
    "latitude": 17.0608,
    "pop": 102012,
    "sick": 3,
    "invisible": false
  },
  {
    "infected": 45176,
    "recovered": 37490,
    "latitude": 48.7904,
    "pop": 13000000,
    "longitude": 11.4979,
    "name": "Bayern",
    "country": "DE",
    "lastUpdated": "2020-05-10T09:30:03.627Z",
    "dead": 2266,
    "id": "7kCrrlOBE3jN6FtOVNUB",
    "sick": 5420,
    "invisible": false
  },
  {
    "infected": 3263,
    "recovered": 933,
    "latitude": 47.4979,
    "pop": 9773000,
    "longitude": 19.0402,
    "name": "Hungary",
    "country": "HU",
    "lastUpdated": "2020-05-10T09:40:02.361Z",
    "dead": 413,
    "id": "7rYC2iFB50c55Ihgbs4Q",
    "sick": 1917,
    "invisible": false
  },
  {
    "infected": 418,
    "recovered": 52,
    "latitude": 10.9685,
    "pop": 2400000,
    "longitude": -74.7813,
    "name": "Barranquilla D.E.",
    "country": "CO",
    "lastUpdated": "2020-05-10T09:41:08.457Z",
    "dead": 23,
    "id": "7tqLvLyXcBDK808nJv0m",
    "sick": 343,
    "invisible": false
  },
  {
    "infected": 2274,
    "recovered": 1232,
    "latitude": 7.3697,
    "pop": 24050000,
    "longitude": 12.3547,
    "name": "Cameroon",
    "country": "CM",
    "lastUpdated": "2020-05-10T09:40:02.362Z",
    "dead": 108,
    "id": "8C0d7WVCjyUGtnc2gUAR",
    "sick": 934,
    "invisible": false
  },
  {
    "infected": 5379,
    "recovered": 2129,
    "latitude": 50.8503,
    "pop": 1209000,
    "longitude": 4.3517,
    "name": "Brussels",
    "country": "BE",
    "lastUpdated": "2020-05-10T09:26:05.322Z",
    "dead": 1328,
    "id": "8DOZWbN6bDdgaLXVlUEu",
    "sick": 1922,
    "invisible": false
  },
  {
    "longitude": -63.5887,
    "name": "Bolivia",
    "country": "BO",
    "lastUpdated": "2020-05-10T09:40:02.361Z",
    "dead": 114,
    "id": "8RihJrXw4NQXPxaRxr1u",
    "infected": 2437,
    "recovered": 258,
    "latitude": -16.2902,
    "pop": 11050000,
    "sick": 2065,
    "invisible": false
  },
  {
    "infected": 17,
    "recovered": 9,
    "latitude": 12.9843,
    "pop": 109897,
    "longitude": -61.2872,
    "name": "St. Vincent Grenadines",
    "country": "VC",
    "lastUpdated": "2020-05-10T09:40:02.372Z",
    "dead": 0,
    "id": "8ZTySQROQejkDAad0qxQ",
    "sick": 8,
    "invisible": false
  },
  {
    "infected": 23336,
    "recovered": 2296,
    "latitude": 1.352083,
    "pop": 5621000,
    "longitude": 103.819839,
    "name": "Singapore",
    "country": "SG",
    "lastUpdated": "2020-05-10T09:40:02.357Z",
    "dead": 20,
    "id": "8pA3fM4xC2c2wv1b4TnE",
    "sick": 21020,
    "invisible": false
  },
  {
    "latitude": 47.2184,
    "pop": 3787000,
    "longitude": -1.5536,
    "name": "Pays de la Loire",
    "country": "FR",
    "lastUpdated": "2020-05-09T23:34:38.754Z",
    "dead": 382,
    "id": "98hwAoohgWEOQVa3NlM5",
    "infected": 3407,
    "recovered": 1403,
    "sick": 1622,
    "invisible": false
  },
  {
    "infected": 250,
    "recovered": 0,
    "latitude": 19.30754,
    "pop": 952300,
    "longitude": -90.19885,
    "name": "Campeche",
    "country": "MX",
    "lastUpdated": "2020-05-10T09:32:09.004Z",
    "dead": 27,
    "id": "9DAvxOObTqIvMOU93nlY",
    "sick": 223,
    "invisible": false
  },
  {
    "longitude": 30.2176,
    "name": "Sudan",
    "country": "SD",
    "lastUpdated": "2020-05-10T09:40:02.363Z",
    "dead": 64,
    "id": "9DPOkpIqrFy9mR4e9fuv",
    "infected": 1164,
    "recovered": 119,
    "latitude": 12.8628,
    "pop": 40530000,
    "sick": 981,
    "invisible": false
  },
  {
    "recovered": 107,
    "latitude": 58.5501,
    "pop": 643000,
    "longitude": 43.9541,
    "name": "Kostroma Oblast",
    "country": "RU",
    "lastUpdated": "2020-05-10T09:30:20.955Z",
    "dead": 3,
    "id": "9JFYfvpcejMIgYlHpngA",
    "infected": 357,
    "sick": 247,
    "invisible": false
  },
  {
    "recovered": 6912,
    "latitude": 45.943161,
    "pop": 19530000,
    "longitude": 24.966761,
    "name": "Romania",
    "country": "RO",
    "lastUpdated": "2020-05-10T09:40:02.358Z",
    "dead": 945,
    "id": "9QcETqEcM2fTv9zRvx5T",
    "infected": 15131,
    "sick": 7274,
    "invisible": false
  },
  {
    "lastUpdated": "2020-05-10T09:40:02.372Z",
    "dead": 5,
    "id": "9Y5wmCqNCC6ZrenM31uA",
    "infected": 16,
    "recovered": 7,
    "latitude": 12.136389,
    "pop": 6218000,
    "longitude": -86.251389,
    "name": "Nicaragua",
    "country": "NI",
    "sick": 4,
    "invisible": false
  },
  {
    "infected": 692,
    "recovered": 298,
    "latitude": 17.5706921,
    "pop": 18540000,
    "longitude": -3.996166,
    "name": "Mali",
    "country": "ML",
    "lastUpdated": "2020-05-10T09:40:02.365Z",
    "dead": 37,
    "id": "9dIzxqDSVqPyINkHqwGv",
    "sick": 357,
    "invisible": false
  },
  {
    "lastUpdated": "2020-05-10T09:40:02.359Z",
    "dead": 265,
    "id": "9p6OCdZbUUwBLA60Gk3W",
    "infected": 5913,
    "recovered": 4000,
    "latitude": 61.92411,
    "pop": 5513000,
    "longitude": 25.748152,
    "name": "Finland",
    "country": "FI",
    "sick": 1648,
    "invisible": false
  },
  {
    "latitude": 64.248,
    "pop": 2876000,
    "longitude": 95.1104,
    "name": "Krasnoyarsk Krai",
    "country": "RU",
    "lastUpdated": "2020-05-10T09:30:20.947Z",
    "dead": 14,
    "id": "A6Us0fpQVCc85SoIqzg3",
    "infected": 1143,
    "recovered": 284,
    "sick": 845,
    "invisible": false
  },
  {
    "infected": 3011,
    "recovered": 0,
    "latitude": 43.311643,
    "pop": 1356000,
    "longitude": -71.590315,
    "name": "New Hampshire",
    "country": "US",
    "lastUpdated": "2020-05-10T09:39:01.891Z",
    "dead": 131,
    "id": "A84CwQ52kA46Hr7pn6Bm",
    "sick": 2880,
    "invisible": false
  },
  {
    "latitude": 41.823261,
    "pop": 1057000,
    "longitude": -71.412257,
    "name": "Rhode Island",
    "country": "US",
    "lastUpdated": "2020-05-10T09:39:01.889Z",
    "dead": 418,
    "id": "AEUWUHS65qvjEslew11c",
    "infected": 10989,
    "recovered": 0,
    "sick": 10571,
    "invisible": false
  },
  {
    "latitude": 44.498955,
    "pop": 4453000,
    "longitude": 11.327591,
    "name": "Emilia-Romagna",
    "country": "IT",
    "lastUpdated": "2020-05-10T09:31:10.196Z",
    "dead": 3827,
    "id": "AJ9jQ0iyKsafsmf5yHAR",
    "infected": 26719,
    "recovered": 15491,
    "sick": 7401,
    "invisible": false
  },
  {
    "latitude": 49.3964,
    "pop": 990509,
    "longitude": 7.023,
    "name": "Saarland",
    "country": "DE",
    "lastUpdated": "2020-05-10T09:30:03.629Z",
    "dead": 148,
    "id": "AKjFRQGnzuuZQhv5Qwx7",
    "infected": 2710,
    "recovered": 2224,
    "sick": 338,
    "invisible": false
  },
  {
    "recovered": 249,
    "latitude": 54.4319,
    "pop": 3493000,
    "longitude": 60.8789,
    "name": "Chelyabinsk Oblast",
    "country": "RU",
    "lastUpdated": "2020-05-10T09:30:20.947Z",
    "dead": 4,
    "id": "AOapJ3gElQApd8Gnt8EL",
    "infected": 1041,
    "sick": 788,
    "invisible": false
  },
  {
    "latitude": -35.717,
    "pop": 1125002,
    "longitude": -71.167,
    "name": "Maule",
    "country": "CL",
    "lastUpdated": "2020-05-10T09:41:07.413Z",
    "dead": 14,
    "id": "APTPgjAsjFi0nsGyJV7M",
    "infected": 432,
    "recovered": 0,
    "sick": 418,
    "invisible": false
  },
  {
    "latitude": 71.7069,
    "pop": 56171,
    "longitude": -42.6043,
    "name": "Greenland",
    "country": "GL",
    "lastUpdated": "2020-05-10T09:40:02.373Z",
    "dead": 0,
    "id": "APaZzlGCEeuoLBtzTJMe",
    "infected": 11,
    "recovered": 11,
    "sick": 0,
    "invisible": false
  },
  {
    "infected": 570,
    "recovered": 177,
    "latitude": 54.8331,
    "pop": 984000,
    "longitude": 112.4061,
    "name": "Buryatia",
    "country": "RU",
    "lastUpdated": "2020-05-10T09:30:20.955Z",
    "dead": 5,
    "id": "ATxF6ZoDJ2ibdE6ZRYIX",
    "sick": 388,
    "invisible": false
  },
  {
    "id": "AVCpxeh0fuH2WrHWNDYH",
    "infected": 1011,
    "recovered": 0,
    "latitude": 45.65107,
    "pop": 971395,
    "longitude": -63.582687,
    "name": "Nova Scotia",
    "country": "CA",
    "lastUpdated": "2020-05-10T09:27:01.378Z",
    "dead": 47,
    "sick": 964,
    "invisible": false
  },
  {
    "lastUpdated": "2020-05-10T09:39:01.892Z",
    "dead": 16,
    "id": "AcULcZBozObOhwuRKMjJ",
    "infected": 458,
    "recovered": 0,
    "latitude": 47.012918,
    "pop": 1062000,
    "longitude": -109.128641,
    "name": "Montana",
    "country": "US",
    "sick": 442,
    "invisible": false
  },
  {
    "longitude": 71.2761,
    "name": "Tajikistan",
    "country": "TJ",
    "lastUpdated": "2020-05-10T09:40:02.366Z",
    "dead": 20,
    "id": "AiIGs3ybYZZhm1ytVopr",
    "infected": 612,
    "recovered": 0,
    "latitude": 38.861,
    "pop": 9275000,
    "sick": 592,
    "invisible": false
  },
  {
    "id": "AmBYm5J6E9Cuez1FQjiN",
    "infected": 937,
    "recovered": 936,
    "latitude": 27.285971,
    "pop": 45200000,
    "longitude": 116.01609,
    "name": "Jiangxi",
    "country": "CN",
    "lastUpdated": "2020-05-10T09:38:11.686Z",
    "dead": 1,
    "sick": 0,
    "invisible": false
  },
  {
    "infected": 11121,
    "recovered": 0,
    "latitude": 52.1307,
    "pop": 3136000,
    "longitude": -3.7837,
    "name": "Wales",
    "country": "GB",
    "lastUpdated": "2020-05-10T09:38:13.460Z",
    "dead": 1099,
    "id": "AoLhHdTydeWTfmp9koEX",
    "sick": 10022,
    "invisible": false
  },
  {
    "infected": 425,
    "recovered": 96,
    "latitude": 53.0452,
    "pop": 537000,
    "longitude": 90.3982,
    "name": "Khakassia",
    "country": "RU",
    "lastUpdated": "2020-05-10T09:30:20.955Z",
    "dead": 8,
    "id": "Avls64fLKoEsBFH0Ol0b",
    "sick": 321,
    "invisible": false
  },
  {
    "latitude": 28.033886,
    "pop": 41320000,
    "longitude": 1.659626,
    "name": "Algeria",
    "country": "DZ",
    "lastUpdated": "2020-05-10T09:40:02.360Z",
    "dead": 494,
    "id": "AwN0CScPDApcLFgz6e3z",
    "infected": 5558,
    "recovered": 2546,
    "sick": 2518,
    "invisible": false
  },
  {
    "latitude": 45.099998,
    "pop": 4076000,
    "longitude": 15.2,
    "name": "Croatia",
    "country": "HR",
    "lastUpdated": "2020-05-10T09:40:02.362Z",
    "dead": 87,
    "id": "B82Ef45M8cDu4q7VsSHF",
    "infected": 2176,
    "recovered": 1726,
    "sick": 363,
    "invisible": false
  },
  {
    "recovered": 617,
    "latitude": 17.6077881,
    "pop": 23716000,
    "longitude": 8.081666,
    "name": "Niger",
    "country": "NE",
    "lastUpdated": "2020-05-10T09:40:02.364Z",
    "dead": 45,
    "id": "BENubqQInFUJzhpZTsLT",
    "infected": 815,
    "sick": 153,
    "invisible": false
  },
  {
    "latitude": 39.509109,
    "pop": 6043000,
    "longitude": -76.98432,
    "name": "Maryland",
    "country": "US",
    "lastUpdated": "2020-05-10T09:39:01.887Z",
    "dead": 1614,
    "id": "BF51mWl51fgEcyBpCSzb",
    "infected": 31534,
    "recovered": 0,
    "sick": 29920,
    "invisible": false
  },
  {
    "infected": 22052,
    "recovered": 6050,
    "latitude": 53.709808,
    "pop": 9508000,
    "longitude": 27.953388,
    "name": "Belarus",
    "country": "BY",
    "lastUpdated": "2020-05-10T09:40:02.357Z",
    "dead": 126,
    "id": "BGg6yVU5VP71B8NXU0oh",
    "sick": 15876,
    "invisible": false
  },
  {
    "latitude": 48.8799,
    "pop": 3319000,
    "longitude": 0.1713,
    "name": "Normandie",
    "country": "FR",
    "lastUpdated": "2020-05-09T23:34:51.092Z",
    "dead": 370,
    "id": "BGtoyzb7y54LVlJ91rbf",
    "infected": 3046,
    "recovered": 1205,
    "sick": 1471,
    "invisible": false
  },
  {
    "infected": 6974,
    "recovered": 0,
    "latitude": 50.7772,
    "pop": 5616000,
    "longitude": -3.9995,
    "name": "South West",
    "country": "GB",
    "lastUpdated": "2020-05-10T09:38:13.465Z",
    "dead": 0,
    "id": "BQqMOlPFD36ZEDTGd3WC",
    "sick": 6974,
    "invisible": false
  },
  {
    "recovered": 0,
    "latitude": 34.048927,
    "pop": 7172000,
    "longitude": -111.093735,
    "name": "Arizona",
    "country": "US",
    "lastUpdated": "2020-05-10T09:39:01.889Z",
    "dead": 532,
    "id": "BTEESCuD2ZbS1afunR2A",
    "infected": 10960,
    "sick": 10428,
    "invisible": false
  },
  {
    "latitude": 54.9883,
    "pop": 949000,
    "longitude": 32.6677,
    "name": "Smolensk Oblast",
    "country": "RU",
    "lastUpdated": "2020-05-10T09:30:20.949Z",
    "dead": 7,
    "id": "BUb7oDHcBM4lQ5cufNoG",
    "infected": 738,
    "recovered": 254,
    "sick": 477,
    "invisible": false
  },
  {
    "infected": 807,
    "recovered": 236,
    "latitude": 58.4199,
    "pop": 1283000,
    "longitude": 50.2097,
    "name": "Kirov Oblast",
    "country": "RU",
    "lastUpdated": "2020-05-10T09:30:20.949Z",
    "dead": 4,
    "id": "BWojXmuKU3szKlS7CE4k",
    "sick": 567,
    "invisible": false
  },
  {
    "infected": 472,
    "recovered": 0,
    "latitude": 53.428543,
    "pop": 1676000,
    "longitude": 14.552812,
    "name": "Zachodniopomorskie",
    "country": "PL",
    "lastUpdated": "2020-05-10T09:33:08.895Z",
    "dead": 16,
    "id": "BZwZOAlDJ8AIiaRVLyC9",
    "sick": 456,
    "invisible": false
  },
  {
    "lastUpdated": "2020-05-10T09:41:07.415Z",
    "dead": 0,
    "id": "BbiuZcm8oURX7cZwaa5U",
    "invisible": true,
    "infected": 0,
    "recovered": 12667,
    "latitude": -33.4489,
    "longitude": -70.6693,
    "name": "Unknown Chile region",
    "country": "CL",
    "sick": 0
  },
  {
    "infected": 56,
    "recovered": 14,
    "latitude": -13.2543,
    "pop": 18620000,
    "longitude": 34.3015,
    "name": "Malawi",
    "country": "MW",
    "lastUpdated": "2020-05-10T09:40:02.371Z",
    "dead": 3,
    "id": "BfT8o5DaEixC6JIZ28kY",
    "sick": 39,
    "invisible": false
  },
  {
    "recovered": 7,
    "latitude": -3.3730559,
    "pop": 10860000,
    "longitude": 29.9188862,
    "name": "Burundi",
    "country": "BI",
    "lastUpdated": "2020-05-10T09:40:02.373Z",
    "dead": 1,
    "id": "BnpMamidC5yYzeK8tPUL",
    "infected": 15,
    "sick": 7,
    "invisible": false
  },
  {
    "infected": 2765,
    "recovered": 0,
    "latitude": 52.257,
    "pop": 5385000,
    "longitude": 21.002,
    "name": "Mazowieckie",
    "country": "PL",
    "lastUpdated": "2020-05-10T09:33:08.893Z",
    "dead": 222,
    "id": "BrToMzyq8y2xdwXn75kM",
    "sick": 2543,
    "invisible": false
  },
  {
    "id": "C25xSDm4iYibX5RYML14",
    "infected": 433,
    "recovered": 0,
    "latitude": -1.333845,
    "pop": 74751,
    "longitude": -71.347573,
    "name": "Amazonas (Colombia)",
    "country": "CO",
    "lastUpdated": "2020-05-10T09:41:08.465Z",
    "dead": 19,
    "sick": 414,
    "invisible": false
  },
  {
    "longitude": -73.982597,
    "name": "New York",
    "country": "US",
    "lastUpdated": "2020-05-10T09:39:01.883Z",
    "dead": 26771,
    "id": "C3BCUzV80z9GfiuByIcr",
    "infected": 343409,
    "recovered": 0,
    "latitude": 40.719042,
    "pop": 19540000,
    "sick": 316638,
    "invisible": false
  },
  {
    "longitude": 15.359413,
    "name": "Czechia",
    "country": "CZ",
    "lastUpdated": "2020-05-10T09:40:02.359Z",
    "dead": 276,
    "id": "C6S76AggdWVU8G22jFHQ",
    "infected": 8095,
    "recovered": 4448,
    "latitude": 49.731626,
    "pop": 10650000,
    "sick": 3371,
    "invisible": false
  },
  {
    "infected": 4774,
    "recovered": 2055,
    "latitude": 26.0667,
    "pop": 1493000,
    "longitude": 50.557701,
    "name": "Bahrain",
    "country": "BH",
    "lastUpdated": "2020-05-10T09:40:02.360Z",
    "dead": 8,
    "id": "C7cj4nwRITs13KnaJrQ2",
    "sick": 2711,
    "invisible": false
  },
  {
    "recovered": 16,
    "latitude": 10.4113,
    "pop": 1285400,
    "longitude": -74.4057,
    "name": "Magdalena",
    "country": "CO",
    "lastUpdated": "2020-05-10T09:41:08.463Z",
    "dead": 7,
    "id": "CA9LaAl3bNaeAqBuozn4",
    "infected": 73,
    "sick": 50,
    "invisible": false
  },
  {
    "recovered": 0,
    "latitude": 26.909979,
    "pop": 3073500,
    "longitude": -101.430756,
    "name": "Coahuila",
    "country": "MX",
    "lastUpdated": "2020-05-10T09:32:09.003Z",
    "dead": 53,
    "id": "CCUFp4urvgXPo5unfMGy",
    "infected": 614,
    "sick": 561,
    "invisible": false
  },
  {
    "id": "CKZCZTPlrcq5fbfUPA9k",
    "infected": 3741,
    "recovered": 2176,
    "latitude": 27.0238,
    "pop": 68890000,
    "longitude": 74.2179,
    "name": "Rajasthan",
    "country": "IN",
    "lastUpdated": "2020-05-10T09:41:09.194Z",
    "dead": 107,
    "sick": 1458,
    "invisible": false
  },
  {
    "longitude": 86.2199,
    "name": "Altai",
    "country": "RU",
    "lastUpdated": "2020-05-10T09:30:20.957Z",
    "dead": 0,
    "id": "CX8z9U1iABNBhc1VK2Dy",
    "infected": 52,
    "recovered": 17,
    "latitude": 50.6182,
    "pop": 218000,
    "sick": 35,
    "invisible": false
  },
  {
    "infected": 889,
    "recovered": 293,
    "latitude": 13.803,
    "pop": 6378000,
    "longitude": -88.9053,
    "name": "El Salvador",
    "country": "SV",
    "lastUpdated": "2020-05-10T09:40:02.364Z",
    "dead": 17,
    "id": "Cgvmtle61ehMvCzRzYx7",
    "sick": 579,
    "invisible": false
  },
  {
    "latitude": 62.6643,
    "pop": 144000,
    "longitude": 153.915,
    "name": "Magadan Oblast",
    "country": "RU",
    "lastUpdated": "2020-05-10T09:30:20.956Z",
    "dead": 3,
    "id": "D4WkbqyUXY1pazbOxfKx",
    "infected": 155,
    "recovered": 73,
    "sick": 79,
    "invisible": false
  },
  {
    "latitude": 58.897,
    "pop": 1078000,
    "longitude": 82.6765,
    "name": "Tomsk Oblast",
    "country": "RU",
    "lastUpdated": "2020-05-10T09:30:20.956Z",
    "dead": 2,
    "id": "DAp3PFow4BuCMYWWTo3i",
    "infected": 210,
    "recovered": 56,
    "sick": 152,
    "invisible": false
  },
  {
    "latitude": 40.259003,
    "pop": 2973000,
    "longitude": 44.818474,
    "name": "Armenia",
    "country": "AM",
    "lastUpdated": "2020-05-10T09:40:02.361Z",
    "dead": 45,
    "id": "DCJCtZoBTWQ4mzdDNljD",
    "infected": 3313,
    "recovered": 1325,
    "sick": 1943,
    "invisible": false
  },
  {
    "infected": 61,
    "recovered": 18,
    "latitude": 5.535,
    "pop": 1278000,
    "longitude": -73.368,
    "name": "Boyacá",
    "country": "CO",
    "lastUpdated": "2020-05-10T09:41:08.460Z",
    "dead": 3,
    "id": "DJJraANgQbEqz1wBBtZz",
    "sick": 40,
    "invisible": false
  },
  {
    "longitude": 44.0684,
    "name": "Mordovia",
    "country": "RU",
    "lastUpdated": "2020-05-10T09:30:20.947Z",
    "dead": 8,
    "id": "DKwy7USk22oXUQGEvO42",
    "infected": 1148,
    "recovered": 216,
    "latitude": 54.2369,
    "pop": 834000,
    "sick": 924,
    "invisible": false
  },
  {
    "recovered": 0,
    "latitude": 53.6221,
    "pop": 7300000,
    "longitude": -2.5945,
    "name": "North West",
    "country": "GB",
    "lastUpdated": "2020-05-10T09:38:13.464Z",
    "dead": 0,
    "id": "DPwBt2aJuwF0O71vwfM9",
    "infected": 22148,
    "sick": 22148,
    "invisible": false
  },
  {
    "latitude": 32.3213844,
    "pop": 65440,
    "longitude": -64.75737,
    "name": "Bermuda",
    "country": "BM",
    "lastUpdated": "2020-05-10T09:40:02.369Z",
    "dead": 7,
    "id": "DZyTD0Mu5WIcK6yTcJ91",
    "infected": 118,
    "recovered": 64,
    "sick": 47,
    "invisible": false
  },
  {
    "infected": 12,
    "recovered": 8,
    "latitude": 21.694,
    "pop": 35446,
    "longitude": -71.7979,
    "name": "Turks and Caicos",
    "country": "TC",
    "lastUpdated": "2020-05-10T09:40:02.373Z",
    "dead": 1,
    "id": "DaMrRSIGJXIG36nW0Pnc",
    "sick": 3,
    "invisible": false
  },
  {
    "infected": 23662,
    "recovered": 6129,
    "latitude": 39.2796,
    "pop": 2035000,
    "longitude": -3.0977,
    "name": "Castilla La Mancha",
    "country": "ES",
    "lastUpdated": "2020-05-10T09:32:09.388Z",
    "dead": 2759,
    "id": "Dbng0NBTH41EEwBxhMzE",
    "sick": 14774,
    "invisible": false
  },
  {
    "recovered": 0,
    "latitude": 50.023,
    "pop": 3361000,
    "longitude": 20.006,
    "name": "Malopolskie",
    "country": "PL",
    "lastUpdated": "2020-05-10T09:33:08.894Z",
    "dead": 35,
    "id": "DcQ3D0WkacXEbv6iznRB",
    "infected": 1045,
    "sick": 1010,
    "invisible": false
  },
  {
    "infected": 45,
    "recovered": 40,
    "latitude": 22.192039,
    "pop": 622567,
    "longitude": 113.551262,
    "name": "Macao",
    "country": "MO",
    "lastUpdated": "2020-05-10T09:40:02.371Z",
    "dead": 0,
    "id": "DdBt8qsG6A3g92oOR3ow",
    "sick": 5,
    "invisible": false
  },
  {
    "infected": 13,
    "recovered": 10,
    "latitude": 25.467,
    "pop": 2651000,
    "longitude": 91.3662,
    "name": "Meghalaya",
    "country": "IN",
    "lastUpdated": "2020-05-10T09:41:09.196Z",
    "dead": 1,
    "id": "Dh0O1vmhrVfmsCsfZCUg",
    "sick": 2,
    "invisible": false
  },
  {
    "latitude": 47.6853,
    "pop": 4220000,
    "longitude": 41.8259,
    "name": "Rostov Oblast",
    "country": "RU",
    "lastUpdated": "2020-05-10T09:30:20.935Z",
    "dead": 21,
    "id": "DqzAhNFTJFQVm88ma21P",
    "infected": 1763,
    "recovered": 388,
    "sick": 1354,
    "invisible": false
  },
  {
    "latitude": 42.962334,
    "pop": 577737,
    "longitude": -107.534868,
    "name": "Wyoming",
    "country": "US",
    "lastUpdated": "2020-05-10T09:39:01.892Z",
    "dead": 7,
    "id": "DrGzziUglmBognCGY7R2",
    "infected": 653,
    "recovered": 0,
    "sick": 646,
    "invisible": false
  },
  {
    "latitude": 37.9838,
    "pop": 10740000,
    "longitude": 23.7275,
    "name": "Greece",
    "country": "GR",
    "lastUpdated": "2020-05-10T09:40:02.361Z",
    "dead": 151,
    "id": "Dtr1lap1RpJpXJdXGJiW",
    "infected": 2710,
    "recovered": 1374,
    "sick": 1185,
    "invisible": false
  },
  {
    "infected": 743,
    "recovered": 391,
    "latitude": 58.8232,
    "pop": 2623000,
    "longitude": 56.5872,
    "name": "Perm Krai",
    "country": "RU",
    "lastUpdated": "2020-05-10T09:30:20.949Z",
    "dead": 11,
    "id": "E8vIyXLVNtcY9dxLHICp",
    "sick": 341,
    "invisible": false
  },
  {
    "id": "EHKZ6ivhrJUs3XqNDBOw",
    "infected": 803,
    "recovered": 293,
    "latitude": 56.9634,
    "pop": 3692000,
    "longitude": 66.9483,
    "name": "Tyumen Oblast",
    "country": "RU",
    "lastUpdated": "2020-05-10T09:30:20.949Z",
    "dead": 5,
    "sick": 505,
    "invisible": false
  },
  {
    "id": "EKTfs8e7M6DXzI1HqyyX",
    "infected": 440,
    "recovered": 366,
    "latitude": 25.03841,
    "pop": 23780000,
    "longitude": 121.563698,
    "name": "Taiwan",
    "country": "TW",
    "lastUpdated": "2020-05-10T09:40:02.366Z",
    "dead": 6,
    "sick": 68,
    "invisible": false
  },
  {
    "recovered": 480,
    "latitude": 10.327273,
    "pop": 4906000,
    "longitude": -84.387618,
    "name": "Costa Rica",
    "country": "CR",
    "lastUpdated": "2020-05-10T09:40:02.365Z",
    "dead": 6,
    "id": "EQzJvzVHKjs8kLmK7BMu",
    "infected": 780,
    "sick": 294,
    "invisible": false
  },
  {
    "longitude": 71.1924,
    "name": "Gujarat",
    "country": "IN",
    "lastUpdated": "2020-05-10T09:41:09.194Z",
    "dead": 472,
    "id": "ERwk9R9en4m9WbdoMbIg",
    "infected": 7797,
    "recovered": 2091,
    "latitude": 22.2587,
    "pop": 62700000,
    "sick": 5234,
    "invisible": false
  },
  {
    "infected": 425,
    "recovered": 156,
    "latitude": 63.2853,
    "pop": 1155000,
    "longitude": 42.5884,
    "name": "Arkhangelsk Oblast",
    "country": "RU",
    "lastUpdated": "2020-05-10T09:30:20.955Z",
    "dead": 3,
    "id": "EVMBsgCJedjHy91mDYEC",
    "sick": 266,
    "invisible": false
  },
  {
    "id": "Esl5UlCVB9s8pmGB5Ofr",
    "infected": 169,
    "recovered": 24,
    "latitude": 30.7333,
    "pop": 1055000,
    "longitude": 76.7794,
    "name": "Chandigarh",
    "country": "IN",
    "lastUpdated": "2020-05-10T09:41:09.196Z",
    "dead": 2,
    "sick": 143,
    "invisible": false
  },
  {
    "longitude": 22.653,
    "name": "Lubelskie",
    "country": "PL",
    "lastUpdated": "2020-05-10T09:33:08.895Z",
    "dead": 14,
    "id": "Esy1La2CxwH5uB8bGVWZ",
    "infected": 388,
    "recovered": 0,
    "latitude": 51.24,
    "pop": 2148000,
    "sick": 374,
    "invisible": false
  },
  {
    "infected": 2173,
    "recovered": 0,
    "latitude": 18.200178,
    "pop": 3195000,
    "longitude": -66.664513,
    "name": "Puerto Rico",
    "country": "PR",
    "lastUpdated": "2020-05-10T09:39:01.892Z",
    "dead": 108,
    "id": "F4rPrEVGAIMM5rfPEMv4",
    "sick": 2065,
    "invisible": false
  },
  {
    "id": "F7MED5VwEhi3JvJu6KjB",
    "infected": 278,
    "recovered": 139,
    "latitude": 4.862437,
    "pop": 2919000,
    "longitude": -74.058655,
    "name": "Cundinamarca",
    "country": "CO",
    "lastUpdated": "2020-05-10T09:41:08.456Z",
    "dead": 13,
    "sick": 126,
    "invisible": false
  },
  {
    "infected": 11,
    "recovered": 0,
    "latitude": -11.6455,
    "pop": 832322,
    "longitude": 43.3333,
    "name": "Comoros",
    "country": "KM",
    "lastUpdated": "2020-05-10T09:40:02.373Z",
    "dead": 1,
    "id": "F8LnLqvuWoWh8awBqiw1",
    "sick": 10,
    "invisible": false
  },
  {
    "infected": 4033,
    "recovered": 502,
    "latitude": 33.93911,
    "pop": 35530000,
    "longitude": 67.709953,
    "name": "Afghanistan",
    "country": "AF",
    "lastUpdated": "2020-05-10T09:40:02.360Z",
    "dead": 115,
    "id": "FCDmlmnIIswd8bQiUjfN",
    "sick": 3416,
    "invisible": false
  },
  {
    "id": "FErOU1m4Tj7jIkRam3vF",
    "infected": 579,
    "recovered": 573,
    "latitude": 29.431585,
    "pop": 30480000,
    "longitude": 106.912254,
    "name": "Chongqing",
    "country": "CN",
    "lastUpdated": "2020-05-10T09:38:11.686Z",
    "dead": 6,
    "sick": 0,
    "invisible": false
  },
  {
    "infected": 7623,
    "recovered": 2622,
    "latitude": 29.311661,
    "pop": 4137000,
    "longitude": 47.481766,
    "name": "Kuwait",
    "country": "KW",
    "lastUpdated": "2020-05-10T09:40:02.359Z",
    "dead": 49,
    "id": "FZsUkhxBEgqsPb4eO0PN",
    "sick": 4952,
    "invisible": false
  },
  {
    "lastUpdated": "2020-05-10T09:38:08.736Z",
    "dead": 33,
    "id": "FboWeolpM62SZCLwdilT",
    "infected": 1588,
    "recovered": 0,
    "latitude": -10.9111,
    "pop": 2278308,
    "longitude": -37.0717,
    "name": "Sergipe",
    "country": "BR",
    "sick": 1555,
    "invisible": false
  },
  {
    "recovered": 1824,
    "latitude": 11.1271,
    "pop": 67860000,
    "longitude": 78.6569,
    "name": "Tamil Nadu",
    "country": "IN",
    "lastUpdated": "2020-05-10T09:41:09.194Z",
    "dead": 44,
    "id": "FeS45oMNC27pI17F0xEV",
    "infected": 6535,
    "sick": 4667,
    "invisible": false
  },
  {
    "id": "FuiVEJvWb0QMCpxJ3563",
    "infected": 9882,
    "recovered": 2584,
    "latitude": 18.947829,
    "pop": 10770000,
    "longitude": -70.430399,
    "name": "Dominican Republic",
    "country": "DO",
    "lastUpdated": "2020-05-10T09:40:02.359Z",
    "dead": 385,
    "sick": 6913,
    "invisible": false
  },
  {
    "infected": 1163,
    "recovered": 751,
    "latitude": 18.1124,
    "pop": 35190000,
    "longitude": 79.0193,
    "name": "Telengana",
    "country": "IN",
    "lastUpdated": "2020-05-10T09:41:09.195Z",
    "dead": 30,
    "id": "FyC551oNwmENxbr9Yght",
    "sick": 382,
    "invisible": false
  },
  {
    "id": "FzIDXoqWnTI3nUfhPyT2",
    "infected": 1457,
    "recovered": 941,
    "latitude": 48.669,
    "pop": 5450000,
    "longitude": 19.699,
    "name": "Slovakia",
    "country": "SK",
    "lastUpdated": "2020-05-10T09:40:02.363Z",
    "dead": 26,
    "sick": 490,
    "invisible": false
  },
  {
    "recovered": 8023,
    "latitude": 30.37532,
    "pop": 197000000,
    "longitude": 69.345116,
    "name": "Pakistan",
    "country": "PK",
    "lastUpdated": "2020-05-10T09:40:02.357Z",
    "dead": 639,
    "id": "GAp7Wb6IMhdgbvEtMza9",
    "infected": 29465,
    "sick": 20803,
    "invisible": false
  },
  {
    "infected": 1762,
    "recovered": 157,
    "latitude": 31.1471,
    "pop": 27980000,
    "longitude": 75.3412,
    "name": "Punjab",
    "country": "IN",
    "lastUpdated": "2020-05-10T09:41:09.195Z",
    "dead": 31,
    "id": "GGru8cG08mANO8XDDUtZ",
    "sick": 1574,
    "invisible": false
  },
  {
    "latitude": 23.424076,
    "pop": 9400000,
    "longitude": 53.847816,
    "name": "United Arab Emirates",
    "country": "AE",
    "lastUpdated": "2020-05-10T09:40:02.358Z",
    "dead": 185,
    "id": "GHzBIsHy2GiBc5JV2HMs",
    "infected": 17417,
    "recovered": 4295,
    "sick": 12937,
    "invisible": false
  },
  {
    "latitude": 37.0902,
    "longitude": -95.7129,
    "name": "Grand Princess",
    "country": "US",
    "lastUpdated": "2020-05-10T09:39:01.893Z",
    "dead": 3,
    "id": "GLViSIjDjwvptOphedAu",
    "invisible": true,
    "infected": 103,
    "recovered": 0,
    "sick": 100
  },
  {
    "infected": 25734,
    "recovered": 0,
    "latitude": 51.5074,
    "pop": 10100000,
    "longitude": -0.1278,
    "name": "London",
    "country": "GB",
    "lastUpdated": "2020-05-10T09:38:13.463Z",
    "dead": 0,
    "id": "GPtoS0Yy2EnNafpmmTqY",
    "sick": 25734,
    "invisible": false
  },
  {
    "lastUpdated": "2020-05-10T09:39:01.884Z",
    "dead": 2691,
    "id": "Gh46r6vuaY7fbGt3IboN",
    "infected": 66687,
    "recovered": 0,
    "latitude": 36.621981,
    "pop": 39560000,
    "longitude": -119.339046,
    "name": "California",
    "country": "US",
    "sick": 63996,
    "invisible": false
  },
  {
    "longitude": 72.8397,
    "name": "Dadra and Nagar Haveli",
    "country": "IN",
    "lastUpdated": "2020-05-10T09:41:09.197Z",
    "dead": 0,
    "id": "GljWeVnun6o9DeW6rlEm",
    "infected": 1,
    "recovered": 0,
    "latitude": 20.4283,
    "pop": 343709,
    "sick": 1,
    "invisible": false
  },
  {
    "infected": 4490,
    "recovered": 0,
    "latitude": 35.87189,
    "pop": 3943000,
    "longitude": -97.145514,
    "name": "Oklahoma",
    "country": "US",
    "lastUpdated": "2020-05-10T09:39:01.891Z",
    "dead": 270,
    "id": "GpF8ULuKOQiFDCUHN44h",
    "sick": 4220,
    "invisible": false
  },
  {
    "latitude": 57.1057,
    "pop": 1014000,
    "longitude": 41.483,
    "name": "Ivanovo Oblast",
    "country": "RU",
    "lastUpdated": "2020-05-10T09:30:20.949Z",
    "dead": 10,
    "id": "GsecjBfopdgTOnyRgtCA",
    "infected": 758,
    "recovered": 177,
    "sick": 571,
    "invisible": false
  },
  {
    "longitude": 11.35,
    "name": "P.A. Bolzano",
    "country": "IT",
    "lastUpdated": "2020-05-10T09:31:10.196Z",
    "dead": 290,
    "id": "Gzx6GX1qhBm714BkEC6l",
    "infected": 2567,
    "recovered": 1804,
    "latitude": 46.5,
    "pop": 520891,
    "sick": 473,
    "invisible": false
  },
  {
    "id": "H3JeVigVbo5CSYfZG4WI",
    "infected": 201,
    "recovered": 184,
    "latitude": 42.83263,
    "pop": 24710000,
    "longitude": 113.750972,
    "name": "Inner Mongolia",
    "country": "CN",
    "lastUpdated": "2020-05-10T09:38:11.685Z",
    "dead": 1,
    "sick": 16,
    "invisible": false
  },
  {
    "latitude": 39.74536,
    "pop": 3034000,
    "longitude": -116.724977,
    "name": "Nevada",
    "country": "US",
    "lastUpdated": "2020-05-10T09:39:01.891Z",
    "dead": 306,
    "id": "H3bDg4eV30up4WWrIDAS",
    "infected": 6028,
    "recovered": 0,
    "sick": 5722,
    "invisible": false
  },
  {
    "recovered": 0,
    "latitude": -3.731862,
    "pop": 9075649,
    "longitude": -38.526669,
    "name": "Ceará",
    "country": "BR",
    "lastUpdated": "2020-05-10T09:38:08.734Z",
    "dead": 1062,
    "id": "HEMWNnFxeFEoeOCBOLJD",
    "infected": 15879,
    "sick": 14817,
    "invisible": false
  },
  {
    "infected": 847,
    "recovered": 405,
    "latitude": 15.3173,
    "pop": 64060000,
    "longitude": 75.7139,
    "name": "Karnataka",
    "country": "IN",
    "lastUpdated": "2020-05-10T09:41:09.195Z",
    "dead": 31,
    "id": "HN5mGmxlqlSeFSNeu1K5",
    "sick": 411,
    "invisible": false
  },
  {
    "longitude": 90.4336,
    "name": "Bhutan",
    "country": "BT",
    "lastUpdated": "2020-05-10T09:40:02.374Z",
    "dead": 0,
    "id": "HRDpwyxpqW9RN0xLFyNu",
    "infected": 7,
    "recovered": 5,
    "latitude": 27.5142,
    "pop": 807610,
    "sick": 2,
    "invisible": false
  },
  {
    "infected": 2387,
    "recovered": 1856,
    "latitude": 41.3775,
    "pop": 32390000,
    "longitude": 64.5853,
    "name": "Uzbekistan",
    "country": "UZ",
    "lastUpdated": "2020-05-10T09:40:02.361Z",
    "dead": 10,
    "id": "HRTA10dtrruDEwjJEGMp",
    "sick": 521,
    "invisible": false
  },
  {
    "infected": 4778,
    "recovered": 0,
    "latitude": 34.138916,
    "pop": 2095000,
    "longitude": -105.576255,
    "name": "New Mexico",
    "country": "US",
    "lastUpdated": "2020-05-10T09:39:01.891Z",
    "dead": 191,
    "id": "HSSFomRju0doHhWgW8On",
    "sick": 4587,
    "invisible": false
  },
  {
    "infected": 206,
    "recovered": 0,
    "latitude": -40.231,
    "pop": 412812,
    "longitude": -72.3311,
    "name": "Los Ríos",
    "country": "CL",
    "lastUpdated": "2020-05-10T09:41:07.413Z",
    "dead": 5,
    "id": "HZkACHjW7NlYjg8vEMj2",
    "sick": 201,
    "invisible": false
  },
  {
    "infected": 727,
    "recovered": 652,
    "latitude": 53.6127,
    "pop": 1635000,
    "longitude": 12.4296,
    "name": "Mecklenburg-Vorpommern",
    "country": "DE",
    "lastUpdated": "2020-05-10T09:30:03.628Z",
    "dead": 20,
    "id": "He1gSS1v50t06i3YrqvB",
    "sick": 55,
    "invisible": false
  },
  {
    "latitude": 42.25,
    "pop": 1315000,
    "longitude": 13.75,
    "name": "Abruzzo",
    "country": "IT",
    "lastUpdated": "2020-05-10T09:31:10.188Z",
    "dead": 355,
    "id": "I9EqrZfbPnkioNU4wZGz",
    "infected": 3086,
    "recovered": 1055,
    "sick": 1676,
    "invisible": false
  },
  {
    "lastUpdated": "2020-05-10T09:38:11.685Z",
    "dead": 8,
    "id": "IAX0OQLVnUwU7FX0ENF1",
    "infected": 1589,
    "recovered": 1576,
    "latitude": 23.363855,
    "pop": 113460000,
    "longitude": 113.373448,
    "name": "Guangdong",
    "country": "CN",
    "sick": 5,
    "invisible": false
  },
  {
    "infected": 1276,
    "recovered": 1254,
    "latitude": 33.875408,
    "pop": 94000000,
    "longitude": 113.484016,
    "name": "Henan",
    "country": "CN",
    "lastUpdated": "2020-05-10T09:38:11.686Z",
    "dead": 22,
    "id": "IFuMrMvSjoiX5agYvllh",
    "sick": 0,
    "invisible": false
  },
  {
    "id": "IHqRHC8K3OZPN8gniM7V",
    "infected": 345,
    "recovered": 0,
    "latitude": 37.2,
    "pop": 451000,
    "longitude": -8.16667,
    "name": "Algarve",
    "country": "PT",
    "lastUpdated": "2020-05-10T09:34:01.227Z",
    "dead": 13,
    "sick": 332,
    "invisible": false
  },
  {
    "infected": 55,
    "recovered": 4,
    "latitude": 3.883,
    "pop": 333194,
    "longitude": -77.0197,
    "name": "Buenaventura D.E.",
    "country": "CO",
    "lastUpdated": "2020-05-10T09:41:08.464Z",
    "dead": 4,
    "id": "IKWjRUo0SYgHQKdWjTvq",
    "sick": 47,
    "invisible": false
  },
  {
    "lastUpdated": "2020-05-10T09:38:13.461Z",
    "dead": 0,
    "id": "INyu1R48Ppv8cfW4Nuz4",
    "infected": 7558,
    "recovered": 0,
    "latitude": 52.87,
    "pop": 4811000,
    "longitude": -0.995,
    "name": "East Midlands",
    "country": "GB",
    "sick": 7558,
    "invisible": false
  },
  {
    "lastUpdated": "2020-05-10T09:32:09.004Z",
    "dead": 14,
    "id": "ISRKMzEDojyrZ9iyWwex",
    "infected": 403,
    "recovered": 0,
    "latitude": 22.017,
    "pop": 1342600,
    "longitude": -102.317,
    "name": "Aguascalientes",
    "country": "MX",
    "sick": 389,
    "invisible": false
  },
  {
    "id": "IdKbgzgKLpjBFh4UPOwu",
    "infected": 1015,
    "recovered": 0,
    "latitude": 25.686613,
    "pop": 5321300,
    "longitude": -100.316116,
    "name": "Nuevo León",
    "country": "MX",
    "lastUpdated": "2020-05-10T09:32:09.004Z",
    "dead": 33,
    "sick": 982,
    "invisible": false
  },
  {
    "lastUpdated": "2020-05-10T09:32:09.003Z",
    "dead": 142,
    "id": "IhhiYI6T0TX4CYVPcnmH",
    "infected": 760,
    "recovered": 0,
    "latitude": 28.632996,
    "pop": 3826900,
    "longitude": -106.069099,
    "name": "Chihuahua",
    "country": "MX",
    "sick": 618,
    "invisible": false
  },
  {
    "lastUpdated": "2020-05-10T09:41:07.413Z",
    "dead": 18,
    "id": "ImnOiVx9Cb8Nw7cbRcQ7",
    "infected": 801,
    "recovered": 0,
    "latitude": -36.7,
    "pop": 480600,
    "longitude": -72.57,
    "name": "Ñuble",
    "country": "CL",
    "sick": 783,
    "invisible": false
  },
  {
    "recovered": 17,
    "latitude": 19.0558,
    "pop": 10980000,
    "longitude": -73.0513,
    "name": "Haiti",
    "country": "HT",
    "lastUpdated": "2020-05-10T09:40:02.369Z",
    "dead": 12,
    "id": "InZ38sIqyK7FN7XAOZoX",
    "infected": 151,
    "sick": 122,
    "invisible": false
  },
  {
    "infected": 32590,
    "recovered": 0,
    "latitude": 32.528564,
    "pop": 10520000,
    "longitude": -83.280125,
    "name": "Georgia (US)",
    "country": "US",
    "lastUpdated": "2020-05-10T09:39:01.887Z",
    "dead": 1404,
    "id": "IvQkDJkTAsoIqPRAU25n",
    "sick": 31186,
    "invisible": false
  },
  {
    "latitude": -42.8285,
    "pop": 4794000,
    "longitude": 172.488081,
    "name": "New Zealand",
    "country": "NZ",
    "lastUpdated": "2020-05-10T09:40:02.362Z",
    "dead": 21,
    "id": "IvVhpOoGpH6JVkGyUhXN",
    "infected": 1494,
    "recovered": 1371,
    "sick": 102,
    "invisible": false
  },
  {
    "infected": 1,
    "recovered": 1,
    "latitude": 28.218,
    "pop": 1255000,
    "longitude": 94.7278,
    "name": "Arunachal Pradesh",
    "country": "IN",
    "lastUpdated": "2020-05-10T09:41:09.197Z",
    "dead": 0,
    "id": "IwYKiIVY18NGwdGQFGWW",
    "sick": 0,
    "invisible": false
  },
  {
    "infected": 402,
    "recovered": 190,
    "latitude": 6.4238,
    "pop": 31980000,
    "longitude": -66.5897,
    "name": "Venezuela",
    "country": "VE",
    "lastUpdated": "2020-05-10T09:40:02.366Z",
    "dead": 10,
    "id": "J3mZXlfEnnJx4CDZLvRG",
    "sick": 202,
    "invisible": false
  },
  {
    "infected": 224,
    "recovered": 173,
    "latitude": 44.8229,
    "pop": 453000,
    "longitude": 40.1754,
    "name": "Adygea",
    "country": "RU",
    "lastUpdated": "2020-05-10T09:30:20.956Z",
    "dead": 7,
    "id": "JOJVBvOnsLDJPVeYJaI2",
    "sick": 44,
    "invisible": false
  },
  {
    "latitude": 35.1264,
    "pop": 1170000,
    "longitude": 33.4299,
    "name": "Cyprus",
    "country": "CY",
    "lastUpdated": "2020-05-10T09:40:02.364Z",
    "dead": 15,
    "id": "JQByE4l2OA6sGOqIcWrM",
    "infected": 892,
    "recovered": 401,
    "sick": 476,
    "invisible": false
  },
  {
    "recovered": 318,
    "latitude": 25.0961,
    "pop": 99020000,
    "longitude": 85.3131,
    "name": "Bihar",
    "country": "IN",
    "lastUpdated": "2020-05-10T09:41:09.195Z",
    "dead": 5,
    "id": "JR7hOGked7CZtIs2nCV5",
    "infected": 629,
    "sick": 306,
    "invisible": false
  },
  {
    "longitude": -90.522713,
    "name": "Guatemala",
    "country": "GT",
    "lastUpdated": "2020-05-10T09:40:02.364Z",
    "dead": 24,
    "id": "JUWE6bG3b5oL7fKQMSvv",
    "infected": 967,
    "recovered": 104,
    "latitude": 14.628434,
    "pop": 17250000,
    "sick": 839,
    "invisible": false
  },
  {
    "lastUpdated": "2020-05-10T09:40:02.361Z",
    "dead": 101,
    "id": "JcFsHSn2WvZ5LJW42ovG",
    "infected": 3877,
    "recovered": 3550,
    "latitude": 49.8153,
    "pop": 602005,
    "longitude": 6.1296,
    "name": "Luxembourg",
    "country": "LU",
    "sick": 226,
    "invisible": false
  },
  {
    "latitude": 8.8,
    "pop": 2049000,
    "longitude": -74.167,
    "name": "Bolívar",
    "country": "CO",
    "lastUpdated": "2020-05-10T09:41:08.463Z",
    "dead": 3,
    "id": "JmOyaFe25yZCIV64JbZj",
    "infected": 41,
    "recovered": 12,
    "sick": 26,
    "invisible": false
  },
  {
    "lastUpdated": "2020-05-10T09:32:09.002Z",
    "dead": 400,
    "id": "Jp9ePErcc8i1aOozEAMf",
    "infected": 2365,
    "recovered": 0,
    "latitude": 31.4,
    "pop": 3648100,
    "longitude": -115.783,
    "name": "Baja California",
    "country": "MX",
    "sick": 1965,
    "invisible": false
  },
  {
    "id": "Jr8syCB0lydmPDXw8Q6N",
    "infected": 31,
    "recovered": 9,
    "latitude": 8.7479801,
    "pop": 1786500,
    "longitude": -75.8814316,
    "name": "Córdoba",
    "country": "CO",
    "lastUpdated": "2020-05-10T09:41:08.462Z",
    "dead": 3,
    "sick": 19,
    "invisible": false
  },
  {
    "infected": 153,
    "recovered": 87,
    "latitude": 8.6195,
    "pop": 7798000,
    "longitude": 0.8248,
    "name": "Togo",
    "country": "TG",
    "lastUpdated": "2020-05-10T09:40:02.368Z",
    "dead": 10,
    "id": "JrBbirlBKGdWSdcDt7PF",
    "sick": 56,
    "invisible": false
  },
  {
    "lastUpdated": "2020-05-10T09:40:02.362Z",
    "dead": 90,
    "id": "JzZ8sbqzjutThVjkPKPL",
    "infected": 1955,
    "recovered": 444,
    "latitude": 42.7339,
    "pop": 7050000,
    "longitude": 25.4858,
    "name": "Bulgaria",
    "country": "BG",
    "sick": 1421,
    "invisible": false
  },
  {
    "infected": 325,
    "recovered": 0,
    "latitude": 50.823,
    "pop": 1263000,
    "longitude": 20.709,
    "name": "Świętokrzyskie",
    "country": "PL",
    "lastUpdated": "2020-05-10T09:33:08.895Z",
    "dead": 12,
    "id": "KGrK7gafkeWjmU6sHQd2",
    "sick": 313,
    "invisible": false
  },
  {
    "lastUpdated": "2020-05-10T09:30:20.935Z",
    "dead": 3,
    "id": "KLBR5QHW6DePaGcFxlqH",
    "infected": 1844,
    "recovered": 270,
    "latitude": 59.0077,
    "pop": 4325000,
    "longitude": 61.9316,
    "name": "Sverdlovsk Oblast",
    "country": "RU",
    "sick": 1571,
    "invisible": false
  },
  {
    "recovered": 4480,
    "latitude": 44.5,
    "pop": 1557000,
    "longitude": 8.833,
    "name": "Liguria",
    "country": "IT",
    "lastUpdated": "2020-05-10T09:31:10.197Z",
    "dead": 1276,
    "id": "KLXicxFogWnu0dLp4bNK",
    "infected": 8738,
    "sick": 2982,
    "invisible": false
  },
  {
    "infected": 903,
    "recovered": 594,
    "latitude": 56.4385,
    "pop": 682000,
    "longitude": 47.9608,
    "name": "Mari El Republic",
    "country": "RU",
    "lastUpdated": "2020-05-10T09:30:20.948Z",
    "dead": 5,
    "id": "KUnAVGJH6fLwFetE8A2x",
    "sick": 304,
    "invisible": false
  },
  {
    "infected": 71,
    "recovered": 36,
    "latitude": 10.4631,
    "pop": 1201000,
    "longitude": -73.2532,
    "name": "Cesar",
    "country": "CO",
    "lastUpdated": "2020-05-10T09:41:08.458Z",
    "dead": 11,
    "id": "KpOz3WmiZkrXUMlUJNlV",
    "sick": 24,
    "invisible": false
  },
  {
    "latitude": 43.4167,
    "pop": 3737000,
    "longitude": 11,
    "name": "Toscana",
    "country": "IT",
    "lastUpdated": "2020-05-10T09:31:10.198Z",
    "dead": 937,
    "id": "KrLrJbpDqqiXgUPGCCW9",
    "infected": 9745,
    "recovered": 4360,
    "sick": 4448,
    "invisible": false
  },
  {
    "infected": 847,
    "recovered": 321,
    "latitude": 7.873054,
    "pop": 21440000,
    "longitude": 80.771797,
    "name": "Sri Lanka",
    "country": "LK",
    "lastUpdated": "2020-05-10T09:40:02.364Z",
    "dead": 9,
    "id": "KsWzJO06cf0d6LJ4ZNh9",
    "sick": 517,
    "invisible": false
  },
  {
    "recovered": 925,
    "latitude": 15.9129,
    "pop": 49670000,
    "longitude": 79.74,
    "name": "Andhra Pradesh",
    "country": "IN",
    "lastUpdated": "2020-05-10T09:41:09.195Z",
    "dead": 45,
    "id": "KtQIo2DoqjELtPAlyDVO",
    "infected": 1980,
    "sick": 1010,
    "invisible": false
  },
  {
    "lastUpdated": "2020-05-10T09:40:02.371Z",
    "dead": 3,
    "id": "LBUtrLDKJiupXjlUNTUe",
    "infected": 39,
    "recovered": 30,
    "latitude": 18.0708,
    "pop": 32125,
    "longitude": -63.0501,
    "name": "Saint-Martin",
    "country": "FR",
    "sick": 6,
    "invisible": false
  },
  {
    "longitude": 36.9242,
    "name": "Oryol Oblast",
    "country": "RU",
    "lastUpdated": "2020-05-10T09:30:20.947Z",
    "dead": 9,
    "id": "LD8TNScpLrLRvgpQAn9T",
    "infected": 1023,
    "recovered": 249,
    "latitude": 52.7856,
    "pop": 747000,
    "sick": 765,
    "invisible": false
  },
  {
    "infected": 82,
    "recovered": 55,
    "latitude": 47.166,
    "pop": 38557,
    "longitude": 9.5554,
    "name": "Liechtenstein",
    "country": "LI",
    "lastUpdated": "2020-05-10T09:40:02.370Z",
    "dead": 1,
    "id": "LTGEU2E9MFkrCcFhZYVk",
    "sick": 26,
    "invisible": false
  },
  {
    "latitude": 9.9456,
    "pop": 12720000,
    "longitude": -9.6966,
    "name": "Guinea",
    "country": "GN",
    "lastUpdated": "2020-05-10T09:40:02.362Z",
    "dead": 11,
    "id": "LU2QWt5ao8IJa8evNYVV",
    "infected": 2042,
    "recovered": 698,
    "sick": 1333,
    "invisible": false
  },
  {
    "infected": 550,
    "recovered": 0,
    "latitude": 29.6667,
    "pop": 3062000,
    "longitude": -110.5,
    "name": "Sonora",
    "country": "MX",
    "lastUpdated": "2020-05-10T09:32:09.003Z",
    "dead": 47,
    "id": "LYCBHrA9ms6GcxpLGPCT",
    "sick": 503,
    "invisible": false
  },
  {
    "latitude": 3.9193051,
    "pop": 563402,
    "longitude": -56.0277824,
    "name": "Suriname",
    "country": "SR",
    "lastUpdated": "2020-05-10T09:40:02.373Z",
    "dead": 1,
    "id": "LglKINHyQpYpFxjckbQ6",
    "infected": 10,
    "recovered": 9,
    "sick": 0,
    "invisible": false
  },
  {
    "longitude": -106.4509,
    "name": "Saskatchewan",
    "country": "CA",
    "lastUpdated": "2020-05-10T09:27:01.378Z",
    "dead": 7,
    "id": "LkIDKY0CMAqzbwBHyYCP",
    "infected": 553,
    "recovered": 0,
    "latitude": 52.9399,
    "pop": 1174000,
    "sick": 546,
    "invisible": false
  },
  {
    "lastUpdated": "2020-05-10T09:40:02.374Z",
    "dead": 0,
    "id": "LooNn6RuMiDhQnwa9svw",
    "infected": 6,
    "recovered": 5,
    "latitude": 24.2155,
    "pop": 636442,
    "longitude": -12.8858,
    "name": "Western Sahara",
    "country": "EH",
    "sick": 1,
    "invisible": false
  },
  {
    "infected": 3197,
    "recovered": 1022,
    "latitude": 43.363129,
    "pop": 1022000,
    "longitude": -5.951843,
    "name": "Principado de Asturias",
    "country": "ES",
    "lastUpdated": "2020-05-10T09:32:09.387Z",
    "dead": 295,
    "id": "Lsga7AvYNnY0qQ5gEfV8",
    "sick": 1880,
    "invisible": false
  },
  {
    "infected": 3903,
    "recovered": 2369,
    "latitude": 39.4937,
    "pop": 1065000,
    "longitude": -6.0679,
    "name": "Extremadura",
    "country": "ES",
    "lastUpdated": "2020-05-10T09:32:09.388Z",
    "dead": 480,
    "id": "LuEErlF7dVKI0eJsRjFm",
    "sick": 1054,
    "invisible": false
  },
  {
    "id": "M3wdiueFtwrUHiQ2rOXA",
    "infected": 571,
    "recovered": 0,
    "latitude": 21.0186,
    "pop": 5965000,
    "longitude": -101.2591,
    "name": "Guanajuato",
    "country": "MX",
    "lastUpdated": "2020-05-10T09:32:09.004Z",
    "dead": 56,
    "sick": 515,
    "invisible": false
  },
  {
    "recovered": 0,
    "latitude": 37.8393,
    "pop": 4468000,
    "longitude": -84.27,
    "name": "Kentucky",
    "country": "US",
    "lastUpdated": "2020-05-10T09:39:01.890Z",
    "dead": 304,
    "id": "MC8MXFw9iXYybnF8v7e6",
    "infected": 6440,
    "sick": 6136,
    "invisible": false
  },
  {
    "lastUpdated": "2020-05-10T09:38:13.466Z",
    "dead": 28250,
    "id": "MEjlm8VYdGA28TTTnQmf",
    "invisible": true,
    "infected": 57407,
    "recovered": 0,
    "latitude": 55.3781,
    "longitude": -3.436,
    "name": "Unknown UK region or state",
    "country": "GB",
    "sick": 29157
  },
  {
    "latitude": 41.3006,
    "pop": 3689000,
    "longitude": -7.7441,
    "name": "Norte",
    "country": "PT",
    "lastUpdated": "2020-05-10T09:34:01.226Z",
    "dead": 645,
    "id": "MG4e9tulLJ010SZJvbYN",
    "infected": 15854,
    "recovered": 0,
    "sick": 15209,
    "invisible": false
  },
  {
    "latitude": 56.4907,
    "pop": 5450000,
    "longitude": -4.2026,
    "name": "Scotland",
    "country": "GB",
    "lastUpdated": "2020-05-10T09:38:13.461Z",
    "dead": 1811,
    "id": "MObRYyIriHG337L8FyFC",
    "infected": 13305,
    "recovered": 0,
    "sick": 11494,
    "invisible": false
  },
  {
    "id": "MOxDkmQ4wBi1CuAdVxDE",
    "infected": 23732,
    "recovered": 0,
    "latitude": 40.2672,
    "pop": 6692000,
    "longitude": -86.1349,
    "name": "Indiana",
    "country": "US",
    "lastUpdated": "2020-05-10T09:39:01.888Z",
    "dead": 1490,
    "sick": 22242,
    "invisible": false
  },
  {
    "longitude": -5.5471,
    "name": "Ivory Coast",
    "country": "CI",
    "lastUpdated": "2020-05-10T09:40:02.362Z",
    "dead": 21,
    "id": "MdQOfc1gNh2DOqwSP6UV",
    "infected": 1667,
    "recovered": 769,
    "latitude": 7.54,
    "pop": 24290000,
    "sick": 877,
    "invisible": false
  },
  {
    "latitude": 51.4332,
    "pop": 17910000,
    "longitude": 7.6616,
    "name": "Nordrhein-Westfalen",
    "country": "DE",
    "lastUpdated": "2020-05-10T09:30:03.629Z",
    "dead": 1441,
    "id": "MjpYq3zQyAvSQlVVYjD2",
    "infected": 35131,
    "recovered": 27803,
    "sick": 5887,
    "invisible": false
  },
  {
    "recovered": 75,
    "latitude": 37.330509,
    "pop": 6301000,
    "longitude": 105.977203,
    "name": "Ningxia",
    "country": "CN",
    "lastUpdated": "2020-05-10T09:38:11.687Z",
    "dead": 0,
    "id": "MntmjjuHljarCdt6aIeE",
    "infected": 75,
    "sick": 0,
    "invisible": false
  },
  {
    "latitude": -3.20166586,
    "pop": 8513497,
    "longitude": -52.203499186,
    "name": "Pará",
    "country": "BR",
    "lastUpdated": "2020-05-10T09:38:08.735Z",
    "dead": 578,
    "id": "MuEB2UgkId5crsxi9zQT",
    "infected": 6775,
    "recovered": 0,
    "sick": 6197,
    "invisible": false
  },
  {
    "latitude": 52.5265,
    "pop": 1150000,
    "longitude": 39.2032,
    "name": "Lipetsk Oblast",
    "country": "RU",
    "lastUpdated": "2020-05-10T09:30:20.948Z",
    "dead": 3,
    "id": "N0KGfqgROVOjAxWcd8wi",
    "infected": 849,
    "recovered": 186,
    "sick": 660,
    "invisible": false
  },
  {
    "infected": 34214,
    "recovered": 27673,
    "latitude": 48.6616,
    "pop": 11020000,
    "longitude": 9.3501,
    "name": "Baden-Württemberg",
    "country": "DE",
    "lastUpdated": "2020-05-10T09:30:03.626Z",
    "dead": 1593,
    "id": "N3XsRBwJSsNclkEf7Zz5",
    "sick": 4948,
    "invisible": false
  },
  {
    "id": "N7c13sCQF0G789XAVazJ",
    "infected": 2090,
    "recovered": 1059,
    "latitude": 44.696652,
    "pop": 3507000,
    "longitude": 17.824332,
    "name": "Bosnia and Herzegovina",
    "country": "BA",
    "lastUpdated": "2020-05-10T09:40:02.362Z",
    "dead": 102,
    "sick": 929,
    "invisible": false
  },
  {
    "infected": 198,
    "recovered": 197,
    "latitude": 37.242565,
    "pop": 36500000,
    "longitude": 111.856857,
    "name": "Shanxi",
    "country": "CN",
    "lastUpdated": "2020-05-10T09:38:11.686Z",
    "dead": 0,
    "id": "NBRIGIRrJB1Ry8prDNAC",
    "sick": 1,
    "invisible": false
  },
  {
    "infected": 14479,
    "recovered": 0,
    "latitude": 35.7596,
    "pop": 10380000,
    "longitude": -79.0193,
    "name": "North Carolina",
    "country": "US",
    "lastUpdated": "2020-05-10T09:39:01.889Z",
    "dead": 551,
    "id": "NC64Qp5kTqAfiTuR27k8",
    "sick": 13928,
    "invisible": false
  },
  {
    "latitude": 52.4125,
    "pop": 2504000,
    "longitude": 12.5316,
    "name": "Brandenburg",
    "country": "DE",
    "lastUpdated": "2020-05-10T09:30:03.628Z",
    "dead": 161,
    "id": "NJjo2gfBvnbK4xatrsUz",
    "infected": 3160,
    "recovered": 2510,
    "sick": 489,
    "invisible": false
  },
  {
    "infected": 16,
    "recovered": 0,
    "latitude": 15.0979,
    "pop": 55144,
    "longitude": -145.6739,
    "name": "Northern Mariana Islands",
    "country": "MP",
    "lastUpdated": "2020-05-10T09:39:01.892Z",
    "dead": 2,
    "id": "NLLL6pJhJSw0lrDMD4uP",
    "sick": 14,
    "invisible": false
  },
  {
    "infected": 67,
    "recovered": 46,
    "latitude": 30.0668,
    "pop": 10080000,
    "longitude": 79.0193,
    "name": "Uttarakhand",
    "country": "IN",
    "lastUpdated": "2020-05-10T09:41:09.196Z",
    "dead": 1,
    "id": "NMeZEcGToxXfpi16PfFV",
    "sick": 20,
    "invisible": false
  },
  {
    "recovered": 6697,
    "latitude": 50.6521,
    "pop": 6243000,
    "longitude": 9.1624,
    "name": "Hessen",
    "country": "DE",
    "lastUpdated": "2020-05-10T09:30:03.628Z",
    "dead": 420,
    "id": "Nk5vPgUIXsWVfbWZf15O",
    "infected": 8996,
    "sick": 1879,
    "invisible": false
  },
  {
    "lastUpdated": "2020-05-10T09:40:02.364Z",
    "dead": 18,
    "id": "NmmMKy0YqA8StHdGzB5N",
    "infected": 939,
    "recovered": 464,
    "latitude": 56.96776,
    "pop": 1920000,
    "longitude": 25.837107,
    "name": "Latvia",
    "country": "LV",
    "sick": 457,
    "invisible": false
  },
  {
    "recovered": 0,
    "latitude": -8.472372,
    "pop": 9496294,
    "longitude": -37.946777,
    "name": "Pernambuco",
    "country": "BR",
    "lastUpdated": "2020-05-10T09:38:08.735Z",
    "dead": 972,
    "id": "NyGlFL1gATK1Omv9qtcC",
    "infected": 12470,
    "sick": 11498,
    "invisible": false
  },
  {
    "infected": 199,
    "recovered": 79,
    "latitude": 6.4281,
    "pop": 4732000,
    "longitude": -9.4295,
    "name": "Liberia",
    "country": "LR",
    "lastUpdated": "2020-05-10T09:40:02.367Z",
    "dead": 20,
    "id": "O4g88K49HKEZLFXm5gxb",
    "sick": 100,
    "invisible": false
  },
  {
    "longitude": 82.6759,
    "name": "Altai Krai",
    "country": "RU",
    "lastUpdated": "2020-05-10T09:30:20.953Z",
    "dead": 3,
    "id": "O5fNOGWKosps6JTrzkpn",
    "infected": 669,
    "recovered": 204,
    "latitude": 51.7936,
    "pop": 2350000,
    "sick": 462,
    "invisible": false
  },
  {
    "infected": 305,
    "recovered": 111,
    "latitude": 53.0929,
    "pop": 1072000,
    "longitude": 116.9677,
    "name": "Zabaykalsky Krai",
    "country": "RU",
    "lastUpdated": "2020-05-10T09:30:20.955Z",
    "dead": 0,
    "id": "O6PDzAxKENYbLsLjPx2K",
    "sick": 194,
    "invisible": false
  },
  {
    "infected": 7531,
    "recovered": 0,
    "latitude": 34.003307,
    "pop": 5084000,
    "longitude": -80.525613,
    "name": "South Carolina",
    "country": "US",
    "lastUpdated": "2020-05-10T09:39:01.890Z",
    "dead": 330,
    "id": "ONU4CK8QjViFHKg2w5if",
    "sick": 7201,
    "invisible": false
  },
  {
    "infected": 9378,
    "recovered": 0,
    "latitude": 33.51822,
    "pop": 2987000,
    "longitude": -89.582775,
    "name": "Mississippi",
    "country": "US",
    "lastUpdated": "2020-05-10T09:39:01.890Z",
    "dead": 421,
    "id": "OYa0jFzdbAgo8zUsRv6q",
    "sick": 8957,
    "invisible": false
  },
  {
    "id": "OcXNp9kNVSwrRlG3bNVN",
    "infected": 1408,
    "recovered": 0,
    "latitude": 45.2538,
    "pop": 1338000,
    "longitude": -69.4455,
    "name": "Maine",
    "country": "US",
    "lastUpdated": "2020-05-10T09:39:01.891Z",
    "dead": 64,
    "sick": 1344,
    "invisible": false
  },
  {
    "infected": 1199,
    "recovered": 272,
    "latitude": 43.4052,
    "pop": 488000,
    "longitude": 44.8203,
    "name": "Ingushetia",
    "country": "RU",
    "lastUpdated": "2020-05-10T09:30:20.946Z",
    "dead": 29,
    "id": "OlKS5SPydHY2TedStFuf",
    "sick": 898,
    "invisible": false
  },
  {
    "infected": 227,
    "recovered": 182,
    "latitude": -41.915264,
    "pop": 515000,
    "longitude": 146.725256,
    "name": "Tasmania",
    "country": "AU",
    "lastUpdated": "2020-05-10T09:46:24.583Z",
    "dead": 13,
    "id": "OnOseaqWdnuP18oruABW",
    "sick": 32,
    "invisible": false
  },
  {
    "lastUpdated": "2020-05-10T09:38:08.735Z",
    "dead": 16,
    "id": "P0GHFGUt1pkKTk5PM8uz",
    "infected": 502,
    "recovered": 0,
    "latitude": -16.35,
    "pop": 3441998,
    "longitude": -56.666668,
    "name": "Mato Grosso",
    "country": "BR",
    "sick": 486,
    "invisible": false
  },
  {
    "recovered": 100,
    "latitude": 56.1553,
    "pop": 1378000,
    "longitude": 40.5927,
    "name": "Vladimir Oblast",
    "country": "RU",
    "lastUpdated": "2020-05-10T09:30:20.936Z",
    "dead": 15,
    "id": "P2I90oqdFSoVk03AaGo4",
    "infected": 1249,
    "sick": 1134,
    "invisible": false
  },
  {
    "infected": 81,
    "recovered": 41,
    "latitude": 19.3133,
    "pop": 61559,
    "longitude": -81.2546,
    "name": "Cayman Islands",
    "country": "KY",
    "lastUpdated": "2020-05-10T09:40:02.370Z",
    "dead": 1,
    "id": "P4mwRFLbrvT0t75uD8Wo",
    "sick": 39,
    "invisible": false
  },
  {
    "infected": 11,
    "recovered": 8,
    "latitude": 16.7424984,
    "pop": 5900,
    "longitude": -62.1873665,
    "name": "Montserrat",
    "country": "MS",
    "lastUpdated": "2020-05-10T09:40:02.373Z",
    "dead": 1,
    "id": "PEDkeFMTOZpvHiSVxBk7",
    "sick": 2,
    "invisible": false
  },
  {
    "latitude": -1.9403,
    "pop": 12210000,
    "longitude": 29.8739,
    "name": "Rwanda",
    "country": "RW",
    "lastUpdated": "2020-05-10T09:40:02.367Z",
    "dead": 0,
    "id": "PEcgZGEkyhABztt1Ufgc",
    "infected": 280,
    "recovered": 140,
    "sick": 140,
    "invisible": false
  },
  {
    "id": "PHlHdeqYd6KgxsJGfEz0",
    "infected": 1491,
    "recovered": 435,
    "latitude": 54.2312,
    "pop": 4063000,
    "longitude": 56.1645,
    "name": "Bashkortostan",
    "country": "RU",
    "lastUpdated": "2020-05-10T09:30:20.936Z",
    "dead": 15,
    "sick": 1041,
    "invisible": false
  },
  {
    "infected": 10790,
    "recovered": 0,
    "latitude": 46.7296,
    "pop": 5611000,
    "longitude": -94.6859,
    "name": "Minnesota",
    "country": "US",
    "lastUpdated": "2020-05-10T09:39:01.889Z",
    "dead": 558,
    "id": "PJvVYosLIhbcRZYnKX1R",
    "sick": 10232,
    "invisible": false
  },
  {
    "longitude": -89.3985,
    "name": "Illinois",
    "country": "US",
    "lastUpdated": "2020-05-10T09:39:01.884Z",
    "dead": 3349,
    "id": "PTwQr9ijo0TBBsPH2sdJ",
    "infected": 76085,
    "recovered": 0,
    "latitude": 40.6331,
    "pop": 12740000,
    "sick": 72736,
    "invisible": false
  },
  {
    "latitude": 13.909444,
    "pop": 178844,
    "longitude": -60.978893,
    "name": "Saint Lucia",
    "country": "LC",
    "lastUpdated": "2020-05-10T09:40:02.372Z",
    "dead": 0,
    "id": "PjLqCeFdyzdZNcZxMkK1",
    "infected": 18,
    "recovered": 17,
    "sick": 1,
    "invisible": false
  },
  {
    "recovered": 3014,
    "latitude": 42.6954,
    "pop": 649900,
    "longitude": -1.6761,
    "name": "Comunidad Foral de Navarra",
    "country": "ES",
    "lastUpdated": "2020-05-10T09:32:09.388Z",
    "dead": 488,
    "id": "PmUlsNx2uFLU797wwU39",
    "infected": 7455,
    "sick": 3953,
    "invisible": false
  },
  {
    "recovered": 660,
    "latitude": 34.201507,
    "pop": 11530000,
    "longitude": 9.460554,
    "name": "Tunisia",
    "country": "TN",
    "lastUpdated": "2020-05-10T09:40:02.364Z",
    "dead": 45,
    "id": "Pr76V4raf108uSRoEXac",
    "infected": 1032,
    "sick": 327,
    "invisible": false
  },
  {
    "recovered": 14,
    "latitude": -26.5225,
    "pop": 1367000,
    "longitude": 31.4659,
    "name": "Eswatini",
    "country": "SZ",
    "lastUpdated": "2020-05-10T09:40:02.368Z",
    "dead": 2,
    "id": "PuQgOd9KWiMzGZXm11sR",
    "infected": 163,
    "sick": 147,
    "invisible": false
  },
  {
    "infected": 1479,
    "recovered": 1346,
    "latitude": -37.009609,
    "pop": 6359000,
    "longitude": 143.94853,
    "name": "Victoria",
    "country": "AU",
    "lastUpdated": "2020-05-10T09:46:24.583Z",
    "dead": 18,
    "id": "Q18mrGvFWTLX2BU9SqhQ",
    "sick": 115,
    "invisible": false
  },
  {
    "latitude": 54.2194,
    "pop": 2890000,
    "longitude": 9.6961,
    "name": "Schleswig-Holstein",
    "country": "DE",
    "lastUpdated": "2020-05-10T09:30:03.629Z",
    "dead": 133,
    "id": "Q39XkabIYxt15mHINzTa",
    "infected": 2956,
    "recovered": 2400,
    "sick": 423,
    "invisible": false
  },
  {
    "latitude": -27.953491,
    "pop": 11329605,
    "longitude": -52.031696,
    "name": "Rio Grande do Sul",
    "country": "BR",
    "lastUpdated": "2020-05-10T09:38:08.736Z",
    "dead": 95,
    "id": "QGpQNhuoVTUPHXvS7qcu",
    "infected": 2493,
    "recovered": 0,
    "sick": 2398,
    "invisible": false
  },
  {
    "lastUpdated": "2020-05-10T09:30:20.947Z",
    "dead": 8,
    "id": "QGyuno7Bc4kwuvGFgMiO",
    "infected": 1144,
    "recovered": 205,
    "latitude": 55.5596,
    "pop": 1231000,
    "longitude": 46.9284,
    "name": "Chuvashia",
    "country": "RU",
    "sick": 931,
    "invisible": false
  },
  {
    "recovered": 750,
    "latitude": 58.595272,
    "pop": 1328000,
    "longitude": 25.013607,
    "name": "Estonia",
    "country": "EE",
    "lastUpdated": "2020-05-10T09:40:02.362Z",
    "dead": 60,
    "id": "QR9go2hQKXjty7JHUYe4",
    "infected": 1739,
    "sick": 929,
    "invisible": false
  },
  {
    "lastUpdated": "2020-05-10T09:30:20.949Z",
    "dead": 14,
    "id": "QTafh5fpbS8abcuyEjaL",
    "infected": 823,
    "recovered": 219,
    "latitude": 63.8631,
    "pop": 840000,
    "longitude": 54.8313,
    "name": "Komi Republic",
    "country": "RU",
    "sick": 590,
    "invisible": false
  },
  {
    "infected": 4412,
    "recovered": 0,
    "latitude": -20.318,
    "pop": 3972388,
    "longitude": -40.336,
    "name": "Espírito Santo",
    "country": "BR",
    "lastUpdated": "2020-05-10T09:38:08.734Z",
    "dead": 172,
    "id": "QaWDLKH8SuwD0Qxq6c38",
    "sick": 4240,
    "invisible": false
  },
  {
    "latitude": 67.8443,
    "pop": 795000,
    "longitude": 35.0884,
    "name": "Murmansk Oblast",
    "country": "RU",
    "lastUpdated": "2020-05-10T09:30:20.935Z",
    "dead": 5,
    "id": "Qh73PKA4KWeuPoqZfWXz",
    "infected": 2371,
    "recovered": 270,
    "sick": 2096,
    "invisible": false
  },
  {
    "latitude": 20.3333,
    "pop": 8222700,
    "longitude": -103.6667,
    "name": "Jalisco",
    "country": "MX",
    "lastUpdated": "2020-05-10T09:32:09.004Z",
    "dead": 50,
    "id": "Qkho455pBwx88Gohs3hL",
    "infected": 829,
    "recovered": 0,
    "sick": 779,
    "invisible": false
  },
  {
    "recovered": 8,
    "latitude": -6.315,
    "pop": 8251000,
    "longitude": 143.9555,
    "name": "Papua New Guinea",
    "country": "PG",
    "lastUpdated": "2020-05-10T09:40:02.374Z",
    "dead": 0,
    "id": "QlZrE4nosm5WfdA2aCDg",
    "infected": 8,
    "sick": 0,
    "invisible": false
  },
  {
    "lastUpdated": "2020-05-10T09:39:01.892Z",
    "dead": 4,
    "id": "QqhD3YDMKXojvQY3Yu41",
    "infected": 69,
    "recovered": 0,
    "latitude": 18.3358,
    "pop": 107268,
    "longitude": -64.8963,
    "name": "U.S. Virgin Islands",
    "country": "US",
    "sick": 65,
    "invisible": false
  },
  {
    "id": "Qy2qW2ep5wltnYjPJBxh",
    "infected": 16,
    "recovered": 14,
    "latitude": 15.414999,
    "pop": 71937,
    "longitude": -61.3709755,
    "name": "Dominica",
    "country": "DM",
    "lastUpdated": "2020-05-10T09:40:02.373Z",
    "dead": 0,
    "sick": 2,
    "invisible": false
  },
  {
    "lastUpdated": "2020-05-10T09:41:08.459Z",
    "dead": 0,
    "id": "R3IHMWqIUhOJJTlrmbUZ",
    "infected": 20,
    "recovered": 7,
    "latitude": 5.167,
    "pop": 344027,
    "longitude": -72.167,
    "name": "Casanare",
    "country": "CO",
    "sick": 13,
    "invisible": false
  },
  {
    "id": "R8YCgephnxTufvcPWMgx",
    "infected": 8282,
    "recovered": 4501,
    "latitude": 8.538,
    "pop": 4099000,
    "longitude": -80.7821,
    "name": "Panama",
    "country": "PA",
    "lastUpdated": "2020-05-10T09:40:02.359Z",
    "dead": 237,
    "sick": 3544,
    "invisible": false
  },
  {
    "latitude": 15.2,
    "pop": 9265000,
    "longitude": -86.2419,
    "name": "Honduras",
    "country": "HN",
    "lastUpdated": "2020-05-10T09:40:02.362Z",
    "dead": 108,
    "id": "RA2SE0p2bVhqo0P2hzGY",
    "infected": 1830,
    "recovered": 195,
    "sick": 1527,
    "invisible": false
  },
  {
    "latitude": -18.4745998,
    "pop": 224500,
    "longitude": -70.2979202,
    "name": "Arica y Parinacota",
    "country": "CL",
    "lastUpdated": "2020-05-10T09:41:07.329Z",
    "dead": 6,
    "id": "RBt9RiwP7WUbMnJfD0lo",
    "infected": 337,
    "recovered": 0,
    "sick": 331,
    "invisible": false
  },
  {
    "lastUpdated": "2020-05-10T09:31:10.197Z",
    "dead": 308,
    "id": "RCrDBCdBNYzgLNr0aB2H",
    "infected": 3124,
    "recovered": 1947,
    "latitude": 45.633331,
    "pop": 1216000,
    "longitude": 13.8,
    "name": "Friuli Venezia Giulia",
    "country": "IT",
    "sick": 869,
    "invisible": false
  },
  {
    "latitude": 41.878,
    "pop": 3156000,
    "longitude": -93.0977,
    "name": "Iowa",
    "country": "US",
    "lastUpdated": "2020-05-10T09:39:01.889Z",
    "dead": 252,
    "id": "RX0KDu1AFrlCsrRso0nb",
    "infected": 11671,
    "recovered": 0,
    "sick": 11419,
    "invisible": false
  },
  {
    "lastUpdated": "2020-05-10T09:41:08.443Z",
    "dead": 139,
    "id": "RZ6PCe5TZsO15JjDObwO",
    "infected": 4028,
    "recovered": 1028,
    "latitude": 4.624335,
    "pop": 7413000,
    "longitude": -74.063644,
    "name": "Bogotá D.C.",
    "country": "CO",
    "sick": 2861,
    "invisible": false
  },
  {
    "infected": 64,
    "recovered": 24,
    "latitude": 26.3351002,
    "pop": 6846000,
    "longitude": 17.2283306,
    "name": "Libya",
    "country": "LY",
    "lastUpdated": "2020-05-10T09:40:02.370Z",
    "dead": 3,
    "id": "RaJxbzlnRFTuj4B8IbpC",
    "sick": 37,
    "invisible": false
  },
  {
    "id": "Rf4uvBfP3GRDSHdZElRd",
    "infected": 6823,
    "recovered": 0,
    "latitude": 39.0119,
    "pop": 2912000,
    "longitude": -98.4842,
    "name": "Kansas",
    "country": "US",
    "lastUpdated": "2020-05-10T09:39:01.890Z",
    "dead": 173,
    "sick": 6650,
    "invisible": false
  },
  {
    "recovered": 8884,
    "latitude": 48.6998,
    "pop": 5518000,
    "longitude": 6.1878,
    "name": "Grand Est",
    "country": "FR",
    "lastUpdated": "2020-05-09T23:31:41.089Z",
    "dead": 3105,
    "id": "RmEgf1xeclWt7XCF9oiR",
    "infected": 22187,
    "sick": 10198,
    "invisible": false
  },
  {
    "recovered": 3817,
    "latitude": 50.4176,
    "pop": 3644000,
    "longitude": 4.451,
    "name": "Wallonia",
    "country": "BE",
    "lastUpdated": "2020-05-10T09:26:05.323Z",
    "dead": 3009,
    "id": "RryHraSohKQLAsdr1dHO",
    "infected": 16876,
    "sick": 10050,
    "invisible": false
  },
  {
    "latitude": 51.2538,
    "pop": 14570000,
    "longitude": -85.3232,
    "name": "Ontario",
    "country": "CA",
    "lastUpdated": "2020-05-10T09:27:01.378Z",
    "dead": 1726,
    "id": "Rx4TuyMpfGb3S8wYJX0x",
    "infected": 21148,
    "recovered": 0,
    "sick": 19422,
    "invisible": false
  },
  {
    "infected": 23786,
    "recovered": 7429,
    "latitude": 41.652779,
    "pop": 2408000,
    "longitude": -4.723611,
    "name": "Castilla y León",
    "country": "ES",
    "lastUpdated": "2020-05-10T09:32:09.387Z",
    "dead": 1897,
    "id": "S8ewN4zaYp8mjtuqqOTw",
    "sick": 14460,
    "invisible": false
  },
  {
    "longitude": -61.011715,
    "name": "Martinique",
    "country": "FR",
    "lastUpdated": "2020-05-10T09:40:02.368Z",
    "dead": 14,
    "id": "SDdefnq1bc3ZNr7SpEsW",
    "infected": 186,
    "recovered": 83,
    "latitude": 14.652027,
    "pop": 376480,
    "sick": 89,
    "invisible": false
  },
  {
    "infected": 4263,
    "recovered": 378,
    "latitude": 7.9465,
    "pop": 28830000,
    "longitude": -1.0232,
    "name": "Ghana",
    "country": "GH",
    "lastUpdated": "2020-05-10T09:40:02.360Z",
    "dead": 22,
    "id": "SG9VWLOV3x2JsTkXmVSz",
    "sick": 3863,
    "invisible": false
  },
  {
    "id": "SGe9sCPayMqh6RsGFaBA",
    "infected": 30251,
    "recovered": 26400,
    "latitude": 46.818188,
    "pop": 8570000,
    "longitude": 8.227512,
    "name": "Switzerland",
    "country": "CH",
    "lastUpdated": "2020-05-10T09:40:02.357Z",
    "dead": 1830,
    "sick": 2021,
    "invisible": false
  },
  {
    "id": "SGhKBmmh5hss7hrNR8hK",
    "infected": 510,
    "recovered": 106,
    "latitude": 66.7613,
    "pop": 964000,
    "longitude": 124.1238,
    "name": "Yakutia",
    "country": "RU",
    "lastUpdated": "2020-05-10T09:30:20.955Z",
    "dead": 4,
    "sick": 400,
    "invisible": false
  },
  {
    "infected": 36997,
    "recovered": 0,
    "latitude": 46.8139,
    "pop": 8485000,
    "longitude": -71.208,
    "name": "Quebec",
    "country": "CA",
    "lastUpdated": "2020-05-10T09:27:01.377Z",
    "dead": 2787,
    "id": "SHoOE3NiJgWAlDVBzwYH",
    "sick": 34210,
    "invisible": false
  },
  {
    "latitude": 42.6026,
    "pop": 1831000,
    "longitude": 20.903,
    "name": "Kosovo",
    "country": "XK",
    "lastUpdated": "2020-05-10T09:10:02.564Z",
    "dead": 28,
    "id": "SMWvuMMuKp2QK7O2tNia",
    "infected": 870,
    "recovered": 653,
    "sick": 189,
    "invisible": false
  },
  {
    "latitude": 45.0526,
    "pop": 1913000,
    "longitude": 135,
    "name": "Primorsky Krai",
    "country": "RU",
    "lastUpdated": "2020-05-10T09:30:20.948Z",
    "dead": 10,
    "id": "SNWCQwRwqYfxX8HZndTA",
    "infected": 856,
    "recovered": 193,
    "sick": 653,
    "invisible": false
  },
  {
    "longitude": 74.124,
    "name": "Goa",
    "country": "IN",
    "lastUpdated": "2020-05-10T09:41:09.197Z",
    "dead": 0,
    "id": "SPcujsH2YlUaoAr8AiWF",
    "infected": 7,
    "recovered": 7,
    "latitude": 15.2993,
    "pop": 1817000,
    "sick": 0,
    "invisible": false
  },
  {
    "recovered": 0,
    "latitude": -16.328547,
    "pop": 6921161,
    "longitude": -48.953403,
    "name": "Goiás",
    "country": "BR",
    "lastUpdated": "2020-05-10T09:38:08.734Z",
    "dead": 47,
    "id": "SV5AMF59J61Vt4cXWLgy",
    "infected": 1069,
    "sick": 1022,
    "invisible": false
  },
  {
    "infected": 1129,
    "recovered": 427,
    "latitude": 39,
    "pop": 1957000,
    "longitude": 16.5,
    "name": "Calabria",
    "country": "IT",
    "lastUpdated": "2020-05-10T09:31:10.196Z",
    "dead": 90,
    "id": "SZdF624x0v1LlyzZjKFu",
    "sick": 612,
    "invisible": false
  },
  {
    "infected": 8234,
    "recovered": 0,
    "latitude": 41.4925,
    "pop": 1929000,
    "longitude": -99.9018,
    "name": "Nebraska",
    "country": "US",
    "lastUpdated": "2020-05-10T09:39:01.890Z",
    "dead": 96,
    "id": "SakhKQzKu1LRI8laqdQq",
    "sick": 8138,
    "invisible": false
  },
  {
    "lastUpdated": "2020-05-10T09:40:02.366Z",
    "dead": 0,
    "id": "SgHzWAAYK1j2sipovxM6",
    "infected": 431,
    "recovered": 354,
    "latitude": -21.1151,
    "pop": 859959,
    "longitude": 55.5364,
    "name": "La Réunion",
    "country": "FR",
    "sick": 77,
    "invisible": false
  },
  {
    "latitude": 12.565679,
    "pop": 16010000,
    "longitude": 104.990967,
    "name": "Cambodia",
    "country": "KH",
    "lastUpdated": "2020-05-10T09:40:02.369Z",
    "dead": 0,
    "id": "SioMALgUbo7peXmbco2f",
    "infected": 122,
    "recovered": 120,
    "sick": 2,
    "invisible": false
  },
  {
    "id": "SsWhuEElU7dCTTuH5fdQ",
    "infected": 151,
    "recovered": 0,
    "latitude": 13.4443,
    "pop": 164229,
    "longitude": 144.7937,
    "name": "Guam",
    "country": "GU",
    "lastUpdated": "2020-05-10T09:39:01.892Z",
    "dead": 5,
    "sick": 146,
    "invisible": false
  },
  {
    "latitude": 51.9189,
    "longitude": 19.1344,
    "name": "Unknown Poland region",
    "country": "PL",
    "lastUpdated": "2020-05-10T09:40:02.358Z",
    "dead": 0,
    "id": "SuCr5emUaJ9RHTll1P1p",
    "invisible": true,
    "infected": 0,
    "recovered": 5698,
    "sick": 0
  },
  {
    "infected": 370,
    "recovered": 129,
    "latitude": 57.067,
    "pop": 1513000,
    "longitude": 53.0278,
    "name": "Udmurtia",
    "country": "RU",
    "lastUpdated": "2020-05-10T09:30:20.955Z",
    "dead": 11,
    "id": "Sx03z01BJCAbrYkWhEaD",
    "sick": 230,
    "invisible": false
  },
  {
    "id": "T3iRf8mTUTAzbKrORTap",
    "infected": 937,
    "recovered": 130,
    "latitude": -4.0383,
    "pop": 84070000,
    "longitude": 21.7587,
    "name": "DR Congo",
    "country": "CD",
    "lastUpdated": "2020-05-10T09:40:02.364Z",
    "dead": 39,
    "sick": 768,
    "invisible": false
  },
  {
    "infected": 37136,
    "recovered": 10144,
    "latitude": 23.635796,
    "pop": 32940000,
    "longitude": 44.344334,
    "name": "Saudi Arabia",
    "country": "SA",
    "lastUpdated": "2020-05-10T09:40:02.357Z",
    "dead": 239,
    "id": "T7NffoeCgTUpAbOHvYwP",
    "sick": 26753,
    "invisible": false
  },
  {
    "id": "TNDTapyb0k3l7Mds9q9R",
    "infected": 5378,
    "recovered": 2648,
    "latitude": 42.2871,
    "pop": 315700,
    "longitude": -2.5396,
    "name": "La Rioja",
    "country": "ES",
    "lastUpdated": "2020-05-10T09:32:09.388Z",
    "dead": 346,
    "sick": 2384,
    "invisible": false
  },
  {
    "recovered": 0,
    "latitude": 20.400417,
    "pop": 2207200,
    "longitude": -89.134857,
    "name": "Yucatán",
    "country": "MX",
    "lastUpdated": "2020-05-10T09:32:09.003Z",
    "dead": 68,
    "id": "TQCWbhIpJQBQxBjhCGVJ",
    "infected": 798,
    "sick": 730,
    "invisible": false
  },
  {
    "latitude": 4.506106,
    "pop": 428697,
    "longitude": 114.650692,
    "name": "Brunei",
    "country": "BN",
    "lastUpdated": "2020-05-10T09:40:02.369Z",
    "dead": 1,
    "id": "TQZmzsLhJqjtCSExAkCP",
    "infected": 141,
    "recovered": 134,
    "sick": 6,
    "invisible": false
  },
  {
    "infected": 13455,
    "recovered": 5698,
    "latitude": 45.4471,
    "pop": 8027000,
    "longitude": 4.3853,
    "name": "Auvergne-Rhône-Alpes",
    "country": "FR",
    "lastUpdated": "2020-05-09T23:32:24.943Z",
    "dead": 1473,
    "id": "TT0MKODSjrxHvG19xZCa",
    "sick": 6284,
    "invisible": false
  },
  {
    "infected": 235,
    "recovered": 0,
    "latitude": 38.5667,
    "pop": 758700,
    "longitude": -7.9,
    "name": "Alentejo",
    "country": "PT",
    "lastUpdated": "2020-05-10T09:34:01.227Z",
    "dead": 1,
    "id": "TeoNTu4aw5riC04sTd73",
    "sick": 234,
    "invisible": false
  },
  {
    "infected": 19375,
    "recovered": 0,
    "latitude": 39.318928,
    "pop": 5696000,
    "longitude": -105.461392,
    "name": "Colorado",
    "country": "US",
    "lastUpdated": "2020-05-10T09:39:01.888Z",
    "dead": 967,
    "id": "Th4dlpXXmSDgi1OHs36P",
    "sick": 18408,
    "invisible": false
  },
  {
    "infected": 748,
    "recovered": 569,
    "latitude": 12.2383,
    "pop": 19190000,
    "longitude": -1.5616,
    "name": "Burkina Faso",
    "country": "BF",
    "lastUpdated": "2020-05-10T09:40:02.365Z",
    "dead": 48,
    "id": "Tup6oDCHj6DgqZR3nQ3x",
    "sick": 131,
    "invisible": false
  },
  {
    "recovered": 13,
    "latitude": 12.104818,
    "pop": 112381,
    "longitude": -61.670761,
    "name": "Grenada",
    "country": "GD",
    "lastUpdated": "2020-05-10T09:40:02.371Z",
    "dead": 0,
    "id": "TvqURPN5xzVBXsmGP46N",
    "infected": 21,
    "sick": 8,
    "invisible": false
  },
  {
    "infected": 10319,
    "recovered": 8093,
    "latitude": 55.675758,
    "pop": 5603000,
    "longitude": 12.56902,
    "name": "Denmark",
    "country": "DK",
    "lastUpdated": "2020-05-10T09:40:02.358Z",
    "dead": 526,
    "id": "Ty1AY3VLPJcRZgdBIERx",
    "sick": 1700,
    "invisible": false
  },
  {
    "recovered": 0,
    "latitude": 53.9062,
    "pop": 5486000,
    "longitude": -1.0334,
    "name": "Yorkshire and The Humber",
    "country": "GB",
    "lastUpdated": "2020-05-10T09:38:13.466Z",
    "dead": 0,
    "id": "U0N7cIPJXAc4T6uKV60c",
    "infected": 12130,
    "sick": 12130,
    "invisible": false
  },
  {
    "latitude": 36.395859,
    "pop": 100472400,
    "longitude": 118.769882,
    "name": "Shandong",
    "country": "CN",
    "lastUpdated": "2020-05-10T09:38:11.685Z",
    "dead": 7,
    "id": "U0tkTJ9CGsBuFJ2Gdoum",
    "infected": 788,
    "recovered": 776,
    "sick": 5,
    "invisible": false
  },
  {
    "infected": 637,
    "recovered": 126,
    "latitude": 43.94236,
    "pop": 33400,
    "longitude": 12.457777,
    "name": "San Marino",
    "country": "SM",
    "lastUpdated": "2020-05-10T09:40:02.366Z",
    "dead": 41,
    "id": "U12rMD5GDW58Q0lIwrB1",
    "sick": 470,
    "invisible": false
  },
  {
    "latitude": 36.204823,
    "pop": 126800000,
    "longitude": 138.25293,
    "name": "Japan",
    "country": "JP",
    "lastUpdated": "2020-05-10T09:40:02.358Z",
    "dead": 607,
    "id": "U13Gy4BpRLAZ95bPmBXd",
    "infected": 15663,
    "recovered": 5906,
    "sick": 9150,
    "invisible": false
  },
  {
    "latitude": 1.3733,
    "pop": 42860000,
    "longitude": 32.2903,
    "name": "Uganda",
    "country": "UG",
    "lastUpdated": "2020-05-10T09:40:02.369Z",
    "dead": 0,
    "id": "UCZXEgnHtxUoChWLR6fQ",
    "infected": 116,
    "recovered": 55,
    "sick": 61,
    "invisible": false
  },
  {
    "infected": 43,
    "recovered": 13,
    "latitude": -11.2027,
    "pop": 29780000,
    "longitude": 17.8739,
    "name": "Angola",
    "country": "AO",
    "lastUpdated": "2020-05-10T09:40:02.371Z",
    "dead": 2,
    "id": "UIbrFy6kiTTF0D37Kqmp",
    "sick": 28,
    "invisible": false
  },
  {
    "infected": 4442,
    "recovered": 661,
    "latitude": 56.3269,
    "pop": 1257000,
    "longitude": 44.0059,
    "name": "Nizhny Novgorod Oblast",
    "country": "RU",
    "lastUpdated": "2020-05-10T09:30:20.933Z",
    "dead": 29,
    "id": "UNiM5XWxcIc14zFA8zRS",
    "sick": 3752,
    "invisible": false
  },
  {
    "longitude": -2.9326,
    "name": "Bretagne",
    "country": "FR",
    "lastUpdated": "2020-05-09T23:32:50.702Z",
    "dead": 226,
    "id": "URKMlJ7OTNldjpaxFbjE",
    "infected": 2157,
    "recovered": 937,
    "latitude": 48.202,
    "pop": 3329000,
    "sick": 994,
    "invisible": false
  },