[
  {
    "longitude": -81.7006,
    "name": "San Andrés",
    "country": "CO",
    "lastUpdated": "2020-04-07T02:19:08.502Z",
    "dead": 0,
    "id": "01b09TY4vmuZwzVuiRFK",
    "infected": 2,
    "recovered": 0,
    "latitude": 12.5847,
    "pop": 72600,
    "sick": 2
  },
  {
    "infected": 3058,
    "recovered": 156,
    "latitude": 41.066666,
    "pop": 5827000,
    "longitude": 14.333333,
    "name": "Campania",
    "country": "IT",
    "lastUpdated": "2020-04-07T02:19:01.675Z",
    "dead": 204,
    "id": "0GJcws44NSPsDHAuxJhW",
    "sick": 2698
  },
  {
    "latitude": -20.2167,
    "pop": 383870,
    "longitude": -70.14222,
    "name": "Tarapacá",
    "country": "CL",
    "lastUpdated": "2020-04-07T02:07:06.126Z",
    "dead": 0,
    "id": "0HDQbiHe462xMCUV5HiI",
    "infected": 21,
    "recovered": 0,
    "sick": 21
  },
  {
    "recovered": 2,
    "latitude": 20.9517,
    "pop": 45990000,
    "longitude": 85.0985,
    "name": "Odisha",
    "country": "IN",
    "lastUpdated": "2020-04-07T02:10:01.372Z",
    "dead": 0,
    "id": "0VG7S6aaK4eSo59fL9JO",
    "infected": 40,
    "sick": 38
  },
  {
    "infected": 10,
    "recovered": 0,
    "latitude": 11.7401,
    "pop": 427246,
    "longitude": 92.6586,
    "name": "Andaman and Nicobar Islands",
    "country": "IN",
    "lastUpdated": "2020-04-07T02:10:01.372Z",
    "dead": 0,
    "id": "0jStOpTUNRaQYJqgmRoK",
    "sick": 10
  },
  {
    "latitude": 25.315058,
    "pop": 2639000,
    "longitude": 51.145517,
    "name": "Qatar",
    "country": "QA",
    "lastUpdated": "2020-04-07T02:15:03.265Z",
    "dead": 4,
    "id": "0m4aECS0Z2DGFEr8ldgI",
    "infected": 1832,
    "recovered": 131,
    "sick": 1697
  },
  {
    "longitude": 87.855,
    "name": "West Bengal",
    "country": "IN",
    "lastUpdated": "2020-04-07T02:10:01.372Z",
    "dead": 3,
    "id": "0n54EMSDJcRoT1QEvw80",
    "infected": 80,
    "recovered": 10,
    "latitude": 22.9868,
    "pop": 90320000,
    "sick": 67
  },
  {
    "recovered": 11,
    "latitude": 22.9734,
    "pop": 73340000,
    "longitude": 78.6569,
    "name": "Madhya Pradesh",
    "country": "IN",
    "lastUpdated": "2020-04-07T02:10:01.371Z",
    "dead": 15,
    "id": "0s18o5DrDAHjbu5MFcrj",
    "infected": 256,
    "sick": 230
  },
  {
    "id": "0tFoopNTs6e4tOoaltu2",
    "infected": 0,
    "recovered": 19671,
    "latitude": 37.0902,
    "longitude": -95.7129,
    "name": "Unknown US state",
    "country": "US",
    "dead": 0,
    "lastUpdated": "2020-04-07T02:15:03.261Z",
    "sick": 0
  },
  {
    "recovered": 246,
    "latitude": 35.64249,
    "pop": 37330000,
    "longitude": 108.472214,
    "name": "Shaanxi",
    "country": "CN",
    "lastUpdated": "2020-04-07T01:44:09.482Z",
    "dead": 3,
    "id": "0x2HLhr5z5xAtEdO4iZm",
    "infected": 256,
    "sick": 7
  },
  {
    "latitude": 41.643351,
    "pop": 2077000,
    "longitude": 21.668393,
    "name": "North Macedonia",
    "country": "MK",
    "lastUpdated": "2020-04-07T02:15:03.267Z",
    "dead": 23,
    "id": "19MvIhipqTyYv1H37Upw",
    "infected": 570,
    "recovered": 30,
    "sick": 517
  },
  {
    "longitude": -57.6604,
    "name": "Newfoundland and Labrador",
    "country": "CA",
    "lastUpdated": "2020-04-07T02:15:01.544Z",
    "dead": 1,
    "id": "1DOMOmCWDtva46OVSZLv",
    "infected": 226,
    "recovered": 0,
    "latitude": 53.1355,
    "pop": 521542,
    "sick": 225
  },
  {
    "recovered": 18,
    "latitude": 35.801933,
    "pop": 5627000,
    "longitude": 96.779286,
    "name": "Qinghai",
    "country": "CN",
    "lastUpdated": "2020-04-07T01:44:09.483Z",
    "dead": 0,
    "id": "1Fap7rZu9SIRqf5TG9Dg",
    "infected": 18,
    "sick": 0
  },
  {
    "recovered": 1128,
    "latitude": 44.9,
    "pop": 4376000,
    "longitude": 8.206944,
    "name": "Piemonte",
    "country": "IT",
    "lastUpdated": "2020-04-07T02:19:01.676Z",
    "dead": 1251,
    "id": "1eTSQyfp8RoDPeFrIwun",
    "infected": 12924,
    "sick": 10545
  },
  {
    "infected": 12232,
    "recovered": 127,
    "latitude": -14.235004,
    "pop": 209300000,
    "longitude": -51.925282,
    "name": "Brazil",
    "country": "BR",
    "lastUpdated": "2020-04-07T02:15:03.262Z",
    "dead": 566,
    "id": "1f0YoV0vAcexEhpESyZc",
    "sick": 11539
  },
  {
    "recovered": 37,
    "latitude": 47.4116,
    "pop": 3550000,
    "longitude": 28.3699,
    "name": "Moldova",
    "country": "MD",
    "lastUpdated": "2020-04-07T02:15:03.266Z",
    "dead": 19,
    "id": "1qTPB8X3tyLyIdsb5TN3",
    "infected": 965,
    "sick": 909
  },
  {
    "infected": 1,
    "recovered": 1,
    "latitude": 30.15336,
    "pop": 3180000,
    "longitude": 88.787865,
    "name": "Tibet",
    "country": "CN",
    "lastUpdated": "2020-04-07T01:44:09.483Z",
    "dead": 0,
    "id": "25qIBtsW2nfQj3pwBKg9",
    "sick": 0
  },
  {
    "latitude": -1.572184,
    "pop": 264000000,
    "longitude": 115.66779,
    "name": "Indonesia",
    "country": "ID",
    "lastUpdated": "2020-04-07T02:15:03.264Z",
    "dead": 209,
    "id": "2KHYUb5t3lwzVVmDjwNX",
    "infected": 2491,
    "recovered": 192,
    "sick": 2090
  },
  {
    "longitude": -120.585594,
    "name": "Oregon",
    "country": "US",
    "lastUpdated": "2020-04-07T02:18:16.056Z",
    "dead": 29,
    "id": "2OrsssmGUs4XCzaZzvTv",
    "infected": 1132,
    "recovered": 0,
    "latitude": 43.807191,
    "pop": 4191000,
    "sick": 1103
  },
  {
    "infected": 68,
    "recovered": 0,
    "latitude": -23.65,
    "pop": 425000,
    "longitude": -70.400002,
    "name": "Antofagasta",
    "country": "CL",
    "lastUpdated": "2020-04-07T02:07:06.126Z",
    "dead": 0,
    "id": "2c5HBZ1ffkCVXnMYUWnY",
    "sick": 68
  },
  {
    "recovered": 92,
    "latitude": 43.851921,
    "pop": 27460000,
    "longitude": 126.548103,
    "name": "Jilin",
    "country": "CN",
    "lastUpdated": "2020-04-07T01:44:09.482Z",
    "dead": 1,
    "id": "2jxHvSsxdnom0nPNvOT8",
    "infected": 98,
    "sick": 5
  },
  {
    "id": "2p11BjSAs3wVyymgqBOe",
    "infected": 109,
    "recovered": 52,
    "latitude": 36.1408,
    "pop": 34571,
    "longitude": -5.3536,
    "name": "Gibraltar",
    "country": "GI",
    "lastUpdated": "2020-04-07T02:15:03.321Z",
    "dead": 0,
    "sick": 57
  },
  {
    "lastUpdated": "2020-04-06T17:40:27.683Z",
    "dead": 132,
    "id": "2sLNkkHpyaHx7dD3aMDO",
    "infected": 1739,
    "recovered": 329,
    "latitude": 47.7516,
    "pop": 2567000,
    "longitude": 1.6751,
    "name": "Centre-Val de Loire",
    "country": "FR",
    "sick": 1278
  },
  {
    "latitude": 42.565044,
    "pop": 884640,
    "longitude": 12.643751,
    "name": "Umbria",
    "country": "IT",
    "lastUpdated": "2020-04-07T02:19:01.679Z",
    "dead": 44,
    "id": "319tiZOMczx1y0DfvOib",
    "infected": 1253,
    "recovered": 337,
    "sick": 872
  },
  {
    "infected": 13,
    "recovered": 0,
    "latitude": 2.43823,
    "pop": 1355000,
    "longitude": -76.6131592,
    "name": "Cauca",
    "country": "CO",
    "lastUpdated": "2020-04-07T02:19:08.501Z",
    "dead": 2,
    "id": "38T96Q3XNjt5FSJygPed",
    "sick": 11
  },
  {
    "longitude": 27.849332,
    "name": "Zambia",
    "country": "ZM",
    "lastUpdated": "2020-04-07T02:15:03.324Z",
    "dead": 1,
    "id": "3IlPjAbP5qVMn1nlgLTJ",
    "infected": 39,
    "recovered": 5,
    "latitude": -13.133896,
    "pop": 17090000,
    "sick": 33
  },
  {
    "lastUpdated": "2020-04-07T02:15:03.314Z",
    "dead": 2,
    "id": "3LstMSN5XMYBkxbe5HN7",
    "infected": 233,
    "recovered": 1,
    "latitude": 42.7044,
    "pop": 631219,
    "longitude": 19.3958,
    "name": "Montenegro",
    "country": "ME",
    "sick": 230
  },
  {
    "latitude": -35.4735,
    "pop": 418440,
    "longitude": 149.0124,
    "name": "Australian Capital Territory",
    "country": "AU",
    "lastUpdated": "2020-04-07T02:15:01.544Z",
    "dead": 2,
    "id": "3OZoQsKrzxZ18EKyfGE6",
    "infected": 96,
    "recovered": 40,
    "sick": 54
  },
  {
    "id": "3cCbnJCsK7mKlTO08K1o",
    "infected": 26,
    "recovered": 0,
    "latitude": 26.2006,
    "pop": 30940000,
    "longitude": 92.9376,
    "name": "Assam",
    "country": "IN",
    "lastUpdated": "2020-04-07T02:10:01.372Z",
    "dead": 0,
    "sick": 26
  },
  {
    "latitude": 40.4173,
    "pop": 11690000,
    "longitude": -82.9071,
    "name": "Ohio",
    "country": "US",
    "lastUpdated": "2020-04-07T02:18:16.055Z",
    "dead": 142,
    "id": "3fC3bAyIRUquOQOEnQNe",
    "infected": 4453,
    "recovered": 0,
    "sick": 4311
  },
  {
    "latitude": 3.420556,
    "pop": 4708300,
    "longitude": -76.522224,
    "name": "Valle del Cauca",
    "country": "CO",
    "lastUpdated": "2020-04-07T02:19:08.499Z",
    "dead": 4,
    "id": "3mC2LveOpXV8P1PmQGUj",
    "infected": 210,
    "recovered": 5,
    "sick": 201
  },
  {
    "infected": 6,
    "recovered": 2,
    "latitude": 21.0079,
    "pop": 4420000,
    "longitude": -10.9408,
    "name": "Mauritania",
    "country": "MR",
    "lastUpdated": "2020-04-07T02:15:03.335Z",
    "dead": 1,
    "id": "4NnFMekRK2m14IlnZZoj",
    "sick": 3
  },
  {
    "infected": 1266,
    "recovered": 0,
    "latitude": 53.7267,
    "pop": 5071000,
    "longitude": -127.6476,
    "name": "British Columbia",
    "country": "CA",
    "lastUpdated": "2020-04-07T02:15:01.543Z",
    "dead": 38,
    "id": "4hfZRUoUgI4a3vrG0GBk",
    "sick": 1228
  },
  {
    "infected": 11730,
    "recovered": 140,
    "latitude": 41.065877,
    "pop": 10290000,
    "longitude": -7.920053,
    "name": "Portugal",
    "country": "PT",
    "lastUpdated": "2020-04-07T02:15:03.263Z",
    "dead": 311,
    "id": "4rQLxUCMmQLpbi6E9tbH",
    "sick": 11279
  },
  {
    "recovered": 44,
    "latitude": 40.3426,
    "pop": 9898000,
    "longitude": 47.93802,
    "name": "Azerbaijan",
    "country": "AZ",
    "lastUpdated": "2020-04-07T02:15:03.266Z",
    "dead": 7,
    "id": "4zqzRm2xHn0CDVOUQJ8p",
    "infected": 641,
    "sick": 590
  },
  {
    "infected": 33,
    "recovered": 5,
    "latitude": 25.025885,
    "pop": 395361,
    "longitude": -78.035889,
    "name": "Bahamas",
    "country": "BS",
    "lastUpdated": "2020-04-07T02:15:03.324Z",
    "dead": 5,
    "id": "5MHegCUO9L3LiAU7DDey",
    "sick": 23
  },
  {
    "latitude": -31.253218,
    "pop": 7544000,
    "longitude": 146.921097,
    "name": "New South Wales",
    "country": "AU",
    "lastUpdated": "2020-04-07T02:15:01.543Z",
    "dead": 18,
    "id": "5N16a2OXXRpsEFanw0TC",
    "infected": 2686,
    "recovered": 4,
    "sick": 2664
  },
  {
    "id": "5fg04eyDwFw3kEXnrxez",
    "infected": 18,
    "recovered": 1,
    "latitude": -20.9043045,
    "pop": 280460,
    "longitude": 165.618042,
    "name": "New Caledonia",
    "country": "NC",
    "lastUpdated": "2020-04-07T02:15:03.325Z",
    "dead": 0,
    "sick": 17
  },
  {
    "infected": 9,
    "recovered": 1,
    "latitude": 28.394857,
    "pop": 29300000,
    "longitude": 84.124008,
    "name": "Nepal",
    "country": "NP",
    "lastUpdated": "2020-04-07T02:15:03.332Z",
    "dead": 0,
    "id": "5gXZIjRgAvd6xWN1LOv8",
    "sick": 8
  },
  {
    "id": "5pwmh7aSdGRKqRbnuyc0",
    "infected": 3660,
    "recovered": 73,
    "latitude": 12.879721,
    "pop": 104900000,
    "longitude": 121.774017,
    "name": "Philippines",
    "country": "PH",
    "lastUpdated": "2020-04-07T02:15:03.264Z",
    "dead": 163,
    "sick": 3424
  },
  {
    "recovered": 0,
    "latitude": -17.824858,
    "pop": 14802190,
    "longitude": 31.053028,
    "name": "Zimbabwe",
    "country": "ZW",
    "lastUpdated": "2020-04-07T02:15:03.332Z",
    "dead": 1,
    "id": "5qtR9nx4BLwu1ODTniaY",
    "infected": 10,
    "sick": 9
  },
  {
    "latitude": 55.621011,
    "pop": 2794000,
    "longitude": 23.804991,
    "name": "Lithuania",
    "country": "LT",
    "lastUpdated": "2020-04-07T02:15:03.266Z",
    "dead": 15,
    "id": "694ON7d0mRJDeM1gHBTR",
    "infected": 843,
    "recovered": 8,
    "sick": 820
  },
  {
    "infected": 915,
    "recovered": 216,
    "latitude": 22.396427,
    "pop": 7392000,
    "longitude": 114.109497,
    "name": "Hong Kong",
    "country": "HK",
    "lastUpdated": "2020-04-07T02:15:03.266Z",
    "dead": 4,
    "id": "6IcHIIH0zXpY0POmBZTv",
    "sick": 695
  },
  {
    "latitude": 9.3077,
    "pop": 11180000,
    "longitude": 2.3158,
    "name": "Benin",
    "country": "BJ",
    "lastUpdated": "2020-04-07T02:15:03.325Z",
    "dead": 1,
    "id": "6SlpghTyB6lpMFvx3g9U",
    "infected": 26,
    "recovered": 5,
    "sick": 20
  },
  {
    "id": "6ZHcvMIzVWIaRnc4R3Qp",
    "infected": 51534,
    "recovered": 13863,
    "latitude": 45.6667,
    "pop": 10040000,
    "longitude": 9.5,
    "name": "Lombardia",
    "country": "IT",
    "lastUpdated": "2020-04-07T02:19:01.676Z",
    "dead": 9202,
    "sick": 28469
  },
  {
    "latitude": 46.0569,
    "pop": 2067000,
    "longitude": 14.5058,
    "name": "Slovenia",
    "country": "SI",
    "lastUpdated": "2020-04-07T02:15:03.266Z",
    "dead": 30,
    "id": "6ahNiyKDSDAftCctgLH3",
    "infected": 1021,
    "recovered": 102,
    "sick": 889
  },
  {
    "recovered": 0,
    "latitude": -23.369543,
    "pop": 300000,
    "longitude": -69.859741,
    "name": "Atacama",
    "country": "CL",
    "lastUpdated": "2020-04-07T02:07:06.127Z",
    "dead": 0,
    "id": "6nyns7UGGgkU7pxrHf8i",
    "infected": 5,
    "sick": 5
  },
  {
    "id": "6pBi38TUgYfFm0bry2uh",
    "infected": 24,
    "recovered": 1,
    "latitude": -0.8037,
    "pop": 2025000,
    "longitude": 11.6094,
    "name": "Gabon",
    "country": "GA",
    "lastUpdated": "2020-04-07T02:15:03.325Z",
    "dead": 1,
    "sick": 22
  },
  {
    "infected": 6,
    "recovered": 1,
    "latitude": 17.901672,
    "pop": 9131,
    "longitude": -62.818544,
    "name": "Saint-Barthélémy",
    "country": "FR",
    "lastUpdated": "2020-04-07T02:15:03.335Z",
    "dead": 0,
    "id": "78Ox26bNHDA2Pk2b3Uwn",
    "sick": 5
  },
  {
    "infected": 15,
    "recovered": 0,
    "latitude": 17.0608,
    "pop": 102012,
    "longitude": -61.7964,
    "name": "Antigua and Barbuda",
    "country": "AG",
    "lastUpdated": "2020-04-07T02:15:03.326Z",
    "dead": 0,
    "id": "7hVFcEV7nV0MrQr3LHrl",
    "sick": 15
  },
  {
    "longitude": 11.4979,
    "name": "Bayern",
    "country": "DE",
    "lastUpdated": "2020-04-07T02:16:09.891Z",
    "dead": 506,
    "id": "7kCrrlOBE3jN6FtOVNUB",
    "infected": 26533,
    "recovered": 4183,
    "latitude": 48.7904,
    "pop": 13000000,
    "sick": 21844
  },
  {
    "infected": 744,
    "recovered": 67,
    "latitude": 47.4979,
    "pop": 9773000,
    "longitude": 19.0402,
    "name": "Hungary",
    "country": "HU",
    "lastUpdated": "2020-04-07T02:15:03.266Z",
    "dead": 38,
    "id": "7rYC2iFB50c55Ihgbs4Q",
    "sick": 639
  },
  {
    "infected": 45,
    "recovered": 5,
    "latitude": 10.9685,
    "pop": 2400000,
    "longitude": -74.7813,
    "name": "Barranquilla D.E.",
    "country": "CO",
    "lastUpdated": "2020-04-07T02:19:08.501Z",
    "dead": 2,
    "id": "7tqLvLyXcBDK808nJv0m",
    "sick": 38
  },
  {
    "longitude": 12.3547,
    "name": "Cameroon",
    "country": "CM",
    "lastUpdated": "2020-04-07T02:15:03.266Z",
    "dead": 9,
    "id": "8C0d7WVCjyUGtnc2gUAR",
    "infected": 658,
    "recovered": 17,
    "latitude": 7.3697,
    "pop": 24050000,
    "sick": 632
  },
  {
    "lastUpdated": "2020-04-07T02:15:03.314Z",
    "dead": 14,
    "id": "8RihJrXw4NQXPxaRxr1u",
    "infected": 194,
    "recovered": 2,
    "latitude": -16.2902,
    "pop": 11050000,
    "longitude": -63.5887,
    "name": "Bolivia",
    "country": "BO",
    "sick": 178
  },
  {
    "latitude": 12.9843,
    "pop": 109897,
    "longitude": -61.2872,
    "name": "St. Vincent Grenadines",
    "country": "VC",
    "lastUpdated": "2020-04-07T02:15:03.334Z",
    "dead": 0,
    "id": "8ZTySQROQejkDAad0qxQ",
    "infected": 7,
    "recovered": 1,
    "sick": 6
  },
  {
    "longitude": 103.819839,
    "name": "Singapore",
    "country": "SG",
    "lastUpdated": "2020-04-07T02:15:03.265Z",
    "dead": 6,
    "id": "8pA3fM4xC2c2wv1b4TnE",
    "infected": 1375,
    "recovered": 344,
    "latitude": 1.352083,
    "pop": 5621000,
    "sick": 1025
  },
  {
    "id": "98hwAoohgWEOQVa3NlM5",
    "infected": 1768,
    "recovered": 456,
    "latitude": 47.2184,
    "pop": 3787000,
    "longitude": -1.5536,
    "name": "Pays de la Loire",
    "country": "FR",
    "lastUpdated": "2020-04-06T17:39:42.940Z",
    "dead": 134,
    "sick": 1178
  },
  {
    "longitude": 30.2176,
    "name": "Sudan",
    "country": "SD",
    "lastUpdated": "2020-04-07T02:15:03.326Z",
    "dead": 2,
    "id": "9DPOkpIqrFy9mR4e9fuv",
    "infected": 12,
    "recovered": 2,
    "latitude": 12.8628,
    "pop": 40530000,
    "sick": 8
  },
  {
    "infected": 4057,
    "recovered": 406,
    "latitude": 45.943161,
    "pop": 19530000,
    "longitude": 24.966761,
    "name": "Romania",
    "country": "RO",
    "lastUpdated": "2020-04-07T02:15:03.263Z",
    "dead": 176,
    "id": "9QcETqEcM2fTv9zRvx5T",
    "sick": 3475
  },
  {
    "infected": 6,
    "recovered": 0,
    "latitude": 12.136389,
    "pop": 6218000,
    "longitude": -86.251389,
    "name": "Nicaragua",
    "country": "NI",
    "lastUpdated": "2020-04-07T02:15:03.335Z",
    "dead": 1,
    "id": "9Y5wmCqNCC6ZrenM31uA",
    "sick": 5
  },
  {
    "infected": 47,
    "recovered": 9,
    "latitude": 17.5706921,
    "pop": 18540000,
    "longitude": -3.996166,
    "name": "Mali",
    "country": "ML",
    "lastUpdated": "2020-04-07T02:15:03.324Z",
    "dead": 5,
    "id": "9dIzxqDSVqPyINkHqwGv",
    "sick": 33
  },
  {
    "latitude": 61.92411,
    "pop": 5513000,
    "longitude": 25.748152,
    "name": "Finland",
    "country": "FI",
    "lastUpdated": "2020-04-07T02:15:03.264Z",
    "dead": 27,
    "id": "9p6OCdZbUUwBLA60Gk3W",
    "infected": 2176,
    "recovered": 300,
    "sick": 1849
  },
  {
    "latitude": 43.311643,
    "pop": 1356000,
    "longitude": -71.590315,
    "name": "New Hampshire",
    "country": "US",
    "lastUpdated": "2020-04-07T02:18:16.057Z",
    "dead": 9,
    "id": "A84CwQ52kA46Hr7pn6Bm",
    "infected": 715,
    "recovered": 0,
    "sick": 706
  },
  {
    "lastUpdated": "2020-04-07T02:18:16.056Z",
    "dead": 27,
    "id": "AEUWUHS65qvjEslew11c",
    "infected": 1082,
    "recovered": 0,
    "latitude": 41.823261,
    "pop": 1057000,
    "longitude": -71.412257,
    "name": "Rhode Island",
    "country": "US",
    "sick": 1055
  },
  {
    "infected": 17556,
    "recovered": 2397,
    "latitude": 44.498955,
    "pop": 4453000,
    "longitude": 11.327591,
    "name": "Emilia-Romagna",
    "country": "IT",
    "lastUpdated": "2020-04-07T02:19:01.675Z",
    "dead": 2108,
    "id": "AJ9jQ0iyKsafsmf5yHAR",
    "sick": 13051
  },
  {
    "latitude": 49.3964,
    "pop": 990509,
    "longitude": 7.023,
    "name": "Saarland",
    "country": "DE",
    "lastUpdated": "2020-04-07T02:16:09.893Z",
    "dead": 27,
    "id": "AKjFRQGnzuuZQhv5Qwx7",
    "infected": 1611,
    "recovered": 261,
    "sick": 1323
  },
  {
    "infected": 108,
    "recovered": 0,
    "latitude": -35.717,
    "pop": 1125002,
    "longitude": -71.167,
    "name": "Maule",
    "country": "CL",
    "lastUpdated": "2020-04-07T02:07:06.127Z",
    "dead": 1,
    "id": "APTPgjAsjFi0nsGyJV7M",
    "sick": 107
  },
  {
    "recovered": 4,
    "latitude": 71.7069,
    "pop": 56171,
    "longitude": -42.6043,
    "name": "Greenland",
    "country": "GL",
    "lastUpdated": "2020-04-07T02:15:03.327Z",
    "dead": 0,
    "id": "APaZzlGCEeuoLBtzTJMe",
    "infected": 11,
    "sick": 7
  },
  {
    "latitude": 45.65107,
    "pop": 971395,
    "longitude": -63.582687,
    "name": "Nova Scotia",
    "country": "CA",
    "lastUpdated": "2020-04-07T02:15:01.543Z",
    "dead": 0,
    "id": "AVCpxeh0fuH2WrHWNDYH",
    "infected": 293,
    "recovered": 0,
    "sick": 293
  },
  {
    "latitude": 47.012918,
    "pop": 1062000,
    "longitude": -109.128641,
    "name": "Montana",
    "country": "US",
    "lastUpdated": "2020-04-07T02:18:16.058Z",
    "dead": 6,
    "id": "AcULcZBozObOhwuRKMjJ",
    "infected": 319,
    "recovered": 0,
    "sick": 313
  },
  {
    "infected": 937,
    "recovered": 935,
    "latitude": 27.285971,
    "pop": 45200000,
    "longitude": 116.01609,
    "name": "Jiangxi",
    "country": "CN",
    "lastUpdated": "2020-04-07T01:44:09.482Z",
    "dead": 1,
    "id": "AmBYm5J6E9Cuez1FQjiN",
    "sick": 1
  },
  {
    "recovered": 90,
    "latitude": 28.033886,
    "pop": 41320000,
    "longitude": 1.659626,
    "name": "Algeria",
    "country": "DZ",
    "lastUpdated": "2020-04-07T02:15:03.265Z",
    "dead": 173,
    "id": "AwN0CScPDApcLFgz6e3z",
    "infected": 1423,
    "sick": 1160
  },
  {
    "lastUpdated": "2020-04-07T02:15:03.265Z",
    "dead": 16,
    "id": "B82Ef45M8cDu4q7VsSHF",
    "infected": 1222,
    "recovered": 130,
    "latitude": 45.099998,
    "pop": 4076000,
    "longitude": 15.2,
    "name": "Croatia",
    "country": "HR",
    "sick": 1076
  },
  {
    "infected": 253,
    "recovered": 26,
    "latitude": 17.6077881,
    "pop": 23716000,
    "longitude": 8.081666,
    "name": "Niger",
    "country": "NE",
    "lastUpdated": "2020-04-07T02:15:03.314Z",
    "dead": 10,
    "id": "BENubqQInFUJzhpZTsLT",
    "sick": 217
  },
  {
    "longitude": -76.98432,
    "name": "Maryland",
    "country": "US",
    "lastUpdated": "2020-04-07T02:18:16.055Z",
    "dead": 91,
    "id": "BF51mWl51fgEcyBpCSzb",
    "infected": 4045,
    "recovered": 0,
    "latitude": 39.509109,
    "pop": 6043000,
    "sick": 3954
  },
  {
    "latitude": 53.709808,
    "pop": 9508000,
    "longitude": 27.953388,
    "name": "Belarus",
    "country": "BY",
    "lastUpdated": "2020-04-07T02:15:03.266Z",
    "dead": 13,
    "id": "BGg6yVU5VP71B8NXU0oh",
    "infected": 700,
    "recovered": 53,
    "sick": 634
  },
  {
    "longitude": 0.1713,
    "name": "Normandie",
    "country": "FR",
    "lastUpdated": "2020-04-06T17:40:12.075Z",
    "dead": 127,
    "id": "BGtoyzb7y54LVlJ91rbf",
    "infected": 1632,
    "recovered": 338,
    "latitude": 48.8799,
    "pop": 3319000,
    "sick": 1167
  },
  {
    "infected": 2456,
    "recovered": 0,
    "latitude": 34.048927,
    "pop": 7172000,
    "longitude": -111.093735,
    "name": "Arizona",
    "country": "US",
    "lastUpdated": "2020-04-07T02:18:16.055Z",
    "dead": 65,
    "id": "BTEESCuD2ZbS1afunR2A",
    "sick": 2391
  },
  {
    "infected": 0,
    "recovered": 728,
    "latitude": 1,
    "longitude": 1,
    "name": "Chile Casos recuperados",
    "country": "CL",
    "dead": 0,
    "lastUpdated": "2020-04-07T02:07:06.128Z",
    "id": "BbiuZcm8oURX7cZwaa5U",
    "sick": 0
  },
  {
    "latitude": -3.3730559,
    "pop": 10860000,
    "longitude": 29.9188862,
    "name": "Burundi",
    "country": "BI",
    "lastUpdated": "2020-04-07T02:15:03.336Z",
    "dead": 0,
    "id": "BnpMamidC5yYzeK8tPUL",
    "infected": 3,
    "recovered": 0,
    "sick": 3
  },
  {
    "infected": 131815,
    "recovered": 0,
    "latitude": 40.719042,
    "pop": 19540000,
    "longitude": -73.982597,
    "name": "New York",
    "country": "US",
    "lastUpdated": "2020-04-07T02:18:16.051Z",
    "dead": 4758,
    "id": "C3BCUzV80z9GfiuByIcr",
    "sick": 127057
  },
  {
    "id": "C6S76AggdWVU8G22jFHQ",
    "infected": 4822,
    "recovered": 121,
    "latitude": 49.731626,
    "pop": 10650000,
    "longitude": 15.359413,
    "name": "Czechia",
    "country": "CZ",
    "lastUpdated": "2020-04-07T02:15:03.263Z",
    "dead": 78,
    "sick": 4623
  },
  {
    "infected": 756,
    "recovered": 458,
    "latitude": 26.0667,
    "pop": 1493000,
    "longitude": 50.557701,
    "name": "Bahrain",
    "country": "BH",
    "lastUpdated": "2020-04-07T02:15:03.266Z",
    "dead": 4,
    "id": "C7cj4nwRITs13KnaJrQ2",
    "sick": 294
  },
  {
    "infected": 301,
    "recovered": 25,
    "latitude": 27.0238,
    "pop": 68890000,
    "longitude": 74.2179,
    "name": "Rajasthan",
    "country": "IN",
    "lastUpdated": "2020-04-07T02:10:01.371Z",
    "dead": 2,
    "id": "CKZCZTPlrcq5fbfUPA9k",
    "sick": 274
  },
  {
    "recovered": 5,
    "latitude": 13.803,
    "pop": 6378000,
    "longitude": -88.9053,
    "name": "El Salvador",
    "country": "SV",
    "lastUpdated": "2020-04-07T02:15:03.322Z",
    "dead": 4,
    "id": "Cgvmtle61ehMvCzRzYx7",
    "infected": 69,
    "sick": 60
  },
  {
    "latitude": 52.355518,
    "pop": 66440000,
    "longitude": -1.17432,
    "name": "United Kingdom",
    "country": "GB",
    "lastUpdated": "2020-04-07T02:15:03.262Z",
    "dead": 5373,
    "id": "CrXu6i5Sqx11iwdfHfBs",
    "infected": 51608,
    "recovered": 135,
    "sick": 46100
  },
  {
    "recovered": 62,
    "latitude": 40.259003,
    "pop": 2973000,
    "longitude": 44.818474,
    "name": "Armenia",
    "country": "AM",
    "lastUpdated": "2020-04-07T02:15:03.266Z",
    "dead": 8,
    "id": "DCJCtZoBTWQ4mzdDNljD",
    "infected": 833,
    "sick": 763
  },
  {
    "id": "DJJraANgQbEqz1wBBtZz",
    "infected": 13,
    "recovered": 0,
    "latitude": 5.535,
    "pop": 4472,
    "longitude": -73.368,
    "name": "Boyacá",
    "country": "CO",
    "lastUpdated": "2020-04-07T02:19:08.502Z",
    "dead": 1,
    "sick": 12
  },
  {
    "latitude": 32.3213844,
    "pop": 65440,
    "longitude": -64.75737,
    "name": "Bermuda",
    "country": "BM",
    "lastUpdated": "2020-04-07T02:15:03.324Z",
    "dead": 2,
    "id": "DZyTD0Mu5WIcK6yTcJ91",
    "infected": 39,
    "recovered": 17,
    "sick": 20
  },
  {
    "infected": 44,
    "recovered": 10,
    "latitude": 22.192039,
    "pop": 622567,
    "longitude": 113.551262,
    "name": "Macao",
    "country": "MO",
    "lastUpdated": "2020-04-07T02:15:03.324Z",
    "dead": 0,
    "id": "DdBt8qsG6A3g92oOR3ow",
    "sick": 34
  },
  {
    "infected": 212,
    "recovered": 0,
    "latitude": 42.962334,
    "pop": 577737,
    "longitude": -107.534868,
    "name": "Wyoming",
    "country": "US",
    "lastUpdated": "2020-04-07T02:18:16.059Z",
    "dead": 0,
    "id": "DrGzziUglmBognCGY7R2",
    "sick": 212
  },
  {
    "latitude": 40.6401,
    "pop": 10740000,
    "longitude": 22.9444,
    "name": "Greece",
    "country": "GR",
    "lastUpdated": "2020-04-07T02:15:03.265Z",
    "dead": 79,
    "id": "Dtr1lap1RpJpXJdXGJiW",
    "infected": 1755,
    "recovered": 269,
    "sick": 1407
  },
  {
    "infected": 373,
    "recovered": 57,
    "latitude": 25.03841,
    "pop": 23780000,
    "longitude": 121.563698,
    "name": "Taiwan",
    "country": "TW",
    "lastUpdated": "2020-04-07T02:15:03.313Z",
    "dead": 5,
    "id": "EKTfs8e7M6DXzI1HqyyX",
    "sick": 311
  },
  {
    "id": "EQzJvzVHKjs8kLmK7BMu",
    "infected": 467,
    "recovered": 18,
    "latitude": 10.327273,
    "pop": 4906000,
    "longitude": -84.387618,
    "name": "Costa Rica",
    "country": "CR",
    "lastUpdated": "2020-04-07T02:15:03.312Z",
    "dead": 2,
    "sick": 447
  },
  {
    "infected": 146,
    "recovered": 22,
    "latitude": 22.2587,
    "pop": 62700000,
    "longitude": 71.1924,
    "name": "Gujarat",
    "country": "IN",
    "lastUpdated": "2020-04-07T02:10:01.371Z",
    "dead": 12,
    "id": "ERwk9R9en4m9WbdoMbIg",
    "sick": 112
  },
  {
    "lastUpdated": "2020-04-07T02:10:01.372Z",
    "dead": 0,
    "id": "Esl5UlCVB9s8pmGB5Ofr",
    "infected": 18,
    "recovered": 5,
    "latitude": 30.7333,
    "pop": 1055000,
    "longitude": 76.7794,
    "name": "Chandigarh",
    "country": "IN",
    "sick": 13
  },
  {
    "longitude": -66.664513,
    "name": "Puerto Rico",
    "country": "PR",
    "lastUpdated": "2020-04-07T02:18:16.058Z",
    "dead": 21,
    "id": "F4rPrEVGAIMM5rfPEMv4",
    "infected": 513,
    "recovered": 0,
    "latitude": 18.200178,
    "pop": 3195000,
    "sick": 492
  },
  {
    "recovered": 4,
    "latitude": 4.862437,
    "pop": 2919000,
    "longitude": -74.058655,
    "name": "Cundinamarca",
    "country": "CO",
    "lastUpdated": "2020-04-07T02:19:08.501Z",
    "dead": 3,
    "id": "F7MED5VwEhi3JvJu6KjB",
    "infected": 53,
    "sick": 46
  },
  {
    "infected": 367,
    "recovered": 18,
    "latitude": 33.93911,
    "pop": 35530000,
    "longitude": 67.709953,
    "name": "Afghanistan",
    "country": "AF",
    "lastUpdated": "2020-04-07T02:15:03.313Z",
    "dead": 11,
    "id": "FCDmlmnIIswd8bQiUjfN",
    "sick": 338
  },
  {
    "lastUpdated": "2020-04-07T01:44:09.482Z",
    "dead": 6,
    "id": "FErOU1m4Tj7jIkRam3vF",
    "infected": 579,
    "recovered": 570,
    "latitude": 29.431585,
    "pop": 30480000,
    "longitude": 106.912254,
    "name": "Chongqing",
    "country": "CN",
    "sick": 3
  },
  {
    "infected": 665,
    "recovered": 103,
    "latitude": 29.311661,
    "pop": 4137000,
    "longitude": 47.481766,
    "name": "Kuwait",
    "country": "KW",
    "lastUpdated": "2020-04-07T02:15:03.266Z",
    "dead": 1,
    "id": "FZsUkhxBEgqsPb4eO0PN",
    "sick": 561
  },
  {
    "longitude": 78.6569,
    "name": "Tamil Nadu",
    "country": "IN",
    "lastUpdated": "2020-04-07T02:10:01.371Z",
    "dead": 5,
    "id": "FeS45oMNC27pI17F0xEV",
    "infected": 621,
    "recovered": 13,
    "latitude": 11.1271,
    "pop": 67860000,
    "sick": 603
  },
  {
    "lastUpdated": "2020-04-07T02:15:03.265Z",
    "dead": 86,
    "id": "FuiVEJvWb0QMCpxJ3563",
    "infected": 1828,
    "recovered": 33,
    "latitude": 18.947829,
    "pop": 10770000,
    "longitude": -70.430399,
    "name": "Dominican Republic",
    "country": "DO",
    "sick": 1709
  },
  {
    "recovered": 33,
    "latitude": 18.1124,
    "pop": 35190000,
    "longitude": 79.0193,
    "name": "Telengana",
    "country": "IN",
    "lastUpdated": "2020-04-07T02:10:01.371Z",
    "dead": 11,
    "id": "FyC551oNwmENxbr9Yght",
    "infected": 364,
    "sick": 320
  },
  {
    "latitude": 48.669,
    "pop": 5450000,
    "longitude": 19.699,
    "name": "Slovakia",
    "country": "SK",
    "lastUpdated": "2020-04-07T02:15:03.311Z",
    "dead": 2,
    "id": "FzIDXoqWnTI3nUfhPyT2",
    "infected": 534,
    "recovered": 8,
    "sick": 524
  },
  {
    "infected": 3766,
    "recovered": 259,
    "latitude": 30.37532,
    "pop": 197000000,
    "longitude": 69.345116,
    "name": "Pakistan",
    "country": "PK",
    "lastUpdated": "2020-04-07T02:15:03.264Z",
    "dead": 53,
    "id": "GAp7Wb6IMhdgbvEtMza9",
    "sick": 3454
  },
  {
    "latitude": 31.1471,
    "pop": 27980000,
    "longitude": 75.3412,
    "name": "Punjab",
    "country": "IN",
    "lastUpdated": "2020-04-07T02:10:01.372Z",
    "dead": 7,
    "id": "GGru8cG08mANO8XDDUtZ",
    "infected": 79,
    "recovered": 4,
    "sick": 68
  },
  {
    "recovered": 167,
    "latitude": 23.424076,
    "pop": 9400000,
    "longitude": 53.847816,
    "name": "United Arab Emirates",
    "country": "AE",
    "lastUpdated": "2020-04-07T02:15:03.264Z",
    "dead": 11,
    "id": "GHzBIsHy2GiBc5JV2HMs",
    "infected": 2076,
    "sick": 1898
  },
  {
    "infected": 16310,
    "recovered": 0,
    "latitude": 36.621981,
    "pop": 39560000,
    "longitude": -119.339046,
    "name": "California",
    "country": "US",
    "lastUpdated": "2020-04-07T02:18:16.052Z",
    "dead": 386,
    "id": "Gh46r6vuaY7fbGt3IboN",
    "sick": 15924
  },
  {
    "id": "GpF8ULuKOQiFDCUHN44h",
    "infected": 1329,
    "recovered": 0,
    "latitude": 35.87189,
    "pop": 3943000,
    "longitude": -97.145514,
    "name": "Oklahoma",
    "country": "US",
    "lastUpdated": "2020-04-07T02:18:16.056Z",
    "dead": 51,
    "sick": 1278
  },
  {
    "id": "Gzx6GX1qhBm714BkEC6l",
    "infected": 1722,
    "recovered": 298,
    "latitude": 46.5,
    "pop": 520891,
    "longitude": 11.35,
    "name": "P.A. Bolzano",
    "country": "IT",
    "lastUpdated": "2020-04-07T02:19:01.675Z",
    "dead": 164,
    "sick": 1260
  },
  {
    "latitude": 42.83263,
    "pop": 24710000,
    "longitude": 113.750972,
    "name": "Inner Mongolia",
    "country": "CN",
    "lastUpdated": "2020-04-07T01:44:09.481Z",
    "dead": 1,
    "id": "H3JeVigVbo5CSYfZG4WI",
    "infected": 118,
    "recovered": 74,
    "sick": 43
  },
  {
    "recovered": 0,
    "latitude": 39.74536,
    "pop": 3034000,
    "longitude": -116.724977,
    "name": "Nevada",
    "country": "US",
    "lastUpdated": "2020-04-07T02:18:16.056Z",
    "dead": 46,
    "id": "H3bDg4eV30up4WWrIDAS",
    "infected": 1970,
    "sick": 1924
  },
  {
    "id": "HN5mGmxlqlSeFSNeu1K5",
    "infected": 163,
    "recovered": 20,
    "latitude": 15.3173,
    "pop": 64060000,
    "longitude": 75.7139,
    "name": "Karnataka",
    "country": "IN",
    "lastUpdated": "2020-04-07T02:10:01.371Z",
    "dead": 4,
    "sick": 139
  },
  {
    "infected": 5,
    "recovered": 2,
    "latitude": 27.5142,
    "pop": 807610,
    "longitude": 90.4336,
    "name": "Bhutan",
    "country": "BT",
    "lastUpdated": "2020-04-07T02:15:03.335Z",
    "dead": 0,
    "id": "HRDpwyxpqW9RN0xLFyNu",
    "sick": 3
  },
  {
    "lastUpdated": "2020-04-07T02:15:03.312Z",
    "dead": 2,
    "id": "HRTA10dtrruDEwjJEGMp",
    "infected": 457,
    "recovered": 30,
    "latitude": 41.3775,
    "pop": 32390000,
    "longitude": 64.5853,
    "name": "Uzbekistan",
    "country": "UZ",
    "sick": 425
  },
  {
    "lastUpdated": "2020-04-07T02:18:16.057Z",
    "dead": 12,
    "id": "HSSFomRju0doHhWgW8On",
    "infected": 686,
    "recovered": 0,
    "latitude": 34.138916,
    "pop": 2095000,
    "longitude": -105.576255,
    "name": "New Mexico",
    "country": "US",
    "sick": 674
  },
  {
    "lastUpdated": "2020-04-07T02:07:06.127Z",
    "dead": 1,
    "id": "HZkACHjW7NlYjg8vEMj2",
    "infected": 104,
    "recovered": 0,
    "latitude": -40.231,
    "pop": 412812,
    "longitude": -72.3311,
    "name": "Los Ríos",
    "country": "CL",
    "sick": 103
  },
  {
    "lastUpdated": "2020-04-07T02:16:09.892Z",
    "dead": 8,
    "id": "He1gSS1v50t06i3YrqvB",
    "infected": 531,
    "recovered": 143,
    "latitude": 53.6127,
    "pop": 1635000,
    "longitude": 12.4296,
    "name": "Mecklenburg-Vorpommern",
    "country": "DE",
    "sick": 380
  },
  {
    "infected": 2439,
    "recovered": 633,
    "latitude": 23.634501,
    "pop": 129200000,
    "longitude": -102.552788,
    "name": "Mexico",
    "country": "MX",
    "lastUpdated": "2020-04-07T02:15:03.264Z",
    "dead": 125,
    "id": "I4OJ6z9Vjs1byOcbsJrd",
    "sick": 1681
  },
  {
    "lastUpdated": "2020-04-07T02:19:01.675Z",
    "dead": 169,
    "id": "I9EqrZfbPnkioNU4wZGz",
    "infected": 1721,
    "recovered": 127,
    "latitude": 42.25,
    "pop": 1315000,
    "longitude": 13.75,
    "name": "Abruzzo",
    "country": "IT",
    "sick": 1425
  },
  {
    "latitude": 23.363855,
    "pop": 113460000,
    "longitude": 113.373448,
    "name": "Guangdong",
    "country": "CN",
    "lastUpdated": "2020-04-07T01:44:09.481Z",
    "dead": 8,
    "id": "IAX0OQLVnUwU7FX0ENF1",
    "infected": 1532,
    "recovered": 1395,
    "sick": 129
  },
  {
    "latitude": 33.875408,
    "pop": 94000000,
    "longitude": 113.484016,
    "name": "Henan",
    "country": "CN",
    "lastUpdated": "2020-04-07T01:44:09.482Z",
    "dead": 22,
    "id": "IFuMrMvSjoiX5agYvllh",
    "infected": 1276,
    "recovered": 1252,
    "sick": 2
  },
  {
    "latitude": -36.61667,
    "pop": 480600,
    "longitude": -71.95,
    "name": "Ñuble",
    "country": "CL",
    "lastUpdated": "2020-04-07T02:07:06.127Z",
    "dead": 4,
    "id": "ImnOiVx9Cb8Nw7cbRcQ7",
    "infected": 474,
    "recovered": 0,
    "sick": 470
  },
  {
    "id": "InZ38sIqyK7FN7XAOZoX",
    "infected": 24,
    "recovered": 0,
    "latitude": 19.0558,
    "pop": 10980000,
    "longitude": -73.0513,
    "name": "Haiti",
    "country": "HT",
    "lastUpdated": "2020-04-07T02:15:03.325Z",
    "dead": 1,
    "sick": 23
  },
  {
    "infected": 7558,
    "recovered": 0,
    "latitude": 32.528564,
    "pop": 10520000,
    "longitude": -83.280125,
    "name": "Georgia (US)",
    "country": "US",
    "lastUpdated": "2020-04-07T02:18:16.054Z",
    "dead": 234,
    "id": "IvQkDJkTAsoIqPRAU25n",
    "sick": 7324
  },
  {
    "infected": 1160,
    "recovered": 241,
    "latitude": -42.8285,
    "pop": 4794000,
    "longitude": 172.488081,
    "name": "New Zealand",
    "country": "NZ",
    "lastUpdated": "2020-04-07T02:15:03.265Z",
    "dead": 1,
    "id": "IvVhpOoGpH6JVkGyUhXN",
    "sick": 918
  },
  {
    "latitude": 28.218,
    "pop": 1255000,
    "longitude": 94.7278,
    "name": "Arunachal Pradesh",
    "country": "IN",
    "lastUpdated": "2020-04-07T02:10:01.373Z",
    "dead": 0,
    "id": "IwYKiIVY18NGwdGQFGWW",
    "infected": 1,
    "recovered": 0,
    "sick": 1
  },
  {
    "lastUpdated": "2020-04-07T02:15:03.316Z",
    "dead": 7,
    "id": "J3mZXlfEnnJx4CDZLvRG",
    "infected": 165,
    "recovered": 65,
    "latitude": 6.4238,
    "pop": 31980000,
    "longitude": -66.5897,
    "name": "Venezuela",
    "country": "VE",
    "sick": 93
  },
  {
    "recovered": 45,
    "latitude": 35.1264,
    "pop": 1170000,
    "longitude": 33.4299,
    "name": "Cyprus",
    "country": "CY",
    "lastUpdated": "2020-04-07T02:15:03.312Z",
    "dead": 9,
    "id": "JQByE4l2OA6sGOqIcWrM",
    "infected": 465,
    "sick": 411
  },
  {
    "infected": 32,
    "recovered": 9,
    "latitude": 25.0961,
    "pop": 99020000,
    "longitude": 85.3131,
    "name": "Bihar",
    "country": "IN",
    "lastUpdated": "2020-04-07T02:10:01.372Z",
    "dead": 1,
    "id": "JR7hOGked7CZtIs2nCV5",
    "sick": 22
  },
  {
    "infected": 70,
    "recovered": 15,
    "latitude": 14.628434,
    "pop": 16910000,
    "longitude": -90.522713,
    "name": "Guatemala",
    "country": "GT",
    "lastUpdated": "2020-04-07T02:15:03.322Z",
    "dead": 3,
    "id": "JUWE6bG3b5oL7fKQMSvv",
    "sick": 52
  },
  {
    "infected": 2843,
    "recovered": 500,
    "latitude": 49.8153,
    "pop": 602005,
    "longitude": 6.1296,
    "name": "Luxembourg",
    "country": "LU",
    "lastUpdated": "2020-04-07T02:15:03.264Z",
    "dead": 41,
    "id": "JcFsHSn2WvZ5LJW42ovG",
    "sick": 2302
  },
  {
    "latitude": 8.8,
    "pop": 10880,
    "longitude": -74.167,
    "name": "Bolívar",
    "country": "CO",
    "lastUpdated": "2020-04-07T02:19:08.502Z",
    "dead": 0,
    "id": "JmOyaFe25yZCIV64JbZj",
    "infected": 3,
    "recovered": 0,
    "sick": 3
  },
  {
    "latitude": 8.7479801,
    "pop": 786500,
    "longitude": -75.8814316,
    "name": "Córdoba",
    "country": "CO",
    "lastUpdated": "2020-04-07T02:19:08.502Z",
    "dead": 1,
    "id": "Jr8syCB0lydmPDXw8Q6N",
    "infected": 3,
    "recovered": 0,
    "sick": 2
  },
  {
    "lastUpdated": "2020-04-07T02:15:03.322Z",
    "dead": 3,
    "id": "JrBbirlBKGdWSdcDt7PF",
    "infected": 58,
    "recovered": 23,
    "latitude": 8.6195,
    "pop": 7798000,
    "longitude": 0.8248,
    "name": "Togo",
    "country": "TG",
    "sick": 32
  },
  {
    "lastUpdated": "2020-04-07T02:15:03.267Z",
    "dead": 22,
    "id": "JzZ8sbqzjutThVjkPKPL",
    "infected": 549,
    "recovered": 39,
    "latitude": 42.7339,
    "pop": 7050000,
    "longitude": 25.4858,
    "name": "Bulgaria",
    "country": "BG",
    "sick": 488
  },
  {
    "recovered": 837,
    "latitude": 44.5,
    "pop": 1557000,
    "longitude": 8.833,
    "name": "Liguria",
    "country": "IT",
    "lastUpdated": "2020-04-07T02:19:01.676Z",
    "dead": 595,
    "id": "KLXicxFogWnu0dLp4bNK",
    "infected": 4549,
    "sick": 3117
  },
  {
    "latitude": 10.4631,
    "pop": 1201000,
    "longitude": -73.2532,
    "name": "Cesar",
    "country": "CO",
    "lastUpdated": "2020-04-07T02:19:08.502Z",
    "dead": 0,
    "id": "KpOz3WmiZkrXUMlUJNlV",
    "infected": 16,
    "recovered": 1,
    "sick": 15
  },
  {
    "infected": 6001,
    "recovered": 350,
    "latitude": 43.4167,
    "pop": 3737000,
    "longitude": 11,
    "name": "Toscana",
    "country": "IT",
    "lastUpdated": "2020-04-07T02:19:01.678Z",
    "dead": 350,
    "id": "KrLrJbpDqqiXgUPGCCW9",
    "sick": 5301
  },
  {
    "latitude": 7.873054,
    "pop": 21440000,
    "longitude": 80.771797,
    "name": "Sri Lanka",
    "country": "LK",
    "lastUpdated": "2020-04-07T02:15:03.314Z",
    "dead": 5,
    "id": "KsWzJO06cf0d6LJ4ZNh9",
    "infected": 178,
    "recovered": 38,
    "sick": 135
  },
  {
    "infected": 303,
    "recovered": 5,
    "latitude": 15.9129,
    "pop": 49670000,
    "longitude": 79.74,
    "name": "Andhra Pradesh",
    "country": "IN",
    "lastUpdated": "2020-04-07T02:10:01.371Z",
    "dead": 3,
    "id": "KtQIo2DoqjELtPAlyDVO",
    "sick": 295
  },
  {
    "longitude": 105.318756,
    "name": "Russia",
    "country": "RU",
    "lastUpdated": "2020-04-07T02:15:03.263Z",
    "dead": 47,
    "id": "KwOuGBKSMRlmwftxAvLX",
    "infected": 6343,
    "recovered": 406,
    "latitude": 61.52401,
    "pop": 144500000,
    "sick": 5890
  },
  {
    "recovered": 7,
    "latitude": 18.0708,
    "pop": 32125,
    "longitude": -63.0501,
    "name": "Saint-Martin",
    "country": "FR",
    "lastUpdated": "2020-04-07T02:15:03.324Z",
    "dead": 2,
    "id": "LBUtrLDKJiupXjlUNTUe",
    "infected": 32,
    "sick": 23
  },
  {
    "infected": 77,
    "recovered": 55,
    "latitude": 47.166,
    "pop": 38557,
    "longitude": 9.5554,
    "name": "Liechtenstein",
    "country": "LI",
    "lastUpdated": "2020-04-07T02:15:03.322Z",
    "dead": 1,
    "id": "LTGEU2E9MFkrCcFhZYVk",
    "sick": 21
  },
  {
    "infected": 128,
    "recovered": 5,
    "latitude": 9.9456,
    "pop": 12720000,
    "longitude": -9.6966,
    "name": "Guinea",
    "country": "GN",
    "lastUpdated": "2020-04-07T02:15:03.317Z",
    "dead": 0,
    "id": "LU2QWt5ao8IJa8evNYVV",
    "sick": 123
  },
  {
    "latitude": 3.9193051,
    "pop": 563402,
    "longitude": -56.0277824,
    "name": "Suriname",
    "country": "SR",
    "lastUpdated": "2020-04-07T02:15:03.331Z",
    "dead": 1,
    "id": "LglKINHyQpYpFxjckbQ6",
    "infected": 10,
    "recovered": 0,
    "sick": 9
  },
  {
    "infected": 253,
    "recovered": 0,
    "latitude": 52.9399,
    "pop": 1174000,
    "longitude": -106.4509,
    "name": "Saskatchewan",
    "country": "CA",
    "lastUpdated": "2020-04-07T02:15:01.544Z",
    "dead": 3,
    "id": "LkIDKY0CMAqzbwBHyYCP",
    "sick": 250
  },
  {
    "longitude": -84.27,
    "name": "Kentucky",
    "country": "US",
    "lastUpdated": "2020-04-07T02:18:16.057Z",
    "dead": 60,
    "id": "MC8MXFw9iXYybnF8v7e6",
    "infected": 1008,
    "recovered": 0,
    "latitude": 37.8393,
    "pop": 4468000,
    "sick": 948
  },
  {
    "infected": 4956,
    "recovered": 0,
    "latitude": 40.2672,
    "pop": 6692000,
    "longitude": -86.1349,
    "name": "Indiana",
    "country": "US",
    "lastUpdated": "2020-04-07T02:18:16.055Z",
    "dead": 143,
    "id": "MOxDkmQ4wBi1CuAdVxDE",
    "sick": 4813
  },
  {
    "infected": 323,
    "recovered": 41,
    "latitude": 7.54,
    "pop": 24290000,
    "longitude": -5.5471,
    "name": "Ivory Coast",
    "country": "CI",
    "lastUpdated": "2020-04-07T02:15:03.313Z",
    "dead": 3,
    "id": "MdQOfc1gNh2DOqwSP6UV",
    "sick": 279
  },
  {
    "infected": 21915,
    "recovered": 7757,
    "latitude": 51.4332,
    "pop": 17910000,
    "longitude": 7.6616,
    "name": "Nordrhein-Westfalen",
    "country": "DE",
    "lastUpdated": "2020-04-07T02:16:09.892Z",
    "dead": 382,
    "id": "MjpYq3zQyAvSQlVVYjD2",
    "sick": 13776
  },
  {
    "recovered": 75,
    "latitude": 37.330509,
    "pop": 6301000,
    "longitude": 105.977203,
    "name": "Ningxia",
    "country": "CN",
    "lastUpdated": "2020-04-07T01:44:09.483Z",
    "dead": 0,
    "id": "MntmjjuHljarCdt6aIeE",
    "infected": 75,
    "sick": 0
  },
  {
    "lastUpdated": "2020-04-07T02:16:09.885Z",
    "dead": 467,
    "id": "N3XsRBwJSsNclkEf7Zz5",
    "infected": 21445,
    "recovered": 4291,
    "latitude": 48.6616,
    "pop": 11020000,
    "longitude": 9.3501,
    "name": "Baden-Württemberg",
    "country": "DE",
    "sick": 16687
  },
  {
    "recovered": 47,
    "latitude": 44.696652,
    "pop": 3507000,
    "longitude": 17.824332,
    "name": "Bosnia and Herzegovina",
    "country": "BA",
    "lastUpdated": "2020-04-07T02:15:03.266Z",
    "dead": 29,
    "id": "N7c13sCQF0G789XAVazJ",
    "infected": 674,
    "sick": 598
  },
  {
    "lastUpdated": "2020-04-07T01:44:09.482Z",
    "dead": 0,
    "id": "NBRIGIRrJB1Ry8prDNAC",
    "infected": 138,
    "recovered": 133,
    "latitude": 37.242565,
    "pop": 36500000,
    "longitude": 111.856857,
    "name": "Shanxi",
    "country": "CN",
    "sick": 5
  },
  {
    "latitude": 35.7596,
    "pop": 10380000,
    "longitude": -79.0193,
    "name": "North Carolina",
    "country": "US",
    "lastUpdated": "2020-04-07T02:18:16.055Z",
    "dead": 45,
    "id": "NC64Qp5kTqAfiTuR27k8",
    "infected": 3054,
    "recovered": 0,
    "sick": 3009
  },
  {
    "id": "NJjo2gfBvnbK4xatrsUz",
    "infected": 1512,
    "recovered": 231,
    "latitude": 52.4125,
    "pop": 2504000,
    "longitude": 12.5316,
    "name": "Brandenburg",
    "country": "DE",
    "lastUpdated": "2020-04-07T02:16:09.892Z",
    "dead": 32,
    "sick": 1249
  },
  {
    "infected": 31,
    "recovered": 4,
    "latitude": 30.0668,
    "pop": 10080000,
    "longitude": 79.0193,
    "name": "Uttarakhand",
    "country": "IN",
    "lastUpdated": "2020-04-07T02:10:01.372Z",
    "dead": 0,
    "id": "NMeZEcGToxXfpi16PfFV",
    "sick": 27
  },
  {
    "infected": 4816,
    "recovered": 1054,
    "latitude": 50.6521,
    "pop": 6243000,
    "longitude": 9.1624,
    "name": "Hessen",
    "country": "DE",
    "lastUpdated": "2020-04-07T02:16:09.892Z",
    "dead": 78,
    "id": "Nk5vPgUIXsWVfbWZf15O",
    "sick": 3684
  },
  {
    "infected": 542,
    "recovered": 16,
    "latitude": 56.96776,
    "pop": 1920000,
    "longitude": 25.837107,
    "name": "Latvia",
    "country": "LV",
    "lastUpdated": "2020-04-07T02:15:03.311Z",
    "dead": 1,
    "id": "NmmMKy0YqA8StHdGzB5N",
    "sick": 525
  },
  {
    "latitude": 6.4281,
    "pop": 4732000,
    "longitude": -9.4295,
    "name": "Liberia",
    "country": "LR",
    "lastUpdated": "2020-04-07T02:15:03.326Z",
    "dead": 3,
    "id": "O4g88K49HKEZLFXm5gxb",
    "infected": 14,
    "recovered": 3,
    "sick": 8
  },
  {
    "recovered": 0,
    "latitude": 34.003307,
    "pop": 5084000,
    "longitude": -80.525613,
    "name": "South Carolina",
    "country": "US",
    "lastUpdated": "2020-04-07T02:18:16.056Z",
    "dead": 48,
    "id": "ONU4CK8QjViFHKg2w5if",
    "infected": 2232,
    "sick": 2184
  },
  {
    "latitude": 33.51822,
    "pop": 2987000,
    "longitude": -89.582775,
    "name": "Mississippi",
    "country": "US",
    "lastUpdated": "2020-04-07T02:18:16.056Z",
    "dead": 51,
    "id": "OYa0jFzdbAgo8zUsRv6q",
    "infected": 1738,
    "recovered": 0,
    "sick": 1687
  },
  {
    "infected": 499,
    "recovered": 0,
    "latitude": 45.2538,
    "pop": 1338000,
    "longitude": -69.4455,
    "name": "Maine",
    "country": "US",
    "lastUpdated": "2020-04-07T02:18:16.058Z",
    "dead": 10,
    "id": "OcXNp9kNVSwrRlG3bNVN",
    "sick": 489
  },
  {
    "recovered": 26,
    "latitude": -41.915264,
    "pop": 515000,
    "longitude": 146.725256,
    "name": "Tasmania",
    "country": "AU",
    "lastUpdated": "2020-04-07T02:15:01.544Z",
    "dead": 2,
    "id": "OnOseaqWdnuP18oruABW",
    "infected": 85,
    "sick": 57
  },
  {
    "lastUpdated": "2020-04-07T02:15:03.324Z",
    "dead": 1,
    "id": "P4mwRFLbrvT0t75uD8Wo",
    "infected": 39,
    "recovered": 1,
    "latitude": 19.3133,
    "pop": 61559,
    "longitude": -81.2546,
    "name": "Cayman Islands",
    "country": "KY",
    "sick": 37
  },
  {
    "infected": 6,
    "recovered": 0,
    "latitude": 16.7424984,
    "pop": 5900,
    "longitude": -62.1873665,
    "name": "Montserrat",
    "country": "MS",
    "lastUpdated": "2020-04-07T02:15:03.335Z",
    "dead": 0,
    "id": "PEDkeFMTOZpvHiSVxBk7",
    "sick": 6
  },
  {
    "lastUpdated": "2020-04-07T02:15:03.321Z",
    "dead": 0,
    "id": "PEcgZGEkyhABztt1Ufgc",
    "infected": 105,
    "recovered": 4,
    "latitude": -1.9403,
    "pop": 12210000,
    "longitude": 29.8739,
    "name": "Rwanda",
    "country": "RW",
    "sick": 101
  },
  {
    "lastUpdated": "2020-04-07T02:18:16.057Z",
    "dead": 30,
    "id": "PJvVYosLIhbcRZYnKX1R",
    "infected": 986,
    "recovered": 0,
    "latitude": 46.7296,
    "pop": 5611000,
    "longitude": -94.6859,
    "name": "Minnesota",
    "country": "US",
    "sick": 956
  },
  {
    "latitude": 40.6331,
    "pop": 12740000,
    "longitude": -89.3985,
    "name": "Illinois",
    "country": "US",
    "lastUpdated": "2020-04-07T02:18:16.054Z",
    "dead": 308,
    "id": "PTwQr9ijo0TBBsPH2sdJ",
    "infected": 12262,
    "recovered": 2,
    "sick": 11952
  },
  {
    "infected": 14,
    "recovered": 1,
    "latitude": 13.909444,
    "pop": 178844,
    "longitude": -60.978893,
    "name": "Saint Lucia",
    "country": "LC",
    "lastUpdated": "2020-04-07T02:15:03.326Z",
    "dead": 0,
    "id": "PjLqCeFdyzdZNcZxMkK1",
    "sick": 13
  },
  {
    "infected": 596,
    "recovered": 5,
    "latitude": 34.201507,
    "pop": 11530000,
    "longitude": 9.460554,
    "name": "Tunisia",
    "country": "TN",
    "lastUpdated": "2020-04-07T02:15:03.267Z",
    "dead": 22,
    "id": "Pr76V4raf108uSRoEXac",
    "sick": 569
  },
  {
    "infected": 10,
    "recovered": 4,
    "latitude": -26.5225,
    "pop": 1367000,
    "longitude": 31.4659,
    "name": "Eswatini",
    "country": "SZ",
    "lastUpdated": "2020-04-07T02:15:03.332Z",
    "dead": 0,
    "id": "PuQgOd9KWiMzGZXm11sR",
    "sick": 6
  },
  {
    "recovered": 620,
    "latitude": -37.009609,
    "pop": 6359000,
    "longitude": 143.94853,
    "name": "Victoria",
    "country": "AU",
    "lastUpdated": "2020-04-07T02:15:01.543Z",
    "dead": 10,
    "id": "Q18mrGvFWTLX2BU9SqhQ",
    "infected": 1158,
    "sick": 528
  },
  {
    "longitude": 9.6961,
    "name": "Schleswig-Holstein",
    "country": "DE",
    "lastUpdated": "2020-04-07T02:16:09.893Z",
    "dead": 22,
    "id": "Q39XkabIYxt15mHINzTa",
    "infected": 1711,
    "recovered": 163,
    "latitude": 54.2194,
    "pop": 2890000,
    "sick": 1526
  },
  {
    "longitude": 25.013607,
    "name": "Estonia",
    "country": "EE",
    "lastUpdated": "2020-04-07T02:15:03.265Z",
    "dead": 19,
    "id": "QR9go2hQKXjty7JHUYe4",
    "infected": 1108,
    "recovered": 62,
    "latitude": 58.595272,
    "pop": 1328000,
    "sick": 1027
  },
  {
    "recovered": 0,
    "latitude": -6.315,
    "pop": 8251000,
    "longitude": 143.9555,
    "name": "Papua New Guinea",
    "country": "PG",
    "lastUpdated": "2020-04-07T02:15:03.336Z",
    "dead": 0,
    "id": "QlZrE4nosm5WfdA2aCDg",
    "infected": 2,
    "sick": 2
  },
  {
    "lastUpdated": "2020-04-07T02:18:16.059Z",
    "dead": 1,
    "id": "QqhD3YDMKXojvQY3Yu41",
    "infected": 43,
    "recovered": 0,
    "latitude": 18.3358,
    "pop": 107268,
    "longitude": -64.8963,
    "name": "U.S. Virgin Islands",
    "country": "US",
    "sick": 42
  },
  {
    "id": "Qy2qW2ep5wltnYjPJBxh",
    "infected": 15,
    "recovered": 1,
    "latitude": 15.414999,
    "pop": 71937,
    "longitude": -61.3709755,
    "name": "Dominica",
    "country": "DM",
    "lastUpdated": "2020-04-07T02:15:03.326Z",
    "dead": 0,
    "sick": 14
  },
  {
    "id": "R3IHMWqIUhOJJTlrmbUZ",
    "infected": 2,
    "recovered": 1,
    "latitude": 5.167,
    "pop": 420504,
    "longitude": -72.167,
    "name": "Casanare",
    "country": "CO",
    "lastUpdated": "2020-04-07T02:19:08.502Z",
    "dead": 0,
    "sick": 1
  },
  {
    "latitude": 8.538,
    "pop": 4099000,
    "longitude": -80.7821,
    "name": "Panama",
    "country": "PA",
    "lastUpdated": "2020-04-07T02:15:03.264Z",
    "dead": 55,
    "id": "R8YCgephnxTufvcPWMgx",
    "infected": 2100,
    "recovered": 14,
    "sick": 2031
  },
  {
    "infected": 298,
    "recovered": 6,
    "latitude": 15.2,
    "pop": 9265000,
    "longitude": -86.2419,
    "name": "Honduras",
    "country": "HN",
    "lastUpdated": "2020-04-07T02:15:03.313Z",
    "dead": 22,
    "id": "RA2SE0p2bVhqo0P2hzGY",
    "sick": 270
  },
  {
    "latitude": -18.4745998,
    "pop": 224500,
    "longitude": -70.2979202,
    "name": "Arica y Parinacota",
    "country": "CL",
    "lastUpdated": "2020-04-07T02:07:06.124Z",
    "dead": 0,
    "id": "RBt9RiwP7WUbMnJfD0lo",
    "infected": 41,
    "recovered": 0,
    "sick": 41
  },
  {
    "longitude": 13.8,
    "name": "Friuli Venezia Giulia",
    "country": "IT",
    "lastUpdated": "2020-04-07T02:19:01.675Z",
    "dead": 158,
    "id": "RCrDBCdBNYzgLNr0aB2H",
    "infected": 2103,
    "recovered": 549,
    "latitude": 45.633331,
    "pop": 1216000,
    "sick": 1396
  },
  {
    "infected": 946,
    "recovered": 0,
    "latitude": 41.878,
    "pop": 3156000,
    "longitude": -93.0977,
    "name": "Iowa",
    "country": "US",
    "lastUpdated": "2020-04-07T02:18:16.057Z",
    "dead": 25,
    "id": "RX0KDu1AFrlCsrRso0nb",
    "sick": 921
  },
  {
    "latitude": 4.624335,
    "pop": 7413000,
    "longitude": -74.063644,
    "name": "Bogotá D.C.",
    "country": "CO",
    "lastUpdated": "2020-04-07T02:19:08.494Z",
    "dead": 22,
    "id": "RZ6PCe5TZsO15JjDObwO",
    "infected": 779,
    "recovered": 46,
    "sick": 711
  },
  {
    "longitude": 17.2283306,
    "name": "Libya",
    "country": "LY",
    "lastUpdated": "2020-04-07T02:15:03.325Z",
    "dead": 1,
    "id": "RaJxbzlnRFTuj4B8IbpC",
    "infected": 19,
    "recovered": 1,
    "latitude": 26.3351002,
    "pop": 6846000,
    "sick": 17
  },
  {
    "lastUpdated": "2020-04-07T02:18:16.057Z",
    "dead": 25,
    "id": "Rf4uvBfP3GRDSHdZElRd",
    "infected": 849,
    "recovered": 0,
    "latitude": 39.0119,
    "pop": 2912000,
    "longitude": -98.4842,
    "name": "Kansas",
    "country": "US",
    "sick": 824
  },
  {
    "latitude": 48.6998,
    "pop": 5518000,
    "longitude": 6.1878,
    "name": "Grand Est",
    "country": "FR",
    "lastUpdated": "2020-04-06T17:35:03.606Z",
    "dead": 1574,
    "id": "RmEgf1xeclWt7XCF9oiR",
    "infected": 13158,
    "recovered": 3115,
    "sick": 8469
  },
  {
    "infected": 4547,
    "recovered": 0,
    "latitude": 51.2538,
    "pop": 14570000,
    "longitude": -85.3232,
    "name": "Ontario",
    "country": "CA",
    "lastUpdated": "2020-04-07T00:05:50.916Z",
    "dead": 150,
    "id": "Rx4TuyMpfGb3S8wYJX0x",
    "sick": 4397
  },
  {
    "latitude": 14.652027,
    "pop": 376480,
    "longitude": -61.011715,
    "name": "Martinique",
    "country": "FR",
    "lastUpdated": "2020-04-07T02:15:03.316Z",
    "dead": 4,
    "id": "SDdefnq1bc3ZNr7SpEsW",
    "infected": 151,
    "recovered": 50,
    "sick": 97
  },
  {
    "id": "SG9VWLOV3x2JsTkXmVSz",
    "infected": 287,
    "recovered": 31,
    "latitude": 7.9465,
    "pop": 28830000,
    "longitude": -1.0232,
    "name": "Ghana",
    "country": "GH",
    "lastUpdated": "2020-04-07T02:15:03.313Z",
    "dead": 5,
    "sick": 251
  },
  {
    "recovered": 8056,
    "latitude": 46.818188,
    "pop": 8570000,
    "longitude": 8.227512,
    "name": "Switzerland",
    "country": "CH",
    "lastUpdated": "2020-04-07T02:15:03.262Z",
    "dead": 765,
    "id": "SGe9sCPayMqh6RsGFaBA",
    "infected": 21657,
    "sick": 12836
  },
  {
    "lastUpdated": "2020-04-07T02:15:01.542Z",
    "dead": 121,
    "id": "SHoOE3NiJgWAlDVBzwYH",
    "infected": 8580,
    "recovered": 0,
    "latitude": 46.8139,
    "pop": 8485000,
    "longitude": -71.208,
    "name": "Quebec",
    "country": "CA",
    "sick": 8459
  },
  {
    "longitude": 20.903,
    "name": "Kosovo",
    "country": "XK",
    "lastUpdated": "2020-04-07T02:14:08.966Z",
    "dead": 3,
    "id": "SMWvuMMuKp2QK7O2tNia",
    "infected": 165,
    "recovered": 24,
    "latitude": 42.6026,
    "pop": 1831000,
    "sick": 138
  },
  {
    "longitude": 74.124,
    "name": "Goa",
    "country": "IN",
    "lastUpdated": "2020-04-07T02:10:01.372Z",
    "dead": 0,
    "id": "SPcujsH2YlUaoAr8AiWF",
    "infected": 7,
    "recovered": 0,
    "latitude": 15.2993,
    "pop": 1817000,
    "sick": 7
  },
  {
    "latitude": 39,
    "pop": 1957000,
    "longitude": 16.5,
    "name": "Calabria",
    "country": "IT",
    "lastUpdated": "2020-04-07T02:19:01.675Z",
    "dead": 58,
    "id": "SZdF624x0v1LlyzZjKFu",
    "infected": 817,
    "recovered": 37,
    "sick": 722
  },
  {
    "latitude": 41.4925,
    "pop": 1929000,
    "longitude": -99.9018,
    "name": "Nebraska",
    "country": "US",
    "lastUpdated": "2020-04-07T02:18:16.058Z",
    "dead": 9,
    "id": "SakhKQzKu1LRI8laqdQq",
    "infected": 417,
    "recovered": 0,
    "sick": 408
  },
  {
    "id": "SgHzWAAYK1j2sipovxM6",
    "infected": 349,
    "recovered": 40,
    "latitude": -21.1151,
    "pop": 859959,
    "longitude": 55.5364,
    "name": "La Réunion",
    "country": "FR",
    "lastUpdated": "2020-04-07T02:15:03.313Z",
    "dead": 0,
    "sick": 309
  },
  {
    "infected": 114,
    "recovered": 53,
    "latitude": 12.565679,
    "pop": 16010000,
    "longitude": 104.990967,
    "name": "Cambodia",
    "country": "KH",
    "lastUpdated": "2020-04-07T02:15:03.319Z",
    "dead": 0,
    "id": "SioMALgUbo7peXmbco2f",
    "sick": 61
  },
  {
    "infected": 113,
    "recovered": 0,
    "latitude": 13.4443,
    "pop": 164229,
    "longitude": 144.7937,
    "name": "Guam",
    "country": "GU",
    "lastUpdated": "2020-04-07T02:18:16.059Z",
    "dead": 4,
    "id": "SsWhuEElU7dCTTuH5fdQ",
    "sick": 109
  },
  {
    "lastUpdated": "2020-04-07T02:15:03.316Z",
    "dead": 18,
    "id": "T3iRf8mTUTAzbKrORTap",
    "infected": 161,
    "recovered": 5,
    "latitude": -4.0383,
    "pop": 81340000,
    "longitude": 21.7587,
    "name": "DR Congo",
    "country": "CD",
    "sick": 138
  },
  {
    "latitude": 23.635796,
    "pop": 32940000,
    "longitude": 44.344334,
    "name": "Saudi Arabia",
    "country": "SA",
    "lastUpdated": "2020-04-07T02:15:03.264Z",
    "dead": 38,
    "id": "T7NffoeCgTUpAbOHvYwP",
    "infected": 2605,
    "recovered": 551,
    "sick": 2016
  },
  {
    "infected": 135,
    "recovered": 82,
    "latitude": 4.506106,
    "pop": 428697,
    "longitude": 114.650692,
    "name": "Brunei",
    "country": "BN",
    "lastUpdated": "2020-04-07T02:15:03.316Z",
    "dead": 1,
    "id": "TQZmzsLhJqjtCSExAkCP",
    "sick": 52
  },
  {
    "id": "TT0MKODSjrxHvG19xZCa",
    "infected": 7558,
    "recovered": 1866,
    "latitude": 45.4471,
    "pop": 8027000,
    "longitude": 4.3853,
    "name": "Auvergne-Rhône-Alpes",
    "country": "FR",
    "lastUpdated": "2020-04-06T17:36:13.167Z",
    "dead": 555,
    "sick": 5137
  },
  {
    "recovered": 0,
    "latitude": 39.318928,
    "pop": 5696000,
    "longitude": -105.461392,
    "name": "Colorado",
    "country": "US",
    "lastUpdated": "2020-04-07T02:18:16.055Z",
    "dead": 150,
    "id": "Th4dlpXXmSDgi1OHs36P",
    "infected": 5183,
    "sick": 5033
  },
  {
    "lastUpdated": "2020-04-07T02:15:03.313Z",
    "dead": 18,
    "id": "Tup6oDCHj6DgqZR3nQ3x",
    "infected": 364,
    "recovered": 108,
    "latitude": 12.2383,
    "pop": 19190000,
    "longitude": -1.5616,
    "name": "Burkina Faso",
    "country": "BF",
    "sick": 238
  },
  {
    "infected": 12,
    "recovered": 0,
    "latitude": 12.104818,
    "pop": 112381,
    "longitude": -61.670761,
    "name": "Grenada",
    "country": "GD",
    "lastUpdated": "2020-04-07T02:15:03.327Z",
    "dead": 0,
    "id": "TvqURPN5xzVBXsmGP46N",
    "sick": 12
  },
  {
    "lastUpdated": "2020-04-07T02:15:03.263Z",
    "dead": 187,
    "id": "Ty1AY3VLPJcRZgdBIERx",
    "infected": 4681,
    "recovered": 1378,
    "latitude": 55.675758,
    "pop": 5603000,
    "longitude": 12.56902,
    "name": "Denmark",
    "country": "DK",
    "sick": 3116
  },
  {
    "longitude": 118.769882,
    "name": "Shandong",
    "country": "CN",
    "lastUpdated": "2020-04-07T01:44:09.481Z",
    "dead": 7,
    "id": "U0tkTJ9CGsBuFJ2Gdoum",
    "infected": 781,
    "recovered": 755,
    "latitude": 36.395859,
    "pop": 100472400,
    "sick": 19
  },
  {
    "latitude": 43.94236,
    "pop": 33400,
    "longitude": 12.457777,
    "name": "San Marino",
    "country": "SM",
    "lastUpdated": "2020-04-07T02:15:03.314Z",
    "dead": 32,
    "id": "U12rMD5GDW58Q0lIwrB1",
    "infected": 277,
    "recovered": 35,
    "sick": 210
  },
  {
    "infected": 3906,
    "recovered": 592,
    "latitude": 36.204823,
    "pop": 126800000,
    "longitude": 138.25293,
    "name": "Japan",
    "country": "JP",
    "lastUpdated": "2020-04-07T02:15:03.264Z",
    "dead": 92,
    "id": "U13Gy4BpRLAZ95bPmBXd",
    "sick": 3222
  },
  {
    "infected": 52,
    "recovered": 0,
    "latitude": 1.3733,
    "pop": 42860000,
    "longitude": 32.2903,
    "name": "Uganda",
    "country": "UG",
    "lastUpdated": "2020-04-07T02:15:03.324Z",
    "dead": 0,
    "id": "UCZXEgnHtxUoChWLR6fQ",
    "sick": 52
  },
  {
    "recovered": 2,
    "latitude": -11.2027,
    "pop": 29780000,
    "longitude": 17.8739,
    "name": "Angola",
    "country": "AO",
    "lastUpdated": "2020-04-07T02:15:03.325Z",
    "dead": 2,
    "id": "UIbrFy6kiTTF0D37Kqmp",
    "infected": 16,
    "sick": 12
  },
  {
    "infected": 1185,
    "recovered": 296,
    "latitude": 48.202,
    "pop": 3329000,
    "longitude": -2.9326,
    "name": "Bretagne",
    "country": "FR",
    "lastUpdated": "2020-04-06T17:36:55.660Z",
    "dead": 88,
    "id": "URKMlJ7OTNldjpaxFbjE",
    "sick": 801
  },
  {
    "recovered": 1500,
    "latitude": 53.5511,
    "pop": 1822000,
    "longitude": 9.9937,
    "name": "Hamburg",
    "country": "DE",
    "lastUpdated": "2020-04-07T02:16:09.892Z",
    "dead": 19,
    "id": "UfFaUECHINUutv1M9tzq",
    "infected": 3088,
    "sick": 1569
  },
  {
    "infected": 27,
    "recovered": 2,
    "latitude": -19.4914,
    "pop": 211945,
    "longitude": 132.551,
    "name": "Northern Territory",
    "country": "AU",
    "lastUpdated": "2020-04-07T02:15:01.544Z",
    "dead": 0,
    "id": "UrF45V1VqMo6YBib2KlL",
    "sick": 25
  },
  {
    "latitude": 18.0424805,
    "pop": 41109,
    "longitude": -63.0548286,
    "name": "Sint Maarten",
    "country": "SX",
    "lastUpdated": "2020-04-07T02:15:03.324Z",
    "dead": 6,
    "id": "UsxgpiuFCtlR2CW1UUFm",
    "infected": 37,
    "recovered": 1,
    "sick": 30
  },
  {
    "infected": 5,
    "recovered": 1,
    "latitude": 11.943179,
    "pop": 241773,
    "longitude": 79.808206,
    "name": "Puducherry",
    "country": "IN",
    "lastUpdated": "2020-04-07T02:07:03.419Z",
    "dead": 0,
    "id": "V1qE740s3EUGyKGr6SVv",
    "sick": 4
  },
  {
    "latitude": -45.5687,
    "pop": 25569,
    "longitude": -72.0597,
    "name": "Aysén",
    "country": "CL",
    "lastUpdated": "2020-04-07T02:07:06.128Z",
    "dead": 0,
    "id": "V9QxUhV4DyYK7iElEhXV",
    "infected": 7,
    "recovered": 0,
    "sick": 7
  },
  {
    "lastUpdated": "2020-04-07T02:15:03.313Z",
    "dead": 9,
    "id": "VAG9AcMABTf8oIAfELPh",
    "infected": 350,
    "recovered": 18,
    "latitude": 21.5218,
    "pop": 11480000,
    "longitude": -77.7812,
    "name": "Cuba",
    "country": "CU",
    "sick": 323
  },
  {
    "infected": 184,
    "recovered": 173,
    "latitude": 25.181129,
    "pop": 45970000,
    "longitude": 101.864143,
    "name": "Yunnan",
    "country": "CN",
    "lastUpdated": "2020-04-07T01:44:09.482Z",
    "dead": 2,
    "id": "VIf8T8PD3ZzlzAm5eBCX",
    "sick": 9
  },
  {
    "longitude": 80.9462,
    "name": "Uttar Pradesh",
    "country": "IN",
    "lastUpdated": "2020-04-07T02:10:01.371Z",
    "dead": 3,
    "id": "VcKcLdCkC6YpPfIDnRVD",
    "infected": 305,
    "recovered": 21,
    "latitude": 26.8467,
    "pop": 204200000,
    "sick": 281
  },
  {
    "infected": 5,
    "recovered": 0,
    "latitude": 64.8255,
    "pop": 44826,
    "longitude": -124.8457,
    "name": "Northwest Territories",
    "country": "CA",
    "lastUpdated": "2020-04-07T02:15:01.544Z",
    "dead": 0,
    "id": "Vd3lLgrNsr81plzTgZkz",
    "sick": 5
  },
  {
    "lastUpdated": "2020-04-06T17:37:38.985Z",
    "dead": 172,
    "id": "WAnbFrEjtZDTCIYBt8rz",
    "infected": 2803,
    "recovered": 803,
    "latitude": 43.8927,
    "pop": 5893000,
    "longitude": 3.2828,
    "name": "Occitanie",
    "country": "FR",
    "sick": 1828
  },
  {
    "longitude": 16.5,
    "name": "Basilicata",
    "country": "IT",
    "lastUpdated": "2020-04-07T02:19:01.675Z",
    "dead": 13,
    "id": "WD502XimGXnWzqYg7zxL",
    "infected": 287,
    "recovered": 12,
    "latitude": 40.5,
    "pop": 567118,
    "sick": 262
  },
  {
    "latitude": 24.6637,
    "pop": 2722000,
    "longitude": 93.9063,
    "name": "Manipur",
    "country": "IN",
    "lastUpdated": "2020-04-07T02:10:01.373Z",
    "dead": 0,
    "id": "WKsJQmcpWKxnp0nCwN77",
    "infected": 2,
    "recovered": 1,
    "sick": 1
  },
  {
    "infected": 1686,
    "recovered": 95,
    "latitude": -30.5595,
    "pop": 56720000,
    "longitude": 22.9375,
    "name": "South Africa",
    "country": "ZA",
    "lastUpdated": "2020-04-07T02:15:03.265Z",
    "dead": 12,
    "id": "Whrue10NtwIObLvFFyBr",
    "sick": 1579
  },
  {
    "infected": 4,
    "recovered": 2,
    "latitude": 13.443182,
    "pop": 2101000,
    "longitude": -15.3101387,
    "name": "Gambia",
    "country": "GM",
    "lastUpdated": "2020-04-07T02:15:03.335Z",
    "dead": 1,
    "id": "Wk811YwpQxsOCfz8As86",
    "sick": 1
  },
  {
    "longitude": 90.3563,
    "name": "Bangladesh",
    "country": "BD",
    "lastUpdated": "2020-04-07T02:15:03.317Z",
    "dead": 12,
    "id": "WpLayPPLIJ7VcHZdQaoM",
    "infected": 123,
    "recovered": 33,
    "latitude": 23.685,
    "pop": 164700000,
    "sick": 78
  },
  {
    "latitude": 45.5,
    "pop": 4905000,
    "longitude": 11.75,
    "name": "Veneto",
    "country": "IT",
    "lastUpdated": "2020-04-07T02:19:01.679Z",
    "dead": 662,
    "id": "X2iRhHF6f9pUnJcxPc3J",
    "infected": 11588,
    "recovered": 1204,
    "sick": 9722
  },
  {
    "infected": 1,
    "recovered": 0,
    "latitude": -8.556856,
    "pop": 1311000,
    "longitude": 125.56031,
    "name": "Timor-Leste",
    "country": "TL",
    "lastUpdated": "2020-04-07T02:15:03.337Z",
    "dead": 0,
    "id": "X3GMAVINj2GDzIRVfo7n",
    "sick": 1
  },
  {
    "longitude": 77.577049,
    "name": "Ladakh",
    "country": "IN",
    "lastUpdated": "2020-04-07T02:10:01.372Z",
    "dead": 0,
    "id": "X3PZqaJxtnlxcgP4tzya",
    "infected": 14,
    "recovered": 10,
    "latitude": 34.152588,
    "pop": 274289,
    "sick": 4
  },
  {
    "id": "XBBw0iMPrmiEu3qogkbi",
    "infected": 351,
    "recovered": 305,
    "latitude": 25.92448,
    "pop": 38560000,
    "longitude": 118.278992,
    "name": "Fujian",
    "country": "CN",
    "lastUpdated": "2020-04-07T01:44:09.481Z",
    "dead": 1,
    "sick": 45
  },
  {
    "infected": 221,
    "recovered": 0,
    "latitude": 12.829,
    "pop": 166533,
    "longitude": 123.836,
    "name": "Magallanes",
    "country": "CL",
    "lastUpdated": "2020-04-07T02:07:06.128Z",
    "dead": 2,
    "id": "XIYUg6ShQvWyEAJfyJzC",
    "sick": 219
  },
  {
    "recovered": 123,
    "latitude": -32.5228,
    "pop": 3457000,
    "longitude": -55.7658,
    "name": "Uruguay",
    "country": "UY",
    "lastUpdated": "2020-04-07T02:15:03.313Z",
    "dead": 6,
    "id": "XrsuLstdybIqIvv0E0aJ",
    "infected": 415,
    "sick": 286
  },
  {
    "lastUpdated": "2020-04-06T17:38:06.210Z",
    "dead": 30,
    "id": "YGXgIObKVabP2CYEdcb9",
    "infected": 335,
    "recovered": 117,
    "latitude": 42.0396,
    "pop": 339178,
    "longitude": 9.0129,
    "name": "Corse",
    "country": "FR",
    "sick": 188
  },
  {
    "lastUpdated": "2020-04-07T02:19:08.501Z",
    "dead": 1,
    "id": "YI9zIOUXJqAcgc0T80yb",
    "infected": 34,
    "recovered": 4,
    "latitude": 2.916112,
    "pop": 1126000,
    "longitude": -75.28344,
    "name": "Huila",
    "country": "CO",
    "sick": 29
  },
  {
    "latitude": 31.9522,
    "pop": 5052000,
    "longitude": 35.2332,
    "name": "Palestine",
    "country": "PS",
    "lastUpdated": "2020-04-07T02:15:03.314Z",
    "dead": 1,
    "id": "YMzKw0SnXG71VT7H1jff",
    "infected": 254,
    "recovered": 24,
    "sick": 229
  },
  {
    "lastUpdated": "2020-04-07T02:15:03.325Z",
    "dead": 0,
    "id": "YZoy8ReFucvC3IFnWZHn",
    "infected": 18,
    "recovered": 0,
    "latitude": 11.8037491,
    "pop": 1955000,
    "longitude": -15.1804132,
    "name": "Guinea-Bissau",
    "country": "GW",
    "sick": 18
  },
  {
    "latitude": 64.2008,
    "pop": 737438,
    "longitude": -149.4937,
    "name": "Alaska",
    "country": "US",
    "lastUpdated": "2020-04-07T02:18:16.059Z",
    "dead": 6,
    "id": "YaCODTMD1KKRnrAlkg2u",
    "infected": 191,
    "recovered": 0,
    "sick": 185
  },
  {
    "latitude": 37.568291,
    "pop": 51470000,
    "longitude": 126.99778,
    "name": "South Korea",
    "country": "KR",
    "lastUpdated": "2020-04-07T02:15:03.263Z",
    "dead": 192,
    "id": "Yw9uBekNlefXBcOCNMfP",
    "infected": 10331,
    "recovered": 6694,
    "sick": 3445
  },
  {
    "recovered": 6,
    "latitude": 13.193887,
    "pop": 285719,
    "longitude": -59.543198,
    "name": "Barbados",
    "country": "BB",
    "lastUpdated": "2020-04-07T02:15:03.322Z",
    "dead": 2,
    "id": "YzZqZMJGvG6joQCdiuXC",
    "infected": 60,
    "sick": 52
  },
  {
    "id": "ZAZNuCK1VweBaTLCFzCk",
    "infected": 4413,
    "recovered": 162,
    "latitude": 52.2297,
    "pop": 37980000,
    "longitude": 21.0122,
    "name": "Poland",
    "country": "PL",
    "lastUpdated": "2020-04-07T02:15:03.263Z",
    "dead": 107,
    "sick": 4144
  },
  {
    "latitude": -17.713371,
    "pop": 905502,
    "longitude": 178.065033,
    "name": "Fiji",
    "country": "FJ",
    "lastUpdated": "2020-04-07T02:15:03.326Z",
    "dead": 0,
    "id": "ZmzOT0sJgfWXEpRImItC",
    "infected": 14,
    "recovered": 0,
    "sick": 14
  },
  {
    "longitude": -73.0877,
    "name": "Connecticut",
    "country": "US",
    "lastUpdated": "2020-04-07T02:18:16.054Z",
    "dead": 206,
    "id": "Zqy0gftQzocR49jEJNMl",
    "infected": 6906,
    "recovered": 0,
    "latitude": 41.6032,
    "pop": 3573000,
    "sick": 6700
  },
  {
    "lastUpdated": "2020-04-07T02:19:01.676Z",
    "dead": 612,
    "id": "Zwbjs4XN7P9s849Q3zFj",
    "infected": 4614,
    "recovered": 296,
    "latitude": 43.616943,
    "pop": 1532000,
    "longitude": 13.516667,
    "name": "Marche",
    "country": "IT",
    "sick": 3706
  },
  {
    "latitude": 51.011,
    "pop": 2137000,
    "longitude": 10.8453,
    "name": "Thüringen",
    "country": "DE",
    "lastUpdated": "2020-04-07T02:16:09.893Z",
    "dead": 15,
    "id": "a9OgUWo6ZSWA3HyF0xnj",
    "infected": 1227,
    "recovered": 236,
    "sick": 976
  },
  {
    "latitude": -30.000233,
    "pop": 1677000,
    "longitude": 136.209152,
    "name": "South Australia",
    "country": "AU",
    "lastUpdated": "2020-04-07T02:15:01.543Z",
    "dead": 0,
    "id": "a9p9pAOsjg1WAjPGc2a6",
    "infected": 411,
    "recovered": 53,
    "sick": 358
  },
  {
    "latitude": -33.047237,
    "pop": 295100,
    "longitude": -71.612686,
    "name": "Valparaíso",
    "country": "CL",
    "lastUpdated": "2020-04-07T02:07:06.127Z",
    "dead": 1,
    "id": "aNN8fCwDCMMdlpMC2Fml",
    "infected": 198,
    "recovered": 0,
    "sick": 197
  },
  {
    "latitude": 37.9643,
    "pop": 6126000,
    "longitude": -91.8318,
    "name": "Missouri",
    "country": "US",
    "lastUpdated": "2020-04-07T02:18:16.055Z",
    "dead": 62,
    "id": "aPubGfQ8ToSEuKJldKRT",
    "infected": 2736,
    "recovered": 0,
    "sick": 2674
  },
  {
    "infected": 254,
    "recovered": 252,
    "latitude": 23.64407,
    "pop": 48380000,
    "longitude": 108.26651,
    "name": "Guangxi",
    "country": "CN",
    "lastUpdated": "2020-04-07T01:44:09.483Z",
    "dead": 2,
    "id": "aTa8MiBjtH3iY0SRs2HQ",
    "sick": 0
  },
  {
    "recovered": 0,
    "latitude": 6.6111,
    "pop": 4659000,
    "longitude": 20.9394,
    "name": "CAR",
    "country": "CF",
    "lastUpdated": "2020-04-07T02:15:03.334Z",
    "dead": 0,
    "id": "adcBUeAYp6ey0ZXCzKNs",
    "infected": 8,
    "sick": 8
  },
  {
    "recovered": 0,
    "latitude": 37.4316,
    "pop": 8518000,
    "longitude": -78.6569,
    "name": "Virginia",
    "country": "US",
    "lastUpdated": "2020-04-07T02:18:16.055Z",
    "dead": 66,
    "id": "afeZTVC1J1SMMNFxkrcc",
    "infected": 2878,
    "sick": 2812
  },
  {
    "latitude": 39.904202,
    "pop": 21540000,
    "longitude": 116.407394,
    "name": "Beijing",
    "country": "CN",
    "lastUpdated": "2020-04-07T01:44:09.480Z",
    "dead": 8,
    "id": "alj4hkxg9cjrTxOzwFKt",
    "infected": 587,
    "recovered": 448,
    "sick": 131
  },
  {
    "recovered": 344,
    "latitude": 33.22319,
    "pop": 38270000,
    "longitude": 43.679291,
    "name": "Iraq",
    "country": "IQ",
    "lastUpdated": "2020-04-07T02:15:03.266Z",
    "dead": 64,
    "id": "b7TwXX46FA0EmH1CjHET",
    "infected": 1031,
    "sick": 623
  },
  {
    "latitude": 14.457474,
    "pop": 15850000,
    "longitude": -14.358636,
    "name": "Senegal",
    "country": "SN",
    "lastUpdated": "2020-04-07T02:15:03.314Z",
    "dead": 2,
    "id": "b9p1JhVml3GGC7iiPmKv",
    "infected": 226,
    "recovered": 92,
    "sick": 132
  },
  {
    "longitude": 37.9062,
    "name": "Kenya",
    "country": "KE",
    "lastUpdated": "2020-04-07T02:15:03.316Z",
    "dead": 6,
    "id": "bVHiTolbUJGHIeVht3eG",
    "infected": 158,
    "recovered": 4,
    "latitude": -0.0236,
    "pop": 49700000,
    "sick": 148
  },
  {
    "latitude": 39.561889,
    "pop": 8909000,
    "longitude": -74.672169,
    "name": "New Jersey",
    "country": "US",
    "lastUpdated": "2020-04-07T02:18:16.052Z",
    "dead": 1003,
    "id": "bYp4RRHv19M7lYtSzQeV",
    "infected": 41090,
    "recovered": 0,
    "sick": 40087
  },
  {
    "infected": 3793,
    "recovered": 1241,
    "latitude": 3.139,
    "pop": 31620000,
    "longitude": 101.6869,
    "name": "Malaysia",
    "country": "MY",
    "lastUpdated": "2020-04-07T02:15:03.264Z",
    "dead": 62,
    "id": "bdqD4kpdqGgUaX70Tm2Q",
    "sick": 2490
  },
  {
    "lastUpdated": "2020-04-07T02:15:03.263Z",
    "dead": 477,
    "id": "bignnyt2A8BBx8VNo32p",
    "infected": 7206,
    "recovered": 205,
    "latitude": 60.128162,
    "pop": 10120000,
    "longitude": 18.643501,
    "name": "Sweden",
    "country": "SE",
    "sick": 6524
  },
  {
    "lastUpdated": "2020-04-07T02:10:01.373Z",
    "dead": 0,
    "id": "bo2XnTYrVRoaktD5uF93",
    "infected": 4,
    "recovered": 0,
    "latitude": 23.6102,
    "pop": 31900000,
    "longitude": 85.2799,
    "name": "Jharkhand",
    "country": "IN",
    "sick": 4
  },
  {
    "lastUpdated": "2020-04-07T02:15:03.332Z",
    "dead": 0,
    "id": "bor36ktvkrB3iSxlsegc",
    "infected": 10,
    "recovered": 0,
    "latitude": 17.363747,
    "pop": 53100,
    "longitude": -62.754593,
    "name": "Saint Kitts and Nevis",
    "country": "KN",
    "sick": 10
  },
  {
    "latitude": 40.973765,
    "pop": 2877000,
    "longitude": 20.010162,
    "name": "Albania",
    "country": "AL",
    "lastUpdated": "2020-04-07T02:15:03.313Z",
    "dead": 21,
    "id": "cCGmFmwHOoBrEpvG3qBP",
    "infected": 377,
    "recovered": 116,
    "sick": 240
  },
  {
    "infected": 22,
    "recovered": 0,
    "latitude": 16.871311,
    "pop": 55901000,
    "longitude": 96.199379,
    "name": "Myanmar",
    "country": "MM",
    "lastUpdated": "2020-04-07T02:15:03.325Z",
    "dead": 1,
    "id": "cIbchhSBTuxXmXYgpkdB",
    "sick": 21
  },
  {
    "latitude": -25.953724,
    "pop": 29670000,
    "longitude": 32.588711,
    "name": "Mozambique",
    "country": "MZ",
    "lastUpdated": "2020-04-07T02:15:03.332Z",
    "dead": 0,
    "id": "cO8TChMvQvAtoZMNurTQ",
    "infected": 10,
    "recovered": 1,
    "sick": 9
  },
  {
    "id": "cPxONYsVo6BgvCW9HUeQ",
    "infected": 15,
    "recovered": 2,
    "latitude": 46.8625,
    "pop": 3076000,
    "longitude": 103.8467,
    "name": "Mongolia",
    "country": "MN",
    "lastUpdated": "2020-04-07T02:15:03.326Z",
    "dead": 0,
    "sick": 13
  },
  {
    "latitude": 64.963051,
    "pop": 364260,
    "longitude": -19.020836,
    "name": "Iceland",
    "country": "IS",
    "lastUpdated": "2020-04-07T02:15:03.265Z",
    "dead": 6,
    "id": "cPxe7nsRnOf6aOPqHElJ",
    "infected": 1562,
    "recovered": 460,
    "sick": 1096
  },
  {
    "lastUpdated": "2020-04-07T02:15:03.263Z",
    "dead": 57,
    "id": "cX891t0ONLNFj0MYq6La",
    "infected": 8904,
    "recovered": 585,
    "latitude": 31.046051,
    "pop": 8712000,
    "longitude": 34.851612,
    "name": "Israel",
    "country": "IL",
    "sick": 8262
  },
  {
    "latitude": 4.749531,
    "pop": 290691,
    "longitude": -53.112909,
    "name": "Guyane",
    "country": "FR",
    "lastUpdated": "2020-04-07T02:15:03.322Z",
    "dead": 0,
    "id": "cc7s6hYGQ2MovBBBgkKb",
    "infected": 72,
    "recovered": 34,
    "sick": 38
  },
  {
    "lastUpdated": "2020-04-07T02:15:03.314Z",
    "dead": 0,
    "id": "cgzd5EM8PZv5ziJtTz1w",
    "infected": 183,
    "recovered": 107,
    "latitude": 61.8926,
    "pop": 49290,
    "longitude": -6.9118,
    "name": "Faeroe Islands",
    "country": "FO",
    "sick": 76
  },
  {
    "lastUpdated": "2020-04-07T02:18:16.054Z",
    "dead": 179,
    "id": "chj2FF3zb4Xxcop9RHre",
    "infected": 13127,
    "recovered": 0,
    "latitude": 41.2033,
    "pop": 12810000,
    "longitude": -77.1945,
    "name": "Pennsylvania",
    "country": "US",
    "sick": 12948
  },
  {
    "recovered": 610,
    "latitude": 45.7087,
    "pop": 5987000,
    "longitude": 0.6269,
    "name": "Nouvelle-Aquitaine",
    "country": "FR",
    "lastUpdated": "2020-04-06T17:39:22.100Z",
    "dead": 138,
    "id": "cpf3Y5PQTYywIm3PrpIQ",
    "infected": 2123,
    "sick": 1375
  },
  {
    "longitude": -3.74922,
    "name": "Spain",
    "country": "ES",
    "lastUpdated": "2020-04-07T02:15:03.261Z",
    "dead": 13341,
    "id": "d0ExINgPaWUBm3l4ioJL",
    "infected": 136675,
    "recovered": 40437,
    "latitude": 40.463669,
    "pop": 46660000,
    "sick": 82897
  },
  {
    "latitude": 42.50837,
    "pop": 76965,
    "longitude": 1.517155,
    "name": "Andorra",
    "country": "AD",
    "lastUpdated": "2020-04-07T02:15:03.312Z",
    "dead": 21,
    "id": "dedMXSYR2k92wkSXNZqn",
    "infected": 525,
    "recovered": 31,
    "sick": 473
  },
  {
    "infected": 783,
    "recovered": 0,
    "latitude": 38.831163,
    "pop": 967171,
    "longitude": -75.375673,
    "name": "Delaware",
    "country": "US",
    "lastUpdated": "2020-04-07T02:18:16.057Z",
    "dead": 15,
    "id": "dzCgqYduzyncjNKU9z6G",
    "sick": 768
  },
  {
    "lastUpdated": "2020-04-07T02:15:03.262Z",
    "dead": 649,
    "id": "dzIcCaUZlbIXuRw0SyDE",
    "infected": 30217,
    "recovered": 1326,
    "latitude": 38.9637,
    "pop": 80810000,
    "longitude": 35.2433,
    "name": "Turkey",
    "country": "TR",
    "sick": 28242
  },
  {
    "infected": 12297,
    "recovered": 3463,
    "latitude": 47.516232,
    "pop": 8822000,
    "longitude": 14.550072,
    "name": "Austria",
    "country": "AT",
    "lastUpdated": "2020-04-07T02:15:03.262Z",
    "dead": 220,
    "id": "e3BtI12qbqhE8jypOoZu",
    "sick": 8614
  },
  {
    "longitude": 9.8451,
    "name": "Niedersachsen",
    "country": "DE",
    "lastUpdated": "2020-04-07T02:16:09.892Z",
    "dead": 126,
    "id": "e3CJgTO8wVbBQZaxqNze",
    "infected": 6520,
    "recovered": 1915,
    "latitude": 52.6367,
    "pop": 7963000,
    "sick": 4479
  },
  {
    "latitude": 41.097481,
    "pop": 43900000,
    "longitude": 122.310669,
    "name": "Liaoning",
    "country": "CN",
    "lastUpdated": "2020-04-07T01:44:09.482Z",
    "dead": 2,
    "id": "e7P83iImanpd9r36oXK3",
    "infected": 144,
    "recovered": 130,
    "sick": 12
  },
  {
    "latitude": 31.230391,
    "pop": 24240000,
    "longitude": 121.473701,
    "name": "Shanghai",
    "country": "CN",
    "lastUpdated": "2020-04-07T01:44:09.480Z",
    "dead": 6,
    "id": "e9pQqQa7CEblCYoDtfKo",
    "infected": 538,
    "recovered": 389,
    "sick": 143
  },
  {
    "infected": 13837,
    "recovered": 0,
    "latitude": 42.407211,
    "pop": 6902000,
    "longitude": -71.382439,
    "name": "Massachusetts",
    "country": "US",
    "lastUpdated": "2020-04-07T02:18:16.053Z",
    "dead": 260,
    "id": "eCKDGssww4pF7NrxOySu",
    "sick": 13577
  },
  {
    "latitude": 43.740451,
    "pop": 38695,
    "longitude": 7.432032,
    "name": "Monaco",
    "country": "MC",
    "lastUpdated": "2020-04-07T02:15:03.322Z",
    "dead": 1,
    "id": "eLgKPNUwYM5MNDAtF6ql",
    "infected": 77,
    "recovered": 4,
    "sick": 72
  },
  {
    "infected": 6,
    "recovered": 0,
    "latitude": -22.328474,
    "pop": 2292000,
    "longitude": 24.684866,
    "name": "Botswana",
    "country": "BW",
    "lastUpdated": "2020-04-07T02:15:03.335Z",
    "dead": 1,
    "id": "edr7fI7Q4Kjj92eyyYLL",
    "sick": 5
  },
  {
    "infected": 3506,
    "recovered": 986,
    "latitude": 47.2805,
    "pop": 2686000,
    "longitude": 4.9994,
    "name": "Bourgogne-Franche-Comté",
    "country": "FR",
    "lastUpdated": "2020-04-06T17:36:35.569Z",
    "dead": 367,
    "id": "ejrjMKfHexGnK52FS9Aa",
    "sick": 2153
  },
  {
    "latitude": 7.217,
    "pop": 172000,
    "longitude": -73.083,
    "name": "Santander",
    "country": "CO",
    "lastUpdated": "2020-04-07T02:19:08.501Z",
    "dead": 0,
    "id": "er6jMhFclftpPfsmBU9s",
    "infected": 14,
    "recovered": 0,
    "sick": 14
  },
  {
    "infected": 662,
    "recovered": 46,
    "latitude": 48.0196,
    "pop": 18040000,
    "longitude": 66.9237,
    "name": "Kazakhstan",
    "country": "KZ",
    "lastUpdated": "2020-04-07T02:15:03.266Z",
    "dead": 6,
    "id": "etrmrftkQg6Kbd9seAga",
    "sick": 610
  },
  {
    "infected": 560,
    "recovered": 541,
    "latitude": 30.14208,
    "pop": 81100000,
    "longitude": 102.960701,
    "name": "Sichuan",
    "country": "CN",
    "lastUpdated": "2020-04-07T01:44:09.482Z",
    "dead": 3,
    "id": "eyK5bxFkwdoAouIBvLFM",
    "sick": 16
  },
  {
    "infected": 331,
    "recovered": 61,
    "latitude": 21.473534,
    "pop": 4636000,
    "longitude": 55.975414,
    "name": "Oman",
    "country": "OM",
    "lastUpdated": "2020-04-07T02:15:03.313Z",
    "dead": 2,
    "id": "f9kmlhYtc3WA3kjbWszW",
    "sick": 268
  },
  {
    "latitude": -0.228021,
    "pop": 81340000,
    "longitude": 15.8276587,
    "name": "Congo",
    "country": "CG",
    "lastUpdated": "2020-04-07T02:15:03.324Z",
    "dead": 5,
    "id": "fEyJ83bQtvcaes8KLhVx",
    "infected": 45,
    "recovered": 2,
    "sick": 38
  },
  {
    "recovered": 265,
    "latitude": 51.1045,
    "pop": 4081000,
    "longitude": 13.2017,
    "name": "Sachsen",
    "country": "DE",
    "lastUpdated": "2020-04-07T02:16:09.893Z",
    "dead": 44,
    "id": "fGqVm2khm3IBRs709S1f",
    "infected": 3160,
    "sick": 2851
  },
  {
    "recovered": 0,
    "latitude": 47,
    "longitude": 2,
    "name": "Région non communiquée",
    "country": "FR",
    "dead": 2416,
    "lastUpdated": "2020-04-06T17:33:22.301Z",
    "id": "fIp76gl05LhZ0aOxUbhz",
    "infected": 0,
    "sick": 0
  },
  {
    "longitude": 18.7322,
    "name": "Chad",
    "country": "TD",
    "lastUpdated": "2020-04-07T02:15:03.332Z",
    "dead": 0,
    "id": "fJc9CaZGR1OCHaW8Tn4V",
    "infected": 9,
    "recovered": 0,
    "latitude": 15.4542,
    "pop": 14900000,
    "sick": 9
  },
  {
    "latitude": 31.295929,
    "pop": 9702000,
    "longitude": 36.691952,
    "name": "Jordan",
    "country": "JO",
    "lastUpdated": "2020-04-07T02:15:03.313Z",
    "dead": 6,
    "id": "fK06AziL8wyrcoz7rsmJ",
    "infected": 349,
    "recovered": 126,
    "sick": 217
  },
  {
    "infected": 13629,
    "recovered": 0,
    "latitude": 27.716933,
    "pop": 21300000,
    "longitude": -81.555239,
    "name": "Florida",
    "country": "US",
    "lastUpdated": "2020-04-07T02:18:16.054Z",
    "dead": 254,
    "id": "fNganaGVPifA4QahEQPS",
    "sick": 13375
  },
  {
    "infected": 712,
    "recovered": 587,
    "latitude": 35.452016,
    "longitude": 139.664285,
    "name": "Diamond Princess (Cruise)",
    "country": "ZZ",
    "dead": 10,
    "lastUpdated": "2020-04-07T00:39:14.563Z",
    "id": "fNnE9CD0SttEVrCUo1Ym",
    "sick": 115
  },
  {
    "latitude": 46.0679,
    "pop": 538223,
    "longitude": 11.1211,
    "name": "P.A. Trento",
    "country": "IT",
    "lastUpdated": "2020-04-07T02:19:01.679Z",
    "dead": 230,
    "id": "fOlU5JggPKOO8jbHh5GD",
    "infected": 2348,
    "recovered": 280,
    "sick": 1838
  },
  {
    "latitude": 52.52,
    "pop": 3748000,
    "longitude": 13.405,
    "name": "Berlin",
    "country": "DE",
    "lastUpdated": "2020-04-07T02:16:09.891Z",
    "dead": 28,
    "id": "ffKhENYKy3bwsyBLiYtE",
    "infected": 3862,
    "recovered": 1938,
    "sick": 1896
  },
  {
    "longitude": 112.255402,
    "name": "Hubei",
    "country": "CN",
    "lastUpdated": "2020-04-07T01:44:09.475Z",
    "dead": 3212,
    "id": "fiJ14DCxw15e3SMemh8R",
    "infected": 67803,
    "recovered": 64014,
    "latitude": 31.160629,
    "pop": 58500000,
    "sick": 577
  },
  {
    "recovered": 28,
    "latitude": 50.4501,
    "pop": 42220000,
    "longitude": 30.5234,
    "name": "Ukraine",
    "country": "UA",
    "lastUpdated": "2020-04-07T02:15:03.265Z",
    "dead": 38,
    "id": "flbZ2kaR5kBuV8XZ2Nsu",
    "infected": 1319,
    "sick": 1253
  },
  {
    "infected": 216,
    "recovered": 33,
    "latitude": 41.2044,
    "pop": 6202000,
    "longitude": 74.7661,
    "name": "Kyrgyzstan",
    "country": "KG",
    "lastUpdated": "2020-04-07T02:15:03.314Z",
    "dead": 4,
    "id": "fst48lrFxiMJbQPf4nur",
    "sick": 179
  },
  {
    "recovered": 250,
    "latitude": 52.132633,
    "pop": 17180000,
    "longitude": 5.291266,
    "name": "Netherlands",
    "country": "NL",
    "lastUpdated": "2020-04-07T02:15:03.262Z",
    "dead": 1867,
    "id": "g0lRMtEJbucWIGqSPn0I",
    "infected": 18803,
    "sick": 16686
  },
  {
    "latitude": 34.69522,
    "pop": 3014000,
    "longitude": -92.288012,
    "name": "Arkansas",
    "country": "US",
    "lastUpdated": "2020-04-07T02:18:16.057Z",
    "dead": 16,
    "id": "gIdgxJZfTl2QOSYEwMAz",
    "infected": 927,
    "recovered": 0,
    "sick": 911
  },
  {
    "latitude": 4.8604159,
    "pop": 777859,
    "longitude": -58.9301796,
    "name": "Guyana",
    "country": "GY",
    "lastUpdated": "2020-04-07T02:15:03.324Z",
    "dead": 5,
    "id": "gXd2X2PjmGP0XVwxpWqT",
    "infected": 31,
    "recovered": 8,
    "sick": 18
  },
  {
    "infected": 288,
    "recovered": 0,
    "latitude": 43.9695,
    "pop": 882235,
    "longitude": -99.9018,
    "name": "South Dakota",
    "country": "US",
    "lastUpdated": "2020-04-07T02:18:16.059Z",
    "dead": 4,
    "id": "gYDsNgvuvtbg8t77w6FS",
    "sick": 284
  },
  {
    "id": "h9UqxYZ5xC4JZrmdDz0q",
    "infected": 241,
    "recovered": 5,
    "latitude": 35.894231,
    "pop": 493559,
    "longitude": 14.432846,
    "name": "Malta",
    "country": "MT",
    "lastUpdated": "2020-04-07T02:15:03.314Z",
    "dead": 0,
    "sick": 236
  },
  {
    "infected": 523,
    "recovered": 19,
    "latitude": 28.7041,
    "pop": 18980000,
    "longitude": 77.1025,
    "name": "Delhi",
    "country": "IN",
    "lastUpdated": "2020-04-07T02:07:03.339Z",
    "dead": 7,
    "id": "hqwsh1rmvkWI3LFUVuMk",
    "sick": 497
  },
  {
    "infected": 139,
    "recovered": 132,
    "latitude": 35.751835,
    "pop": 25580000,
    "longitude": 104.28611,
    "name": "Gansu",
    "country": "CN",
    "lastUpdated": "2020-04-07T01:44:09.482Z",
    "dead": 2,
    "id": "iGkTscdD0XyHFSP23Qrp",
    "sick": 5
  },
  {
    "latitude": 34.8021,
    "pop": 18270000,
    "longitude": 38.9968,
    "name": "Syria",
    "country": "SY",
    "lastUpdated": "2020-04-07T02:15:03.325Z",
    "dead": 2,
    "id": "iHf1IZQP3CA3sT2erzyh",
    "infected": 19,
    "recovered": 2,
    "sick": 15
  },
  {
    "infected": 562,
    "recovered": 0,
    "latitude": -38.9,
    "pop": 957224,
    "longitude": -72.667,
    "name": "Araucanía",
    "country": "CL",
    "lastUpdated": "2020-04-07T02:07:06.127Z",
    "dead": 14,
    "id": "idm3gKaiLuDHSUXo6Xhe",
    "sick": 548
  },
  {
    "longitude": 76.2711,
    "name": "Kerala",
    "country": "IN",
    "lastUpdated": "2020-04-07T02:10:01.371Z",
    "dead": 2,
    "id": "idymmgoqLHImnBdyC7r7",
    "infected": 327,
    "recovered": 59,
    "latitude": 10.8505,
    "pop": 34800000,
    "sick": 266
  },
  {
    "longitude": -72.495834,
    "name": "Norte de Santander",
    "country": "CO",
    "lastUpdated": "2020-04-07T02:19:08.501Z",
    "dead": 1,
    "id": "iknanPPrOkSL1x3KqcJr",
    "infected": 25,
    "recovered": 2,
    "latitude": 7.888519,
    "pop": 1492000,
    "sick": 22
  },
  {
    "recovered": 0,
    "latitude": -41.75,
    "pop": 823204,
    "longitude": -73,
    "name": "Los Lagos",
    "country": "CL",
    "lastUpdated": "2020-04-07T02:07:06.128Z",
    "dead": 2,
    "id": "iucmJUxrQZt9GNeo67FA",
    "infected": 286,
    "sick": 284
  },
  {
    "infected": 383,
    "recovered": 0,
    "latitude": -36.8194,
    "pop": 1800741,
    "longitude": -73.1644,
    "name": "Biobío",
    "country": "CL",
    "lastUpdated": "2020-04-07T02:07:06.127Z",
    "dead": 2,
    "id": "iwEtNt1E2BlcTS9oEV8T",
    "sick": 381
  },
  {
    "id": "j8eMjjqNAqHAJhAKdBYN",
    "infected": 139,
    "recovered": 31,
    "latitude": 16.265,
    "pop": 395700,
    "longitude": -61.551,
    "name": "Guadeloupe",
    "country": "FR",
    "lastUpdated": "2020-04-07T02:15:03.316Z",
    "dead": 7,
    "sick": 101
  },
  {
    "longitude": 7.309,
    "name": "Rheinland-Pfalz",
    "country": "DE",
    "lastUpdated": "2020-04-07T02:16:09.892Z",
    "dead": 43,
    "id": "jKn2pIFlIBScjb47GjRX",
    "infected": 4153,
    "recovered": 1051,
    "latitude": 50.1183,
    "pop": 4074000,
    "sick": 3059
  },
  {
    "id": "jMlHjIOb7eMPSxFBrmG1",
    "infected": 180,
    "recovered": 151,
    "latitude": 39.343357,
    "pop": 15000000,
    "longitude": 117.361649,
    "name": "Tianjin",
    "country": "CN",
    "lastUpdated": "2020-04-07T01:44:09.481Z",
    "dead": 3,
    "sick": 26
  },
  {
    "infected": 7,
    "recovered": 0,
    "latitude": 17.1898766,
    "pop": 397000,
    "longitude": -88.4976501,
    "name": "Belize",
    "country": "BZ",
    "lastUpdated": "2020-04-07T02:15:03.334Z",
    "dead": 1,
    "id": "jOc8JUDWxCmquh49oZxV",
    "sick": 6
  },
  {
    "infected": 543,
    "recovered": 0,
    "latitude": 44.5588,
    "pop": 629299,
    "longitude": -72.5778,
    "name": "Vermont",
    "country": "US",
    "lastUpdated": "2020-04-07T02:18:16.058Z",
    "dead": 23,
    "id": "jPC0eOG50FWknCDe3K6P",
    "sick": 520
  },
  {
    "latitude": 53.3498,
    "pop": 4830000,
    "longitude": -6.2603,
    "name": "Ireland",
    "country": "IE",
    "lastUpdated": "2020-04-07T02:15:03.263Z",
    "dead": 174,
    "id": "jpVXEDCyfyq26gPoCtHL",
    "infected": 5364,
    "recovered": 25,
    "sick": 5165
  },
  {
    "id": "k73gNv36u1SmziUF6mUw",
    "infected": 7,
    "recovered": 0,
    "latitude": 64.2823,
    "pop": 35874,
    "longitude": -135,
    "name": "Yukon",
    "country": "CA",
    "lastUpdated": "2020-04-07T02:15:01.544Z",
    "dead": 0,
    "sick": 7
  },
  {
    "id": "kF99avagXvBfZTHv9ETi",
    "infected": 922,
    "recovered": 56,
    "latitude": 40.078072,
    "pop": 1648000,
    "longitude": 9.283447,
    "name": "Sardegna",
    "country": "IT",
    "lastUpdated": "2020-04-07T02:19:01.676Z",
    "dead": 47,
    "sick": 819
  },
  {
    "infected": 90,
    "recovered": 9,
    "latitude": 11.572076,
    "pop": 956985,
    "longitude": 43.145645,
    "name": "Djibouti",
    "country": "DJ",
    "lastUpdated": "2020-04-07T02:15:03.321Z",
    "dead": 0,
    "id": "l4nYeaqwy2yrEVqnijFj",
    "sick": 81
  },
  {
    "infected": 1170,
    "recovered": 0,
    "latitude": 44.0682,
    "pop": 1754000,
    "longitude": -114.742,
    "name": "Idaho",
    "country": "US",
    "lastUpdated": "2020-04-07T02:18:16.056Z",
    "dead": 13,
    "id": "l7fHSKOmcaRX3tq9FCT6",
    "sick": 1157
  },
  {
    "latitude": 40.816666,
    "pop": 4048000,
    "longitude": 16.549999,
    "name": "Puglia",
    "country": "IT",
    "lastUpdated": "2020-04-07T02:19:01.676Z",
    "dead": 195,
    "id": "lAKH5Wfg4GhaM54VElFN",
    "infected": 2444,
    "recovered": 134,
    "sick": 2115
  },
  {
    "longitude": -61.2225,
    "name": "Trinidad and Tobago",
    "country": "TT",
    "lastUpdated": "2020-04-07T02:15:03.321Z",
    "dead": 8,
    "id": "lfLdfRP7hyiA6MVnQqqn",
    "infected": 105,
    "recovered": 1,
    "latitude": 10.6918,
    "pop": 1369000,
    "sick": 96
  },
  {
    "recovered": 1,
    "latitude": 16.5388,
    "pop": 546388,
    "longitude": -23.0418,
    "name": "Cape Verde",
    "country": "CV",
    "lastUpdated": "2020-04-07T02:15:03.334Z",
    "dead": 1,
    "id": "lgqPuia1S3ApA5Lsl2la",
    "infected": 7,
    "sick": 5
  },
  {
    "infected": 76,
    "recovered": 73,
    "latitude": 42.524635,
    "pop": 21810000,
    "longitude": 87.539589,
    "name": "Xinjiang",
    "country": "CN",
    "lastUpdated": "2020-04-07T01:44:09.483Z",
    "dead": 3,
    "id": "lhPjpn6CzqTRDN0RW8uE",
    "sick": 0
  },
  {
    "latitude": 3.2028,
    "pop": 436330,
    "longitude": 73.2207,
    "name": "Maldives",
    "country": "MV",
    "lastUpdated": "2020-04-07T02:15:03.325Z",
    "dead": 0,
    "id": "m45gI2UbWMuTrOnTtp9k",
    "infected": 19,
    "recovered": 13,
    "sick": 6
  },
  {
    "recovered": 0,
    "latitude": 41.9029,
    "pop": 1000,
    "longitude": 12.4534,
    "name": "Vatican City",
    "country": "VA",
    "lastUpdated": "2020-04-07T02:15:03.334Z",
    "dead": 0,
    "id": "mF7rVMdVnazAuw8G22xs",
    "infected": 7,
    "sick": 7
  },
  {
    "id": "mJtdLs4ub6CkcAOeMWUm",
    "infected": 868,
    "recovered": 70,
    "latitude": 19.7515,
    "pop": 114200000,
    "longitude": 75.7139,
    "name": "Maharashtra",
    "country": "IN",
    "lastUpdated": "2020-04-07T02:10:01.371Z",
    "dead": 52,
    "sick": 746
  },
  {
    "recovered": 1,
    "latitude": 4.151382,
    "pop": 1040000,
    "longitude": -73.637688,
    "name": "Meta",
    "country": "CO",
    "lastUpdated": "2020-04-07T02:19:08.501Z",
    "dead": 1,
    "id": "mWlg7XGKy75b4CISijiy",
    "infected": 14,
    "sick": 12
  },
  {
    "latitude": -6.369,
    "pop": 57310000,
    "longitude": 34.8888,
    "name": "Tanzania",
    "country": "TZ",
    "lastUpdated": "2020-04-07T02:15:03.325Z",
    "dead": 1,
    "id": "mnew3ojzmWV0dWSPfCQ9",
    "infected": 24,
    "recovered": 3,
    "sick": 20
  },
  {
    "latitude": 15.1794,
    "pop": 4475000,
    "longitude": 39.7823,
    "name": "Eritrea",
    "country": "ER",
    "lastUpdated": "2020-04-07T02:15:03.324Z",
    "dead": 0,
    "id": "n6OSwOVBdUie3xeZJmOf",
    "infected": 31,
    "recovered": 0,
    "sick": 31
  },
  {
    "latitude": 35.693323,
    "pop": 6770000,
    "longitude": -86.605748,
    "name": "Tennessee",
    "country": "US",
    "lastUpdated": "2020-04-07T02:18:16.055Z",
    "dead": 65,
    "id": "nLhJXE2apq8yNNj363ai",
    "infected": 3802,
    "recovered": 0,
    "sick": 3737
  },
  {
    "longitude": 102.4954987,
    "name": "Laos",
    "country": "LA",
    "lastUpdated": "2020-04-07T02:15:03.327Z",
    "dead": 0,
    "id": "nZzFt6liil98URpNfQyX",
    "infected": 12,
    "recovered": 0,
    "latitude": 19.8562698,
    "pop": 7247000,
    "sick": 12
  },
  {
    "recovered": 0,
    "latitude": 11.5444,
    "pop": 880600,
    "longitude": -72.9072,
    "name": "La Guajira",
    "country": "CO",
    "lastUpdated": "2020-04-07T02:19:08.502Z",
    "dead": 0,
    "id": "o3ScJxTQ2kuBaYJst2l4",
    "infected": 1,
    "sick": 1
  },
  {
    "infected": 11,
    "recovered": 0,
    "latitude": -4.6796,
    "pop": 95843,
    "longitude": 55.492,
    "name": "Seychelles",
    "country": "SC",
    "lastUpdated": "2020-04-07T02:15:03.327Z",
    "dead": 0,
    "id": "oB5fSyjWJ0FbNAkssuci",
    "sick": 11
  },
  {
    "infected": 1120,
    "recovered": 81,
    "latitude": 31.893778,
    "pop": 35740000,
    "longitude": -6.196132,
    "name": "Morocco",
    "country": "MA",
    "lastUpdated": "2020-04-07T02:15:03.265Z",
    "dead": 80,
    "id": "oJ5vSDE9vgXC2PG8LElp",
    "sick": 959
  },
  {
    "infected": 42,
    "recovered": 0,
    "latitude": -34.170132,
    "pop": 908500,
    "longitude": -70.740623,
    "name": "O’Higgins",
    "country": "CL",
    "lastUpdated": "2020-04-07T02:07:06.127Z",
    "dead": 0,
    "id": "oOZKJmmjkyAknQItNZKu",
    "sick": 42
  },
  {
    "latitude": 50.4801,
    "pop": 5978000,
    "longitude": 2.7937,
    "name": "Hauts-de-France",
    "country": "FR",
    "lastUpdated": "2020-04-06T17:35:50.487Z",
    "dead": 577,
    "id": "ofWLu9EuQoK2nHjwU1mA",
    "infected": 5578,
    "recovered": 1219,
    "sick": 3782
  },
  {
    "lastUpdated": "2020-04-07T02:10:01.373Z",
    "dead": 2,
    "id": "oqLEd2Z9P3FJeQsfIk8e",
    "infected": 18,
    "recovered": 1,
    "latitude": 31.1048,
    "pop": 6856000,
    "longitude": 77.1734,
    "name": "Himachal Pradesh",
    "country": "IN",
    "sick": 15
  },
  {
    "latitude": -20.917574,
    "pop": 5071000,
    "longitude": 142.702789,
    "name": "Queensland",
    "country": "AU",
    "lastUpdated": "2020-04-07T02:12:02.067Z",
    "dead": 4,
    "id": "oxz2l1rJipCsfMfy8Mmk",
    "infected": 921,
    "recovered": 8,
    "sick": 909
  },
  {
    "recovered": 469,
    "latitude": 47.121647,
    "pop": 38310000,
    "longitude": 128.738235,
    "name": "Heilongjiang",
    "country": "CN",
    "lastUpdated": "2020-04-07T01:44:09.481Z",
    "dead": 13,
    "id": "p1aZboN4BtRJe7hPl8cw",
    "infected": 544,
    "sick": 62
  },
  {
    "latitude": 32.026379,
    "pop": 62000000,
    "longitude": 117.252747,
    "name": "Anhui",
    "country": "CN",
    "lastUpdated": "2020-04-07T01:44:09.483Z",
    "dead": 6,
    "id": "pFhBwPnGGpQ6DLppJ6YS",
    "infected": 990,
    "recovered": 984,
    "sick": 0
  },
  {
    "id": "pHrUAOBW5WDdMsVWpEEi",
    "infected": 7,
    "recovered": 1,
    "latitude": 2.046934,
    "pop": 14740000,
    "longitude": 45.318161,
    "name": "Somalia",
    "country": "SO",
    "lastUpdated": "2020-04-07T02:15:03.334Z",
    "dead": 0,
    "sick": 6
  },
  {
    "longitude": -75,
    "name": "Atlántico",
    "country": "CO",
    "lastUpdated": "2020-04-07T02:19:08.502Z",
    "dead": 2,
    "id": "pTAYt7jhsJcVyzhK4FFl",
    "infected": 7,
    "recovered": 0,
    "latitude": 10.75,
    "pop": 2530000,
    "sick": 5
  },
  {
    "lastUpdated": "2020-04-07T02:10:01.372Z",
    "dead": 0,
    "id": "pu6AXEsDnpmmqnhajobN",
    "infected": 10,
    "recovered": 8,
    "latitude": 21.2787,
    "pop": 25550000,
    "longitude": 81.8661,
    "name": "Chhattisgarh",
    "country": "IN",
    "sick": 2
  },
  {
    "latitude": 38.9072,
    "pop": 633427,
    "longitude": -77.0369,
    "name": "Washington, D.C.",
    "country": "US",
    "lastUpdated": "2020-04-07T02:18:16.056Z",
    "dead": 24,
    "id": "q5cfvHprVTraL1yXnhDx",
    "infected": 1097,
    "recovered": 0,
    "sick": 1073
  },
  {
    "infected": 0,
    "recovered": 3616,
    "latitude": 56.1304,
    "longitude": -106.3468,
    "name": "Unknown Canadian province",
    "country": "CA",
    "dead": 0,
    "lastUpdated": "2020-04-07T02:15:03.262Z",
    "id": "qAbgEfrtA8NbQkzMFkEk",
    "sick": 0
  },
  {
    "longitude": 123.325947,
    "name": "Western Australia",
    "country": "AU",
    "lastUpdated": "2020-04-07T02:15:01.543Z",
    "dead": 4,
    "id": "qnQ0dkxAxnDP01YpdZgk",
    "infected": 460,
    "recovered": 162,
    "latitude": -26.190439,
    "pop": 2589000,
    "sick": 294
  },
  {
    "id": "qpAxVz0garcS0gNZxtOw",
    "infected": 20814,
    "recovered": 3986,
    "latitude": 50.503887,
    "pop": 11400000,
    "longitude": 4.469936,
    "name": "Belgium",
    "country": "BE",
    "lastUpdated": "2020-04-07T02:15:03.262Z",
    "dead": 1632,
    "sick": 15196
  },