[
  {
    "longitude": -81.7006,
    "name": "San Andrés",
    "latitude": 12.5847,
    "dead": 0,
    "lastUpdated": "2020-07-04T12:30:08.268Z",
    "recovered": 21,
    "infected": 28,
    "id": "01b09TY4vmuZwzVuiRFK",
    "pop": 72600,
    "country": "CO",
    "sick": 7,
    "invisible": false
  },
  {
    "longitude": -2.5895,
    "name": "Guernsey",
    "alwaysShow": false,
    "latitude": 49.4482,
    "dead": 13,
    "lastUpdated": "2020-07-04T10:52:12.581Z",
    "recovered": 238,
    "infected": 252,
    "id": "0FOJefeLxQYXQ1CnJm9o",
    "pop": 63196,
    "country": "GG",
    "sick": 1,
    "invisible": false
  },
  {
    "state": "72",
    "id": "0GJcws44NSPsDHAuxJhW",
    "pop": 5827000,
    "country": "IT",
    "longitude": 14.333333,
    "name": "Campania",
    "latitude": 41.066666,
    "dead": 432,
    "lastUpdated": "2020-07-04T12:31:01.967Z",
    "recovered": 4083,
    "infected": 4712,
    "sick": 197,
    "invisible": false
  },
  {
    "country": "CL",
    "longitude": -70.14222,
    "name": "Tarapacá",
    "latitude": -20.2167,
    "dead": 96,
    "lastUpdated": "2020-07-04T12:21:04.769Z",
    "recovered": 0,
    "infected": 6298,
    "id": "0HDQbiHe462xMCUV5HiI",
    "pop": 383870,
    "sick": 6202,
    "invisible": false
  },
  {
    "longitude": 85.0985,
    "name": "Odisha",
    "latitude": 20.9517,
    "dead": 43,
    "lastUpdated": "2020-07-04T12:41:01.491Z",
    "recovered": 5705,
    "infected": 8601,
    "id": "0VG7S6aaK4eSo59fL9JO",
    "pop": 45990000,
    "country": "IN",
    "sick": 2853,
    "invisible": false
  },
  {
    "longitude": -98.8582,
    "name": "Hidalgo",
    "latitude": 20.4737,
    "dead": 698,
    "lastUpdated": "2020-07-04T12:32:04.674Z",
    "recovered": 0,
    "infected": 4169,
    "id": "0XmCRqiK2ZaehoEJvfer",
    "pop": 2990300,
    "country": "MX",
    "sick": 3471,
    "invisible": false
  },
  {
    "id": "0jStOpTUNRaQYJqgmRoK",
    "pop": 427246,
    "country": "IN",
    "longitude": 92.6586,
    "name": "Andaman and Nicobar Islands",
    "latitude": 11.7401,
    "dead": 0,
    "lastUpdated": "2020-07-04T12:41:01.498Z",
    "recovered": 54,
    "infected": 119,
    "sick": 65,
    "invisible": false
  },
  {
    "id": "0m4aECS0Z2DGFEr8ldgI",
    "pop": 2639000,
    "country": "QA",
    "longitude": 51.145517,
    "name": "Qatar",
    "latitude": 25.315058,
    "dead": 123,
    "lastUpdated": "2020-07-04T12:31:06.539Z",
    "recovered": 90387,
    "infected": 99183,
    "sick": 8673,
    "invisible": false
  },
  {
    "name": "West Bengal",
    "latitude": 22.9868,
    "dead": 717,
    "lastUpdated": "2020-07-04T12:41:01.489Z",
    "recovered": 13571,
    "infected": 20488,
    "id": "0n54EMSDJcRoT1QEvw80",
    "pop": 90320000,
    "country": "IN",
    "longitude": 87.855,
    "sick": 6200,
    "invisible": false
  },
  {
    "longitude": 78.6569,
    "name": "Madhya Pradesh",
    "latitude": 22.9734,
    "dead": 593,
    "lastUpdated": "2020-07-04T12:41:01.490Z",
    "recovered": 11049,
    "infected": 14297,
    "id": "0s18o5DrDAHjbu5MFcrj",
    "pop": 73340000,
    "country": "IN",
    "sick": 2655,
    "invisible": false
  },
  {
    "id": "0tFoopNTs6e4tOoaltu2",
    "country": "US",
    "longitude": -95.7129,
    "invisible": true,
    "name": "Unknown US state",
    "latitude": 37.0902,
    "dead": 0,
    "lastUpdated": "2020-07-04T12:31:06.535Z",
    "recovered": 1235965,
    "infected": 0,
    "sick": 0
  },
  {
    "country": "CN",
    "longitude": 108.472214,
    "name": "Shaanxi",
    "latitude": 35.64249,
    "dead": 3,
    "lastUpdated": "2020-07-04T12:38:12.200Z",
    "recovered": 310,
    "infected": 320,
    "id": "0x2HLhr5z5xAtEdO4iZm",
    "pop": 37330000,
    "sick": 7,
    "invisible": false
  },
  {
    "lastUpdated": "2020-07-04T12:31:06.545Z",
    "recovered": 2876,
    "infected": 6787,
    "id": "19MvIhipqTyYv1H37Upw",
    "pop": 2077000,
    "country": "MK",
    "longitude": 21.668393,
    "name": "North Macedonia",
    "latitude": 41.643351,
    "dead": 328,
    "sick": 3583,
    "invisible": false
  },
  {
    "name": "Newfoundland and Labrador",
    "latitude": 53.1355,
    "dead": 3,
    "lastUpdated": "2020-07-04T12:40:01.346Z",
    "recovered": 0,
    "infected": 261,
    "state": "NL",
    "id": "1DOMOmCWDtva46OVSZLv",
    "pop": 521542,
    "country": "CA",
    "longitude": -57.6604,
    "sick": 258,
    "invisible": false
  },
  {
    "lastUpdated": "2020-07-04T12:38:12.203Z",
    "recovered": 18,
    "infected": 18,
    "id": "1Fap7rZu9SIRqf5TG9Dg",
    "pop": 5627000,
    "country": "CN",
    "longitude": 96.779286,
    "name": "Qinghai",
    "latitude": 35.801933,
    "dead": 0,
    "sick": 0,
    "invisible": false
  },
  {
    "name": "Unknown Mexico state",
    "latitude": 23.6345,
    "dead": 0,
    "lastUpdated": "2020-07-04T12:31:06.537Z",
    "recovered": 147205,
    "infected": 0,
    "id": "1YXQMlVL3fUeDZmcVfJw",
    "pop": 126200000,
    "country": "MX",
    "longitude": -102.5528,
    "invisible": true,
    "sick": 0
  },
  {
    "country": "RU",
    "longitude": 73.3167,
    "name": "Omsk Oblast",
    "latitude": 55.0555,
    "dead": 30,
    "lastUpdated": "2020-07-04T12:30:06.422Z",
    "recovered": 2157,
    "infected": 3950,
    "id": "1at5nIap9H51v32otlQl",
    "pop": 1960000,
    "sick": 1763,
    "invisible": false
  },
  {
    "latitude": 44.9,
    "dead": 4100,
    "lastUpdated": "2020-07-04T12:31:01.969Z",
    "recovered": 26019,
    "infected": 31394,
    "state": "21",
    "id": "1eTSQyfp8RoDPeFrIwun",
    "pop": 4376000,
    "country": "IT",
    "longitude": 8.206944,
    "name": "Piemonte",
    "sick": 1275,
    "invisible": false
  },
  {
    "recovered": 0,
    "infected": 151,
    "id": "1j1OurxLTpZYuWIWwQ9F",
    "pop": 1003000,
    "country": "PL",
    "longitude": 15.461,
    "name": "Lubuskie",
    "latitude": 51.993,
    "dead": 0,
    "lastUpdated": "2020-07-04T12:33:01.560Z",
    "sick": 151,
    "invisible": false
  },
  {
    "recovered": 10093,
    "infected": 17445,
    "id": "1qTPB8X3tyLyIdsb5TN3",
    "pop": 3550000,
    "country": "MD",
    "longitude": 28.3699,
    "name": "Moldova",
    "latitude": 47.4116,
    "dead": 576,
    "lastUpdated": "2020-07-04T12:31:06.543Z",
    "sick": 6776,
    "invisible": false
  },
  {
    "longitude": -95.7129,
    "invisible": true,
    "name": "Federal Bureau of Prisons",
    "latitude": 37.0902,
    "dead": 93,
    "lastUpdated": "2020-07-04T12:17:01.534Z",
    "recovered": 0,
    "infected": 7798,
    "id": "22PJOAThcDFKgSbyQIkD",
    "country": "US",
    "sick": 7705
  },
  {
    "id": "25qIBtsW2nfQj3pwBKg9",
    "pop": 3180000,
    "country": "CN",
    "longitude": 88.787865,
    "name": "Tibet",
    "latitude": 30.15336,
    "dead": 0,
    "lastUpdated": "2020-07-04T12:38:12.203Z",
    "recovered": 1,
    "infected": 1,
    "sick": 0,
    "invisible": false
  },
  {
    "recovered": 28219,
    "infected": 62142,
    "id": "2KHYUb5t3lwzVVmDjwNX",
    "pop": 264000000,
    "country": "ID",
    "longitude": 115.66779,
    "name": "Indonesia",
    "latitude": -1.572184,
    "dead": 3089,
    "lastUpdated": "2020-07-04T12:31:06.540Z",
    "sick": 30834,
    "invisible": false
  },
  {
    "name": "Oregon",
    "latitude": 43.807191,
    "dead": 209,
    "lastUpdated": "2020-07-04T12:17:01.532Z",
    "recovered": 0,
    "infected": 9636,
    "state": "OR",
    "id": "2OrsssmGUs4XCzaZzvTv",
    "pop": 4191000,
    "country": "US",
    "longitude": -120.585594,
    "sick": 9427,
    "invisible": false
  },
  {
    "longitude": -70.400002,
    "name": "Antofagasta",
    "latitude": -23.65,
    "dead": 171,
    "lastUpdated": "2020-07-04T12:21:04.769Z",
    "recovered": 0,
    "infected": 9570,
    "id": "2c5HBZ1ffkCVXnMYUWnY",
    "pop": 425000,
    "country": "CL",
    "sick": 9399,
    "invisible": false
  },
  {
    "longitude": -51.070534,
    "name": "Amapá",
    "latitude": 0.035574,
    "dead": 438,
    "lastUpdated": "2020-07-04T12:45:01.913Z",
    "recovered": 0,
    "infected": 29574,
    "state": "AP",
    "id": "2dzhyWsBSPpENWlNew0b",
    "pop": 9029000,
    "country": "BR",
    "sick": 29136,
    "invisible": false
  },
  {
    "longitude": 126.548103,
    "name": "Jilin",
    "latitude": 43.851921,
    "dead": 2,
    "lastUpdated": "2020-07-04T12:38:12.202Z",
    "recovered": 153,
    "infected": 155,
    "id": "2jxHvSsxdnom0nPNvOT8",
    "pop": 27460000,
    "country": "CN",
    "sick": 0,
    "invisible": false
  },
  {
    "id": "2p11BjSAs3wVyymgqBOe",
    "pop": 34571,
    "country": "GI",
    "longitude": -5.3536,
    "name": "Gibraltar",
    "latitude": 36.1408,
    "dead": 0,
    "lastUpdated": "2020-07-04T12:31:06.554Z",
    "recovered": 176,
    "infected": 178,
    "sick": 2,
    "invisible": false
  },
  {
    "latitude": 47.7516,
    "dead": 547,
    "lastUpdated": "2020-07-04T01:02:40.490Z",
    "recovered": 1956,
    "infected": 4492,
    "id": "2sLNkkHpyaHx7dD3aMDO",
    "pop": 2567000,
    "country": "FR",
    "longitude": 1.6751,
    "name": "Centre-Val de Loire",
    "sick": 1989,
    "invisible": false
  },
  {
    "lastUpdated": "2020-07-04T12:31:01.969Z",
    "recovered": 1356,
    "infected": 1446,
    "state": "55",
    "id": "319tiZOMczx1y0DfvOib",
    "pop": 884640,
    "country": "IT",
    "longitude": 12.643751,
    "name": "Umbria",
    "latitude": 42.565044,
    "dead": 80,
    "sick": 10,
    "invisible": false
  },
  {
    "longitude": -76.6131592,
    "name": "Cauca",
    "latitude": 2.43823,
    "dead": 20,
    "lastUpdated": "2020-07-04T12:30:08.268Z",
    "recovered": 168,
    "infected": 477,
    "id": "38T96Q3XNjt5FSJygPed",
    "pop": 1355000,
    "country": "CO",
    "sick": 289,
    "invisible": false
  },
  {
    "name": "Zambia",
    "latitude": -13.133896,
    "dead": 30,
    "lastUpdated": "2020-07-04T12:31:06.549Z",
    "recovered": 1348,
    "infected": 1632,
    "id": "3IlPjAbP5qVMn1nlgLTJ",
    "pop": 17090000,
    "country": "ZM",
    "longitude": 27.849332,
    "sick": 254,
    "invisible": false
  },
  {
    "recovered": 315,
    "infected": 663,
    "id": "3LstMSN5XMYBkxbe5HN7",
    "pop": 631219,
    "country": "ME",
    "longitude": 19.3958,
    "name": "Montenegro",
    "latitude": 42.7044,
    "dead": 13,
    "lastUpdated": "2020-07-04T12:31:06.552Z",
    "sick": 335,
    "invisible": false
  },
  {
    "longitude": 149.0124,
    "name": "Australian Capital Territory",
    "latitude": -35.4735,
    "dead": 3,
    "lastUpdated": "2020-07-04T12:43:19.925Z",
    "recovered": 105,
    "infected": 108,
    "state": "ACT",
    "id": "3OZoQsKrzxZ18EKyfGE6",
    "pop": 418440,
    "country": "AU",
    "sick": 0,
    "invisible": false
  },
  {
    "latitude": 57.8992,
    "dead": 19,
    "lastUpdated": "2020-07-04T12:30:06.421Z",
    "recovered": 3711,
    "infected": 4954,
    "id": "3PfzjWjvOkfgxc672BHQ",
    "pop": 608000,
    "country": "RU",
    "longitude": 38.8389,
    "name": "Yaroslavl Oblast",
    "sick": 1224,
    "invisible": false
  },
  {
    "longitude": 95.626,
    "name": "Tuva",
    "latitude": 51.8873,
    "dead": 4,
    "lastUpdated": "2020-07-04T12:30:06.421Z",
    "recovered": 1663,
    "infected": 4927,
    "id": "3PpqgIUJAtzxo1j7z56i",
    "pop": 321000,
    "country": "RU",
    "sick": 3260,
    "invisible": false
  },
  {
    "longitude": 92.9376,
    "name": "Assam",
    "latitude": 26.2006,
    "dead": 14,
    "lastUpdated": "2020-07-04T12:41:01.491Z",
    "recovered": 6328,
    "infected": 9800,
    "id": "3cCbnJCsK7mKlTO08K1o",
    "pop": 30940000,
    "country": "IN",
    "sick": 3458,
    "invisible": false
  },
  {
    "latitude": 40.4173,
    "dead": 2932,
    "lastUpdated": "2020-07-04T12:17:01.529Z",
    "recovered": 0,
    "infected": 55763,
    "state": "OH",
    "id": "3fC3bAyIRUquOQOEnQNe",
    "pop": 11690000,
    "country": "US",
    "longitude": -82.9071,
    "name": "Ohio",
    "sick": 52831,
    "invisible": false
  },
  {
    "recovered": 0,
    "infected": 8748,
    "id": "3kFCzJguabtBvXaHxgiu",
    "pop": 3066400,
    "country": "MX",
    "longitude": -107.5,
    "name": "Sinaloa",
    "latitude": 25,
    "dead": 1377,
    "lastUpdated": "2020-07-04T12:32:04.672Z",
    "sick": 7371,
    "invisible": false
  },
  {
    "id": "3mC2LveOpXV8P1PmQGUj",
    "pop": 4708300,
    "country": "CO",
    "longitude": -76.522224,
    "name": "Valle del Cauca",
    "latitude": 3.420556,
    "dead": 342,
    "lastUpdated": "2020-07-04T12:30:08.266Z",
    "recovered": 4158,
    "infected": 9670,
    "sick": 5170,
    "invisible": false
  },
  {
    "longitude": -10.9408,
    "name": "Mauritania",
    "latitude": 21.0079,
    "dead": 129,
    "lastUpdated": "2020-07-04T12:31:06.545Z",
    "recovered": 1765,
    "infected": 4705,
    "id": "4NnFMekRK2m14IlnZZoj",
    "pop": 4420000,
    "country": "MR",
    "sick": 2811,
    "invisible": false
  },
  {
    "name": "British Columbia",
    "latitude": 53.7267,
    "dead": 177,
    "lastUpdated": "2020-07-04T12:40:01.345Z",
    "recovered": 0,
    "infected": 2947,
    "state": "BC",
    "id": "4hfZRUoUgI4a3vrG0GBk",
    "pop": 5071000,
    "country": "CA",
    "longitude": -127.6476,
    "sick": 2770,
    "invisible": false
  },
  {
    "recovered": 0,
    "infected": 118956,
    "state": "RJ",
    "id": "4kq0z3kh5zt3YAUWxvtE",
    "pop": 17159960,
    "country": "BR",
    "longitude": -43.196388,
    "name": "Rio de Janeiro",
    "latitude": -22.908333,
    "dead": 10500,
    "lastUpdated": "2020-07-04T12:45:01.908Z",
    "sick": 108456,
    "invisible": false
  },
  {
    "latitude": -11.409874,
    "dead": 2001,
    "lastUpdated": "2020-07-04T12:45:01.908Z",
    "recovered": 0,
    "infected": 82314,
    "state": "BA",
    "id": "4yDbkEyqsNzZJjfrciYV",
    "pop": 14812617,
    "country": "BR",
    "longitude": -41.280857,
    "name": "Bahia",
    "sick": 80313,
    "invisible": false
  },
  {
    "lastUpdated": "2020-07-04T12:31:06.542Z",
    "recovered": 10820,
    "infected": 19267,
    "id": "4zqzRm2xHn0CDVOUQJ8p",
    "pop": 9898000,
    "country": "AZ",
    "longitude": 47.93802,
    "name": "Azerbaijan",
    "latitude": 40.3426,
    "dead": 235,
    "sick": 8212,
    "invisible": false
  },
  {
    "recovered": 0,
    "infected": 7321,
    "id": "54cfsdsRF76XVHWtZs19",
    "pop": 3672300,
    "country": "MX",
    "longitude": -97.861099,
    "name": "Tamaulipas",
    "latitude": 22.233105,
    "dead": 473,
    "lastUpdated": "2020-07-04T12:32:04.674Z",
    "sick": 6848,
    "invisible": false
  },
  {
    "longitude": 3.7265,
    "name": "Flanders",
    "latitude": 51.0109,
    "dead": 4899,
    "lastUpdated": "2020-07-04T12:37:05.673Z",
    "recovered": 9384,
    "infected": 34667,
    "state": "VLG",
    "id": "57ydD48mLRD2YoyteJZj",
    "pop": 6596000,
    "country": "BE",
    "sick": 20384,
    "invisible": false
  },
  {
    "longitude": -78.035889,
    "name": "Bahamas",
    "latitude": 25.025885,
    "dead": 11,
    "lastUpdated": "2020-07-04T12:31:06.554Z",
    "recovered": 89,
    "infected": 104,
    "id": "5MHegCUO9L3LiAU7DDey",
    "pop": 395361,
    "country": "BS",
    "sick": 4,
    "invisible": false
  },
  {
    "name": "New South Wales",
    "latitude": -31.253218,
    "dead": 49,
    "lastUpdated": "2020-07-04T00:43:21.897Z",
    "recovered": 2978,
    "infected": 3184,
    "state": "NSW",
    "id": "5N16a2OXXRpsEFanw0TC",
    "pop": 7544000,
    "country": "AU",
    "longitude": 146.921097,
    "sick": 157,
    "invisible": false
  },
  {
    "name": "South Sudan",
    "latitude": 6.8769908,
    "dead": 38,
    "lastUpdated": "2020-07-04T12:31:06.548Z",
    "recovered": 333,
    "infected": 2021,
    "id": "5N4PRxsCDzzwk7R200V1",
    "pop": 12580000,
    "country": "SS",
    "longitude": 31.3069782,
    "sick": 1650,
    "invisible": false
  },
  {
    "lastUpdated": "2020-07-04T00:42:57.533Z",
    "recovered": 9970,
    "infected": 15440,
    "state": "VC",
    "id": "5Va9A7CXR8AXdUz4HTJj",
    "pop": 4975000,
    "country": "ES",
    "longitude": -0.7533,
    "name": "C. Valenciana",
    "latitude": 39.484,
    "dead": 1432,
    "sick": 4038,
    "invisible": false
  },
  {
    "recovered": 21,
    "infected": 21,
    "id": "5fg04eyDwFw3kEXnrxez",
    "pop": 280460,
    "country": "NC",
    "longitude": 165.618042,
    "name": "New Caledonia",
    "latitude": -20.9043045,
    "dead": 0,
    "lastUpdated": "2020-07-04T12:31:06.556Z",
    "sick": 0,
    "invisible": false
  },
  {
    "lastUpdated": "2020-07-04T12:31:06.543Z",
    "recovered": 6143,
    "infected": 15259,
    "id": "5gXZIjRgAvd6xWN1LOv8",
    "pop": 29300000,
    "country": "NP",
    "longitude": 84.124008,
    "name": "Nepal",
    "latitude": 28.394857,
    "dead": 32,
    "sick": 9084,
    "invisible": false
  },
  {
    "name": "Philippines",
    "latitude": 12.879721,
    "dead": 1290,
    "lastUpdated": "2020-07-04T12:31:06.541Z",
    "recovered": 11453,
    "infected": 41830,
    "id": "5pwmh7aSdGRKqRbnuyc0",
    "pop": 104900000,
    "country": "PH",
    "longitude": 121.774017,
    "sick": 29087,
    "invisible": false
  },
  {
    "latitude": -17.824858,
    "dead": 7,
    "lastUpdated": "2020-07-04T12:31:06.552Z",
    "recovered": 176,
    "infected": 625,
    "id": "5qtR9nx4BLwu1ODTniaY",
    "pop": 14802190,
    "country": "ZW",
    "longitude": 31.053028,
    "name": "Zimbabwe",
    "sick": 442,
    "invisible": false
  },
  {
    "lastUpdated": "2020-07-04T12:17:01.534Z",
    "state": "NA",
    "id": "5vkKgxTaKq1IH0Go357L",
    "longitude": -109.188,
    "invisible": false,
    "name": "Navajo Nation",
    "dead": 369,
    "latitude": 36.0672,
    "infected": 7613,
    "recovered": 0,
    "pop": 356890,
    "country": "US",
    "sick": 7244
  },
  {
    "longitude": -99.177254,
    "name": "Ciudad de México",
    "latitude": 19.432241,
    "dead": 6750,
    "lastUpdated": "2020-07-04T12:32:04.673Z",
    "recovered": 0,
    "infected": 50592,
    "id": "61E7TGjUwAo9xu6Y6gAH",
    "pop": 8781300,
    "country": "MX",
    "sick": 43842,
    "invisible": false
  },
  {
    "name": "Kaluga Oblast",
    "latitude": 54.3873,
    "dead": 48,
    "lastUpdated": "2020-07-04T12:30:06.418Z",
    "recovered": 3977,
    "infected": 6222,
    "id": "63KYOuWe41mvqWQrJbr2",
    "pop": 1012000,
    "country": "RU",
    "longitude": 35.1889,
    "sick": 2197,
    "invisible": false
  },
  {
    "latitude": 55.621011,
    "dead": 79,
    "lastUpdated": "2020-07-04T12:31:06.548Z",
    "recovered": 1545,
    "infected": 1831,
    "id": "694ON7d0mRJDeM1gHBTR",
    "pop": 2794000,
    "country": "LT",
    "longitude": 23.804991,
    "name": "Lithuania",
    "sick": 207,
    "invisible": false
  },
  {
    "recovered": 0,
    "infected": 33705,
    "state": "EN",
    "id": "6IQAsvrmBv0HPdeTnh4x",
    "pop": 9175000,
    "country": "GB",
    "longitude": -0.5596,
    "name": "South East",
    "latitude": 51.1781,
    "dead": 0,
    "lastUpdated": "2020-07-04T12:43:11.307Z",
    "sick": 33705,
    "invisible": false
  },
  {
    "id": "6IcHIIH0zXpY0POmBZTv",
    "pop": 7392000,
    "country": "HK",
    "longitude": 114.109497,
    "name": "Hong Kong",
    "latitude": 22.396427,
    "dead": 7,
    "lastUpdated": "2020-07-04T12:31:06.549Z",
    "recovered": 1125,
    "infected": 1248,
    "sick": 116,
    "invisible": false
  },
  {
    "country": "BR",
    "longitude": -72.4,
    "name": "Acre",
    "latitude": -8.65,
    "dead": 387,
    "lastUpdated": "2020-07-04T12:45:01.914Z",
    "recovered": 0,
    "infected": 14112,
    "state": "AC",
    "id": "6LQesrx5bHJsVUi1TXBp",
    "pop": 869265,
    "sick": 13725,
    "invisible": false
  },
  {
    "name": "Benin",
    "latitude": 9.3077,
    "dead": 21,
    "lastUpdated": "2020-07-04T12:31:06.549Z",
    "recovered": 333,
    "infected": 1199,
    "id": "6SlpghTyB6lpMFvx3g9U",
    "pop": 11180000,
    "country": "BJ",
    "longitude": 2.3158,
    "sick": 845,
    "invisible": false
  },
  {
    "latitude": 45.6667,
    "dead": 16675,
    "lastUpdated": "2020-07-04T12:31:01.968Z",
    "recovered": 67871,
    "infected": 94223,
    "state": "25",
    "id": "6ZHcvMIzVWIaRnc4R3Qp",
    "pop": 10040000,
    "country": "IT",
    "longitude": 9.5,
    "name": "Lombardia",
    "sick": 9677,
    "invisible": false
  },
  {
    "latitude": 46.0569,
    "dead": 111,
    "lastUpdated": "2020-07-04T12:31:06.548Z",
    "recovered": 1384,
    "infected": 1679,
    "id": "6ahNiyKDSDAftCctgLH3",
    "pop": 2067000,
    "country": "SI",
    "longitude": 14.5058,
    "name": "Slovenia",
    "sick": 184,
    "invisible": false
  },
  {
    "longitude": -70.331398,
    "name": "Atacama",
    "latitude": -27.3667908,
    "dead": 3,
    "lastUpdated": "2020-07-04T12:21:04.770Z",
    "recovered": 0,
    "infected": 1166,
    "id": "6nyns7UGGgkU7pxrHf8i",
    "pop": 300000,
    "country": "CL",
    "sick": 1163,
    "invisible": false
  },
  {
    "id": "6pBi38TUgYfFm0bry2uh",
    "pop": 2025000,
    "country": "GA",
    "longitude": 11.6094,
    "name": "Gabon",
    "latitude": -0.8037,
    "dead": 44,
    "lastUpdated": "2020-07-04T12:31:06.545Z",
    "recovered": 2555,
    "infected": 5620,
    "sick": 3021,
    "invisible": false
  },
  {
    "recovered": 0,
    "infected": 3408,
    "id": "6vjIVg1gSANFZghV7xtS",
    "pop": 2831900,
    "country": "MX",
    "longitude": -100.9792,
    "name": "San Luis Potosí",
    "latitude": 22.1498,
    "dead": 214,
    "lastUpdated": "2020-07-04T12:32:04.674Z",
    "sick": 3194,
    "invisible": false
  },
  {
    "longitude": -62.818544,
    "name": "Saint-Barthélémy",
    "alwaysShow": true,
    "latitude": 17.901672,
    "dead": 0,
    "lastUpdated": "2020-07-04T12:31:06.558Z",
    "recovered": 6,
    "infected": 6,
    "id": "78Ox26bNHDA2Pk2b3Uwn",
    "pop": 9131,
    "country": "FR",
    "sick": 0,
    "invisible": false
  },
  {
    "lastUpdated": "2020-07-04T12:33:01.560Z",
    "recovered": 0,
    "infected": 685,
    "id": "7JDx6UJiwGSJyL1fChaJ",
    "pop": 2305000,
    "country": "PL",
    "longitude": 18.633,
    "name": "Pomorskie",
    "latitude": 54.367,
    "dead": 38,
    "sick": 647,
    "invisible": false
  },
  {
    "state": "ML",
    "id": "7UASdZTZ1nPzzBwSTEA9",
    "pop": 84690,
    "country": "ES",
    "longitude": -2.9381,
    "name": "Melilla",
    "latitude": 35.2923,
    "dead": 2,
    "lastUpdated": "2020-07-04T00:48:41.173Z",
    "recovered": 125,
    "infected": 139,
    "sick": 12,
    "invisible": false
  },
  {
    "lastUpdated": "2020-07-04T12:31:06.555Z",
    "recovered": 23,
    "infected": 68,
    "id": "7hVFcEV7nV0MrQr3LHrl",
    "pop": 102012,
    "country": "AG",
    "longitude": -61.7964,
    "name": "Antigua and Barbuda",
    "latitude": 17.0608,
    "dead": 3,
    "sick": 42,
    "invisible": false
  },
  {
    "state": "BY",
    "id": "7kCrrlOBE3jN6FtOVNUB",
    "pop": 13000000,
    "country": "DE",
    "longitude": 11.4979,
    "name": "Bayern",
    "latitude": 48.7904,
    "dead": 2640,
    "lastUpdated": "2020-07-04T12:30:03.891Z",
    "recovered": 45344,
    "infected": 48923,
    "sick": 939,
    "invisible": false
  },
  {
    "latitude": 47.4979,
    "dead": 589,
    "lastUpdated": "2020-07-04T12:31:06.546Z",
    "recovered": 2784,
    "infected": 4174,
    "id": "7rYC2iFB50c55Ihgbs4Q",
    "pop": 9773000,
    "country": "HU",
    "longitude": 19.0402,
    "name": "Hungary",
    "sick": 801,
    "invisible": false
  },
  {
    "name": "Barranquilla D.E.",
    "latitude": 10.9685,
    "dead": 806,
    "lastUpdated": "2020-07-04T12:30:08.268Z",
    "recovered": 4758,
    "infected": 14097,
    "id": "7tqLvLyXcBDK808nJv0m",
    "pop": 1206000,
    "country": "CO",
    "longitude": -74.7813,
    "sick": 8533,
    "invisible": false
  },
  {
    "longitude": 12.3547,
    "name": "Cameroon",
    "latitude": 7.3697,
    "dead": 313,
    "lastUpdated": "2020-07-04T12:31:06.543Z",
    "recovered": 10100,
    "infected": 12592,
    "id": "8C0d7WVCjyUGtnc2gUAR",
    "pop": 24050000,
    "country": "CM",
    "sick": 2179,
    "invisible": false
  },
  {
    "lastUpdated": "2020-07-04T12:37:05.674Z",
    "recovered": 2814,
    "infected": 6394,
    "state": "BRU",
    "id": "8DOZWbN6bDdgaLXVlUEu",
    "pop": 1209000,
    "country": "BE",
    "longitude": 4.3517,
    "name": "Brussels",
    "latitude": 50.8503,
    "dead": 1484,
    "sick": 2096,
    "invisible": false
  },
  {
    "id": "8RihJrXw4NQXPxaRxr1u",
    "pop": 11050000,
    "country": "BO",
    "longitude": -63.5887,
    "name": "Bolivia",
    "latitude": -16.2902,
    "dead": 1320,
    "lastUpdated": "2020-07-04T12:31:06.541Z",
    "recovered": 10766,
    "infected": 36818,
    "sick": 24732,
    "invisible": false
  },
  {
    "lastUpdated": "2020-07-04T12:31:06.555Z",
    "recovered": 29,
    "infected": 29,
    "id": "8ZTySQROQejkDAad0qxQ",
    "pop": 109897,
    "country": "VC",
    "longitude": -61.2872,
    "name": "St. Vincent Grenadines",
    "latitude": 12.9843,
    "dead": 0,
    "sick": 0,
    "invisible": false
  },
  {
    "id": "8pA3fM4xC2c2wv1b4TnE",
    "pop": 5621000,
    "country": "SG",
    "longitude": 103.819839,
    "name": "Singapore",
    "latitude": 1.352083,
    "dead": 26,
    "lastUpdated": "2020-07-04T12:31:06.541Z",
    "recovered": 39769,
    "infected": 44664,
    "sick": 4869,
    "invisible": false
  },
  {
    "id": "98hwAoohgWEOQVa3NlM5",
    "pop": 3787000,
    "country": "FR",
    "longitude": -1.5536,
    "name": "Pays de la Loire",
    "latitude": 47.2184,
    "dead": 469,
    "lastUpdated": "2020-07-04T01:08:08.647Z",
    "recovered": 2091,
    "infected": 4164,
    "sick": 1604,
    "invisible": false
  },
  {
    "latitude": 19.30754,
    "dead": 223,
    "lastUpdated": "2020-07-04T12:32:04.674Z",
    "recovered": 0,
    "infected": 2213,
    "id": "9DAvxOObTqIvMOU93nlY",
    "pop": 952300,
    "country": "MX",
    "longitude": -90.19885,
    "name": "Campeche",
    "sick": 1990,
    "invisible": false
  },
  {
    "lastUpdated": "2020-07-04T12:31:06.544Z",
    "recovered": 4624,
    "infected": 9663,
    "id": "9DPOkpIqrFy9mR4e9fuv",
    "pop": 40530000,
    "country": "SD",
    "longitude": 30.2176,
    "name": "Sudan",
    "latitude": 12.8628,
    "dead": 604,
    "sick": 4435,
    "invisible": false
  },
  {
    "latitude": 58.5501,
    "dead": 21,
    "lastUpdated": "2020-07-04T12:30:06.427Z",
    "recovered": 1043,
    "infected": 1654,
    "id": "9JFYfvpcejMIgYlHpngA",
    "pop": 643000,
    "country": "RU",
    "longitude": 43.9541,
    "name": "Kostroma Oblast",
    "sick": 590,
    "invisible": false
  },
  {
    "recovered": 19854,
    "infected": 28582,
    "id": "9QcETqEcM2fTv9zRvx5T",
    "pop": 19530000,
    "country": "RO",
    "longitude": 24.966761,
    "name": "Romania",
    "latitude": 45.943161,
    "dead": 1731,
    "lastUpdated": "2020-07-04T12:31:06.542Z",
    "sick": 6997,
    "invisible": false
  },
  {
    "recovered": 1238,
    "infected": 2519,
    "id": "9Y5wmCqNCC6ZrenM31uA",
    "pop": 6218000,
    "country": "NI",
    "longitude": -86.251389,
    "name": "Nicaragua",
    "latitude": 12.136389,
    "dead": 83,
    "lastUpdated": "2020-07-04T12:31:06.547Z",
    "sick": 1198,
    "invisible": false
  },
  {
    "country": "ML",
    "longitude": -3.996166,
    "name": "Mali",
    "latitude": 17.5706921,
    "dead": 117,
    "lastUpdated": "2020-07-04T12:31:06.547Z",
    "recovered": 1507,
    "infected": 2285,
    "id": "9dIzxqDSVqPyINkHqwGv",
    "pop": 18540000,
    "sick": 661,
    "invisible": false
  },
  {
    "longitude": 25.748152,
    "name": "Finland",
    "latitude": 61.92411,
    "dead": 329,
    "lastUpdated": "2020-07-04T12:31:06.544Z",
    "recovered": 6700,
    "infected": 7248,
    "id": "9p6OCdZbUUwBLA60Gk3W",
    "pop": 5513000,
    "country": "FI",
    "sick": 219,
    "invisible": false
  },
  {
    "latitude": 64.248,
    "dead": 164,
    "lastUpdated": "2020-07-04T12:30:06.414Z",
    "recovered": 4920,
    "infected": 9452,
    "id": "A6Us0fpQVCc85SoIqzg3",
    "pop": 2876000,
    "country": "RU",
    "longitude": 95.1104,
    "name": "Krasnoyarsk Krai",
    "sick": 4368,
    "invisible": false
  },
  {
    "lastUpdated": "2020-07-04T12:17:01.532Z",
    "recovered": 0,
    "infected": 5857,
    "state": "NH",
    "id": "A84CwQ52kA46Hr7pn6Bm",
    "pop": 1356000,
    "country": "US",
    "longitude": -71.590315,
    "name": "New Hampshire",
    "latitude": 43.311643,
    "dead": 376,
    "sick": 5481,
    "invisible": false
  },
  {
    "latitude": 41.823261,
    "dead": 960,
    "lastUpdated": "2020-07-04T12:17:01.531Z",
    "recovered": 0,
    "infected": 16991,
    "state": "RI",
    "id": "AEUWUHS65qvjEslew11c",
    "pop": 1057000,
    "country": "US",
    "longitude": -71.412257,
    "name": "Rhode Island",
    "sick": 16031,
    "invisible": false
  },
  {
    "longitude": 11.327591,
    "name": "Emilia-Romagna",
    "latitude": 44.498955,
    "dead": 4267,
    "lastUpdated": "2020-07-04T12:31:01.968Z",
    "recovered": 23284,
    "infected": 28562,
    "state": "45",
    "id": "AJ9jQ0iyKsafsmf5yHAR",
    "pop": 4453000,
    "country": "IT",
    "sick": 1011,
    "invisible": false
  },
  {
    "recovered": 2613,
    "infected": 2828,
    "state": "SL",
    "id": "AKjFRQGnzuuZQhv5Qwx7",
    "pop": 990509,
    "country": "DE",
    "longitude": 7.023,
    "name": "Saarland",
    "latitude": 49.3964,
    "dead": 177,
    "lastUpdated": "2020-07-04T12:30:03.896Z",
    "sick": 38,
    "invisible": false
  },
  {
    "longitude": 60.8789,
    "name": "Chelyabinsk Oblast",
    "latitude": 54.4319,
    "dead": 88,
    "lastUpdated": "2020-07-04T12:30:06.415Z",
    "recovered": 3985,
    "infected": 7730,
    "id": "AOapJ3gElQApd8Gnt8EL",
    "pop": 3493000,
    "country": "RU",
    "sick": 3657,
    "invisible": false
  },
  {
    "id": "APTPgjAsjFi0nsGyJV7M",
    "pop": 1125002,
    "country": "CL",
    "longitude": -71.167,
    "name": "Maule",
    "latitude": -35.717,
    "dead": 59,
    "lastUpdated": "2020-07-04T12:21:04.771Z",
    "recovered": 0,
    "infected": 5974,
    "sick": 5915,
    "invisible": false
  },
  {
    "country": "GL",
    "longitude": -42.6043,
    "name": "Greenland",
    "latitude": 71.7069,
    "dead": 0,
    "lastUpdated": "2020-07-04T12:31:06.557Z",
    "recovered": 13,
    "infected": 13,
    "id": "APaZzlGCEeuoLBtzTJMe",
    "pop": 56171,
    "sick": 0,
    "invisible": false
  },
  {
    "longitude": 112.4061,
    "name": "Buryatia",
    "latitude": 54.8331,
    "dead": 21,
    "lastUpdated": "2020-07-04T12:30:06.424Z",
    "recovered": 2163,
    "infected": 3071,
    "id": "ATxF6ZoDJ2ibdE6ZRYIX",
    "pop": 984000,
    "country": "RU",
    "sick": 887,
    "invisible": false
  },
  {
    "name": "Nova Scotia",
    "latitude": 45.65107,
    "dead": 63,
    "lastUpdated": "2020-07-04T12:40:01.345Z",
    "recovered": 0,
    "infected": 1064,
    "state": "NS",
    "id": "AVCpxeh0fuH2WrHWNDYH",
    "pop": 971395,
    "country": "CA",
    "longitude": -63.582687,
    "sick": 1001,
    "invisible": false
  },
  {
    "latitude": 47.012918,
    "dead": 23,
    "lastUpdated": "2020-07-04T12:17:01.533Z",
    "recovered": 0,
    "infected": 1128,
    "state": "MT",
    "id": "AcULcZBozObOhwuRKMjJ",
    "pop": 1062000,
    "country": "US",
    "longitude": -109.128641,
    "name": "Montana",
    "sick": 1105,
    "invisible": false
  },
  {
    "recovered": 4690,
    "infected": 6058,
    "id": "AiIGs3ybYZZhm1ytVopr",
    "pop": 9275000,
    "country": "TJ",
    "longitude": 71.2761,
    "name": "Tajikistan",
    "latitude": 38.861,
    "dead": 52,
    "lastUpdated": "2020-07-04T12:31:06.545Z",
    "sick": 1316,
    "invisible": false
  },
  {
    "longitude": 116.01609,
    "name": "Jiangxi",
    "latitude": 27.285971,
    "dead": 1,
    "lastUpdated": "2020-07-04T12:38:12.202Z",
    "recovered": 931,
    "infected": 932,
    "id": "AmBYm5J6E9Cuez1FQjiN",
    "pop": 45200000,
    "country": "CN",
    "sick": 0,
    "invisible": false
  },
  {
    "longitude": -3.7837,
    "name": "Wales",
    "latitude": 52.1307,
    "dead": 1525,
    "lastUpdated": "2020-07-04T12:43:11.306Z",
    "recovered": 0,
    "infected": 15841,
    "state": "WA",
    "id": "AoLhHdTydeWTfmp9koEX",
    "pop": 3136000,
    "country": "GB",
    "sick": 14316,
    "invisible": false
  },
  {
    "longitude": 90.3982,
    "name": "Khakassia",
    "latitude": 53.0452,
    "dead": 17,
    "lastUpdated": "2020-07-04T12:30:06.426Z",
    "recovered": 1389,
    "infected": 2013,
    "id": "Avls64fLKoEsBFH0Ol0b",
    "pop": 537000,
    "country": "RU",
    "sick": 607,
    "invisible": false
  },
  {
    "recovered": 10832,
    "infected": 15070,
    "id": "AwN0CScPDApcLFgz6e3z",
    "pop": 41320000,
    "country": "DZ",
    "longitude": 1.659626,
    "name": "Algeria",
    "latitude": 28.033886,
    "dead": 937,
    "lastUpdated": "2020-07-04T12:31:06.543Z",
    "sick": 3301,
    "invisible": false
  },
  {
    "lastUpdated": "2020-07-04T12:31:06.547Z",
    "recovered": 2168,
    "infected": 3008,
    "id": "B82Ef45M8cDu4q7VsSHF",
    "pop": 4076000,
    "country": "HR",
    "longitude": 15.2,
    "name": "Croatia",
    "latitude": 45.099998,
    "dead": 112,
    "sick": 728,
    "invisible": false
  },
  {
    "id": "BENubqQInFUJzhpZTsLT",
    "pop": 23716000,
    "country": "NE",
    "longitude": 8.081666,
    "name": "Niger",
    "latitude": 17.6077881,
    "dead": 68,
    "lastUpdated": "2020-07-04T12:31:06.550Z",
    "recovered": 963,
    "infected": 1082,
    "sick": 51,
    "invisible": false
  },
  {
    "latitude": 39.509109,
    "dead": 3223,
    "lastUpdated": "2020-07-04T12:17:01.528Z",
    "recovered": 0,
    "infected": 68961,
    "state": "MD",
    "id": "BF51mWl51fgEcyBpCSzb",
    "pop": 6043000,
    "country": "US",
    "longitude": -76.98432,
    "name": "Maryland",
    "sick": 65738,
    "invisible": false
  },
  {
    "recovered": 49909,
    "infected": 62997,
    "id": "BGg6yVU5VP71B8NXU0oh",
    "pop": 9508000,
    "country": "BY",
    "longitude": 27.953388,
    "name": "Belarus",
    "latitude": 53.709808,
    "dead": 412,
    "lastUpdated": "2020-07-04T12:31:06.539Z",
    "sick": 12676,
    "invisible": false
  },
  {
    "longitude": 0.1713,
    "name": "Normandie",
    "latitude": 48.8799,
    "dead": 434,
    "lastUpdated": "2020-07-04T01:06:37.310Z",
    "recovered": 1665,
    "infected": 3573,
    "id": "BGtoyzb7y54LVlJ91rbf",
    "pop": 3319000,
    "country": "FR",
    "sick": 1474,
    "invisible": false
  },
  {
    "lastUpdated": "2020-07-04T12:43:11.308Z",
    "recovered": 0,
    "infected": 12726,
    "state": "EN",
    "id": "BQqMOlPFD36ZEDTGd3WC",
    "pop": 5616000,
    "country": "GB",
    "longitude": -3.9995,
    "name": "South West",
    "latitude": 50.7772,
    "dead": 0,
    "sick": 12726,
    "invisible": false
  },
  {
    "state": "AZ",
    "id": "BTEESCuD2ZbS1afunR2A",
    "pop": 7172000,
    "country": "US",
    "longitude": -111.093735,
    "name": "Arizona",
    "latitude": 34.048927,
    "dead": 1788,
    "lastUpdated": "2020-07-04T12:17:01.526Z",
    "recovered": 0,
    "infected": 91858,
    "sick": 90070,
    "invisible": false
  },
  {
    "longitude": 32.6677,
    "name": "Smolensk Oblast",
    "latitude": 54.9883,
    "dead": 67,
    "lastUpdated": "2020-07-04T12:30:06.421Z",
    "recovered": 2559,
    "infected": 4744,
    "id": "BUb7oDHcBM4lQ5cufNoG",
    "pop": 949000,
    "country": "RU",
    "sick": 2118,
    "invisible": false
  },
  {
    "id": "BWojXmuKU3szKlS7CE4k",
    "pop": 1283000,
    "country": "RU",
    "longitude": 50.2097,
    "name": "Kirov Oblast",
    "latitude": 58.4199,
    "dead": 41,
    "lastUpdated": "2020-07-04T12:30:06.424Z",
    "recovered": 2804,
    "infected": 3354,
    "sick": 509,
    "invisible": false
  },
  {
    "id": "BZwZOAlDJ8AIiaRVLyC9",
    "pop": 1676000,
    "country": "PL",
    "longitude": 14.552812,
    "name": "Zachodniopomorskie",
    "latitude": 53.428543,
    "dead": 22,
    "lastUpdated": "2020-07-04T12:33:01.560Z",
    "recovered": 0,
    "infected": 620,
    "sick": 598,
    "invisible": false
  },
  {
    "id": "BbiuZcm8oURX7cZwaa5U",
    "country": "CL",
    "longitude": -70.6693,
    "invisible": true,
    "name": "Unknown Chile region",
    "latitude": -33.4489,
    "dead": 0,
    "lastUpdated": "2020-07-04T12:31:06.537Z",
    "recovered": 253343,
    "infected": 0,
    "sick": 0
  },
  {
    "recovered": 317,
    "infected": 1498,
    "id": "BfT8o5DaEixC6JIZ28kY",
    "pop": 18620000,
    "country": "MW",
    "longitude": 34.3015,
    "name": "Malawi",
    "latitude": -13.2543,
    "dead": 16,
    "lastUpdated": "2020-07-04T12:31:06.549Z",
    "sick": 1165,
    "invisible": false
  },
  {
    "lastUpdated": "2020-07-04T12:31:06.553Z",
    "recovered": 118,
    "infected": 191,
    "id": "BnpMamidC5yYzeK8tPUL",
    "pop": 10860000,
    "country": "BI",
    "longitude": 29.9188862,
    "name": "Burundi",
    "latitude": -3.3730559,
    "dead": 1,
    "sick": 72,
    "invisible": false
  },
  {
    "lastUpdated": "2020-07-04T12:33:01.557Z",
    "recovered": 0,
    "infected": 5152,
    "id": "BrToMzyq8y2xdwXn75kM",
    "pop": 5385000,
    "country": "PL",
    "longitude": 21.002,
    "name": "Mazowieckie",
    "latitude": 52.257,
    "dead": 344,
    "sick": 4808,
    "invisible": false
  },
  {
    "latitude": -1.333845,
    "dead": 89,
    "lastUpdated": "2020-07-04T12:30:08.269Z",
    "recovered": 1966,
    "infected": 2328,
    "id": "C25xSDm4iYibX5RYML14",
    "pop": 74751,
    "country": "CO",
    "longitude": -71.347573,
    "name": "Amazonas (Colombia)",
    "sick": 273,
    "invisible": false
  },
  {
    "state": "NY",
    "id": "C3BCUzV80z9GfiuByIcr",
    "pop": 19540000,
    "country": "US",
    "longitude": -73.982597,
    "name": "New York",
    "latitude": 40.719042,
    "dead": 32191,
    "lastUpdated": "2020-07-04T12:17:01.525Z",
    "recovered": 0,
    "infected": 420774,
    "sick": 388583,
    "invisible": false
  },
  {
    "country": "CO",
    "longitude": -67.92389,
    "name": "Guainía",
    "latitude": 3.86528,
    "dead": 1,
    "lastUpdated": "2020-07-04T12:30:08.270Z",
    "recovered": 2,
    "infected": 14,
    "id": "C5YXFiytAc1w9swtVGLz",
    "pop": 42800,
    "sick": 11,
    "invisible": false
  },
  {
    "name": "Czechia",
    "latitude": 49.731626,
    "dead": 353,
    "lastUpdated": "2020-07-04T12:31:06.543Z",
    "recovered": 7848,
    "infected": 12319,
    "id": "C6S76AggdWVU8G22jFHQ",
    "pop": 10650000,
    "country": "CZ",
    "longitude": 15.359413,
    "sick": 4118,
    "invisible": false
  },
  {
    "lastUpdated": "2020-07-04T12:31:06.542Z",
    "recovered": 23318,
    "infected": 28410,
    "id": "C7cj4nwRITs13KnaJrQ2",
    "pop": 1493000,
    "country": "BH",
    "longitude": 50.557701,
    "name": "Bahrain",
    "latitude": 26.0667,
    "dead": 95,
    "sick": 4997,
    "invisible": false
  },
  {
    "longitude": -74.4057,
    "name": "Magdalena",
    "latitude": 10.4113,
    "dead": 94,
    "lastUpdated": "2020-07-04T12:30:08.269Z",
    "recovered": 369,
    "infected": 903,
    "id": "CA9LaAl3bNaeAqBuozn4",
    "pop": 1285400,
    "country": "CO",
    "sick": 440,
    "invisible": false
  },
  {
    "lastUpdated": "2020-07-04T12:32:04.673Z",
    "recovered": 0,
    "infected": 5360,
    "id": "CCUFp4urvgXPo5unfMGy",
    "pop": 3073500,
    "country": "MX",
    "longitude": -101.430756,
    "name": "Coahuila",
    "latitude": 26.909979,
    "dead": 245,
    "sick": 5115,
    "invisible": false
  },
  {
    "id": "CKZCZTPlrcq5fbfUPA9k",
    "pop": 68890000,
    "country": "IN",
    "longitude": 74.2179,
    "name": "Rajasthan",
    "latitude": 27.0238,
    "dead": 443,
    "lastUpdated": "2020-07-04T12:41:01.489Z",
    "recovered": 15352,
    "infected": 19256,
    "sick": 3461,
    "invisible": false
  },
  {
    "id": "CX8z9U1iABNBhc1VK2Dy",
    "pop": 218000,
    "country": "RU",
    "longitude": 86.2199,
    "name": "Altai",
    "latitude": 50.6182,
    "dead": 1,
    "lastUpdated": "2020-07-04T12:30:06.428Z",
    "recovered": 347,
    "infected": 808,
    "sick": 460,
    "invisible": false
  },
  {
    "id": "Cgvmtle61ehMvCzRzYx7",
    "pop": 6378000,
    "country": "SV",
    "longitude": -88.9053,
    "name": "El Salvador",
    "latitude": 13.803,
    "dead": 210,
    "lastUpdated": "2020-07-04T12:31:06.544Z",
    "recovered": 4434,
    "infected": 7507,
    "sick": 2863,
    "invisible": false
  },
  {
    "id": "D4WkbqyUXY1pazbOxfKx",
    "pop": 144000,
    "country": "RU",
    "longitude": 153.915,
    "name": "Magadan Oblast",
    "latitude": 62.6643,
    "dead": 4,
    "lastUpdated": "2020-07-04T12:30:06.428Z",
    "recovered": 492,
    "infected": 907,
    "sick": 411,
    "invisible": false
  },
  {
    "country": "RU",
    "longitude": 82.6765,
    "name": "Tomsk Oblast",
    "latitude": 58.897,
    "dead": 20,
    "lastUpdated": "2020-07-04T12:30:06.425Z",
    "recovered": 1295,
    "infected": 2480,
    "id": "DAp3PFow4BuCMYWWTo3i",
    "pop": 1078000,
    "sick": 1165,
    "invisible": false
  },
  {
    "longitude": 44.818474,
    "name": "Armenia",
    "latitude": 40.259003,
    "dead": 477,
    "lastUpdated": "2020-07-04T12:31:06.542Z",
    "recovered": 15935,
    "infected": 27900,
    "id": "DCJCtZoBTWQ4mzdDNljD",
    "pop": 2973000,
    "country": "AM",
    "sick": 11488,
    "invisible": false
  },
  {
    "lastUpdated": "2020-07-04T12:30:08.269Z",
    "recovered": 235,
    "infected": 409,
    "id": "DJJraANgQbEqz1wBBtZz",
    "pop": 1278000,
    "country": "CO",
    "longitude": -73.368,
    "name": "Boyacá",
    "latitude": 5.535,
    "dead": 12,
    "sick": 162,
    "invisible": false
  },
  {
    "lastUpdated": "2020-07-04T12:30:06.423Z",
    "recovered": 2397,
    "infected": 3542,
    "id": "DKwy7USk22oXUQGEvO42",
    "pop": 834000,
    "country": "RU",
    "longitude": 44.0684,
    "name": "Mordovia",
    "latitude": 54.2369,
    "dead": 27,
    "sick": 1118,
    "invisible": false
  },
  {
    "longitude": -2.5945,
    "name": "North West",
    "latitude": 53.6221,
    "dead": 0,
    "lastUpdated": "2020-07-04T12:43:11.307Z",
    "recovered": 0,
    "infected": 42489,
    "state": "EN",
    "id": "DPwBt2aJuwF0O71vwfM9",
    "pop": 7300000,
    "country": "GB",
    "sick": 42489,
    "invisible": false
  },
  {
    "recovered": 137,
    "infected": 146,
    "id": "DZyTD0Mu5WIcK6yTcJ91",
    "pop": 65440,
    "country": "BM",
    "longitude": -64.75737,
    "name": "Bermuda",
    "latitude": 32.3213844,
    "dead": 9,
    "lastUpdated": "2020-07-04T12:31:06.554Z",
    "sick": 0,
    "invisible": false
  },
  {
    "latitude": 21.694,
    "dead": 2,
    "lastUpdated": "2020-07-04T12:31:06.555Z",
    "recovered": 11,
    "infected": 45,
    "id": "DaMrRSIGJXIG36nW0Pnc",
    "pop": 35446,
    "country": "TC",
    "longitude": -71.7979,
    "name": "Turks and Caicos",
    "sick": 32,
    "invisible": false
  },
  {
    "lastUpdated": "2020-07-04T00:44:31.523Z",
    "recovered": 6392,
    "infected": 26843,
    "state": "CM",
    "id": "Dbng0NBTH41EEwBxhMzE",
    "pop": 2035000,
    "country": "ES",
    "longitude": -3.0977,
    "name": "Castilla La Mancha",
    "latitude": 39.2796,
    "dead": 3026,
    "sick": 17425,
    "invisible": false
  },
  {
    "latitude": 50.023,
    "dead": 44,
    "lastUpdated": "2020-07-04T12:33:01.558Z",
    "recovered": 0,
    "infected": 1834,
    "id": "DcQ3D0WkacXEbv6iznRB",
    "pop": 3361000,
    "country": "PL",
    "longitude": 20.006,
    "name": "Malopolskie",
    "sick": 1790,
    "invisible": false
  },
  {
    "name": "Macao",
    "latitude": 22.192039,
    "dead": 0,
    "lastUpdated": "2020-07-04T12:31:06.555Z",
    "recovered": 45,
    "infected": 46,
    "id": "DdBt8qsG6A3g92oOR3ow",
    "pop": 622567,
    "country": "MO",
    "longitude": 113.551262,
    "sick": 1,
    "invisible": false
  },
  {
    "longitude": 91.3662,
    "name": "Meghalaya",
    "latitude": 25.467,
    "dead": 1,
    "lastUpdated": "2020-07-04T12:41:01.498Z",
    "recovered": 43,
    "infected": 69,
    "id": "Dh0O1vmhrVfmsCsfZCUg",
    "pop": 2651000,
    "country": "IN",
    "sick": 25,
    "invisible": false
  },
  {
    "name": "Rostov Oblast",
    "latitude": 47.6853,
    "dead": 137,
    "lastUpdated": "2020-07-04T12:30:06.413Z",
    "recovered": 6720,
    "infected": 9982,
    "id": "DqzAhNFTJFQVm88ma21P",
    "pop": 4220000,
    "country": "RU",
    "longitude": 41.8259,
    "sick": 3125,
    "invisible": false
  },
  {
    "longitude": -107.534868,
    "name": "Wyoming",
    "latitude": 42.962334,
    "dead": 20,
    "lastUpdated": "2020-07-04T12:17:01.533Z",
    "recovered": 0,
    "infected": 1582,
    "state": "WY",
    "id": "DrGzziUglmBognCGY7R2",
    "pop": 577737,
    "country": "US",
    "sick": 1562,
    "invisible": false
  },
  {
    "country": "GR",
    "longitude": 23.7275,
    "name": "Greece",
    "latitude": 37.9838,
    "dead": 192,
    "lastUpdated": "2020-07-04T12:31:06.546Z",
    "recovered": 1374,
    "infected": 3486,
    "id": "Dtr1lap1RpJpXJdXGJiW",
    "pop": 10740000,
    "sick": 1920,
    "invisible": false
  },
  {
    "recovered": 2931,
    "infected": 3911,
    "id": "E8vIyXLVNtcY9dxLHICp",
    "pop": 2623000,
    "country": "RU",
    "longitude": 56.5872,
    "name": "Perm Krai",
    "latitude": 58.8232,
    "dead": 80,
    "lastUpdated": "2020-07-04T12:30:06.422Z",
    "sick": 900,
    "invisible": false
  },
  {
    "id": "EHKZ6ivhrJUs3XqNDBOw",
    "pop": 3692000,
    "country": "RU",
    "longitude": 66.9483,
    "name": "Tyumen Oblast",
    "latitude": 56.9634,
    "dead": 18,
    "lastUpdated": "2020-07-04T12:30:06.423Z",
    "recovered": 2073,
    "infected": 3397,
    "sick": 1306,
    "invisible": false
  },
  {
    "latitude": 25.03841,
    "dead": 7,
    "lastUpdated": "2020-07-04T12:31:06.552Z",
    "recovered": 438,
    "infected": 449,
    "id": "EKTfs8e7M6DXzI1HqyyX",
    "pop": 23780000,
    "country": "TW",
    "longitude": 121.563698,
    "name": "Taiwan",
    "sick": 4,
    "invisible": false
  },
  {
    "latitude": 10.327273,
    "dead": 18,
    "lastUpdated": "2020-07-04T12:31:06.546Z",
    "recovered": 1657,
    "infected": 4311,
    "id": "EQzJvzVHKjs8kLmK7BMu",
    "pop": 4906000,
    "country": "CR",
    "longitude": -84.387618,
    "name": "Costa Rica",
    "sick": 2636,
    "invisible": false
  },
  {
    "lastUpdated": "2020-07-04T12:41:01.489Z",
    "recovered": 24941,
    "infected": 34686,
    "id": "ERwk9R9en4m9WbdoMbIg",
    "pop": 62700000,
    "country": "IN",
    "longitude": 71.1924,
    "name": "Gujarat",
    "latitude": 22.2587,
    "dead": 1905,
    "sick": 7840,
    "invisible": false
  },
  {
    "longitude": 42.5884,
    "name": "Arkhangelsk Oblast",
    "latitude": 63.2853,
    "dead": 67,
    "lastUpdated": "2020-07-04T12:30:06.419Z",
    "recovered": 3218,
    "infected": 6026,
    "id": "EVMBsgCJedjHy91mDYEC",
    "pop": 1155000,
    "country": "RU",
    "sick": 2741,
    "invisible": false
  },
  {
    "latitude": 30.7333,
    "dead": 6,
    "lastUpdated": "2020-07-04T12:41:01.492Z",
    "recovered": 395,
    "infected": 459,
    "id": "Esl5UlCVB9s8pmGB5Ofr",
    "pop": 1055000,
    "country": "IN",
    "longitude": 76.7794,
    "name": "Chandigarh",
    "sick": 58,
    "invisible": false
  },
  {
    "longitude": 22.653,
    "name": "Lubelskie",
    "latitude": 51.24,
    "dead": 18,
    "lastUpdated": "2020-07-04T12:33:01.560Z",
    "recovered": 0,
    "infected": 678,
    "id": "Esy1La2CxwH5uB8bGVWZ",
    "pop": 2148000,
    "country": "PL",
    "sick": 660,
    "invisible": false
  },
  {
    "dead": 155,
    "latitude": 18.200178,
    "infected": 7787,
    "recovered": 0,
    "pop": 3195000,
    "country": "US",
    "lastUpdated": "2020-07-04T12:17:01.533Z",
    "state": "PR",
    "id": "F4rPrEVGAIMM5rfPEMv4",
    "longitude": -66.664513,
    "name": "Puerto Rico",
    "alwaysShow": true,
    "sick": 7632,
    "invisible": false
  },
  {
    "longitude": -74.058655,
    "name": "Cundinamarca",
    "latitude": 4.862437,
    "dead": 60,
    "lastUpdated": "2020-07-04T12:30:08.268Z",
    "recovered": 1515,
    "infected": 3074,
    "id": "F7MED5VwEhi3JvJu6KjB",
    "pop": 2919000,
    "country": "CO",
    "sick": 1499,
    "invisible": false
  },
  {
    "longitude": 43.3333,
    "name": "Comoros",
    "latitude": -11.6455,
    "dead": 7,
    "lastUpdated": "2020-07-04T12:31:06.553Z",
    "recovered": 241,
    "infected": 309,
    "id": "F8LnLqvuWoWh8awBqiw1",
    "pop": 832322,
    "country": "KM",
    "sick": 61,
    "invisible": false
  },
  {
    "lastUpdated": "2020-07-04T12:31:06.542Z",
    "recovered": 19164,
    "infected": 32672,
    "id": "FCDmlmnIIswd8bQiUjfN",
    "pop": 35530000,
    "country": "AF",
    "longitude": 67.709953,
    "name": "Afghanistan",
    "latitude": 33.93911,
    "dead": 826,
    "sick": 12682,
    "invisible": false
  },
  {
    "name": "Chongqing",
    "latitude": 29.431585,
    "dead": 6,
    "lastUpdated": "2020-07-04T12:38:12.201Z",
    "recovered": 574,
    "infected": 582,
    "id": "FErOU1m4Tj7jIkRam3vF",
    "pop": 30480000,
    "country": "CN",
    "longitude": 106.912254,
    "sick": 2,
    "invisible": false
  },
  {
    "recovered": 39276,
    "infected": 48672,
    "id": "FZsUkhxBEgqsPb4eO0PN",
    "pop": 4137000,
    "country": "KW",
    "longitude": 47.481766,
    "name": "Kuwait",
    "latitude": 29.311661,
    "dead": 360,
    "lastUpdated": "2020-07-04T12:31:06.540Z",
    "sick": 9036,
    "invisible": false
  },
  {
    "longitude": -37.0717,
    "name": "Sergipe",
    "latitude": -10.9111,
    "dead": 764,
    "lastUpdated": "2020-07-04T12:45:01.913Z",
    "recovered": 0,
    "infected": 28186,
    "state": "SE",
    "id": "FboWeolpM62SZCLwdilT",
    "pop": 2278308,
    "country": "BR",
    "sick": 27422,
    "invisible": false
  },
  {
    "recovered": 58378,
    "infected": 102721,
    "id": "FeS45oMNC27pI17F0xEV",
    "pop": 67860000,
    "country": "IN",
    "longitude": 78.6569,
    "name": "Tamil Nadu",
    "latitude": 11.1271,
    "dead": 1385,
    "lastUpdated": "2020-07-04T12:41:01.489Z",
    "sick": 42958,
    "invisible": false
  },
  {
    "lastUpdated": "2020-07-04T12:31:06.541Z",
    "recovered": 18392,
    "infected": 35148,
    "id": "FuiVEJvWb0QMCpxJ3563",
    "pop": 10770000,
    "country": "DO",
    "longitude": -70.430399,
    "name": "Dominican Republic",
    "latitude": 18.947829,
    "dead": 775,
    "sick": 15981,
    "invisible": false
  },
  {
    "latitude": 18.1124,
    "dead": 283,
    "lastUpdated": "2020-07-04T12:41:01.490Z",
    "recovered": 10195,
    "infected": 20462,
    "id": "FyC551oNwmENxbr9Yght",
    "pop": 35190000,
    "country": "IN",
    "longitude": 79.0193,
    "name": "Telengana",
    "sick": 9984,
    "invisible": false
  },
  {
    "lastUpdated": "2020-07-04T12:31:06.548Z",
    "recovered": 1466,
    "infected": 1749,
    "id": "FzIDXoqWnTI3nUfhPyT2",
    "pop": 5450000,
    "country": "SK",
    "longitude": 19.699,
    "name": "Slovakia",
    "latitude": 48.669,
    "dead": 28,
    "sick": 255,
    "invisible": false
  },
  {
    "latitude": 30.37532,
    "dead": 4619,
    "lastUpdated": "2020-07-04T12:31:06.538Z",
    "recovered": 125094,
    "infected": 225283,
    "id": "GAp7Wb6IMhdgbvEtMza9",
    "pop": 197000000,
    "country": "PK",
    "longitude": 69.345116,
    "name": "Pakistan",
    "sick": 95570,
    "invisible": false
  },
  {
    "lastUpdated": "2020-07-04T12:41:01.491Z",
    "recovered": 4266,
    "infected": 5937,
    "id": "GGru8cG08mANO8XDDUtZ",
    "pop": 27980000,
    "country": "IN",
    "longitude": 75.3412,
    "name": "Punjab",
    "latitude": 31.1471,
    "dead": 157,
    "sick": 1514,
    "invisible": false
  },
  {
    "longitude": 53.847816,
    "name": "United Arab Emirates",
    "latitude": 23.424076,
    "dead": 321,
    "lastUpdated": "2020-07-04T12:31:06.540Z",
    "recovered": 39857,
    "infected": 50857,
    "id": "GHzBIsHy2GiBc5JV2HMs",
    "pop": 9400000,
    "country": "AE",
    "sick": 10679,
    "invisible": false
  },
  {
    "latitude": 37.0902,
    "dead": 3,
    "lastUpdated": "2020-07-04T12:17:01.534Z",
    "recovered": 0,
    "infected": 103,
    "id": "GLViSIjDjwvptOphedAu",
    "country": "US",
    "longitude": -95.7129,
    "invisible": true,
    "name": "Grand Princess",
    "sick": 100
  },
  {
    "country": "GB",
    "longitude": -0.1278,
    "name": "London",
    "latitude": 51.5074,
    "dead": 0,
    "lastUpdated": "2020-07-04T12:43:11.307Z",
    "recovered": 0,
    "infected": 33738,
    "state": "EN",
    "id": "GPtoS0Yy2EnNafpmmTqY",
    "pop": 10100000,
    "sick": 33738,
    "invisible": false
  },
  {
    "longitude": -119.339046,
    "name": "California",
    "latitude": 36.621981,
    "dead": 6314,
    "lastUpdated": "2020-07-04T12:17:01.525Z",
    "recovered": 0,
    "infected": 252252,
    "state": "CA",
    "id": "Gh46r6vuaY7fbGt3IboN",
    "pop": 39560000,
    "country": "US",
    "sick": 245938,
    "invisible": false
  },
  {
    "latitude": 20.4283,
    "dead": 0,
    "lastUpdated": "2020-07-04T12:41:01.497Z",
    "recovered": 142,
    "infected": 341,
    "id": "GljWeVnun6o9DeW6rlEm",
    "pop": 343709,
    "country": "IN",
    "longitude": 72.8397,
    "name": "Dadra and Nagar Haveli",
    "sick": 199,
    "invisible": false
  },
  {
    "name": "Oklahoma",
    "latitude": 35.87189,
    "dead": 398,
    "lastUpdated": "2020-07-04T12:17:01.531Z",
    "recovered": 0,
    "infected": 15065,
    "state": "OK",
    "id": "GpF8ULuKOQiFDCUHN44h",
    "pop": 3943000,
    "country": "US",
    "longitude": -97.145514,
    "sick": 14667,
    "invisible": false
  },
  {
    "recovered": 7,
    "infected": 82,
    "id": "Gr09a1wn3BnMqjQbgEun",
    "pop": 256627,
    "country": "CO",
    "longitude": -71.557,
    "name": "Arauca",
    "latitude": 6.492,
    "dead": 0,
    "lastUpdated": "2020-07-04T12:30:08.269Z",
    "sick": 75,
    "invisible": false
  },
  {
    "country": "RU",
    "longitude": 41.483,
    "name": "Ivanovo Oblast",
    "latitude": 57.1057,
    "dead": 49,
    "lastUpdated": "2020-07-04T12:30:06.420Z",
    "recovered": 3113,
    "infected": 4965,
    "id": "GsecjBfopdgTOnyRgtCA",
    "pop": 1014000,
    "sick": 1803,
    "invisible": false
  },
  {
    "longitude": 11.35,
    "name": "P.A. Bolzano",
    "latitude": 46.5,
    "dead": 292,
    "lastUpdated": "2020-07-04T12:31:01.969Z",
    "recovered": 2267,
    "infected": 2642,
    "state": "BA",
    "id": "Gzx6GX1qhBm714BkEC6l",
    "pop": 520891,
    "country": "IT",
    "sick": 83,
    "invisible": false
  },
  {
    "latitude": 42.83263,
    "dead": 1,
    "lastUpdated": "2020-07-04T12:38:12.202Z",
    "recovered": 237,
    "infected": 238,
    "id": "H3JeVigVbo5CSYfZG4WI",
    "pop": 24710000,
    "country": "CN",
    "longitude": 113.750972,
    "name": "Inner Mongolia",
    "sick": 0,
    "invisible": false
  },
  {
    "latitude": 39.74536,
    "dead": 528,
    "lastUpdated": "2020-07-04T12:17:01.531Z",
    "recovered": 0,
    "infected": 20718,
    "state": "NV",
    "id": "H3bDg4eV30up4WWrIDAS",
    "pop": 3034000,
    "country": "US",
    "longitude": -116.724977,
    "name": "Nevada",
    "sick": 20190,
    "invisible": false
  },
  {
    "longitude": -38.526669,
    "name": "Ceará",
    "latitude": -3.731862,
    "dead": 6351,
    "lastUpdated": "2020-07-04T12:45:01.908Z",
    "recovered": 0,
    "infected": 118041,
    "state": "CE",
    "id": "HEMWNnFxeFEoeOCBOLJD",
    "pop": 9075649,
    "country": "BR",
    "sick": 111690,
    "invisible": false
  },
  {
    "longitude": 75.7139,
    "name": "Karnataka",
    "latitude": 15.3173,
    "dead": 293,
    "lastUpdated": "2020-07-04T12:41:01.490Z",
    "recovered": 8807,
    "infected": 19710,
    "id": "HN5mGmxlqlSeFSNeu1K5",
    "pop": 64060000,
    "country": "IN",
    "sick": 10610,
    "invisible": false
  },
  {
    "country": "BT",
    "longitude": 90.4336,
    "name": "Bhutan",
    "latitude": 27.5142,
    "dead": 0,
    "lastUpdated": "2020-07-04T12:31:06.555Z",
    "recovered": 51,
    "infected": 78,
    "id": "HRDpwyxpqW9RN0xLFyNu",
    "pop": 807610,
    "sick": 27,
    "invisible": false
  },
  {
    "id": "HRTA10dtrruDEwjJEGMp",
    "pop": 32390000,
    "country": "UZ",
    "longitude": 64.5853,
    "name": "Uzbekistan",
    "latitude": 41.3775,
    "dead": 29,
    "lastUpdated": "2020-07-04T12:31:06.544Z",
    "recovered": 6251,
    "infected": 9500,
    "sick": 3220,
    "invisible": false
  },
  {
    "state": "NM",
    "id": "HSSFomRju0doHhWgW8On",
    "pop": 2095000,
    "country": "US",
    "longitude": -105.576255,
    "name": "New Mexico",
    "latitude": 34.138916,
    "dead": 511,
    "lastUpdated": "2020-07-04T12:17:01.531Z",
    "recovered": 0,
    "infected": 12776,
    "sick": 12265,
    "invisible": false
  },
  {
    "latitude": -40.231,
    "dead": 10,
    "lastUpdated": "2020-07-04T12:21:04.771Z",
    "recovered": 0,
    "infected": 713,
    "id": "HZkACHjW7NlYjg8vEMj2",
    "pop": 412812,
    "country": "CL",
    "longitude": -72.3311,
    "name": "Los Ríos",
    "sick": 703,
    "invisible": false
  },
  {
    "recovered": 771,
    "infected": 809,
    "state": "MV",
    "id": "He1gSS1v50t06i3YrqvB",
    "pop": 1635000,
    "country": "DE",
    "longitude": 12.4296,
    "name": "Mecklenburg-Vorpommern",
    "latitude": 53.6127,
    "dead": 21,
    "lastUpdated": "2020-07-04T12:30:03.892Z",
    "sick": 17,
    "invisible": false
  },
  {
    "name": "Abruzzo",
    "latitude": 42.25,
    "dead": 464,
    "lastUpdated": "2020-07-04T12:31:01.966Z",
    "recovered": 2678,
    "infected": 3298,
    "state": "65",
    "id": "I9EqrZfbPnkioNU4wZGz",
    "pop": 1315000,
    "country": "IT",
    "longitude": 13.75,
    "sick": 156,
    "invisible": false
  },
  {
    "latitude": 23.363855,
    "dead": 8,
    "lastUpdated": "2020-07-04T12:38:12.200Z",
    "recovered": 1629,
    "infected": 1643,
    "id": "IAX0OQLVnUwU7FX0ENF1",
    "pop": 113460000,
    "country": "CN",
    "longitude": 113.373448,
    "name": "Guangdong",
    "sick": 6,
    "invisible": false
  },
  {
    "name": "Henan",
    "latitude": 33.875408,
    "dead": 22,
    "lastUpdated": "2020-07-04T12:38:12.201Z",
    "recovered": 1254,
    "infected": 1276,
    "id": "IFuMrMvSjoiX5agYvllh",
    "pop": 94000000,
    "country": "CN",
    "longitude": 113.484016,
    "sick": 0,
    "invisible": false
  },
  {
    "longitude": -8.16667,
    "name": "Algarve",
    "latitude": 37.2,
    "dead": 15,
    "lastUpdated": "2020-07-04T12:23:08.837Z",
    "recovered": 0,
    "infected": 649,
    "id": "IHqRHC8K3OZPN8gniM7V",
    "pop": 451000,
    "country": "PT",
    "sick": 634,
    "invisible": false
  },
  {
    "id": "IKWjRUo0SYgHQKdWjTvq",
    "pop": 333194,
    "country": "CO",
    "longitude": -77.0197,
    "name": "Buenaventura D.E.",
    "latitude": 3.883,
    "dead": 92,
    "lastUpdated": "2020-07-04T12:30:08.269Z",
    "recovered": 838,
    "infected": 1532,
    "sick": 602,
    "invisible": false
  },
  {
    "country": "GB",
    "longitude": -0.995,
    "name": "East Midlands",
    "latitude": 52.87,
    "dead": 0,
    "lastUpdated": "2020-07-04T12:43:11.307Z",
    "recovered": 0,
    "infected": 20973,
    "state": "EN",
    "id": "INyu1R48Ppv8cfW4Nuz4",
    "pop": 4811000,
    "sick": 20973,
    "invisible": false
  },
  {
    "id": "ISRKMzEDojyrZ9iyWwex",
    "pop": 1342600,
    "country": "MX",
    "longitude": -102.317,
    "name": "Aguascalientes",
    "latitude": 22.017,
    "dead": 156,
    "lastUpdated": "2020-07-04T12:32:04.675Z",
    "recovered": 0,
    "infected": 3172,
    "sick": 3016,
    "invisible": false
  },
  {
    "longitude": -100.316116,
    "name": "Nuevo León",
    "latitude": 25.686613,
    "dead": 438,
    "lastUpdated": "2020-07-04T12:32:04.675Z",
    "recovered": 0,
    "infected": 13039,
    "id": "IdKbgzgKLpjBFh4UPOwu",
    "pop": 5321300,
    "country": "MX",
    "sick": 12601,
    "invisible": false
  },
  {
    "name": "Chihuahua",
    "latitude": 28.632996,
    "dead": 669,
    "lastUpdated": "2020-07-04T12:32:04.672Z",
    "recovered": 0,
    "infected": 4709,
    "id": "IhhiYI6T0TX4CYVPcnmH",
    "pop": 3826900,
    "country": "MX",
    "longitude": -106.069099,
    "sick": 4040,
    "invisible": false
  },
  {
    "latitude": -36.7,
    "dead": 33,
    "lastUpdated": "2020-07-04T12:21:04.771Z",
    "recovered": 0,
    "infected": 2490,
    "id": "ImnOiVx9Cb8Nw7cbRcQ7",
    "pop": 480600,
    "country": "CL",
    "longitude": -72.57,
    "name": "Ñuble",
    "sick": 2457,
    "invisible": false
  },
  {
    "latitude": 19.0558,
    "dead": 110,
    "lastUpdated": "2020-07-04T12:31:06.545Z",
    "recovered": 1286,
    "infected": 6230,
    "id": "InZ38sIqyK7FN7XAOZoX",
    "pop": 10980000,
    "country": "HT",
    "longitude": -73.0513,
    "name": "Haiti",
    "sick": 4834,
    "invisible": false
  },
  {
    "name": "Georgia (US)",
    "latitude": 32.528564,
    "dead": 2856,
    "lastUpdated": "2020-07-04T12:17:01.526Z",
    "recovered": 0,
    "infected": 90493,
    "state": "GA",
    "id": "IvQkDJkTAsoIqPRAU25n",
    "pop": 10520000,
    "country": "US",
    "longitude": -83.280125,
    "sick": 87637,
    "invisible": false
  },
  {
    "lastUpdated": "2020-07-04T12:31:06.549Z",
    "recovered": 1490,
    "infected": 1530,
    "id": "IvVhpOoGpH6JVkGyUhXN",
    "pop": 4794000,
    "country": "NZ",
    "longitude": 172.488081,
    "name": "New Zealand",
    "latitude": -42.8285,
    "dead": 22,
    "sick": 18,
    "invisible": false
  },
  {
    "latitude": 28.218,
    "dead": 1,
    "lastUpdated": "2020-07-04T12:41:01.496Z",
    "recovered": 75,
    "infected": 252,
    "id": "IwYKiIVY18NGwdGQFGWW",
    "pop": 1255000,
    "country": "IN",
    "longitude": 94.7278,
    "name": "Arunachal Pradesh",
    "sick": 176,
    "invisible": false
  },
  {
    "lastUpdated": "2020-07-04T12:31:06.545Z",
    "recovered": 2100,
    "infected": 6537,
    "id": "J3mZXlfEnnJx4CDZLvRG",
    "pop": 28870000,
    "country": "VE",
    "longitude": -66.5897,
    "name": "Venezuela",
    "latitude": 6.4238,
    "dead": 59,
    "sick": 4378,
    "invisible": false
  },
  {
    "latitude": 2.567,
    "dead": 0,
    "lastUpdated": "2020-07-04T12:30:08.270Z",
    "recovered": 7,
    "infected": 39,
    "id": "JEMCwkwXK39jd1lZ7VgJ",
    "pop": 107932,
    "country": "CO",
    "longitude": -72.633,
    "name": "Guaviare",
    "sick": 32,
    "invisible": false
  },
  {
    "country": "RU",
    "longitude": 40.1754,
    "name": "Adygea",
    "latitude": 44.8229,
    "dead": 14,
    "lastUpdated": "2020-07-04T12:30:06.426Z",
    "recovered": 1439,
    "infected": 2068,
    "id": "JOJVBvOnsLDJPVeYJaI2",
    "pop": 453000,
    "sick": 615,
    "invisible": false
  },
  {
    "lastUpdated": "2020-07-04T12:31:06.550Z",
    "recovered": 839,
    "infected": 999,
    "id": "JQByE4l2OA6sGOqIcWrM",
    "pop": 1170000,
    "country": "CY",
    "longitude": 33.4299,
    "name": "Cyprus",
    "latitude": 35.1264,
    "dead": 19,
    "sick": 141,
    "invisible": false
  },
  {
    "latitude": 25.0961,
    "dead": 84,
    "lastUpdated": "2020-07-04T11:41:01.853Z",
    "recovered": 8211,
    "infected": 11460,
    "id": "JR7hOGked7CZtIs2nCV5",
    "pop": 99020000,
    "country": "IN",
    "longitude": 85.3131,
    "name": "Bihar",
    "sick": 3165,
    "invisible": false
  },
  {
    "name": "Guatemala",
    "latitude": 14.628434,
    "dead": 880,
    "lastUpdated": "2020-07-04T12:31:06.542Z",
    "recovered": 3315,
    "infected": 21293,
    "id": "JUWE6bG3b5oL7fKQMSvv",
    "pop": 17250000,
    "country": "GT",
    "longitude": -90.522713,
    "sick": 17098,
    "invisible": false
  },
  {
    "latitude": 49.8153,
    "dead": 110,
    "lastUpdated": "2020-07-04T12:31:06.546Z",
    "recovered": 4016,
    "infected": 4447,
    "id": "JcFsHSn2WvZ5LJW42ovG",
    "pop": 602005,
    "country": "LU",
    "longitude": 6.1296,
    "name": "Luxembourg",
    "sick": 321,
    "invisible": false
  },
  {
    "latitude": 8.8,
    "dead": 45,
    "lastUpdated": "2020-07-04T12:30:08.269Z",
    "recovered": 336,
    "infected": 1053,
    "id": "JmOyaFe25yZCIV64JbZj",
    "pop": 2049000,
    "country": "CO",
    "longitude": -74.167,
    "name": "Bolívar",
    "sick": 672,
    "invisible": false
  },
  {
    "longitude": -115.783,
    "name": "Baja California",
    "latitude": 31.4,
    "dead": 1980,
    "lastUpdated": "2020-07-04T12:32:04.672Z",
    "recovered": 0,
    "infected": 9639,
    "id": "Jp9ePErcc8i1aOozEAMf",
    "pop": 3648100,
    "country": "MX",
    "sick": 7659,
    "invisible": false
  },
  {
    "name": "Córdoba",
    "latitude": 8.7479801,
    "dead": 64,
    "lastUpdated": "2020-07-04T12:30:08.269Z",
    "recovered": 251,
    "infected": 915,
    "id": "Jr8syCB0lydmPDXw8Q6N",
    "pop": 1786500,
    "country": "CO",
    "longitude": -75.8814316,
    "sick": 600,
    "invisible": false
  },
  {
    "longitude": 0.8248,
    "name": "Togo",
    "latitude": 8.6195,
    "dead": 14,
    "lastUpdated": "2020-07-04T12:31:06.552Z",
    "recovered": 424,
    "infected": 671,
    "id": "JrBbirlBKGdWSdcDt7PF",
    "pop": 7798000,
    "country": "TG",
    "sick": 233,
    "invisible": false
  },
  {
    "lastUpdated": "2020-07-04T12:31:06.545Z",
    "recovered": 2892,
    "infected": 5497,
    "id": "JzZ8sbqzjutThVjkPKPL",
    "pop": 7050000,
    "country": "BG",
    "longitude": 25.4858,
    "name": "Bulgaria",
    "latitude": 42.7339,
    "dead": 239,
    "sick": 2366,
    "invisible": false
  },
  {
    "recovered": 0,
    "infected": 824,
    "id": "KGrK7gafkeWjmU6sHQd2",
    "pop": 1263000,
    "country": "PL",
    "longitude": 20.709,
    "name": "Świętokrzyskie",
    "latitude": 50.823,
    "dead": 40,
    "lastUpdated": "2020-07-04T12:33:01.558Z",
    "sick": 784,
    "invisible": false
  },
  {
    "name": "Sverdlovsk Oblast",
    "latitude": 59.0077,
    "dead": 119,
    "lastUpdated": "2020-07-04T12:30:06.413Z",
    "recovered": 8197,
    "infected": 13767,
    "id": "KLBR5QHW6DePaGcFxlqH",
    "pop": 4325000,
    "country": "RU",
    "longitude": 61.9316,
    "sick": 5451,
    "invisible": false
  },
  {
    "longitude": 8.833,
    "name": "Liguria",
    "latitude": 44.5,
    "dead": 1558,
    "lastUpdated": "2020-07-04T12:31:01.968Z",
    "recovered": 8146,
    "infected": 9987,
    "state": "42",
    "id": "KLXicxFogWnu0dLp4bNK",
    "pop": 1557000,
    "country": "IT",
    "sick": 283,
    "invisible": false
  },
  {
    "id": "KUnAVGJH6fLwFetE8A2x",
    "pop": 682000,
    "country": "RU",
    "longitude": 47.9608,
    "name": "Mari El Republic",
    "latitude": 56.4385,
    "dead": 24,
    "lastUpdated": "2020-07-04T12:30:06.424Z",
    "recovered": 2848,
    "infected": 3073,
    "sick": 201,
    "invisible": false
  },
  {
    "lastUpdated": "2020-07-04T12:30:08.268Z",
    "recovered": 501,
    "infected": 1169,
    "id": "KpOz3WmiZkrXUMlUJNlV",
    "pop": 1201000,
    "country": "CO",
    "longitude": -73.2532,
    "name": "Cesar",
    "latitude": 10.4631,
    "dead": 26,
    "sick": 642,
    "invisible": false
  },
  {
    "lastUpdated": "2020-07-04T12:31:01.969Z",
    "recovered": 8832,
    "infected": 10267,
    "state": "52",
    "id": "KrLrJbpDqqiXgUPGCCW9",
    "pop": 3737000,
    "country": "IT",
    "longitude": 11,
    "name": "Toscana",
    "latitude": 43.4167,
    "dead": 1112,
    "sick": 323,
    "invisible": false
  },
  {
    "lastUpdated": "2020-07-04T12:31:06.548Z",
    "recovered": 1863,
    "infected": 2069,
    "id": "KsWzJO06cf0d6LJ4ZNh9",
    "pop": 21440000,
    "country": "LK",
    "longitude": 80.771797,
    "name": "Sri Lanka",
    "latitude": 7.873054,
    "dead": 11,
    "sick": 195,
    "invisible": false
  },
  {
    "recovered": 8008,
    "infected": 17699,
    "id": "KtQIo2DoqjELtPAlyDVO",
    "pop": 49670000,
    "country": "IN",
    "longitude": 79.74,
    "name": "Andhra Pradesh",
    "latitude": 15.9129,
    "dead": 218,
    "lastUpdated": "2020-07-04T12:41:01.490Z",
    "sick": 9473,
    "invisible": false
  },
  {
    "longitude": -63.0501,
    "name": "Saint-Martin",
    "alwaysShow": true,
    "latitude": 18.0708,
    "dead": 3,
    "lastUpdated": "2020-07-04T12:31:06.555Z",
    "recovered": 37,
    "infected": 43,
    "id": "LBUtrLDKJiupXjlUNTUe",
    "pop": 32125,
    "country": "FR",
    "sick": 3,
    "invisible": false
  },
  {
    "id": "LD8TNScpLrLRvgpQAn9T",
    "pop": 747000,
    "country": "RU",
    "longitude": 36.9242,
    "name": "Oryol Oblast",
    "latitude": 52.7856,
    "dead": 73,
    "lastUpdated": "2020-07-04T12:30:06.421Z",
    "recovered": 3150,
    "infected": 4644,
    "sick": 1421,
    "invisible": false
  },
  {
    "recovered": 81,
    "infected": 83,
    "id": "LTGEU2E9MFkrCcFhZYVk",
    "pop": 38557,
    "country": "LI",
    "longitude": 9.5554,
    "name": "Liechtenstein",
    "latitude": 47.166,
    "dead": 1,
    "lastUpdated": "2020-07-04T12:31:06.554Z",
    "sick": 1,
    "invisible": false
  },
  {
    "country": "GN",
    "longitude": -9.6966,
    "name": "Guinea",
    "latitude": 9.9456,
    "dead": 33,
    "lastUpdated": "2020-07-04T12:31:06.545Z",
    "recovered": 4446,
    "infected": 5521,
    "id": "LU2QWt5ao8IJa8evNYVV",
    "pop": 12720000,
    "sick": 1042,
    "invisible": false
  },
  {
    "name": "Sonora",
    "latitude": 29.6667,
    "dead": 950,
    "lastUpdated": "2020-07-04T12:32:04.673Z",
    "recovered": 0,
    "infected": 9386,
    "id": "LYCBHrA9ms6GcxpLGPCT",
    "pop": 3062000,
    "country": "MX",
    "longitude": -110.5,
    "sick": 8436,
    "invisible": false
  },
  {
    "lastUpdated": "2020-07-04T12:31:06.552Z",
    "recovered": 267,
    "infected": 561,
    "id": "LglKINHyQpYpFxjckbQ6",
    "pop": 563402,
    "country": "SR",
    "longitude": -56.0277824,
    "name": "Suriname",
    "latitude": 3.9193051,
    "dead": 13,
    "sick": 281,
    "invisible": false
  },
  {
    "longitude": -106.4509,
    "name": "Saskatchewan",
    "latitude": 52.9399,
    "dead": 14,
    "lastUpdated": "2020-07-04T12:40:01.346Z",
    "recovered": 0,
    "infected": 796,
    "state": "SK",
    "id": "LkIDKY0CMAqzbwBHyYCP",
    "pop": 1174000,
    "country": "CA",
    "sick": 782,
    "invisible": false
  },
  {
    "recovered": 8,
    "infected": 10,
    "id": "LooNn6RuMiDhQnwa9svw",
    "pop": 636442,
    "country": "EH",
    "longitude": -12.8858,
    "name": "Western Sahara",
    "latitude": 24.2155,
    "dead": 1,
    "lastUpdated": "2020-07-04T12:31:06.557Z",
    "sick": 1,
    "invisible": false
  },
  {
    "latitude": 43.363129,
    "dead": 334,
    "lastUpdated": "2020-07-04T00:49:25.830Z",
    "recovered": 1063,
    "infected": 3420,
    "state": "AS",
    "id": "Lsga7AvYNnY0qQ5gEfV8",
    "pop": 1022000,
    "country": "ES",
    "longitude": -5.951843,
    "name": "Principado de Asturias",
    "sick": 2023,
    "invisible": false
  },
  {
    "state": "EX",
    "id": "LuEErlF7dVKI0eJsRjFm",
    "pop": 1065000,
    "country": "ES",
    "longitude": -6.0679,
    "name": "Extremadura",
    "latitude": 39.4937,
    "dead": 519,
    "lastUpdated": "2020-07-04T00:47:14.070Z",
    "recovered": 2652,
    "infected": 4048,
    "sick": 877,
    "invisible": false
  },
  {
    "latitude": 21.0186,
    "dead": 593,
    "lastUpdated": "2020-07-04T12:32:04.674Z",
    "recovered": 0,
    "infected": 9760,
    "id": "M3wdiueFtwrUHiQ2rOXA",
    "pop": 5965000,
    "country": "MX",
    "longitude": -101.2591,
    "name": "Guanajuato",
    "sick": 9167,
    "invisible": false
  },
  {
    "longitude": -84.27,
    "name": "Kentucky",
    "latitude": 37.8393,
    "dead": 585,
    "lastUpdated": "2020-07-04T12:17:01.531Z",
    "recovered": 0,
    "infected": 16376,
    "state": "KY",
    "id": "MC8MXFw9iXYybnF8v7e6",
    "pop": 4468000,
    "country": "US",
    "sick": 15791,
    "invisible": false
  },
  {
    "name": "Unknown UK region or state",
    "latitude": 55.3781,
    "dead": 39567,
    "lastUpdated": "2020-07-04T12:43:11.308Z",
    "recovered": 0,
    "infected": 8179,
    "id": "MEjlm8VYdGA28TTTnQmf",
    "country": "GB",
    "longitude": -3.436,
    "invisible": true,
    "sick": 0
  },
  {
    "id": "MG4e9tulLJ010SZJvbYN",
    "pop": 3689000,
    "country": "PT",
    "longitude": -7.7441,
    "name": "Norte",
    "latitude": 41.3006,
    "dead": 819,
    "lastUpdated": "2020-07-04T12:23:08.836Z",
    "recovered": 0,
    "infected": 17664,
    "sick": 16845,
    "invisible": false
  },
  {
    "recovered": 0,
    "infected": 18276,
    "state": "SC",
    "id": "MObRYyIriHG337L8FyFC",
    "pop": 5450000,
    "country": "GB",
    "longitude": -4.2026,
    "name": "Scotland",
    "latitude": 56.4907,
    "dead": 2487,
    "lastUpdated": "2020-07-04T12:43:11.307Z",
    "sick": 15789,
    "invisible": false
  },
  {
    "name": "Indiana",
    "latitude": 40.2672,
    "dead": 2681,
    "lastUpdated": "2020-07-04T12:17:01.529Z",
    "recovered": 0,
    "infected": 46915,
    "state": "IN",
    "id": "MOxDkmQ4wBi1CuAdVxDE",
    "pop": 6692000,
    "country": "US",
    "longitude": -86.1349,
    "sick": 44234,
    "invisible": false
  },
  {
    "recovered": 4726,
    "infected": 10244,
    "id": "MdQOfc1gNh2DOqwSP6UV",
    "pop": 24290000,
    "country": "CI",
    "longitude": -5.5471,
    "name": "Ivory Coast",
    "latitude": 7.54,
    "dead": 70,
    "lastUpdated": "2020-07-04T12:31:06.544Z",
    "sick": 5448,
    "invisible": false
  },
  {
    "id": "MjpYq3zQyAvSQlVVYjD2",
    "pop": 17910000,
    "country": "DE",
    "longitude": 7.6616,
    "name": "Nordrhein-Westfalen",
    "latitude": 51.4332,
    "dead": 1701,
    "lastUpdated": "2020-07-04T12:30:03.893Z",
    "recovered": 39551,
    "infected": 43823,
    "state": "NW",
    "sick": 2571,
    "invisible": false
  },
  {
    "longitude": 105.977203,
    "name": "Ningxia",
    "latitude": 37.330509,
    "dead": 0,
    "lastUpdated": "2020-07-04T12:38:12.202Z",
    "recovered": 75,
    "infected": 75,
    "id": "MntmjjuHljarCdt6aIeE",
    "pop": 6301000,
    "country": "CN",
    "sick": 0,
    "invisible": false
  },
  {
    "latitude": -3.20166586,
    "dead": 5050,
    "lastUpdated": "2020-07-04T12:45:01.908Z",
    "recovered": 0,
    "infected": 110411,
    "state": "PA",
    "id": "MuEB2UgkId5crsxi9zQT",
    "pop": 8513497,
    "country": "BR",
    "longitude": -52.203499186,
    "name": "Pará",
    "sick": 105361,
    "invisible": false
  },
  {
    "name": "Lipetsk Oblast",
    "latitude": 52.5265,
    "dead": 18,
    "lastUpdated": "2020-07-04T12:30:06.422Z",
    "recovered": 2561,
    "infected": 3923,
    "id": "N0KGfqgROVOjAxWcd8wi",
    "pop": 1150000,
    "country": "RU",
    "longitude": 39.2032,
    "sick": 1344,
    "invisible": false
  },
  {
    "state": "BW",
    "id": "N3XsRBwJSsNclkEf7Zz5",
    "pop": 11020000,
    "country": "DE",
    "longitude": 9.3501,
    "name": "Baden-Württemberg",
    "latitude": 48.6616,
    "dead": 1891,
    "lastUpdated": "2020-07-04T12:30:03.890Z",
    "recovered": 33481,
    "infected": 36216,
    "sick": 844,
    "invisible": false
  },
  {
    "longitude": 17.824332,
    "name": "Bosnia and Herzegovina",
    "latitude": 44.696652,
    "dead": 191,
    "lastUpdated": "2020-07-04T12:31:06.545Z",
    "recovered": 2550,
    "infected": 4962,
    "id": "N7c13sCQF0G789XAVazJ",
    "pop": 3507000,
    "country": "BA",
    "sick": 2221,
    "invisible": false
  },
  {
    "id": "NBRIGIRrJB1Ry8prDNAC",
    "pop": 36500000,
    "country": "CN",
    "longitude": 111.856857,
    "name": "Shanxi",
    "latitude": 37.242565,
    "dead": 0,
    "lastUpdated": "2020-07-04T12:38:12.202Z",
    "recovered": 198,
    "infected": 198,
    "sick": 0,
    "invisible": false
  },
  {
    "country": "US",
    "longitude": -79.0193,
    "name": "North Carolina",
    "latitude": 35.7596,
    "dead": 1420,
    "lastUpdated": "2020-07-04T12:17:01.526Z",
    "recovered": 0,
    "infected": 70562,
    "state": "NC",
    "id": "NC64Qp5kTqAfiTuR27k8",
    "pop": 10380000,
    "sick": 69142,
    "invisible": false
  },
  {
    "longitude": 12.5316,
    "name": "Brandenburg",
    "latitude": 52.4125,
    "dead": 176,
    "lastUpdated": "2020-07-04T12:30:03.892Z",
    "recovered": 3229,
    "infected": 3512,
    "state": "BB",
    "id": "NJjo2gfBvnbK4xatrsUz",
    "pop": 2504000,
    "country": "DE",
    "sick": 107,
    "invisible": false
  },
  {
    "dead": 2,
    "latitude": 15.0979,
    "infected": 31,
    "recovered": 0,
    "pop": 55144,
    "country": "US",
    "lastUpdated": "2020-07-04T12:17:01.533Z",
    "state": "MP",
    "id": "NLLL6pJhJSw0lrDMD4uP",
    "longitude": 145.6739,
    "name": "Northern Mariana Islands",
    "alwaysShow": true,
    "sick": 29,
    "invisible": false
  },
  {
    "name": "Uttarakhand",
    "latitude": 30.0668,
    "dead": 42,
    "lastUpdated": "2020-07-04T12:41:01.491Z",
    "recovered": 2481,
    "infected": 3048,
    "id": "NMeZEcGToxXfpi16PfFV",
    "pop": 10080000,
    "country": "IN",
    "longitude": 79.0193,
    "sick": 525,
    "invisible": false
  },
  {
    "name": "Hessen",
    "latitude": 50.6521,
    "dead": 518,
    "lastUpdated": "2020-07-04T12:30:03.892Z",
    "recovered": 10075,
    "infected": 10950,
    "state": "HE",
    "id": "Nk5vPgUIXsWVfbWZf15O",
    "pop": 6243000,
    "country": "DE",
    "longitude": 9.1624,
    "sick": 357,
    "invisible": false
  },
  {
    "longitude": 25.837107,
    "name": "Latvia",
    "latitude": 56.96776,
    "dead": 30,
    "lastUpdated": "2020-07-04T12:31:06.550Z",
    "recovered": 1000,
    "infected": 1123,
    "id": "NmmMKy0YqA8StHdGzB5N",
    "pop": 1920000,
    "country": "LV",
    "sick": 93,
    "invisible": false
  },
  {
    "recovered": 0,
    "infected": 62362,
    "state": "PE",
    "id": "NyGlFL1gATK1Omv9qtcC",
    "pop": 9496294,
    "country": "BR",
    "longitude": -37.946777,
    "name": "Pernambuco",
    "latitude": -8.472372,
    "dead": 5068,
    "lastUpdated": "2020-07-04T12:45:01.910Z",
    "sick": 57294,
    "invisible": false
  },
  {
    "recovered": 346,
    "infected": 833,
    "id": "O4g88K49HKEZLFXm5gxb",
    "pop": 4732000,
    "country": "LR",
    "longitude": -9.4295,
    "name": "Liberia",
    "latitude": 6.4281,
    "dead": 37,
    "lastUpdated": "2020-07-04T12:31:06.551Z",
    "sick": 450,
    "invisible": false
  },
  {
    "latitude": 51.7936,
    "dead": 42,
    "lastUpdated": "2020-07-04T12:30:06.422Z",
    "recovered": 3180,
    "infected": 4299,
    "id": "O5fNOGWKosps6JTrzkpn",
    "pop": 2350000,
    "country": "RU",
    "longitude": 82.6759,
    "name": "Altai Krai",
    "sick": 1077,
    "invisible": false
  },
  {
    "id": "O6PDzAxKENYbLsLjPx2K",
    "pop": 1072000,
    "country": "RU",
    "longitude": 116.9677,
    "name": "Zabaykalsky Krai",
    "latitude": 53.0929,
    "dead": 43,
    "lastUpdated": "2020-07-04T12:30:06.424Z",
    "recovered": 2275,
    "infected": 3309,
    "sick": 991,
    "invisible": false
  },
  {
    "name": "South Carolina",
    "latitude": 34.003307,
    "dead": 793,
    "lastUpdated": "2020-07-04T12:17:01.529Z",
    "recovered": 0,
    "infected": 41532,
    "state": "SC",
    "id": "ONU4CK8QjViFHKg2w5if",
    "pop": 5084000,
    "country": "US",
    "longitude": -80.525613,
    "sick": 40739,
    "invisible": false
  },
  {
    "longitude": -89.582775,
    "name": "Mississippi",
    "latitude": 33.51822,
    "dead": 1103,
    "lastUpdated": "2020-07-04T12:17:01.531Z",
    "recovered": 0,
    "infected": 29684,
    "state": "MS",
    "id": "OYa0jFzdbAgo8zUsRv6q",
    "pop": 2987000,
    "country": "US",
    "sick": 28581,
    "invisible": false
  },
  {
    "latitude": 45.2538,
    "dead": 105,
    "lastUpdated": "2020-07-04T12:17:01.533Z",
    "recovered": 0,
    "infected": 3373,
    "state": "ME",
    "id": "OcXNp9kNVSwrRlG3bNVN",
    "pop": 1338000,
    "country": "US",
    "longitude": -69.4455,
    "name": "Maine",
    "sick": 3268,
    "invisible": false
  },
  {
    "recovered": 2494,
    "infected": 3138,
    "id": "OlKS5SPydHY2TedStFuf",
    "pop": 488000,
    "country": "RU",
    "longitude": 44.8203,
    "name": "Ingushetia",
    "latitude": 43.4052,
    "dead": 69,
    "lastUpdated": "2020-07-04T12:30:06.424Z",
    "sick": 575,
    "invisible": false
  },
  {
    "country": "AU",
    "longitude": 146.725256,
    "name": "Tasmania",
    "latitude": -41.915264,
    "dead": 13,
    "lastUpdated": "2020-07-04T12:43:19.926Z",
    "recovered": 215,
    "infected": 228,
    "state": "TAS",
    "id": "OnOseaqWdnuP18oruABW",
    "pop": 515000,
    "sick": 0,
    "invisible": false
  },
  {
    "latitude": -16.35,
    "dead": 709,
    "lastUpdated": "2020-07-04T12:45:01.913Z",
    "recovered": 0,
    "infected": 18854,
    "state": "MT",
    "id": "P0GHFGUt1pkKTk5PM8uz",
    "pop": 3441998,
    "country": "BR",
    "longitude": -56.666668,
    "name": "Mato Grosso",
    "sick": 18145,
    "invisible": false
  },
  {
    "lastUpdated": "2020-07-04T12:30:06.422Z",
    "recovered": 3127,
    "infected": 4552,
    "id": "P2I90oqdFSoVk03AaGo4",
    "pop": 1378000,
    "country": "RU",
    "longitude": 40.5927,
    "name": "Vladimir Oblast",
    "latitude": 56.1553,
    "dead": 71,
    "sick": 1354,
    "invisible": false
  },
  {
    "latitude": 19.3133,
    "dead": 1,
    "lastUpdated": "2020-07-04T12:31:06.553Z",
    "recovered": 194,
    "infected": 201,
    "id": "P4mwRFLbrvT0t75uD8Wo",
    "pop": 61559,
    "country": "KY",
    "longitude": -81.2546,
    "name": "Cayman Islands",
    "sick": 6,
    "invisible": false
  },
  {
    "latitude": 16.7424984,
    "dead": 1,
    "lastUpdated": "2020-07-04T12:31:06.557Z",
    "recovered": 10,
    "infected": 11,
    "id": "PEDkeFMTOZpvHiSVxBk7",
    "pop": 5900,
    "country": "MS",
    "longitude": -62.1873665,
    "name": "Montserrat",
    "sick": 0,
    "invisible": false
  },
  {
    "latitude": -1.9403,
    "dead": 3,
    "lastUpdated": "2020-07-04T12:31:06.550Z",
    "recovered": 512,
    "infected": 1081,
    "id": "PEcgZGEkyhABztt1Ufgc",
    "pop": 12210000,
    "country": "RW",
    "longitude": 29.8739,
    "name": "Rwanda",
    "sick": 566,
    "invisible": false
  },
  {
    "lastUpdated": "2020-07-04T12:30:06.419Z",
    "recovered": 3261,
    "infected": 5543,
    "id": "PHlHdeqYd6KgxsJGfEz0",
    "pop": 4063000,
    "country": "RU",
    "longitude": 56.1645,
    "name": "Bashkortostan",
    "latitude": 54.2312,
    "dead": 19,
    "sick": 2263,
    "invisible": false
  },
  {
    "latitude": 46.7296,
    "dead": 1503,
    "lastUpdated": "2020-07-04T12:17:01.530Z",
    "recovered": 0,
    "infected": 37624,
    "state": "MN",
    "id": "PJvVYosLIhbcRZYnKX1R",
    "pop": 5611000,
    "country": "US",
    "longitude": -94.6859,
    "name": "Minnesota",
    "sick": 36121,
    "invisible": false
  },
  {
    "lastUpdated": "2020-07-04T12:17:01.526Z",
    "recovered": 0,
    "infected": 146872,
    "state": "IL",
    "id": "PTwQr9ijo0TBBsPH2sdJ",
    "pop": 12740000,
    "country": "US",
    "longitude": -89.3985,
    "name": "Illinois",
    "latitude": 40.6331,
    "dead": 7215,
    "sick": 139657,
    "invisible": false
  },
  {
    "latitude": 13.909444,
    "dead": 0,
    "lastUpdated": "2020-07-04T12:31:06.556Z",
    "recovered": 19,
    "infected": 22,
    "id": "PjLqCeFdyzdZNcZxMkK1",
    "pop": 178844,
    "country": "LC",
    "longitude": -60.978893,
    "name": "Saint Lucia",
    "sick": 3,
    "invisible": false
  },
  {
    "recovered": 3905,
    "infected": 8634,
    "state": "NC",
    "id": "PmUlsNx2uFLU797wwU39",
    "pop": 649900,
    "country": "ES",
    "longitude": -1.6761,
    "name": "Comunidad Foral de Navarra",
    "latitude": 42.6954,
    "dead": 528,
    "lastUpdated": "2020-07-04T00:46:22.933Z",
    "sick": 4201,
    "invisible": false
  },
  {
    "longitude": 9.460554,
    "name": "Tunisia",
    "latitude": 34.201507,
    "dead": 50,
    "lastUpdated": "2020-07-04T12:31:06.549Z",
    "recovered": 1045,
    "infected": 1181,
    "id": "Pr76V4raf108uSRoEXac",
    "pop": 11530000,
    "country": "TN",
    "sick": 86,
    "invisible": false
  },
  {
    "name": "Eswatini",
    "latitude": -26.5225,
    "dead": 13,
    "lastUpdated": "2020-07-04T12:31:06.551Z",
    "recovered": 515,
    "infected": 909,
    "id": "PuQgOd9KWiMzGZXm11sR",
    "pop": 1367000,
    "country": "SZ",
    "longitude": 31.4659,
    "sick": 381,
    "invisible": false
  },
  {
    "latitude": -37.009609,
    "dead": 20,
    "lastUpdated": "2020-07-04T12:43:19.927Z",
    "recovered": 1938,
    "infected": 2368,
    "state": "VIC",
    "id": "Q18mrGvFWTLX2BU9SqhQ",
    "pop": 6359000,
    "country": "AU",
    "longitude": 143.94853,
    "name": "Victoria",
    "sick": 410,
    "invisible": false
  },
  {
    "lastUpdated": "2020-07-04T12:30:03.896Z",
    "recovered": 2987,
    "infected": 3186,
    "state": "SH",
    "id": "Q39XkabIYxt15mHINzTa",
    "pop": 2890000,
    "country": "DE",
    "longitude": 9.6961,
    "name": "Schleswig-Holstein",
    "latitude": 54.2194,
    "dead": 157,
    "sick": 42,
    "invisible": false
  },
  {
    "name": "Rio Grande do Sul",
    "latitude": -27.953491,
    "dead": 690,
    "lastUpdated": "2020-07-04T12:45:01.910Z",
    "recovered": 0,
    "infected": 30371,
    "state": "RS",
    "id": "QGpQNhuoVTUPHXvS7qcu",
    "pop": 11329605,
    "country": "BR",
    "longitude": -52.031696,
    "sick": 29681,
    "invisible": false
  },
  {
    "latitude": 55.5596,
    "dead": 37,
    "lastUpdated": "2020-07-04T12:30:06.420Z",
    "recovered": 2983,
    "infected": 5315,
    "id": "QGyuno7Bc4kwuvGFgMiO",
    "pop": 1231000,
    "country": "RU",
    "longitude": 46.9284,
    "name": "Chuvashia",
    "sick": 2295,
    "invisible": false
  },
  {
    "latitude": 58.595272,
    "dead": 69,
    "lastUpdated": "2020-07-04T12:31:06.548Z",
    "recovered": 1870,
    "infected": 1993,
    "id": "QR9go2hQKXjty7JHUYe4",
    "pop": 1328000,
    "country": "EE",
    "longitude": 25.013607,
    "name": "Estonia",
    "sick": 54,
    "invisible": false
  },
  {
    "longitude": 54.8313,
    "name": "Komi Republic",
    "latitude": 63.8631,
    "dead": 35,
    "lastUpdated": "2020-07-04T12:30:06.423Z",
    "recovered": 1935,
    "infected": 3640,
    "id": "QTafh5fpbS8abcuyEjaL",
    "pop": 840000,
    "country": "RU",
    "sick": 1670,
    "invisible": false
  },
  {
    "recovered": 0,
    "infected": 51689,
    "state": "ES",
    "id": "QaWDLKH8SuwD0Qxq6c38",
    "pop": 3972388,
    "country": "BR",
    "longitude": -40.336,
    "name": "Espírito Santo",
    "latitude": -20.318,
    "dead": 1758,
    "lastUpdated": "2020-07-04T12:45:01.910Z",
    "sick": 49931,
    "invisible": false
  },
  {
    "longitude": 35.0884,
    "name": "Murmansk Oblast",
    "latitude": 67.8443,
    "dead": 19,
    "lastUpdated": "2020-07-04T12:30:06.419Z",
    "recovered": 3695,
    "infected": 5766,
    "id": "Qh73PKA4KWeuPoqZfWXz",
    "pop": 795000,
    "country": "RU",
    "sick": 2052,
    "invisible": false
  },
  {
    "longitude": -103.6667,
    "name": "Jalisco",
    "latitude": 20.3333,
    "dead": 779,
    "lastUpdated": "2020-07-04T12:32:04.675Z",
    "recovered": 0,
    "infected": 13613,
    "id": "Qkho455pBwx88Gohs3hL",
    "pop": 8222700,
    "country": "MX",
    "sick": 12834,
    "invisible": false
  },
  {
    "id": "QlZrE4nosm5WfdA2aCDg",
    "pop": 8251000,
    "country": "PG",
    "longitude": 143.9555,
    "name": "Papua New Guinea",
    "latitude": -6.315,
    "dead": 0,
    "lastUpdated": "2020-07-04T12:31:06.557Z",
    "recovered": 8,
    "infected": 11,
    "sick": 3,
    "invisible": false
  },
  {
    "state": "VI",
    "id": "QqhD3YDMKXojvQY3Yu41",
    "longitude": -64.8963,
    "name": "U.S. Virgin Islands",
    "alwaysShow": true,
    "dead": 6,
    "latitude": 18.3358,
    "infected": 111,
    "recovered": 0,
    "pop": 107268,
    "country": "US",
    "lastUpdated": "2020-07-04T12:17:01.533Z",
    "sick": 105,
    "invisible": false
  },
  {
    "recovered": 18,
    "infected": 18,
    "id": "Qy2qW2ep5wltnYjPJBxh",
    "pop": 71937,
    "country": "DM",
    "longitude": -61.3709755,
    "name": "Dominica",
    "latitude": 15.414999,
    "dead": 0,
    "lastUpdated": "2020-07-04T12:31:06.557Z",
    "sick": 0,
    "invisible": false
  },
  {
    "latitude": 5.167,
    "dead": 0,
    "lastUpdated": "2020-07-04T12:30:08.268Z",
    "recovered": 48,
    "infected": 85,
    "id": "R3IHMWqIUhOJJTlrmbUZ",
    "pop": 344027,
    "country": "CO",
    "longitude": -72.167,
    "name": "Casanare",
    "sick": 37,
    "invisible": false
  },
  {
    "longitude": -80.7821,
    "name": "Panama",
    "latitude": 8.538,
    "dead": 698,
    "lastUpdated": "2020-07-04T12:31:06.541Z",
    "recovered": 16945,
    "infected": 35995,
    "id": "R8YCgephnxTufvcPWMgx",
    "pop": 4099000,
    "country": "PA",
    "sick": 18352,
    "invisible": false
  },
  {
    "longitude": -86.2419,
    "name": "Honduras",
    "latitude": 15.2,
    "dead": 605,
    "lastUpdated": "2020-07-04T12:31:06.542Z",
    "recovered": 2250,
    "infected": 22116,
    "id": "RA2SE0p2bVhqo0P2hzGY",
    "pop": 9265000,
    "country": "HN",
    "sick": 19261,
    "invisible": false
  },
  {
    "recovered": 0,
    "infected": 1889,
    "id": "RBt9RiwP7WUbMnJfD0lo",
    "pop": 224500,
    "country": "CL",
    "longitude": -70.2979202,
    "name": "Arica y Parinacota",
    "latitude": -18.4745998,
    "dead": 22,
    "lastUpdated": "2020-07-04T12:21:04.766Z",
    "sick": 1867,
    "invisible": false
  },
  {
    "lastUpdated": "2020-07-04T12:31:01.968Z",
    "recovered": 2905,
    "infected": 3318,
    "state": "36",
    "id": "RCrDBCdBNYzgLNr0aB2H",
    "pop": 1216000,
    "country": "IT",
    "longitude": 13.8,
    "name": "Friuli Venezia Giulia",
    "latitude": 45.633331,
    "dead": 345,
    "sick": 68,
    "invisible": false
  },
  {
    "longitude": -93.0977,
    "name": "Iowa",
    "latitude": 41.878,
    "dead": 721,
    "lastUpdated": "2020-07-04T12:17:01.530Z",
    "recovered": 0,
    "infected": 30809,
    "state": "IA",
    "id": "RX0KDu1AFrlCsrRso0nb",
    "pop": 3156000,
    "country": "US",
    "sick": 30088,
    "invisible": false
  },
  {
    "lastUpdated": "2020-07-04T12:30:08.261Z",
    "recovered": 13484,
    "infected": 34131,
    "id": "RZ6PCe5TZsO15JjDObwO",
    "pop": 7413000,
    "country": "CO",
    "longitude": -74.063644,
    "name": "Bogotá D.C.",
    "latitude": 4.624335,
    "dead": 762,
    "sick": 19885,
    "invisible": false
  },
  {
    "name": "Libya",
    "latitude": 26.3351002,
    "dead": 27,
    "lastUpdated": "2020-07-04T12:31:06.551Z",
    "recovered": 230,
    "infected": 918,
    "id": "RaJxbzlnRFTuj4B8IbpC",
    "pop": 6846000,
    "country": "LY",
    "longitude": 17.2283306,
    "sick": 661,
    "invisible": false
  },
  {
    "longitude": -98.4842,
    "name": "Kansas",
    "latitude": 39.0119,
    "dead": 282,
    "lastUpdated": "2020-07-04T12:17:01.531Z",
    "recovered": 0,
    "infected": 16005,
    "state": "KS",
    "id": "Rf4uvBfP3GRDSHdZElRd",
    "pop": 2912000,
    "country": "US",
    "sick": 15723,
    "invisible": false
  },
  {
    "longitude": 6.1878,
    "name": "Grand Est",
    "latitude": 48.6998,
    "dead": 3577,
    "lastUpdated": "2020-07-04T01:04:06.831Z",
    "recovered": 12253,
    "infected": 25986,
    "id": "RmEgf1xeclWt7XCF9oiR",
    "pop": 5518000,
    "country": "FR",
    "sick": 10156,
    "invisible": false
  },
  {
    "latitude": 50.4176,
    "dead": 3388,
    "lastUpdated": "2020-07-04T12:37:05.674Z",
    "recovered": 4893,
    "infected": 19353,
    "state": "WAL",
    "id": "RryHraSohKQLAsdr1dHO",
    "pop": 3644000,
    "country": "BE",
    "longitude": 4.451,
    "name": "Wallonia",
    "sick": 11072,
    "invisible": false
  },
  {
    "latitude": 51.2538,
    "dead": 2740,
    "lastUpdated": "2020-07-04T12:40:01.345Z",
    "recovered": 0,
    "infected": 37407,
    "state": "ON",
    "id": "Rx4TuyMpfGb3S8wYJX0x",
    "pop": 14570000,
    "country": "CA",
    "longitude": -85.3232,
    "name": "Ontario",
    "sick": 34667,
    "invisible": false
  },
  {
    "country": "ES",
    "longitude": -4.723611,
    "name": "Castilla y León",
    "latitude": 41.652779,
    "dead": 2787,
    "lastUpdated": "2020-07-04T00:44:55.659Z",
    "recovered": 8716,
    "infected": 26044,
    "state": "CL",
    "id": "S8ewN4zaYp8mjtuqqOTw",
    "pop": 2408000,
    "sick": 14541,
    "invisible": false
  },
  {
    "longitude": -61.011715,
    "name": "Martinique",
    "alwaysShow": true,
    "latitude": 14.652027,
    "dead": 14,
    "lastUpdated": "2020-07-04T12:31:06.553Z",
    "recovered": 98,
    "infected": 249,
    "id": "SDdefnq1bc3ZNr7SpEsW",
    "pop": 376480,
    "country": "FR",
    "sick": 137,
    "invisible": false
  },
  {
    "name": "Ghana",
    "latitude": 7.9465,
    "dead": 117,
    "lastUpdated": "2020-07-04T12:31:06.542Z",
    "recovered": 14330,
    "infected": 19388,
    "id": "SG9VWLOV3x2JsTkXmVSz",
    "pop": 28830000,
    "country": "GH",
    "longitude": -1.0232,
    "sick": 4941,
    "invisible": false
  },
  {
    "name": "Switzerland",
    "latitude": 46.818188,
    "dead": 1965,
    "lastUpdated": "2020-07-04T12:31:06.542Z",
    "recovered": 29200,
    "infected": 32198,
    "id": "SGe9sCPayMqh6RsGFaBA",
    "pop": 8570000,
    "country": "CH",
    "longitude": 8.227512,
    "sick": 1033,
    "invisible": false
  },
  {
    "latitude": 66.7613,
    "dead": 32,
    "lastUpdated": "2020-07-04T12:30:06.422Z",
    "recovered": 3333,
    "infected": 4422,
    "id": "SGhKBmmh5hss7hrNR8hK",
    "pop": 964000,
    "country": "RU",
    "longitude": 124.1238,
    "name": "Yakutia",
    "sick": 1057,
    "invisible": false
  },
  {
    "longitude": -71.208,
    "name": "Quebec",
    "latitude": 46.8139,
    "dead": 5560,
    "lastUpdated": "2020-07-04T12:40:01.345Z",
    "recovered": 0,
    "infected": 55682,
    "state": "QC",
    "id": "SHoOE3NiJgWAlDVBzwYH",
    "pop": 8485000,
    "country": "CA",
    "sick": 50122,
    "invisible": false
  },
  {
    "longitude": 20.903,
    "name": "Kosovo",
    "latitude": 42.6026,
    "dead": 55,
    "lastUpdated": "2020-07-04T12:10:01.478Z",
    "recovered": 1707,
    "infected": 3064,
    "id": "SMWvuMMuKp2QK7O2tNia",
    "pop": 1831000,
    "country": "XK",
    "sick": 1302,
    "invisible": false
  },
  {
    "id": "SNWCQwRwqYfxX8HZndTA",
    "pop": 1913000,
    "country": "RU",
    "longitude": 135,
    "name": "Primorsky Krai",
    "latitude": 45.0526,
    "dead": 50,
    "lastUpdated": "2020-07-04T12:30:06.421Z",
    "recovered": 3064,
    "infected": 4602,
    "sick": 1488,
    "invisible": false
  },
  {
    "longitude": 74.124,
    "name": "Goa",
    "latitude": 15.2993,
    "dead": 4,
    "lastUpdated": "2020-07-04T12:41:01.492Z",
    "recovered": 772,
    "infected": 1576,
    "id": "SPcujsH2YlUaoAr8AiWF",
    "pop": 1817000,
    "country": "IN",
    "sick": 800,
    "invisible": false
  },
  {
    "lastUpdated": "2020-07-04T12:45:01.913Z",
    "recovered": 0,
    "infected": 26330,
    "state": "GO",
    "id": "SV5AMF59J61Vt4cXWLgy",
    "pop": 6921161,
    "country": "BR",
    "longitude": -48.953403,
    "name": "Goiás",
    "latitude": -16.328547,
    "dead": 586,
    "sick": 25744,
    "invisible": false
  },
  {
    "id": "SYFarIS62W0EW9bOaJmN",
    "pop": 75500,
    "country": "CO",
    "longitude": -68.436,
    "name": "Vichada",
    "latitude": 6.181,
    "dead": 0,
    "lastUpdated": "2020-07-04T12:30:08.270Z",
    "recovered": 1,
    "infected": 1,
    "sick": 0,
    "invisible": false
  },
  {
    "latitude": 39,
    "dead": 97,
    "lastUpdated": "2020-07-04T12:31:01.967Z",
    "recovered": 1060,
    "infected": 1182,
    "state": "78",
    "id": "SZdF624x0v1LlyzZjKFu",
    "pop": 1957000,
    "country": "IT",
    "longitude": 16.5,
    "name": "Calabria",
    "sick": 25,
    "invisible": false
  },
  {
    "state": "NE",
    "id": "SakhKQzKu1LRI8laqdQq",
    "pop": 1929000,
    "country": "US",
    "longitude": -99.9018,
    "name": "Nebraska",
    "latitude": 41.4925,
    "dead": 284,
    "lastUpdated": "2020-07-04T12:17:01.531Z",
    "recovered": 0,
    "infected": 19660,
    "sick": 19376,
    "invisible": false
  },
  {
    "longitude": 55.5364,
    "name": "La Réunion",
    "alwaysShow": true,
    "latitude": -21.1151,
    "dead": 2,
    "lastUpdated": "2020-07-04T12:31:06.552Z",
    "recovered": 472,
    "infected": 533,
    "id": "SgHzWAAYK1j2sipovxM6",
    "pop": 859959,
    "country": "FR",
    "sick": 59,
    "invisible": false
  },
  {
    "recovered": 131,
    "infected": 141,
    "id": "SioMALgUbo7peXmbco2f",
    "pop": 16010000,
    "country": "KH",
    "longitude": 104.990967,
    "name": "Cambodia",
    "latitude": 12.565679,
    "dead": 0,
    "lastUpdated": "2020-07-04T12:31:06.554Z",
    "sick": 10,
    "invisible": false
  },
  {
    "pop": 164229,
    "country": "US",
    "lastUpdated": "2020-07-04T12:17:01.533Z",
    "state": "GU",
    "id": "SsWhuEElU7dCTTuH5fdQ",
    "longitude": 144.7937,
    "name": "Guam",
    "alwaysShow": true,
    "dead": 5,
    "latitude": 13.4443,
    "infected": 280,
    "recovered": 0,
    "sick": 275,
    "invisible": false
  },
  {
    "lastUpdated": "2020-07-04T12:31:06.541Z",
    "recovered": 23127,
    "infected": 0,
    "id": "SuCr5emUaJ9RHTll1P1p",
    "country": "PL",
    "longitude": 19.1344,
    "invisible": true,
    "name": "Unknown Poland region",
    "latitude": 51.9189,
    "dead": 0,
    "sick": 0
  },
  {
    "name": "Udmurtia",
    "latitude": 57.067,
    "dead": 17,
    "lastUpdated": "2020-07-04T12:30:06.427Z",
    "recovered": 1137,
    "infected": 1499,
    "id": "Sx03z01BJCAbrYkWhEaD",
    "pop": 1513000,
    "country": "RU",
    "longitude": 53.0278,
    "sick": 345,
    "invisible": false
  },
  {
    "lastUpdated": "2020-07-04T12:31:06.544Z",
    "recovered": 2961,
    "infected": 7379,
    "id": "T3iRf8mTUTAzbKrORTap",
    "pop": 84070000,
    "country": "CD",
    "longitude": 21.7587,
    "name": "DR Congo",
    "latitude": -4.0383,
    "dead": 182,
    "sick": 4236,
    "invisible": false
  },
  {
    "longitude": 44.344334,
    "name": "Saudi Arabia",
    "latitude": 23.635796,
    "dead": 1802,
    "lastUpdated": "2020-07-04T12:31:06.538Z",
    "recovered": 140614,
    "infected": 201801,
    "id": "T7NffoeCgTUpAbOHvYwP",
    "pop": 32940000,
    "country": "SA",
    "sick": 59385,
    "invisible": false
  },
  {
    "latitude": 42.2871,
    "dead": 366,
    "lastUpdated": "2020-07-04T00:48:21.770Z",
    "recovered": 3107,
    "infected": 5473,
    "state": "RI",
    "id": "TNDTapyb0k3l7Mds9q9R",
    "pop": 315700,
    "country": "ES",
    "longitude": -2.5396,
    "name": "La Rioja",
    "sick": 2000,
    "invisible": false
  },
  {
    "longitude": -89.134857,
    "name": "Yucatán",
    "latitude": 20.400417,
    "dead": 487,
    "lastUpdated": "2020-07-04T12:32:04.673Z",
    "recovered": 0,
    "infected": 4841,
    "id": "TQCWbhIpJQBQxBjhCGVJ",
    "pop": 2207200,
    "country": "MX",
    "sick": 4354,
    "invisible": false
  },
  {
    "recovered": 138,
    "infected": 141,
    "id": "TQZmzsLhJqjtCSExAkCP",
    "pop": 428697,
    "country": "BN",
    "longitude": 114.650692,
    "name": "Brunei",
    "latitude": 4.506106,
    "dead": 3,
    "lastUpdated": "2020-07-04T12:31:06.554Z",
    "sick": 0,
    "invisible": false
  },
  {
    "recovered": 7747,
    "infected": 15349,
    "state": "",
    "id": "TT0MKODSjrxHvG19xZCa",
    "pop": 8027000,
    "country": "FR",
    "longitude": 4.3853,
    "name": "Auvergne-Rhône-Alpes",
    "latitude": 45.4471,
    "dead": 1740,
    "lastUpdated": "2020-07-04T01:01:09.568Z",
    "sick": 5862,
    "invisible": false
  },
  {
    "latitude": 38.5667,
    "dead": 10,
    "lastUpdated": "2020-07-04T12:23:08.837Z",
    "recovered": 0,
    "infected": 507,
    "id": "TeoNTu4aw5riC04sTd73",
    "pop": 758700,
    "country": "PT",
    "longitude": -7.9,
    "name": "Alentejo",
    "sick": 497,
    "invisible": false
  },