[
  {
    "dead": 0,
    "lastUpdated": "2020-03-14T10:53:03.594Z",
    "id": "0m4aECS0Z2DGFEr8ldgI",
    "infected": 320,
    "recovered": 0,
    "latitude": 25.315058,
    "longitude": 51.145517,
    "name": "Qatar",
    "country": "QA",
    "sick": 320
  },
  {
    "latitude": 35.64249,
    "longitude": 108.472214,
    "name": "Shaanxi",
    "country": "CN",
    "dead": 2,
    "lastUpdated": "2020-03-14T03:25:40.424Z",
    "id": "0x2HLhr5z5xAtEdO4iZm",
    "infected": 245,
    "recovered": 232,
    "sick": 11
  },
  {
    "latitude": 41.643351,
    "longitude": 21.668393,
    "name": "North Macedonia",
    "country": "MK",
    "dead": 0,
    "lastUpdated": "2020-03-14T10:53:03.530Z",
    "id": "19MvIhipqTyYv1H37Upw",
    "infected": 14,
    "recovered": 1,
    "sick": 13
  },
  {
    "latitude": 35.801933,
    "longitude": 96.779286,
    "name": "Qinghai",
    "country": "CN",
    "dead": 0,
    "lastUpdated": "2020-03-14T03:25:16.416Z",
    "id": "1Fap7rZu9SIRqf5TG9Dg",
    "infected": 18,
    "recovered": 18,
    "sick": 0
  },
  {
    "latitude": -14.235004,
    "longitude": -51.925282,
    "name": "Brazil",
    "country": "BR",
    "dead": 0,
    "lastUpdated": "2020-03-14T10:53:03.579Z",
    "id": "1f0YoV0vAcexEhpESyZc",
    "infected": 151,
    "recovered": 1,
    "sick": 150
  },
  {
    "dead": 0,
    "lastUpdated": "2020-03-14T10:53:03.615Z",
    "id": "1qTPB8X3tyLyIdsb5TN3",
    "infected": 6,
    "recovered": 0,
    "latitude": 47.4116,
    "longitude": 28.3699,
    "name": "Moldova",
    "country": "MD",
    "sick": 6
  },
  {
    "infected": 1,
    "recovered": 1,
    "latitude": 30.15336,
    "longitude": 88.787865,
    "name": "Tibet",
    "country": "CN",
    "dead": 0,
    "lastUpdated": "2020-03-14T03:26:26.734Z",
    "id": "25qIBtsW2nfQj3pwBKg9",
    "sick": 0
  },
  {
    "longitude": 115.66779,
    "name": "Indonesia",
    "country": "ID",
    "dead": 4,
    "lastUpdated": "2020-03-14T10:53:03.613Z",
    "id": "2KHYUb5t3lwzVVmDjwNX",
    "infected": 96,
    "recovered": 5,
    "latitude": -1.572184,
    "sick": 87
  },
  {
    "dead": 0,
    "lastUpdated": "2020-03-14T10:58:04.035Z",
    "id": "2OrsssmGUs4XCzaZzvTv",
    "infected": 24,
    "recovered": 0,
    "latitude": 43.807191,
    "longitude": -120.585594,
    "name": "Oregon",
    "country": "US",
    "sick": 24
  },
  {
    "latitude": 43.851921,
    "longitude": 126.548103,
    "name": "Jilin",
    "country": "CN",
    "dead": 1,
    "lastUpdated": "2020-03-14T03:25:09.918Z",
    "id": "2jxHvSsxdnom0nPNvOT8",
    "infected": 93,
    "recovered": 91,
    "sick": 1
  },
  {
    "longitude": -5.3536,
    "name": "Gibraltar",
    "country": "GI",
    "dead": 0,
    "lastUpdated": "2020-03-14T10:53:03.651Z",
    "id": "2p11BjSAs3wVyymgqBOe",
    "infected": 1,
    "recovered": 1,
    "latitude": 36.1408,
    "sick": 0
  },
  {
    "dead": 0,
    "lastUpdated": "2020-03-14T10:55:02.692Z",
    "id": "2sLNkkHpyaHx7dD3aMDO",
    "infected": 33,
    "recovered": 0,
    "latitude": 47.7516,
    "longitude": 1.6751,
    "name": "Centre-Val de Loire",
    "country": "FR",
    "sick": 33
  },
  {
    "dead": 0,
    "lastUpdated": "2020-03-14T10:58:04.102Z",
    "id": "3fC3bAyIRUquOQOEnQNe",
    "infected": 5,
    "recovered": 0,
    "latitude": 40.4173,
    "longitude": -82.9071,
    "name": "Ohio",
    "country": "US",
    "sick": 5
  },
  {
    "id": "4NnFMekRK2m14IlnZZoj",
    "infected": 1,
    "recovered": 0,
    "latitude": 21.0079,
    "longitude": -10.9408,
    "name": "Mauritania",
    "country": "MR",
    "dead": 0,
    "lastUpdated": "2020-03-14T10:53:03.784Z",
    "sick": 1
  },
  {
    "dead": 1,
    "lastUpdated": "2020-03-14T03:26:43.336Z",
    "id": "4hfZRUoUgI4a3vrG0GBk",
    "infected": 64,
    "recovered": 4,
    "latitude": 53.7267,
    "longitude": -127.6476,
    "name": "British Columbia",
    "country": "CA",
    "sick": 59
  },
  {
    "latitude": 41.065877,
    "longitude": -7.920053,
    "name": "Portugal",
    "country": "PT",
    "dead": 0,
    "lastUpdated": "2020-03-14T10:53:03.620Z",
    "id": "4rQLxUCMmQLpbi6E9tbH",
    "infected": 112,
    "recovered": 1,
    "sick": 111
  },
  {
    "latitude": 40.3426,
    "longitude": 47.93802,
    "name": "Azerbaijan",
    "country": "AZ",
    "dead": 1,
    "lastUpdated": "2020-03-14T10:53:03.631Z",
    "id": "4zqzRm2xHn0CDVOUQJ8p",
    "infected": 15,
    "recovered": 3,
    "sick": 11
  },
  {
    "id": "5N16a2OXXRpsEFanw0TC",
    "infected": 92,
    "recovered": 4,
    "latitude": -31.253218,
    "longitude": 146.921097,
    "name": "New South Wales",
    "country": "AU",
    "dead": 3,
    "lastUpdated": "2020-03-14T03:27:39.814Z",
    "sick": 85
  },
  {
    "infected": 1,
    "recovered": 1,
    "latitude": 28.394857,
    "longitude": 84.124008,
    "name": "Nepal",
    "country": "NP",
    "dead": 0,
    "lastUpdated": "2020-03-14T10:53:03.755Z",
    "id": "5gXZIjRgAvd6xWN1LOv8",
    "sick": 0
  },
  {
    "latitude": 12.879721,
    "longitude": 121.774017,
    "name": "Philippines",
    "country": "PH",
    "dead": 8,
    "lastUpdated": "2020-03-14T10:53:03.675Z",
    "id": "5pwmh7aSdGRKqRbnuyc0",
    "infected": 98,
    "recovered": 2,
    "sick": 88
  },
  {
    "latitude": 55.621011,
    "longitude": 23.804991,
    "name": "Lithuania",
    "country": "LT",
    "dead": 0,
    "lastUpdated": "2020-03-14T10:53:03.646Z",
    "id": "694ON7d0mRJDeM1gHBTR",
    "infected": 7,
    "recovered": 0,
    "sick": 7
  },
  {
    "infected": 138,
    "recovered": 78,
    "latitude": 22.396427,
    "longitude": 114.109497,
    "name": "Hong Kong",
    "country": "HK",
    "dead": 4,
    "lastUpdated": "2020-03-14T10:53:03.610Z",
    "id": "6IcHIIH0zXpY0POmBZTv",
    "sick": 56
  },
  {
    "longitude": 14.5058,
    "name": "Slovenia",
    "country": "SI",
    "dead": 0,
    "lastUpdated": "2020-03-14T10:53:03.622Z",
    "id": "6ahNiyKDSDAftCctgLH3",
    "infected": 141,
    "recovered": 0,
    "latitude": 46.0569,
    "sick": 141
  },
  {
    "infected": 1,
    "recovered": 0,
    "latitude": -0.8037,
    "longitude": 11.6094,
    "name": "Gabon",
    "country": "GA",
    "dead": 0,
    "lastUpdated": "2020-03-14T10:53:03.577Z",
    "id": "6pBi38TUgYfFm0bry2uh",
    "sick": 1
  },
  {
    "infected": 1,
    "recovered": 0,
    "latitude": 17.901672,
    "longitude": -62.818544,
    "name": "Saint-Barthélemy",
    "country": "FR",
    "dead": 0,
    "lastUpdated": "2020-03-14T10:55:02.707Z",
    "id": "78Ox26bNHDA2Pk2b3Uwn",
    "sick": 1
  },
  {
    "infected": 1,
    "recovered": 0,
    "latitude": 17.0608,
    "longitude": -61.7964,
    "name": "Antigua and Barbuda",
    "country": "AG",
    "dead": 0,
    "lastUpdated": "2020-03-14T10:53:03.756Z",
    "id": "7hVFcEV7nV0MrQr3LHrl",
    "sick": 1
  },
  {
    "latitude": 47.4979,
    "longitude": 19.0402,
    "name": "Hungary",
    "country": "HU",
    "dead": 0,
    "lastUpdated": "2020-03-14T10:53:03.673Z",
    "id": "7rYC2iFB50c55Ihgbs4Q",
    "infected": 25,
    "recovered": 1,
    "sick": 24
  },
  {
    "infected": 2,
    "recovered": 0,
    "latitude": 7.3697,
    "longitude": 12.3547,
    "name": "Cameroon",
    "country": "CM",
    "dead": 0,
    "lastUpdated": "2020-03-14T10:53:03.823Z",
    "id": "8C0d7WVCjyUGtnc2gUAR",
    "sick": 2
  },
  {
    "latitude": -16.2902,
    "longitude": -63.5887,
    "name": "Bolivia",
    "country": "BO",
    "dead": 0,
    "lastUpdated": "2020-03-14T10:53:03.654Z",
    "id": "8RihJrXw4NQXPxaRxr1u",
    "infected": 10,
    "recovered": 0,
    "sick": 10
  },
  {
    "longitude": -61.2872,
    "name": "St. Vincent Grenadines",
    "country": "VC",
    "dead": 0,
    "lastUpdated": "2020-03-14T10:53:03.767Z",
    "id": "8ZTySQROQejkDAad0qxQ",
    "infected": 1,
    "recovered": 0,
    "latitude": 12.9843,
    "sick": 1
  },
  {
    "latitude": 1.352083,
    "longitude": 103.819839,
    "name": "Singapore",
    "country": "SG",
    "dead": 0,
    "lastUpdated": "2020-03-14T10:53:03.524Z",
    "id": "8pA3fM4xC2c2wv1b4TnE",
    "infected": 200,
    "recovered": 97,
    "sick": 103
  },
  {
    "longitude": -1.5536,
    "name": "Pays de la Loire",
    "country": "FR",
    "dead": 0,
    "lastUpdated": "2020-03-13T21:25:02.391Z",
    "id": "98hwAoohgWEOQVa3NlM5",
    "infected": 56,
    "recovered": 4,
    "latitude": 47.2184,
    "sick": 52
  },
  {
    "id": "9DPOkpIqrFy9mR4e9fuv",
    "infected": 1,
    "recovered": 0,
    "latitude": 12.8628,
    "longitude": 30.2176,
    "name": "Sudan",
    "country": "SD",
    "dead": 1,
    "lastUpdated": "2020-03-14T10:53:03.775Z",
    "sick": 0
  },
  {
    "recovered": 7,
    "latitude": 45.943161,
    "longitude": 24.966761,
    "name": "Romania",
    "country": "RO",
    "dead": 0,
    "lastUpdated": "2020-03-14T10:53:03.597Z",
    "id": "9QcETqEcM2fTv9zRvx5T",
    "infected": 97,
    "sick": 90
  },
  {
    "dead": 0,
    "lastUpdated": "2020-03-14T10:53:03.569Z",
    "id": "9p6OCdZbUUwBLA60Gk3W",
    "infected": 156,
    "recovered": 1,
    "latitude": 61.92411,
    "longitude": 25.748152,
    "name": "Finland",
    "country": "FI",
    "sick": 155
  },
  {
    "longitude": -71.590315,
    "name": "New Hampshire",
    "country": "US",
    "dead": 0,
    "lastUpdated": "2020-03-14T10:58:04.058Z",
    "id": "A84CwQ52kA46Hr7pn6Bm",
    "infected": 6,
    "recovered": 0,
    "latitude": 43.311643,
    "sick": 6
  },
  {
    "latitude": 41.823261,
    "longitude": -71.412257,
    "name": "Rhode Island",
    "country": "US",
    "dead": 0,
    "lastUpdated": "2020-03-14T10:58:04.078Z",
    "id": "AEUWUHS65qvjEslew11c",
    "infected": 14,
    "recovered": 0,
    "sick": 14
  },
  {
    "infected": 1,
    "recovered": 0,
    "latitude": 47.012918,
    "longitude": -109.128641,
    "name": "Montana",
    "country": "US",
    "dead": 0,
    "lastUpdated": "2020-03-14T10:58:03.958Z",
    "id": "AcULcZBozObOhwuRKMjJ",
    "sick": 1
  },
  {
    "infected": 935,
    "recovered": 934,
    "latitude": 27.285971,
    "longitude": 116.01609,
    "name": "Jiangxi",
    "country": "CN",
    "dead": 1,
    "lastUpdated": "2020-03-14T03:23:05.074Z",
    "id": "AmBYm5J6E9Cuez1FQjiN",
    "sick": 0
  },
  {
    "infected": 37,
    "recovered": 10,
    "latitude": 28.033886,
    "longitude": 1.659626,
    "name": "Algeria",
    "country": "DZ",
    "dead": 3,
    "lastUpdated": "2020-03-14T10:53:03.581Z",
    "id": "AwN0CScPDApcLFgz6e3z",
    "sick": 24
  },
  {
    "longitude": 15.2,
    "name": "Croatia",
    "country": "HR",
    "dead": 0,
    "lastUpdated": "2020-03-14T10:53:03.543Z",
    "id": "B82Ef45M8cDu4q7VsSHF",
    "infected": 37,
    "recovered": 1,
    "latitude": 45.099998,
    "sick": 36
  },
  {
    "infected": 19,
    "recovered": 3,
    "latitude": 39.509109,
    "longitude": -76.98432,
    "name": "Maryland",
    "country": "US",
    "dead": 0,
    "lastUpdated": "2020-03-14T02:12:16.839Z",
    "id": "BF51mWl51fgEcyBpCSzb",
    "sick": 16
  },
  {
    "infected": 27,
    "recovered": 3,
    "latitude": 53.709808,
    "longitude": 27.953388,
    "name": "Belarus",
    "country": "BY",
    "dead": 0,
    "lastUpdated": "2020-03-14T10:53:03.542Z",
    "id": "BGg6yVU5VP71B8NXU0oh",
    "sick": 24
  },
  {
    "latitude": 48.8799,
    "longitude": 0.1713,
    "name": "Normandie",
    "country": "FR",
    "dead": 1,
    "lastUpdated": "2020-03-14T10:55:02.697Z",
    "id": "BGtoyzb7y54LVlJ91rbf",
    "infected": 97,
    "recovered": 0,
    "sick": 96
  },
  {
    "latitude": 34.048927,
    "longitude": -111.093735,
    "name": "Arizona",
    "country": "US",
    "dead": 0,
    "lastUpdated": "2020-03-14T10:58:03.980Z",
    "id": "BTEESCuD2ZbS1afunR2A",
    "infected": 9,
    "recovered": 1,
    "sick": 8
  },
  {
    "latitude": 40.719042,
    "longitude": -73.982597,
    "name": "New York",
    "country": "US",
    "dead": 0,
    "lastUpdated": "2020-03-14T10:58:04.029Z",
    "id": "C3BCUzV80z9GfiuByIcr",
    "infected": 421,
    "recovered": 0,
    "sick": 421
  },
  {
    "dead": 0,
    "lastUpdated": "2020-03-14T10:53:03.662Z",
    "id": "C6S76AggdWVU8G22jFHQ",
    "infected": 150,
    "recovered": 0,
    "latitude": 49.731626,
    "longitude": 15.359413,
    "name": "Czechia",
    "country": "CZ",
    "sick": 150
  },
  {
    "latitude": 26.0667,
    "longitude": 50.557701,
    "name": "Bahrain",
    "country": "BH",
    "dead": 0,
    "lastUpdated": "2020-03-14T10:53:03.682Z",
    "id": "C7cj4nwRITs13KnaJrQ2",
    "infected": 211,
    "recovered": 60,
    "sick": 151
  },
  {
    "infected": 3,
    "recovered": 1,
    "latitude": 27.0238,
    "longitude": 74.2179,
    "name": "Rajasthan",
    "country": "IN",
    "dead": 0,
    "lastUpdated": "2020-03-14T10:57:01.978Z",
    "id": "CKZCZTPlrcq5fbfUPA9k",
    "sick": 2
  },
  {
    "recovered": 18,
    "latitude": 52.355518,
    "longitude": -1.17432,
    "name": "United Kingdom",
    "country": "GB",
    "dead": 11,
    "lastUpdated": "2020-03-14T10:53:03.586Z",
    "id": "CrXu6i5Sqx11iwdfHfBs",
    "infected": 798,
    "sick": 769
  },
  {
    "id": "DCJCtZoBTWQ4mzdDNljD",
    "infected": 15,
    "recovered": 0,
    "latitude": 40.259003,
    "longitude": 44.818474,
    "name": "Armenia",
    "country": "AM",
    "dead": 0,
    "lastUpdated": "2020-03-14T10:53:03.665Z",
    "sick": 15
  },
  {
    "id": "DdBt8qsG6A3g92oOR3ow",
    "infected": 10,
    "recovered": 10,
    "latitude": 22.192039,
    "longitude": 113.551262,
    "name": "Macao",
    "country": "MO",
    "dead": 0,
    "lastUpdated": "2020-03-14T10:53:03.553Z",
    "sick": 0
  },
  {
    "id": "DrGzziUglmBognCGY7R2",
    "infected": 1,
    "recovered": 0,
    "latitude": 42.962334,
    "longitude": -107.534868,
    "name": "Wyoming",
    "country": "US",
    "dead": 0,
    "lastUpdated": "2020-03-14T10:58:04.015Z",
    "sick": 1
  },
  {
    "id": "Dtr1lap1RpJpXJdXGJiW",
    "infected": 190,
    "recovered": 2,
    "latitude": 40.6401,
    "longitude": 22.9444,
    "name": "Greece",
    "country": "GR",
    "dead": 3,
    "lastUpdated": "2020-03-14T10:53:03.541Z",
    "sick": 185
  },
  {
    "infected": 53,
    "recovered": 20,
    "latitude": 25.03841,
    "longitude": 121.563698,
    "name": "Taiwan",
    "country": "TW",
    "dead": 1,
    "lastUpdated": "2020-03-14T10:53:03.644Z",
    "id": "EKTfs8e7M6DXzI1HqyyX",
    "sick": 32
  },
  {
    "longitude": -84.387618,
    "name": "Costa Rica",
    "country": "CR",
    "dead": 0,
    "lastUpdated": "2020-03-14T10:53:03.627Z",
    "id": "EQzJvzVHKjs8kLmK7BMu",
    "infected": 26,
    "recovered": 0,
    "latitude": 10.327273,
    "sick": 26
  },
  {
    "infected": 10,
    "recovered": 0,
    "latitude": 33.93911,
    "longitude": 67.709953,
    "name": "Afghanistan",
    "country": "AF",
    "dead": 0,
    "lastUpdated": "2020-03-14T10:53:03.573Z",
    "id": "FCDmlmnIIswd8bQiUjfN",
    "sick": 10
  },
  {
    "dead": 6,
    "lastUpdated": "2020-03-14T03:22:45.751Z",
    "id": "FErOU1m4Tj7jIkRam3vF",
    "infected": 576,
    "recovered": 566,
    "latitude": 29.431585,
    "longitude": 106.912254,
    "name": "Chongqing",
    "country": "CN",
    "sick": 4
  },
  {
    "id": "FZsUkhxBEgqsPb4eO0PN",
    "infected": 100,
    "recovered": 5,
    "latitude": 29.311661,
    "longitude": 47.481766,
    "name": "Kuwait",
    "country": "KW",
    "dead": 0,
    "lastUpdated": "2020-03-14T10:53:03.575Z",
    "sick": 95
  },
  {
    "dead": 0,
    "lastUpdated": "2020-03-14T09:42:01.726Z",
    "id": "FeS45oMNC27pI17F0xEV",
    "infected": 1,
    "recovered": 1,
    "latitude": 11.1271,
    "longitude": 78.6569,
    "name": "Tamil Nadu",
    "country": "IN",
    "sick": 0
  },
  {
    "id": "FuiVEJvWb0QMCpxJ3563",
    "infected": 5,
    "recovered": 0,
    "latitude": 18.947829,
    "longitude": -70.430399,
    "name": "Dominican Republic",
    "country": "DO",
    "dead": 0,
    "lastUpdated": "2020-03-14T10:53:03.583Z",
    "sick": 5
  },
  {
    "latitude": 18.1124,
    "longitude": 79.0193,
    "name": "Telangana",
    "country": "IN",
    "dead": 0,
    "lastUpdated": "2020-03-14T10:57:01.999Z",
    "id": "FyC551oNwmENxbr9Yght",
    "infected": 1,
    "recovered": 0,
    "sick": 1
  },
  {
    "latitude": 48.669,
    "longitude": 19.699,
    "name": "Slovakia",
    "country": "SK",
    "dead": 0,
    "lastUpdated": "2020-03-14T10:53:03.694Z",
    "id": "FzIDXoqWnTI3nUfhPyT2",
    "infected": 32,
    "recovered": 0,
    "sick": 32
  },
  {
    "dead": 0,
    "lastUpdated": "2020-03-14T10:53:03.532Z",
    "id": "GAp7Wb6IMhdgbvEtMza9",
    "infected": 28,
    "recovered": 2,
    "latitude": 30.37532,
    "longitude": 69.345116,
    "name": "Pakistan",
    "country": "PK",
    "sick": 26
  },
  {
    "latitude": 31.1471,
    "longitude": 75.3412,
    "name": "Punjab",
    "country": "IN",
    "dead": 0,
    "lastUpdated": "2020-03-14T10:57:02.006Z",
    "id": "GGru8cG08mANO8XDDUtZ",
    "infected": 1,
    "recovered": 0,
    "sick": 1
  },
  {
    "latitude": 23.424076,
    "longitude": 53.847816,
    "name": "United Arab Emirates",
    "country": "AE",
    "dead": 0,
    "lastUpdated": "2020-03-14T10:53:03.535Z",
    "id": "GHzBIsHy2GiBc5JV2HMs",
    "infected": 85,
    "recovered": 20,
    "sick": 65
  },
  {
    "infected": 247,
    "recovered": 6,
    "latitude": 36.621981,
    "longitude": -119.339046,
    "name": "California",
    "country": "US",
    "dead": 5,
    "lastUpdated": "2020-03-14T10:58:03.969Z",
    "id": "Gh46r6vuaY7fbGt3IboN",
    "sick": 236
  },
  {
    "dead": 0,
    "lastUpdated": "2020-03-14T10:58:04.115Z",
    "id": "GpF8ULuKOQiFDCUHN44h",
    "infected": 3,
    "recovered": 0,
    "latitude": 35.87189,
    "longitude": -97.145514,
    "name": "Oklahoma",
    "country": "US",
    "sick": 3
  },
  {
    "longitude": 113.750972,
    "name": "Inner Mongolia",
    "country": "CN",
    "dead": 1,
    "lastUpdated": "2020-03-14T03:25:57.591Z",
    "id": "H3JeVigVbo5CSYfZG4WI",
    "infected": 75,
    "recovered": 71,
    "latitude": 42.83263,
    "sick": 3
  },
  {
    "latitude": 39.74536,
    "longitude": -116.724977,
    "name": "Nevada",
    "country": "US",
    "dead": 0,
    "lastUpdated": "2020-03-14T10:58:04.125Z",
    "id": "H3bDg4eV30up4WWrIDAS",
    "infected": 11,
    "recovered": 0,
    "sick": 11
  },
  {
    "infected": 6,
    "recovered": 0,
    "latitude": 15.3173,
    "longitude": 75.7139,
    "name": "Karnataka",
    "country": "IN",
    "dead": 1,
    "lastUpdated": "2020-03-14T10:57:02.029Z",
    "id": "HN5mGmxlqlSeFSNeu1K5",
    "sick": 5
  },
  {
    "latitude": 27.5142,
    "longitude": 90.4336,
    "name": "Bhutan",
    "country": "BT",
    "dead": 0,
    "lastUpdated": "2020-03-14T10:53:03.789Z",
    "id": "HRDpwyxpqW9RN0xLFyNu",
    "infected": 1,
    "recovered": 0,
    "sick": 1
  },
  {
    "id": "HSSFomRju0doHhWgW8On",
    "infected": 5,
    "recovered": 0,
    "latitude": 34.138916,
    "longitude": -105.576255,
    "name": "New Mexico",
    "country": "US",
    "dead": 0,
    "lastUpdated": "2020-03-14T10:58:04.112Z",
    "sick": 5
  },
  {
    "recovered": 4,
    "latitude": 23.634501,
    "longitude": -102.552788,
    "name": "Mexico",
    "country": "MX",
    "dead": 0,
    "lastUpdated": "2020-03-14T03:38:03.105Z",
    "id": "I4OJ6z9Vjs1byOcbsJrd",
    "infected": 26,
    "sick": 22
  },
  {
    "longitude": 113.373448,
    "name": "Guangdong",
    "country": "CN",
    "dead": 8,
    "lastUpdated": "2020-03-14T03:22:54.831Z",
    "id": "IAX0OQLVnUwU7FX0ENF1",
    "infected": 1356,
    "recovered": 1299,
    "latitude": 23.363855,
    "sick": 49
  },
  {
    "latitude": 33.875408,
    "longitude": 113.484016,
    "name": "Henan",
    "country": "CN",
    "dead": 22,
    "lastUpdated": "2020-03-14T03:22:37.151Z",
    "id": "IFuMrMvSjoiX5agYvllh",
    "infected": 1273,
    "recovered": 1249,
    "sick": 2
  },
  {
    "longitude": -83.280125,
    "name": "Georgia (US)",
    "country": "US",
    "dead": 1,
    "lastUpdated": "2020-03-14T10:58:04.023Z",
    "id": "IvQkDJkTAsoIqPRAU25n",
    "infected": 31,
    "recovered": 0,
    "latitude": 32.528564,
    "sick": 30
  },
  {
    "latitude": -42.8285,
    "longitude": 172.488081,
    "name": "New Zealand",
    "country": "NZ",
    "dead": 0,
    "lastUpdated": "2020-03-14T10:53:03.647Z",
    "id": "IvVhpOoGpH6JVkGyUhXN",
    "infected": 6,
    "recovered": 0,
    "sick": 6
  },
  {
    "dead": 0,
    "lastUpdated": "2020-03-14T10:53:03.786Z",
    "id": "J3mZXlfEnnJx4CDZLvRG",
    "infected": 2,
    "recovered": 0,
    "latitude": 6.4238,
    "longitude": -66.5897,
    "name": "Venezuela",
    "country": "VE",
    "sick": 2
  },
  {
    "latitude": 35.1264,
    "longitude": 33.4299,
    "name": "Cyprus",
    "country": "CY",
    "dead": 0,
    "lastUpdated": "2020-03-14T10:53:03.521Z",
    "id": "JQByE4l2OA6sGOqIcWrM",
    "infected": 21,
    "recovered": 0,
    "sick": 21
  },
  {
    "latitude": 49.8153,
    "longitude": 6.1296,
    "name": "Luxembourg",
    "country": "LU",
    "dead": 1,
    "lastUpdated": "2020-03-14T10:53:03.641Z",
    "id": "JcFsHSn2WvZ5LJW42ovG",
    "infected": 38,
    "recovered": 0,
    "sick": 37
  },
  {
    "infected": 1,
    "recovered": 0,
    "latitude": 8.6195,
    "longitude": 0.8248,
    "name": "Togo",
    "country": "TG",
    "dead": 0,
    "lastUpdated": "2020-03-14T10:53:03.762Z",
    "id": "JrBbirlBKGdWSdcDt7PF",
    "sick": 1
  },
  {
    "latitude": 42.7339,
    "longitude": 25.4858,
    "name": "Bulgaria",
    "country": "BG",
    "dead": 2,
    "lastUpdated": "2020-03-14T10:53:03.562Z",
    "id": "JzZ8sbqzjutThVjkPKPL",
    "infected": 31,
    "recovered": 0,
    "sick": 29
  },
  {
    "infected": 8,
    "recovered": 1,
    "latitude": 7.873054,
    "longitude": 80.771797,
    "name": "Sri Lanka",
    "country": "LK",
    "dead": 0,
    "lastUpdated": "2020-03-14T10:53:03.559Z",
    "id": "KsWzJO06cf0d6LJ4ZNh9",
    "sick": 7
  },
  {
    "infected": 1,
    "recovered": 0,
    "latitude": 15.9129,
    "longitude": 79.74,
    "name": "Andhra Pradesh",
    "country": "IN",
    "dead": 0,
    "lastUpdated": "2020-03-14T10:57:01.989Z",
    "id": "KtQIo2DoqjELtPAlyDVO",
    "sick": 1
  },
  {
    "recovered": 8,
    "latitude": 61.52401,
    "longitude": 105.318756,
    "name": "Russia",
    "country": "RU",
    "dead": 0,
    "lastUpdated": "2020-03-14T10:53:03.637Z",
    "id": "KwOuGBKSMRlmwftxAvLX",
    "infected": 45,
    "sick": 37
  },
  {
    "latitude": 18.0708,
    "longitude": -63.0501,
    "name": "Saint-Martin",
    "country": "FR",
    "dead": 0,
    "lastUpdated": "2020-03-14T10:55:02.714Z",
    "id": "LBUtrLDKJiupXjlUNTUe",
    "infected": 2,
    "recovered": 0,
    "sick": 2
  },
  {
    "dead": 0,
    "lastUpdated": "2020-03-14T10:53:03.676Z",
    "id": "LTGEU2E9MFkrCcFhZYVk",
    "infected": 4,
    "recovered": 0,
    "latitude": 47.166,
    "longitude": 9.5554,
    "name": "Liechtenstein",
    "country": "LI",
    "sick": 4
  },
  {
    "latitude": 9.9456,
    "longitude": -9.6966,
    "name": "Guinea",
    "country": "GN",
    "dead": 0,
    "lastUpdated": "2020-03-14T10:53:03.791Z",
    "id": "LU2QWt5ao8IJa8evNYVV",
    "infected": 1,
    "recovered": 0,
    "sick": 1
  },
  {
    "id": "LkIDKY0CMAqzbwBHyYCP",
    "infected": 2,
    "recovered": 0,
    "latitude": 52.9399,
    "longitude": -106.4509,
    "name": "Saskatchewan",
    "country": "CA",
    "dead": 0,
    "lastUpdated": "2020-03-14T03:27:13.767Z",
    "sick": 2
  },
  {
    "latitude": 37.8393,
    "longitude": -84.27,
    "name": "Kentucky",
    "country": "US",
    "dead": 0,
    "lastUpdated": "2020-03-14T10:58:04.122Z",
    "id": "MC8MXFw9iXYybnF8v7e6",
    "infected": 10,
    "recovered": 0,
    "sick": 10
  },
  {
    "infected": 13,
    "recovered": 0,
    "latitude": 40.2672,
    "longitude": -86.1349,
    "name": "Indiana",
    "country": "US",
    "dead": 0,
    "lastUpdated": "2020-03-14T10:58:04.037Z",
    "id": "MOxDkmQ4wBi1CuAdVxDE",
    "sick": 13
  },
  {
    "dead": 0,
    "lastUpdated": "2020-03-14T10:53:03.753Z",
    "id": "MdQOfc1gNh2DOqwSP6UV",
    "infected": 1,
    "recovered": 0,
    "latitude": 7.54,
    "longitude": -5.5471,
    "name": "Ivory Coast",
    "country": "CI",
    "sick": 1
  },
  {
    "latitude": 37.330509,
    "longitude": 105.977203,
    "name": "Ningxia",
    "country": "CN",
    "dead": 0,
    "lastUpdated": "2020-03-14T03:26:13.621Z",
    "id": "MntmjjuHljarCdt6aIeE",
    "infected": 75,
    "recovered": 72,
    "sick": 3
  },
  {
    "infected": 18,
    "recovered": 0,
    "latitude": 44.696652,
    "longitude": 17.824332,
    "name": "Bosnia and Herzegovina",
    "country": "BA",
    "dead": 0,
    "lastUpdated": "2020-03-14T10:53:03.567Z",
    "id": "N7c13sCQF0G789XAVazJ",
    "sick": 18
  },
  {
    "latitude": 37.242565,
    "longitude": 111.856857,
    "name": "Shanxi",
    "country": "CN",
    "dead": 0,
    "lastUpdated": "2020-03-14T03:25:49.301Z",
    "id": "NBRIGIRrJB1Ry8prDNAC",
    "infected": 133,
    "recovered": 133,
    "sick": 0
  },
  {
    "infected": 17,
    "recovered": 0,
    "latitude": 35.7596,
    "longitude": -79.0193,
    "name": "North Carolina",
    "country": "US",
    "dead": 0,
    "lastUpdated": "2020-03-14T10:58:03.992Z",
    "id": "NC64Qp5kTqAfiTuR27k8",
    "sick": 17
  },
  {
    "dead": 0,
    "lastUpdated": "2020-03-14T10:53:03.691Z",
    "id": "NmmMKy0YqA8StHdGzB5N",
    "infected": 26,
    "recovered": 1,
    "latitude": 56.96776,
    "longitude": 25.837107,
    "name": "Latvia",
    "country": "LV",
    "sick": 25
  },
  {
    "dead": 0,
    "lastUpdated": "2020-03-14T10:58:04.043Z",
    "id": "ONU4CK8QjViFHKg2w5if",
    "infected": 12,
    "recovered": 0,
    "latitude": 34.003307,
    "longitude": -80.525613,
    "name": "South Carolina",
    "country": "US",
    "sick": 12
  },
  {
    "infected": 3,
    "recovered": 0,
    "latitude": 33.51822,
    "longitude": -89.582775,
    "name": "Mississippi",
    "country": "US",
    "dead": 0,
    "lastUpdated": "2020-03-14T10:58:04.113Z",
    "id": "OYa0jFzdbAgo8zUsRv6q",
    "sick": 3
  },
  {
    "latitude": 45.2538,
    "longitude": -69.4455,
    "name": "Maine",
    "country": "US",
    "dead": 0,
    "lastUpdated": "2020-03-14T10:58:04.127Z",
    "id": "OcXNp9kNVSwrRlG3bNVN",
    "infected": 3,
    "recovered": 0,
    "sick": 3
  },
  {
    "longitude": 146.725256,
    "name": "Tasmania",
    "country": "AU",
    "dead": 0,
    "lastUpdated": "2020-03-14T03:28:13.452Z",
    "id": "OnOseaqWdnuP18oruABW",
    "infected": 5,
    "recovered": 0,
    "latitude": -41.915264,
    "sick": 5
  },
  {
    "infected": 1,
    "recovered": 0,
    "latitude": 19.3133,
    "longitude": -81.2546,
    "name": "Cayman Islands",
    "country": "KY",
    "dead": 0,
    "lastUpdated": "2020-03-14T10:53:03.771Z",
    "id": "P4mwRFLbrvT0t75uD8Wo",
    "sick": 1
  },
  {
    "infected": 14,
    "recovered": 0,
    "latitude": 46.7296,
    "longitude": -94.6859,
    "name": "Minnesota",
    "country": "US",
    "dead": 0,
    "lastUpdated": "2020-03-14T10:58:04.005Z",
    "id": "PJvVYosLIhbcRZYnKX1R",
    "sick": 14
  },
  {
    "dead": 0,
    "lastUpdated": "2020-03-14T10:58:04.009Z",
    "id": "PTwQr9ijo0TBBsPH2sdJ",
    "infected": 32,
    "recovered": 2,
    "latitude": 40.6331,
    "longitude": -89.3985,
    "name": "Illinois",
    "country": "US",
    "sick": 30
  },
  {
    "id": "Pr76V4raf108uSRoEXac",
    "infected": 16,
    "recovered": 0,
    "latitude": 34.201507,
    "longitude": 9.460554,
    "name": "Tunisia",
    "country": "TN",
    "dead": 0,
    "lastUpdated": "2020-03-14T10:53:03.585Z",
    "sick": 16
  },
  {
    "recovered": 0,
    "latitude": -19.810776,
    "longitude": 133.639248,
    "name": "Northern Australia",
    "country": "AU",
    "dead": 0,
    "lastUpdated": "2020-03-14T03:28:27.659Z",
    "id": "PxDu1tj8voGfRMpDyOWK",
    "infected": 1,
    "sick": 1
  },
  {
    "infected": 36,
    "recovered": 8,
    "latitude": -37.009609,
    "longitude": 143.94853,
    "name": "Victoria",
    "country": "AU",
    "dead": 0,
    "lastUpdated": "2020-03-14T03:27:47.543Z",
    "id": "Q18mrGvFWTLX2BU9SqhQ",
    "sick": 28
  },
  {
    "dead": 0,
    "lastUpdated": "2020-03-14T10:53:03.525Z",
    "id": "QR9go2hQKXjty7JHUYe4",
    "infected": 109,
    "recovered": 0,
    "latitude": 58.595272,
    "longitude": 25.013607,
    "name": "Estonia",
    "country": "EE",
    "sick": 109
  },
  {
    "id": "R8YCgephnxTufvcPWMgx",
    "infected": 36,
    "recovered": 0,
    "latitude": 8.538,
    "longitude": -80.7821,
    "name": "Panama",
    "country": "PA",
    "dead": 1,
    "lastUpdated": "2020-03-14T10:53:03.547Z",
    "sick": 35
  },
  {
    "id": "RA2SE0p2bVhqo0P2hzGY",
    "infected": 2,
    "recovered": 0,
    "latitude": 15.2,
    "longitude": -86.2419,
    "name": "Honduras",
    "country": "HN",
    "dead": 0,
    "lastUpdated": "2020-03-14T10:53:03.781Z",
    "sick": 2
  },
  {
    "longitude": -93.0977,
    "name": "Iowa",
    "country": "US",
    "dead": 0,
    "lastUpdated": "2020-03-14T10:58:04.123Z",
    "id": "RX0KDu1AFrlCsrRso0nb",
    "infected": 16,
    "recovered": 0,
    "latitude": 41.878,
    "sick": 16
  },
  {
    "longitude": -98.4842,
    "name": "Kansas",
    "country": "US",
    "dead": 1,
    "lastUpdated": "2020-03-14T10:58:03.994Z",
    "id": "Rf4uvBfP3GRDSHdZElRd",
    "infected": 6,
    "recovered": 0,
    "latitude": 39.0119,
    "sick": 5
  },
  {
    "infected": 911,
    "recovered": 0,
    "latitude": 48.6998,
    "longitude": 6.1878,
    "name": "Grand Est",
    "country": "FR",
    "dead": 9,
    "lastUpdated": "2020-03-14T10:55:02.718Z",
    "id": "RmEgf1xeclWt7XCF9oiR",
    "sick": 902
  },
  {
    "longitude": -85.3232,
    "name": "Ontario",
    "country": "CA",
    "dead": 0,
    "lastUpdated": "2020-03-14T03:26:49.843Z",
    "id": "Rx4TuyMpfGb3S8wYJX0x",
    "infected": 74,
    "recovered": 4,
    "latitude": 51.2538,
    "sick": 70
  },
  {
    "dead": 0,
    "lastUpdated": "2020-03-14T10:55:02.732Z",
    "id": "SDdefnq1bc3ZNr7SpEsW",
    "infected": 6,
    "recovered": 0,
    "latitude": 14.652027,
    "longitude": -61.011715,
    "name": "Martinique",
    "country": "FR",
    "sick": 6
  },
  {
    "longitude": -1.0232,
    "name": "Ghana",
    "country": "GH",
    "dead": 0,
    "lastUpdated": "2020-03-14T10:53:03.768Z",
    "id": "SG9VWLOV3x2JsTkXmVSz",
    "infected": 2,
    "recovered": 0,
    "latitude": 7.9465,
    "sick": 2
  },
  {
    "latitude": 46.818188,
    "longitude": 8.227512,
    "name": "Switzerland",
    "country": "CH",
    "dead": 11,
    "lastUpdated": "2020-03-14T10:53:03.555Z",
    "id": "SGe9sCPayMqh6RsGFaBA",
    "infected": 1373,
    "recovered": 4,
    "sick": 1358
  },
  {
    "dead": 0,
    "lastUpdated": "2020-03-14T03:26:59.009Z",
    "id": "SHoOE3NiJgWAlDVBzwYH",
    "infected": 17,
    "recovered": 0,
    "latitude": 46.8139,
    "longitude": -71.208,
    "name": "Quebec",
    "country": "CA",
    "sick": 17
  },
  {
    "dead": 0,
    "lastUpdated": "2020-03-14T10:58:03.978Z",
    "id": "SakhKQzKu1LRI8laqdQq",
    "infected": 13,
    "recovered": 0,
    "latitude": 41.4925,
    "longitude": -99.9018,
    "name": "Nebraska",
    "country": "US",
    "sick": 13
  },
  {
    "latitude": -21.1151,
    "longitude": 55.5364,
    "name": "La Réunion",
    "country": "FR",
    "dead": 0,
    "lastUpdated": "2020-03-14T10:55:02.722Z",
    "id": "SgHzWAAYK1j2sipovxM6",
    "infected": 5,
    "recovered": 0,
    "sick": 5
  },
  {
    "dead": 0,
    "lastUpdated": "2020-03-14T10:53:03.667Z",
    "id": "SioMALgUbo7peXmbco2f",
    "infected": 7,
    "recovered": 1,
    "latitude": 12.565679,
    "longitude": 104.990967,
    "name": "Cambodia",
    "country": "KH",
    "sick": 6
  },
  {
    "dead": 0,
    "lastUpdated": "2020-03-14T10:53:03.778Z",
    "id": "T3iRf8mTUTAzbKrORTap",
    "infected": 2,
    "recovered": 0,
    "latitude": -4.0383,
    "longitude": 21.7587,
    "name": "DR Congo",
    "country": "CD",
    "sick": 2
  },
  {
    "infected": 86,
    "recovered": 1,
    "latitude": 23.635796,
    "longitude": 44.344334,
    "name": "Saudi Arabia",
    "country": "SA",
    "dead": 0,
    "lastUpdated": "2020-03-14T10:53:03.591Z",
    "id": "T7NffoeCgTUpAbOHvYwP",
    "sick": 85
  },
  {
    "latitude": 4.506106,
    "longitude": 114.650692,
    "name": "Brunei",
    "country": "BN",
    "dead": 0,
    "lastUpdated": "2020-03-14T10:53:03.609Z",
    "id": "TQZmzsLhJqjtCSExAkCP",
    "infected": 37,
    "recovered": 0,
    "sick": 37
  },
  {
    "latitude": 45.4471,
    "longitude": 4.3853,
    "name": "Auvergne-Rhône-Alpes",
    "country": "FR",
    "dead": 7,
    "lastUpdated": "2020-03-14T10:55:02.712Z",
    "id": "TT0MKODSjrxHvG19xZCa",
    "infected": 416,
    "recovered": 8,
    "sick": 401
  },
  {
    "infected": 49,
    "recovered": 0,
    "latitude": 39.318928,
    "longitude": -105.461392,
    "name": "Colorado",
    "country": "US",
    "dead": 0,
    "lastUpdated": "2020-03-14T10:58:04.066Z",
    "id": "Th4dlpXXmSDgi1OHs36P",
    "sick": 49
  },
  {
    "longitude": -1.5616,
    "name": "Burkina Faso",
    "country": "BF",
    "dead": 0,
    "lastUpdated": "2020-03-14T10:53:03.630Z",
    "id": "Tup6oDCHj6DgqZR3nQ3x",
    "infected": 2,
    "recovered": 0,
    "latitude": 12.2383,
    "sick": 2
  },
  {
    "recovered": 1,
    "latitude": 55.675758,
    "longitude": 12.56902,
    "name": "Denmark",
    "country": "DK",
    "dead": 0,
    "lastUpdated": "2020-03-14T10:53:03.540Z",
    "id": "Ty1AY3VLPJcRZgdBIERx",
    "infected": 827,
    "sick": 826
  },
  {
    "infected": 760,
    "recovered": 740,
    "latitude": 36.395859,
    "longitude": 118.769882,
    "name": "Shandong",
    "country": "CN",
    "dead": 6,
    "lastUpdated": "2020-03-14T03:25:25.060Z",
    "id": "U0tkTJ9CGsBuFJ2Gdoum",
    "sick": 14
  },
  {
    "dead": 5,
    "lastUpdated": "2020-03-14T10:53:03.533Z",
    "id": "U12rMD5GDW58Q0lIwrB1",
    "infected": 80,
    "recovered": 2,
    "latitude": 43.94236,
    "longitude": 12.457777,
    "name": "San Marino",
    "country": "SM",
    "sick": 73
  },
  {
    "dead": 21,
    "lastUpdated": "2020-03-14T10:53:03.560Z",
    "id": "U13Gy4BpRLAZ95bPmBXd",
    "infected": 738,
    "recovered": 118,
    "latitude": 36.204823,
    "longitude": 138.25293,
    "name": "Japan",
    "country": "JP",
    "sick": 599
  },
  {
    "infected": 155,
    "recovered": 0,
    "latitude": 48.202,
    "longitude": -2.9326,
    "name": "Bretagne",
    "country": "FR",
    "dead": 3,
    "lastUpdated": "2020-03-14T10:55:02.730Z",
    "id": "URKMlJ7OTNldjpaxFbjE",
    "sick": 152
  },
  {
    "dead": 0,
    "lastUpdated": "2020-03-14T10:53:03.545Z",
    "id": "VAAmtxtDuCY0o55zRsOh",
    "infected": 16,
    "recovered": 0,
    "latitude": 3.527606,
    "longitude": -72.998674,
    "name": "Colombia",
    "country": "CO",
    "sick": 16
  },
  {
    "dead": 0,
    "lastUpdated": "2020-03-14T10:53:03.604Z",
    "id": "VAG9AcMABTf8oIAfELPh",
    "infected": 4,
    "recovered": 0,
    "latitude": 21.5218,
    "longitude": -77.7812,
    "name": "Cuba",
    "country": "CU",
    "sick": 4
  },
  {
    "infected": 174,
    "recovered": 170,
    "latitude": 25.181129,
    "longitude": 101.864143,
    "name": "Yunnan",
    "country": "CN",
    "dead": 2,
    "lastUpdated": "2020-03-14T03:23:52.748Z",
    "id": "VIf8T8PD3ZzlzAm5eBCX",
    "sick": 2
  },
  {
    "latitude": 26.8467,
    "longitude": 80.9462,
    "name": "Uttar Pradesh",
    "country": "IN",
    "dead": 0,
    "lastUpdated": "2020-03-14T10:57:01.972Z",
    "id": "VcKcLdCkC6YpPfIDnRVD",
    "infected": 12,
    "recovered": 5,
    "sick": 7
  },
  {
    "longitude": 3.2828,
    "name": "Occitanie",
    "country": "FR",
    "dead": 0,
    "lastUpdated": "2020-03-14T10:55:02.688Z",
    "id": "WAnbFrEjtZDTCIYBt8rz",
    "infected": 172,
    "recovered": 0,
    "latitude": 43.8927,
    "sick": 172
  },
  {
    "infected": 24,
    "recovered": 0,
    "latitude": -30.5595,
    "longitude": 22.9375,
    "name": "South Africa",
    "country": "ZA",
    "dead": 0,
    "lastUpdated": "2020-03-14T10:53:03.599Z",
    "id": "Whrue10NtwIObLvFFyBr",
    "sick": 24
  },
  {
    "infected": 3,
    "recovered": 2,
    "latitude": 23.685,
    "longitude": 90.3563,
    "name": "Bangladesh",
    "country": "BD",
    "dead": 0,
    "lastUpdated": "2020-03-14T10:53:03.743Z",
    "id": "WpLayPPLIJ7VcHZdQaoM",
    "sick": 1
  },
  {
    "infected": 3,
    "recovered": 0,
    "latitude": 34.2996,
    "longitude": 78.2932,
    "name": "Ladakh",
    "country": "IN",
    "dead": 0,
    "lastUpdated": "2020-03-14T10:57:01.960Z",
    "id": "X3PZqaJxtnlxcgP4tzya",
    "sick": 3
  },
  {
    "latitude": 25.92448,
    "longitude": 118.278992,
    "name": "Fujian",
    "country": "CN",
    "dead": 1,
    "lastUpdated": "2020-03-14T03:23:12.440Z",
    "id": "XBBw0iMPrmiEu3qogkbi",
    "infected": 296,
    "recovered": 295,
    "sick": 0
  },
  {
    "infected": 3675,
    "recovered": 46,
    "latitude": 51.165691,
    "longitude": 10.451526,
    "name": "Germany",
    "country": "DE",
    "dead": 8,
    "lastUpdated": "2020-03-14T10:53:03.578Z",
    "id": "XWtMdKtp2HAFy68kPZLa",
    "sick": 3621
  },
  {
    "latitude": 41.871941,
    "longitude": 12.56738,
    "name": "Italy",
    "country": "IT",
    "dead": 1266,
    "lastUpdated": "2020-03-14T10:53:03.546Z",
    "id": "XdekMZcw1lJK2MWpBlNK",
    "infected": 17660,
    "recovered": 1439,
    "sick": 14955
  },
  {
    "dead": 5,
    "lastUpdated": "2020-03-14T10:55:02.685Z",
    "id": "YGXgIObKVabP2CYEdcb9",
    "infected": 85,
    "recovered": 0,
    "latitude": 42.0396,
    "longitude": 9.0129,
    "name": "Corse",
    "country": "FR",
    "sick": 80
  },
  {
    "dead": 0,
    "lastUpdated": "2020-03-14T10:53:03.607Z",
    "id": "YMzKw0SnXG71VT7H1jff",
    "infected": 35,
    "recovered": 0,
    "latitude": 31.9522,
    "longitude": 35.2332,
    "name": "Palestine",
    "country": "PS",
    "sick": 35
  },
  {
    "latitude": 64.2008,
    "longitude": -149.4937,
    "name": "Alaska",
    "country": "US",
    "dead": 0,
    "lastUpdated": "2020-03-14T10:58:04.001Z",
    "id": "YaCODTMD1KKRnrAlkg2u",
    "infected": 1,
    "recovered": 0,
    "sick": 1
  },
  {
    "latitude": 37.568291,
    "longitude": 126.99778,
    "name": "South Korea",
    "country": "KR",
    "dead": 72,
    "lastUpdated": "2020-03-14T10:53:03.498Z",
    "id": "Yw9uBekNlefXBcOCNMfP",
    "infected": 8086,
    "recovered": 714,
    "sick": 7300
  },
  {
    "infected": 84,
    "recovered": 0,
    "latitude": 52.2297,
    "longitude": 21.0122,
    "name": "Poland",
    "country": "PL",
    "dead": 2,
    "lastUpdated": "2020-03-14T10:53:03.683Z",
    "id": "ZAZNuCK1VweBaTLCFzCk",
    "sick": 82
  },
  {
    "infected": 6,
    "recovered": 0,
    "latitude": 41.6032,
    "longitude": -73.0877,
    "name": "Connecticut",
    "country": "US",
    "dead": 0,
    "lastUpdated": "2020-03-14T10:58:03.965Z",
    "id": "Zqy0gftQzocR49jEJNMl",
    "sick": 6
  },
  {
    "latitude": -30.000233,
    "longitude": 136.209152,
    "name": "South Australia",
    "country": "AU",
    "dead": 0,
    "lastUpdated": "2020-03-14T03:28:01.540Z",
    "id": "a9p9pAOsjg1WAjPGc2a6",
    "infected": 16,
    "recovered": 3,
    "sick": 13
  },
  {
    "latitude": 37.9643,
    "longitude": -91.8318,
    "name": "Missouri",
    "country": "US",
    "dead": 0,
    "lastUpdated": "2020-03-14T10:58:04.105Z",
    "id": "aPubGfQ8ToSEuKJldKRT",
    "infected": 2,
    "recovered": 0,
    "sick": 2
  },
  {
    "infected": 256,
    "recovered": 243,
    "latitude": 23.64407,
    "longitude": 108.26651,
    "name": "Guangxi",
    "country": "CN",
    "dead": 2,
    "lastUpdated": "2020-03-14T03:23:45.592Z",
    "id": "aTa8MiBjtH3iY0SRs2HQ",
    "sick": 11
  },
  {
    "dead": 0,
    "lastUpdated": "2020-03-14T10:58:04.091Z",
    "id": "afeZTVC1J1SMMNFxkrcc",
    "infected": 30,
    "recovered": 0,
    "latitude": 37.4316,
    "longitude": -78.6569,
    "name": "Virginia",
    "country": "US",
    "sick": 30
  },
  {
    "longitude": 116.407394,
    "name": "Beijing",
    "country": "CN",
    "dead": 8,
    "lastUpdated": "2020-03-14T03:24:16.513Z",
    "id": "alj4hkxg9cjrTxOzwFKt",
    "infected": 437,
    "recovered": 349,
    "latitude": 39.904202,
    "sick": 80
  },
  {
    "infected": 101,
    "recovered": 24,
    "latitude": 33.22319,
    "longitude": 43.679291,
    "name": "Iraq",
    "country": "IQ",
    "dead": 9,
    "lastUpdated": "2020-03-14T10:53:03.556Z",
    "id": "b7TwXX46FA0EmH1CjHET",
    "sick": 68
  },
  {
    "recovered": 2,
    "latitude": 14.457474,
    "longitude": -14.358636,
    "name": "Senegal",
    "country": "SN",
    "dead": 0,
    "lastUpdated": "2020-03-14T10:53:03.623Z",
    "id": "b9p1JhVml3GGC7iiPmKv",
    "infected": 21,
    "sick": 19
  },
  {
    "latitude": -0.0236,
    "longitude": 37.9062,
    "name": "Kenya",
    "country": "KE",
    "dead": 0,
    "lastUpdated": "2020-03-14T10:53:03.773Z",
    "id": "bVHiTolbUJGHIeVht3eG",
    "infected": 1,
    "recovered": 0,
    "sick": 1
  },
  {
    "infected": 50,
    "recovered": 0,
    "latitude": 39.561889,
    "longitude": -74.672169,
    "name": "New Jersey",
    "country": "US",
    "dead": 1,
    "lastUpdated": "2020-03-14T10:58:04.108Z",
    "id": "bYp4RRHv19M7lYtSzQeV",
    "sick": 49
  },
  {
    "dead": 0,
    "lastUpdated": "2020-03-14T10:53:03.572Z",
    "id": "bdqD4kpdqGgUaX70Tm2Q",
    "infected": 197,
    "recovered": 32,
    "latitude": 3.139,
    "longitude": 101.6869,
    "name": "Malaysia",
    "country": "MY",
    "sick": 165
  },
  {
    "dead": 2,
    "lastUpdated": "2020-03-14T10:53:03.519Z",
    "id": "bignnyt2A8BBx8VNo32p",
    "infected": 821,
    "recovered": 1,
    "latitude": 60.128162,
    "longitude": 18.643501,
    "name": "Sweden",
    "country": "SE",
    "sick": 818
  },
  {
    "latitude": 40.973765,
    "longitude": 20.010162,
    "name": "Albania",
    "country": "AL",
    "dead": 1,
    "lastUpdated": "2020-03-14T10:53:03.522Z",
    "id": "cCGmFmwHOoBrEpvG3qBP",
    "infected": 33,
    "recovered": 0,
    "sick": 32
  },
  {
    "recovered": 0,
    "latitude": 46.8625,
    "longitude": 103.8467,
    "name": "Mongolia",
    "country": "MN",
    "dead": 0,
    "lastUpdated": "2020-03-14T10:53:03.790Z",
    "id": "cPxONYsVo6BgvCW9HUeQ",
    "infected": 1,
    "sick": 1
  },
  {
    "infected": 138,
    "recovered": 0,
    "latitude": 64.963051,
    "longitude": -19.020836,
    "name": "Iceland",
    "country": "IS",
    "dead": 0,
    "lastUpdated": "2020-03-14T10:53:03.625Z",
    "id": "cPxe7nsRnOf6aOPqHElJ",
    "sick": 138
  },
  {
    "infected": 154,
    "recovered": 4,
    "latitude": 31.046051,
    "longitude": 34.851612,
    "name": "Israel",
    "country": "IL",
    "dead": 0,
    "lastUpdated": "2020-03-14T10:53:03.617Z",
    "id": "cX891t0ONLNFj0MYq6La",
    "sick": 150
  },
  {
    "infected": 6,
    "recovered": 0,
    "latitude": 4.749531,
    "longitude": -53.112909,
    "name": "Guyane",
    "country": "FR",
    "dead": 0,
    "lastUpdated": "2020-03-14T10:55:02.752Z",
    "id": "cc7s6hYGQ2MovBBBgkKb",
    "sick": 6
  },
  {
    "dead": 0,
    "lastUpdated": "2020-03-14T10:53:03.639Z",
    "id": "cgzd5EM8PZv5ziJtTz1w",
    "infected": 9,
    "recovered": 0,
    "latitude": 61.8926,
    "longitude": -6.9118,
    "name": "Faeroe Islands",
    "country": "FO",
    "sick": 9
  },
  {
    "infected": 22,
    "recovered": 0,
    "latitude": 41.2033,
    "longitude": -77.1945,
    "name": "Pennsylvania",
    "country": "US",
    "dead": 0,
    "lastUpdated": "2020-03-14T10:58:04.033Z",
    "id": "chj2FF3zb4Xxcop9RHre",
    "sick": 22
  },
  {
    "longitude": 0.6269,
    "name": "Nouvelle-Aquitaine",
    "country": "FR",
    "dead": 0,
    "lastUpdated": "2020-03-14T10:55:02.703Z",
    "id": "cpf3Y5PQTYywIm3PrpIQ",
    "infected": 114,
    "recovered": 2,
    "latitude": 45.7087,
    "sick": 112
  },
  {
    "infected": 5232,
    "recovered": 193,
    "latitude": 40.463669,
    "longitude": -3.74922,
    "name": "Spain",
    "country": "ES",
    "dead": 133,
    "lastUpdated": "2020-03-14T10:53:03.685Z",
    "id": "d0ExINgPaWUBm3l4ioJL",
    "sick": 4906
  },
  {
    "infected": 1,
    "recovered": 0,
    "latitude": 42.50837,
    "longitude": 1.517155,
    "name": "Andorra",
    "country": "AD",
    "dead": 0,
    "lastUpdated": "2020-03-14T10:53:03.602Z",
    "id": "dedMXSYR2k92wkSXNZqn",
    "sick": 1
  },
  {
    "infected": 4,
    "recovered": 0,
    "latitude": 38.831163,
    "longitude": -75.375673,
    "name": "Delaware",
    "country": "US",
    "dead": 0,
    "lastUpdated": "2020-03-14T10:58:04.096Z",
    "id": "dzCgqYduzyncjNKU9z6G",
    "sick": 4
  },
  {
    "infected": 5,
    "recovered": 0,
    "latitude": 38.9637,
    "longitude": 35.2433,
    "name": "Turkey",
    "country": "TR",
    "dead": 0,
    "lastUpdated": "2020-03-14T10:53:03.761Z",
    "id": "dzIcCaUZlbIXuRw0SyDE",
    "sick": 5
  },
  {
    "latitude": 47.516232,
    "longitude": 14.550072,
    "name": "Austria",
    "country": "AT",
    "dead": 1,
    "lastUpdated": "2020-03-14T10:53:03.619Z",
    "id": "e3BtI12qbqhE8jypOoZu",
    "infected": 602,
    "recovered": 6,
    "sick": 595
  },
  {
    "longitude": 122.310669,
    "name": "Liaoning",
    "country": "CN",
    "dead": 1,
    "lastUpdated": "2020-03-14T03:24:35.462Z",
    "id": "e7P83iImanpd9r36oXK3",
    "infected": 125,
    "recovered": 113,
    "latitude": 41.097481,
    "sick": 11
  },
  {
    "longitude": 121.473701,
    "name": "Shanghai",
    "country": "CN",
    "dead": 3,
    "lastUpdated": "2020-03-14T03:23:36.196Z",
    "id": "e9pQqQa7CEblCYoDtfKo",
    "infected": 350,
    "recovered": 324,
    "latitude": 31.230391,
    "sick": 23
  },
  {
    "dead": 0,
    "lastUpdated": "2020-03-14T10:58:04.100Z",
    "id": "eCKDGssww4pF7NrxOySu",
    "infected": 123,
    "recovered": 1,
    "latitude": 42.407211,
    "longitude": -71.382439,
    "name": "Massachusetts",
    "country": "US",
    "sick": 122
  },
  {
    "latitude": 43.740451,
    "longitude": 7.432032,
    "name": "Monaco",
    "country": "MC",
    "dead": 0,
    "lastUpdated": "2020-03-14T10:53:03.678Z",
    "id": "eLgKPNUwYM5MNDAtF6ql",
    "infected": 2,
    "recovered": 0,
    "sick": 2
  },
  {
    "latitude": 47.2805,
    "longitude": 4.9994,
    "name": "Bourgogne-Franche-Comté",
    "country": "FR",
    "dead": 5,
    "lastUpdated": "2020-03-14T10:55:02.710Z",
    "id": "ejrjMKfHexGnK52FS9Aa",
    "infected": 272,
    "recovered": 8,
    "sick": 259
  },
  {
    "recovered": 0,
    "latitude": 48.0196,
    "longitude": 66.9237,
    "name": "Kazakhstan",
    "country": "KZ",
    "dead": 0,
    "lastUpdated": "2020-03-14T10:53:03.557Z",
    "id": "etrmrftkQg6Kbd9seAga",
    "infected": 6,
    "sick": 6
  },
  {
    "infected": 539,
    "recovered": 510,
    "latitude": 30.14208,
    "longitude": 102.960701,
    "name": "Sichuan",
    "country": "CN",
    "dead": 3,
    "lastUpdated": "2020-03-14T03:23:26.582Z",
    "id": "eyK5bxFkwdoAouIBvLFM",
    "sick": 26
  },
  {
    "latitude": 21.473534,
    "longitude": 55.975414,
    "name": "Oman",
    "country": "OM",
    "dead": 0,
    "lastUpdated": "2020-03-14T10:53:03.688Z",
    "id": "f9kmlhYtc3WA3kjbWszW",
    "infected": 19,
    "recovered": 9,
    "sick": 10
  },
  {
    "latitude": 31.295929,
    "longitude": 36.691952,
    "name": "Jordan",
    "country": "JO",
    "dead": 0,
    "lastUpdated": "2020-03-14T10:53:03.739Z",
    "id": "fK06AziL8wyrcoz7rsmJ",
    "infected": 1,
    "recovered": 1,
    "sick": 0
  },
  {
    "id": "fNganaGVPifA4QahEQPS",
    "infected": 77,
    "recovered": 0,
    "latitude": 27.716933,
    "longitude": -81.555239,
    "name": "Florida",
    "country": "US",
    "dead": 2,
    "lastUpdated": "2020-03-14T10:58:03.968Z",
    "sick": 75
  },
  {
    "recovered": 325,
    "latitude": 35.452016,
    "longitude": 139.664285,
    "name": "Diamond Princess (Cruise)",
    "country": "ZZ",
    "dead": 7,
    "lastUpdated": "2020-03-14T03:19:46.777Z",
    "id": "fNnE9CD0SttEVrCUo1Ym",
    "infected": 696,
    "sick": 364
  },
  {
    "recovered": 52943,
    "latitude": 31.160629,
    "longitude": 112.255402,
    "name": "Hubei",
    "country": "CN",
    "dead": 3075,
    "lastUpdated": "2020-03-14T03:22:27.255Z",
    "id": "fiJ14DCxw15e3SMemh8R",
    "infected": 67790,
    "sick": 11772
  },
  {
    "longitude": 30.5234,
    "name": "Ukraine",
    "country": "UA",
    "dead": 1,
    "lastUpdated": "2020-03-14T10:53:03.769Z",
    "id": "flbZ2kaR5kBuV8XZ2Nsu",
    "infected": 3,
    "recovered": 0,
    "latitude": 50.4501,
    "sick": 2
  },
  {
    "longitude": 5.291266,
    "name": "Netherlands",
    "country": "NL",
    "dead": 10,
    "lastUpdated": "2020-03-14T10:53:03.671Z",
    "id": "g0lRMtEJbucWIGqSPn0I",
    "infected": 804,
    "recovered": 2,
    "latitude": 52.132633,
    "sick": 792
  },
  {
    "recovered": 0,
    "latitude": 34.69522,
    "longitude": -92.288012,
    "name": "Arkansas",
    "country": "US",
    "dead": 0,
    "lastUpdated": "2020-03-14T10:58:04.103Z",
    "id": "gIdgxJZfTl2QOSYEwMAz",
    "infected": 9,
    "sick": 9
  },
  {
    "longitude": -99.9018,
    "name": "South Dakota",
    "country": "US",
    "dead": 1,
    "lastUpdated": "2020-03-14T10:58:03.995Z",
    "id": "gYDsNgvuvtbg8t77w6FS",
    "infected": 9,
    "recovered": 0,
    "latitude": 43.9695,
    "sick": 8
  },
  {
    "latitude": 35.894231,
    "longitude": 14.432846,
    "name": "Malta",
    "country": "MT",
    "dead": 0,
    "lastUpdated": "2020-03-14T10:53:03.650Z",
    "id": "h9UqxYZ5xC4JZrmdDz0q",
    "infected": 18,
    "recovered": 1,
    "sick": 17
  },
  {
    "infected": 7,
    "recovered": 1,
    "latitude": 28.7041,
    "longitude": 77.1025,
    "name": "Delhi",
    "country": "IN",
    "dead": 1,
    "lastUpdated": "2020-03-14T10:57:01.987Z",
    "id": "hqwsh1rmvkWI3LFUVuMk",
    "sick": 5
  },
  {
    "recovered": 89,
    "latitude": 35.751835,
    "longitude": 104.28611,
    "name": "Gansu",
    "country": "CN",
    "dead": 2,
    "lastUpdated": "2020-03-14T03:24:04.913Z",
    "id": "iGkTscdD0XyHFSP23Qrp",
    "infected": 129,
    "sick": 38
  },
  {
    "infected": 19,
    "recovered": 3,
    "latitude": 10.8505,
    "longitude": 76.2711,
    "name": "Kerala",
    "country": "IN",
    "dead": 0,
    "lastUpdated": "2020-03-14T10:57:02.002Z",
    "id": "idymmgoqLHImnBdyC7r7",
    "sick": 16
  },
  {
    "infected": 1,
    "recovered": 0,
    "latitude": 16.265,
    "longitude": -61.551,
    "name": "Guadeloupe",
    "country": "FR",
    "dead": 0,
    "lastUpdated": "2020-03-14T10:55:02.686Z",
    "id": "j8eMjjqNAqHAJhAKdBYN",
    "sick": 1
  },
  {
    "infected": 136,
    "recovered": 132,
    "latitude": 39.343357,
    "longitude": 117.361649,
    "name": "Tianjin",
    "country": "CN",
    "dead": 3,
    "lastUpdated": "2020-03-14T03:24:51.222Z",
    "id": "jMlHjIOb7eMPSxFBrmG1",
    "sick": 1
  },
  {
    "latitude": 44.5588,
    "longitude": -72.5778,
    "name": "Vermont",
    "country": "US",
    "dead": 0,
    "lastUpdated": "2020-03-14T10:58:04.075Z",
    "id": "jPC0eOG50FWknCDe3K6P",
    "infected": 2,
    "recovered": 0,
    "sick": 2
  },
  {
    "infected": 90,
    "recovered": 0,
    "latitude": 53.3498,
    "longitude": -6.2603,
    "name": "Ireland",
    "country": "IE",
    "dead": 1,
    "lastUpdated": "2020-03-14T10:53:03.680Z",
    "id": "jpVXEDCyfyq26gPoCtHL",
    "sick": 89
  },
  {
    "id": "l7fHSKOmcaRX3tq9FCT6",
    "infected": 1,
    "recovered": 0,
    "latitude": 44.0682,
    "longitude": -114.742,
    "name": "Idaho",
    "country": "US",
    "dead": 0,
    "lastUpdated": "2020-03-14T10:58:04.179Z",
    "sick": 1
  },
  {
    "latitude": 10.6918,
    "longitude": -61.2225,
    "name": "Trinidad and Tobago",
    "country": "TT",
    "dead": 0,
    "lastUpdated": "2020-03-14T10:53:03.751Z",
    "id": "lfLdfRP7hyiA6MVnQqqn",
    "infected": 2,
    "recovered": 0,
    "sick": 2
  },
  {
    "latitude": 42.524635,
    "longitude": 87.539589,
    "name": "Xinjiang",
    "country": "CN",
    "dead": 3,
    "lastUpdated": "2020-03-14T03:26:20.102Z",
    "id": "lhPjpn6CzqTRDN0RW8uE",
    "infected": 76,
    "recovered": 73,
    "sick": 0
  },
  {
    "infected": 9,
    "recovered": 0,
    "latitude": 3.2028,
    "longitude": 73.2207,
    "name": "Maldives",
    "country": "MV",
    "dead": 0,
    "lastUpdated": "2020-03-14T10:53:03.570Z",
    "id": "m45gI2UbWMuTrOnTtp9k",
    "sick": 9
  },
  {
    "infected": 1,
    "recovered": 0,
    "latitude": 41.9029,
    "longitude": 12.4534,
    "name": "Vatican City",
    "country": "VA",
    "dead": 0,
    "lastUpdated": "2020-03-14T10:53:03.779Z",
    "id": "mF7rVMdVnazAuw8G22xs",
    "sick": 1
  },
  {
    "dead": 0,
    "lastUpdated": "2020-03-14T10:57:01.985Z",
    "id": "mJtdLs4ub6CkcAOeMWUm",
    "infected": 14,
    "recovered": 0,
    "latitude": 19.7515,
    "longitude": 75.7139,
    "name": "Maharashtra",
    "country": "IN",
    "sick": 14
  },
  {
    "infected": 43,
    "recovered": 0,
    "latitude": -33.4489,
    "longitude": -70.6693,
    "name": "Chile",
    "country": "CL",
    "dead": 0,
    "lastUpdated": "2020-03-14T10:53:03.537Z",
    "id": "mSACWVbCy5QE7ciLA93J",
    "sick": 43
  },
  {
    "latitude": 35.693323,
    "longitude": -86.605748,
    "name": "Tennessee",
    "country": "US",
    "dead": 0,
    "lastUpdated": "2020-03-14T10:58:04.106Z",
    "id": "nLhJXE2apq8yNNj363ai",
    "infected": 18,
    "recovered": 0,
    "sick": 18
  },
  {
    "infected": 8,
    "recovered": 1,
    "latitude": 31.893778,
    "longitude": -6.196132,
    "name": "Morocco",
    "country": "MA",
    "dead": 1,
    "lastUpdated": "2020-03-14T10:53:03.632Z",
    "id": "oJ5vSDE9vgXC2PG8LElp",
    "sick": 6
  },
  {
    "infected": 397,
    "recovered": 0,
    "latitude": 50.4801,
    "longitude": 2.7937,
    "name": "Hauts-de-France",
    "country": "FR",
    "dead": 21,
    "lastUpdated": "2020-03-14T10:55:02.675Z",
    "id": "ofWLu9EuQoK2nHjwU1mA",
    "sick": 376
  },
  {
    "longitude": 142.702789,
    "name": "Queensland",
    "country": "AU",
    "dead": 0,
    "lastUpdated": "2020-03-14T03:27:55.245Z",
    "id": "oxz2l1rJipCsfMfy8Mmk",
    "infected": 35,
    "recovered": 8,
    "latitude": -20.917574,
    "sick": 27
  },
  {
    "recovered": 447,
    "latitude": 47.121647,
    "longitude": 128.738235,
    "name": "Heilongjiang",
    "country": "CN",
    "dead": 13,
    "lastUpdated": "2020-03-14T03:24:44.194Z",
    "id": "p1aZboN4BtRJe7hPl8cw",
    "infected": 482,
    "sick": 22
  },
  {
    "infected": 990,
    "recovered": 984,
    "latitude": 32.026379,
    "longitude": 117.252747,
    "name": "Anhui",
    "country": "CN",
    "dead": 6,
    "lastUpdated": "2020-03-14T03:22:11.967Z",
    "id": "pFhBwPnGGpQ6DLppJ6YS",
    "sick": 0
  },
  {
    "latitude": 38.9072,
    "longitude": -77.0369,
    "name": "Washington, D.C.",
    "country": "US",
    "dead": 0,
    "lastUpdated": "2020-03-14T10:58:04.019Z",
    "id": "q5cfvHprVTraL1yXnhDx",
    "infected": 10,
    "recovered": 0,
    "sick": 10
  },
  {
    "dead": 1,
    "lastUpdated": "2020-03-14T03:28:07.107Z",
    "id": "qnQ0dkxAxnDP01YpdZgk",
    "infected": 14,
    "recovered": 0,
    "latitude": -26.190439,
    "longitude": 123.325947,
    "name": "Western Australia",
    "country": "AU",
    "sick": 13
  },
  {
    "dead": 3,
    "lastUpdated": "2020-03-14T10:53:03.548Z",
    "id": "qpAxVz0garcS0gNZxtOw",
    "infected": 559,
    "recovered": 1,
    "latitude": 50.503887,
    "longitude": 4.469936,
    "name": "Belgium",
    "country": "BE",
    "sick": 555
  },
  {
    "infected": 28,
    "recovered": 0,
    "latitude": 31,
    "longitude": -100,
    "name": "Texas",
    "country": "US",
    "dead": 0,
    "lastUpdated": "2020-03-14T10:58:04.003Z",
    "id": "qsrWiq0qCmIG66hpWojP",
    "sick": 28
  },
  {
    "infected": 212,
    "recovered": 1,
    "latitude": 43.9352,
    "longitude": 6.0679,
    "name": "Provence-Alpes-Côte d'Azur",
    "country": "FR",
    "dead": 1,
    "lastUpdated": "2020-03-14T10:55:02.725Z",
    "id": "qyX9xXEuKg3co8yKe3Fl",
    "sick": 210
  },
  {
    "dead": 0,
    "lastUpdated": "2020-03-14T10:58:04.073Z",
    "id": "qzuktS0qQVU4PEookjss",
    "infected": 36,
    "recovered": 0,
    "latitude": 30.9843,
    "longitude": -91.9623,
    "name": "Louisiana",
    "country": "US",
    "sick": 36
  },
  {
    "id": "rKbrli0DkAmp1UpbrqHQ",
    "infected": 2,
    "recovered": 0,
    "latitude": 12.5211,
    "longitude": -69.9683,
    "name": "Aruba",
    "country": "AW",
    "dead": 0,
    "lastUpdated": "2020-03-14T10:53:03.628Z",
    "sick": 2
  },
  {
    "recovered": 16,
    "latitude": 14.058324,
    "longitude": 108.277199,
    "name": "Vietnam",
    "country": "VN",
    "dead": 0,
    "lastUpdated": "2020-03-14T10:53:03.561Z",
    "id": "rKnSEyG03ak4YmGzonlg",
    "infected": 53,
    "sick": 37
  },
  {
    "dead": 1,
    "lastUpdated": "2020-03-12T23:51:47.642Z",
    "id": "rgBVJ4hPofqjjchnroiY",
    "infected": 1215,
    "recovered": 1197,
    "latitude": 29.159849,
    "longitude": 120.326447,
    "name": "Zhejiang",
    "country": "CN",
    "sick": 17
  },
  {
    "dead": 1,
    "lastUpdated": "2020-03-14T10:53:03.669Z",
    "id": "rxSafpWsyKhfkV0HTtb4",
    "infected": 1003,
    "recovered": 1,
    "latitude": 60.472023,
    "longitude": 8.468946,
    "name": "Norway",
    "country": "NO",
    "sick": 1001
  },
  {
    "longitude": -116.5765,
    "name": "Alberta",
    "country": "CA",
    "dead": 0,
    "lastUpdated": "2020-03-14T03:27:07.803Z",
    "id": "sBFMOzZJdrdXdyLZpweO",
    "infected": 29,
    "recovered": 0,
    "latitude": 53.9333,
    "sick": 29
  },
  {
    "latitude": 19.566395,
    "longitude": 109.949684,
    "name": "Hainan",
    "country": "CN",
    "dead": 8,
    "lastUpdated": "2020-03-14T03:24:25.220Z",
    "id": "sKNhMvgXeyivpNFg02RA",
    "infected": 168,
    "recovered": 160,
    "sick": 0
  },
  {
    "latitude": -10.33755,
    "longitude": -75.630295,
    "name": "Peru",
    "country": "PE",
    "dead": 0,
    "lastUpdated": "2020-03-14T10:53:03.653Z",
    "id": "sLL1jETcJYjT6g5bfcEG",
    "infected": 38,
    "recovered": 0,
    "sick": 38
  },
  {
    "dead": 6,
    "lastUpdated": "2020-03-14T03:25:02.661Z",
    "id": "sgsBhTwHxF1VVnqXbXXp",
    "infected": 318,
    "recovered": 310,
    "latitude": 37.89566,
    "longitude": 114.904221,
    "name": "Hebei",
    "country": "CN",
    "sick": 2
  },
  {
    "dead": 0,
    "lastUpdated": "2020-03-14T10:53:03.635Z",
    "id": "sjW9OwjFqrOvjVHRXWoR",
    "infected": 30,
    "recovered": 0,
    "latitude": 42.3154,
    "longitude": 43.3569,
    "name": "Georgia",
    "country": "GE",
    "sick": 30
  },
  {
    "infected": 6,
    "recovered": 0,
    "latitude": -23.4425,
    "longitude": -58.4438,
    "name": "Paraguay",
    "country": "PY",
    "dead": 0,
    "lastUpdated": "2020-03-14T10:53:03.552Z",
    "id": "t2fq7L9UcXfhuXfQNVRj",
    "sick": 6
  },
  {
    "latitude": 39.147061,
    "longitude": -111.596466,
    "name": "Utah",
    "country": "US",
    "dead": 0,
    "lastUpdated": "2020-03-14T10:58:03.983Z",
    "id": "tSmr8vNsiDhhpXMSBsms",
    "infected": 5,
    "recovered": 0,
    "sick": 5
  },
  {
    "infected": 1018,
    "recovered": 1009,
    "latitude": 27.3818,
    "longitude": 111.510681,
    "name": "Hunan",
    "country": "CN",
    "dead": 4,
    "lastUpdated": "2020-03-14T03:21:53.346Z",
    "id": "tdNRDDrgvBQqqwzdFGh4",
    "sick": 5
  },
  {
    "latitude": 26.842964,
    "longitude": 107.290283,
    "name": "Guizhou",
    "country": "CN",
    "dead": 2,
    "lastUpdated": "2020-03-14T03:26:05.468Z",
    "id": "tyY4QSHWG9sXqSO9jm0Y",
    "infected": 146,
    "recovered": 143,
    "sick": 1
  },
  {
    "recovered": 0,
    "latitude": 29.0588,
    "longitude": 76.0856,
    "name": "Haryana",
    "country": "IN",
    "dead": 0,
    "lastUpdated": "2020-03-14T10:57:01.980Z",
    "id": "ubUuY89n0cXVgahI4Ytp",
    "infected": 14,
    "sick": 14
  },
  {
    "latitude": 32.93708,
    "longitude": 119.151932,
    "name": "Jiangsu",
    "country": "CN",
    "dead": 0,
    "lastUpdated": "2020-03-14T03:25:33.074Z",
    "id": "uvxN28EpGmRq3K9REtBP",
    "infected": 631,
    "recovered": 630,
    "sick": 1
  },
  {
    "infected": 1,
    "recovered": 0,
    "latitude": 33.7782,
    "longitude": 76.5762,
    "name": "Jammu and Kashmir",
    "country": "IN",
    "dead": 0,
    "lastUpdated": "2020-03-14T10:57:01.996Z",
    "id": "v5wfBhxjYTpTMaKko6AW",
    "sick": 1
  },
  {
    "latitude": 26.820553,
    "longitude": 30.802498,
    "name": "Egypt",
    "country": "EG",
    "dead": 2,
    "lastUpdated": "2020-03-14T10:53:03.645Z",
    "id": "v8JcH4FHH7BDpJlNNHjv",
    "infected": 93,
    "recovered": 27,
    "sick": 64
  },
  {
    "recovered": 1,
    "latitude": 47.288374,
    "longitude": -119.928431,
    "name": "Washington",
    "country": "US",
    "dead": 37,
    "lastUpdated": "2020-03-14T10:58:04.021Z",
    "id": "vCUVQn7RK8pkw5y2rvYN",
    "infected": 568,
    "sick": 530
  },
  {
    "latitude": 18.1096,
    "longitude": -77.2975,
    "name": "Jamaica",
    "country": "JM",
    "dead": 0,
    "lastUpdated": "2020-03-14T10:53:03.624Z",
    "id": "vMGALmMJbagxGIbLyFfS",
    "infected": 8,
    "recovered": 0,
    "sick": 8
  },
  {
    "infected": 1,
    "recovered": 0,
    "latitude": 32.3182,
    "longitude": -86.9023,
    "name": "Alabama",
    "country": "US",
    "dead": 0,
    "lastUpdated": "2020-03-14T10:58:04.120Z",
    "id": "vSMJR4m49MZM15umlC9B",
    "sick": 1
  },
  {
    "infected": 721,
    "recovered": 5,
    "latitude": 48.8499,
    "longitude": 2.637,
    "name": "Île-de-France",
    "country": "FR",
    "dead": 4,
    "lastUpdated": "2020-03-14T10:55:02.701Z",
    "id": "vSwFXxTSLgzsG25zOJUy",
    "sick": 712
  },
  {
    "infected": 11364,
    "recovered": 3529,
    "latitude": 32.42791,
    "longitude": 53.688046,
    "name": "Iran",
    "country": "IR",
    "dead": 514,
    "lastUpdated": "2020-03-14T10:53:03.528Z",
    "id": "vkkXVaqUswO5JsMZx0mX",
    "sick": 7321
  },
  {
    "longitude": -98.8139,
    "name": "Manitoba",
    "country": "CA",
    "dead": 0,
    "lastUpdated": "2020-03-14T03:27:20.668Z",
    "id": "wCnlOr8oX3DlF0otQrFc",
    "infected": 4,
    "recovered": 0,
    "latitude": 53.7609,
    "sick": 4
  },
  {
    "latitude": -34.6037,
    "longitude": -58.3816,
    "name": "Argentina",
    "country": "AR",
    "dead": 2,
    "lastUpdated": "2020-03-14T10:53:03.550Z",
    "id": "wEl0cjiA6OcZiI9kaSsF",
    "infected": 34,
    "recovered": 0,
    "sick": 32
  },
  {
    "latitude": 44.3148,
    "longitude": -85.6024,
    "name": "Michigan",
    "country": "US",
    "dead": 0,
    "lastUpdated": "2020-03-14T10:58:03.997Z",
    "id": "wgRwpPMGBaKLAl1xo1C7",
    "infected": 25,
    "recovered": 0,
    "sick": 25
  },
  {
    "longitude": -157.838954,
    "name": "Hawaii",
    "country": "US",
    "dead": 0,
    "lastUpdated": "2020-03-14T10:58:03.970Z",
    "id": "wi47s9vKxiMqxfgurj3B",
    "infected": 2,
    "recovered": 0,
    "latitude": 21.287261,
    "sick": 2
  },
  {
    "infected": 93,
    "recovered": 1,
    "latitude": 34.08267,
    "longitude": 35.918113,
    "name": "Lebanon",
    "country": "LB",
    "dead": 3,
    "lastUpdated": "2020-03-14T10:53:03.566Z",
    "id": "xFgM48q8JxVPfvQLQDNb",
    "sick": 89
  },
  {
    "infected": 2,
    "recovered": 0,
    "latitude": 9.081999,
    "longitude": 8.675277,
    "name": "Nigeria",
    "country": "NG",
    "dead": 0,
    "lastUpdated": "2020-03-14T10:53:03.748Z",
    "id": "xHWPTTpNHEwWv6MqfxP5",
    "sick": 2
  },
  {
    "recovered": 0,
    "latitude": 47.5515,
    "longitude": -101.002,
    "name": "North Dakota",
    "country": "US",
    "dead": 0,
    "lastUpdated": "2020-03-14T10:58:03.972Z",
    "id": "xQpNodSQfHNHAtG9Onnj",
    "infected": 1,
    "sick": 1
  },
  {
    "latitude": 44.5,
    "longitude": -89.5,
    "name": "Wisconsin",
    "country": "US",
    "dead": 0,
    "lastUpdated": "2020-03-14T10:58:04.025Z",
    "id": "xSHgaJlyPxHFWB6hhyng",
    "infected": 8,
    "recovered": 1,
    "sick": 7
  },
  {
    "infected": 1,
    "recovered": 0,
    "latitude": 9.145,
    "longitude": 40.4897,
    "name": "Ethiopia",
    "country": "ET",
    "dead": 0,
    "lastUpdated": "2020-03-14T10:53:03.782Z",
    "id": "xY69Nr3VSiZCwD2Qp0SD",
    "sick": 1
  },
  {
    "infected": 3,
    "recovered": 0,
    "latitude": -17.6797,
    "longitude": -149.4068,
    "name": "Polynésie française",
    "country": "FR",
    "dead": 0,
    "lastUpdated": "2020-03-14T10:55:02.724Z",
    "id": "yOfFKDRrscqcZ85WMRqF",
    "sick": 3
  },
  {
    "infected": 1,
    "recovered": 0,
    "latitude": 12.1696,
    "longitude": -68.99,
    "name": "Curaçao",
    "country": "CW",
    "dead": 0,
    "lastUpdated": "2020-03-14T10:53:03.741Z",
    "id": "z0KDu61I2qPILneW2Lih",
    "sick": 1
  },
  {
    "recovered": 0,
    "latitude": 46.5653,
    "longitude": -66.4619,
    "name": "New Brunswick",
    "country": "CA",
    "dead": 0,
    "lastUpdated": "2020-03-14T02:36:34.804Z",
    "id": "z1Vx0y33oMGoeJSuS8Ui",
    "infected": 1,
    "sick": 1
  },
  {
    "recovered": 0,
    "latitude": -1.831239,
    "longitude": -78.183403,
    "name": "Ecuador",
    "country": "EC",
    "dead": 1,
    "lastUpdated": "2020-03-14T10:53:03.679Z",
    "id": "zC03Urt1iJJb2Tf6p0jd",
    "infected": 26,
    "sick": 25
  },
  {
    "id": "zvdC0u72Bk5YKNaazZFZ",
    "infected": 82,
    "recovered": 35,
    "latitude": 15.870032,
    "longitude": 100.992538,
    "name": "Thailand",
    "country": "TH",
    "dead": 1,
    "lastUpdated": "2020-03-14T10:53:03.538Z",
    "sick": 46
  },
  {
    "longitude": 21.0059,
    "name": "Serbia",
    "country": "RS",
    "dead": 0,
    "lastUpdated": "2020-03-14T10:53:03.692Z",
    "id": "zyxFwuiyCJHhRyNEg60C",
    "infected": 41,
    "recovered": 0,
    "latitude": 44.0165,
    "sick": 41
  }
]