[
  {
    "longitude": -81.7006,
    "lastUpdated": "2020-07-16T20:00:10.546Z",
    "infected": 29,
    "dead": 0,
    "latitude": 12.5847,
    "name": "San Andrés",
    "country": "CO",
    "id": "01b09TY4vmuZwzVuiRFK",
    "recovered": 21,
    "pop": 72600,
    "sick": 8,
    "invisible": false
  },
  {
    "alwaysShow": false,
    "longitude": -2.5895,
    "id": "0FOJefeLxQYXQ1CnJm9o",
    "country": "GG",
    "pop": 63196,
    "lastUpdated": "2020-07-16T19:50:03.426Z",
    "latitude": 49.4482,
    "recovered": 238,
    "name": "Guernsey",
    "infected": 252,
    "dead": 13,
    "sick": 1,
    "invisible": false
  },
  {
    "longitude": 14.333333,
    "recovered": 4097,
    "infected": 4791,
    "name": "Campania",
    "id": "0GJcws44NSPsDHAuxJhW",
    "dead": 432,
    "country": "IT",
    "latitude": 41.066666,
    "state": "72",
    "lastUpdated": "2020-07-16T20:01:01.703Z",
    "pop": 5827000,
    "sick": 262,
    "invisible": false
  },
  {
    "longitude": -70.14222,
    "latitude": -20.2167,
    "infected": 7353,
    "id": "0HDQbiHe462xMCUV5HiI",
    "dead": 117,
    "country": "CL",
    "recovered": 0,
    "pop": 383870,
    "name": "Tarapacá",
    "lastUpdated": "2020-07-16T20:20:12.611Z",
    "sick": 7236,
    "invisible": false
  },
  {
    "name": "Odisha",
    "longitude": 85.0985,
    "latitude": 20.9517,
    "country": "IN",
    "dead": 103,
    "pop": 45990000,
    "id": "0VG7S6aaK4eSo59fL9JO",
    "lastUpdated": "2020-07-16T20:11:01.921Z",
    "recovered": 10877,
    "infected": 15392,
    "sick": 4412,
    "invisible": false
  },
  {
    "dead": 822,
    "infected": 5035,
    "lastUpdated": "2020-07-16T20:02:10.283Z",
    "latitude": 20.4737,
    "name": "Hidalgo",
    "recovered": 0,
    "longitude": -98.8582,
    "id": "0XmCRqiK2ZaehoEJvfer",
    "country": "MX",
    "pop": 2990300,
    "sick": 4213,
    "invisible": false
  },
  {
    "infected": 180,
    "name": "Andaman and Nicobar Islands",
    "pop": 427246,
    "country": "IN",
    "latitude": 11.7401,
    "lastUpdated": "2020-07-16T20:11:01.927Z",
    "dead": 0,
    "id": "0jStOpTUNRaQYJqgmRoK",
    "longitude": 92.6586,
    "recovered": 133,
    "sick": 47,
    "invisible": false
  },
  {
    "dead": 152,
    "latitude": 25.315058,
    "id": "0m4aECS0Z2DGFEr8ldgI",
    "lastUpdated": "2020-07-16T20:16:02.877Z",
    "infected": 105477,
    "name": "Qatar",
    "recovered": 102168,
    "longitude": 51.145517,
    "country": "QA",
    "pop": 2639000,
    "sick": 3157,
    "invisible": false
  },
  {
    "recovered": 21415,
    "name": "West Bengal",
    "dead": 1023,
    "latitude": 22.9868,
    "longitude": 87.855,
    "id": "0n54EMSDJcRoT1QEvw80",
    "infected": 36117,
    "lastUpdated": "2020-07-16T20:11:01.921Z",
    "country": "IN",
    "pop": 90320000,
    "sick": 13679,
    "invisible": false
  },
  {
    "pop": 73340000,
    "dead": 689,
    "name": "Madhya Pradesh",
    "latitude": 22.9734,
    "lastUpdated": "2020-07-16T20:11:01.921Z",
    "recovered": 14127,
    "infected": 20378,
    "longitude": 78.6569,
    "id": "0s18o5DrDAHjbu5MFcrj",
    "country": "IN",
    "sick": 5562,
    "invisible": false
  },
  {
    "longitude": -95.7129,
    "lastUpdated": "2020-07-16T20:16:02.876Z",
    "id": "0tFoopNTs6e4tOoaltu2",
    "latitude": 37.0902,
    "dead": 0,
    "invisible": true,
    "name": "Unknown US state",
    "infected": 0,
    "country": "US",
    "recovered": 1663668,
    "sick": 0
  },
  {
    "name": "Shaanxi",
    "latitude": 35.64249,
    "recovered": 315,
    "country": "CN",
    "dead": 3,
    "pop": 37330000,
    "id": "0x2HLhr5z5xAtEdO4iZm",
    "infected": 321,
    "longitude": 108.472214,
    "lastUpdated": "2020-07-16T20:08:04.113Z",
    "sick": 3,
    "invisible": false
  },
  {
    "country": "MK",
    "pop": 2077000,
    "name": "North Macedonia",
    "infected": 8623,
    "recovered": 4565,
    "id": "19MvIhipqTyYv1H37Upw",
    "longitude": 21.668393,
    "lastUpdated": "2020-07-16T20:16:02.883Z",
    "latitude": 41.643351,
    "dead": 401,
    "sick": 3657,
    "invisible": false
  },
  {
    "longitude": -57.6604,
    "state": "NL",
    "infected": 262,
    "lastUpdated": "2020-07-16T20:07:02.385Z",
    "country": "CA",
    "recovered": 258,
    "pop": 521542,
    "dead": 3,
    "id": "1DOMOmCWDtva46OVSZLv",
    "name": "Newfoundland and Labrador",
    "latitude": 53.1355,
    "sick": 1,
    "invisible": false
  },
  {
    "country": "CN",
    "name": "Qinghai",
    "latitude": 35.801933,
    "dead": 0,
    "longitude": 96.779286,
    "recovered": 18,
    "lastUpdated": "2020-07-16T20:08:04.117Z",
    "infected": 18,
    "pop": 5627000,
    "id": "1Fap7rZu9SIRqf5TG9Dg",
    "sick": 0,
    "invisible": false
  },
  {
    "id": "1YXQMlVL3fUeDZmcVfJw",
    "recovered": 199129,
    "infected": 0,
    "pop": 126200000,
    "longitude": -102.5528,
    "lastUpdated": "2020-07-16T20:16:02.876Z",
    "latitude": 23.6345,
    "invisible": true,
    "name": "Unknown Mexico state",
    "country": "MX",
    "dead": 0,
    "sick": 0
  },
  {
    "pop": 1960000,
    "name": "Omsk Oblast",
    "country": "RU",
    "recovered": 2901,
    "infected": 5066,
    "id": "1at5nIap9H51v32otlQl",
    "longitude": 73.3167,
    "lastUpdated": "2020-07-16T20:00:09.473Z",
    "latitude": 55.0555,
    "dead": 46,
    "sick": 2119,
    "invisible": false
  },
  {
    "recovered": 26536,
    "country": "IT",
    "dead": 4118,
    "name": "Piemonte",
    "lastUpdated": "2020-07-16T20:01:01.704Z",
    "id": "1eTSQyfp8RoDPeFrIwun",
    "infected": 31522,
    "pop": 4376000,
    "longitude": 8.206944,
    "latitude": 44.9,
    "state": "21",
    "sick": 868,
    "invisible": false
  },
  {
    "longitude": 15.461,
    "name": "Lubuskie",
    "dead": 1,
    "pop": 1003000,
    "lastUpdated": "2020-07-16T20:03:02.366Z",
    "infected": 261,
    "id": "1j1OurxLTpZYuWIWwQ9F",
    "latitude": 51.993,
    "country": "PL",
    "recovered": 0,
    "sick": 260,
    "invisible": false
  },
  {
    "lastUpdated": "2020-07-16T20:16:02.881Z",
    "pop": 3550000,
    "dead": 666,
    "name": "Moldova",
    "id": "1qTPB8X3tyLyIdsb5TN3",
    "infected": 20264,
    "country": "MD",
    "latitude": 47.4116,
    "recovered": 13640,
    "longitude": 28.3699,
    "sick": 5958,
    "invisible": false
  },
  {
    "lastUpdated": "2020-07-16T20:17:02.108Z",
    "country": "US",
    "infected": 9875,
    "invisible": true,
    "name": "Federal Bureau of Prisons",
    "recovered": 0,
    "dead": 96,
    "longitude": -95.7129,
    "latitude": 37.0902,
    "id": "22PJOAThcDFKgSbyQIkD",
    "sick": 9779
  },
  {
    "longitude": 88.787865,
    "dead": 0,
    "recovered": 1,
    "name": "Tibet",
    "lastUpdated": "2020-07-16T20:08:04.118Z",
    "id": "25qIBtsW2nfQj3pwBKg9",
    "country": "CN",
    "latitude": 30.15336,
    "pop": 3180000,
    "infected": 1,
    "sick": 0,
    "invisible": false
  },
  {
    "recovered": 40345,
    "latitude": -1.572184,
    "pop": 264000000,
    "longitude": 115.66779,
    "dead": 3873,
    "infected": 81668,
    "name": "Indonesia",
    "lastUpdated": "2020-07-16T20:16:02.877Z",
    "id": "2KHYUb5t3lwzVVmDjwNX",
    "country": "ID",
    "sick": 37450,
    "invisible": false
  },
  {
    "longitude": -120.585594,
    "id": "2OrsssmGUs4XCzaZzvTv",
    "country": "US",
    "latitude": 43.807191,
    "recovered": 0,
    "state": "OR",
    "infected": 13510,
    "lastUpdated": "2020-07-16T20:17:02.106Z",
    "pop": 4191000,
    "dead": 249,
    "name": "Oregon",
    "sick": 13261,
    "invisible": false
  },
  {
    "infected": 12500,
    "dead": 236,
    "pop": 425000,
    "id": "2c5HBZ1ffkCVXnMYUWnY",
    "name": "Antofagasta",
    "recovered": 0,
    "country": "CL",
    "latitude": -23.65,
    "longitude": -70.400002,
    "lastUpdated": "2020-07-16T20:20:12.611Z",
    "sick": 12264,
    "invisible": false
  },
  {
    "state": "AP",
    "name": "Amapá",
    "dead": 488,
    "id": "2dzhyWsBSPpENWlNew0b",
    "longitude": -51.070534,
    "country": "BR",
    "lastUpdated": "2020-07-16T19:57:34.144Z",
    "latitude": 0.035574,
    "recovered": 0,
    "infected": 32408,
    "pop": 9029000,
    "sick": 31920,
    "invisible": false
  },
  {
    "id": "2jxHvSsxdnom0nPNvOT8",
    "name": "Jilin",
    "latitude": 43.851921,
    "country": "CN",
    "pop": 27460000,
    "lastUpdated": "2020-07-16T20:08:04.117Z",
    "dead": 2,
    "recovered": 153,
    "longitude": 126.548103,
    "infected": 155,
    "sick": 0,
    "invisible": false
  },
  {
    "dead": 0,
    "recovered": 180,
    "lastUpdated": "2020-07-16T20:16:02.890Z",
    "pop": 34571,
    "country": "GI",
    "name": "Gibraltar",
    "infected": 180,
    "latitude": 36.1408,
    "id": "2p11BjSAs3wVyymgqBOe",
    "longitude": -5.3536,
    "sick": 0,
    "invisible": false
  },
  {
    "id": "2sLNkkHpyaHx7dD3aMDO",
    "pop": 2567000,
    "infected": 4595,
    "recovered": 1997,
    "country": "FR",
    "latitude": 47.7516,
    "longitude": 1.6751,
    "name": "Centre-Val de Loire",
    "dead": 553,
    "lastUpdated": "2020-07-15T22:40:40.961Z",
    "sick": 2045,
    "invisible": false
  },
  {
    "latitude": 42.565044,
    "dead": 80,
    "id": "319tiZOMczx1y0DfvOib",
    "infected": 1452,
    "state": "55",
    "recovered": 1362,
    "name": "Umbria",
    "country": "IT",
    "lastUpdated": "2020-07-16T20:01:01.704Z",
    "pop": 884640,
    "longitude": 12.643751,
    "sick": 10,
    "invisible": false
  },
  {
    "country": "CO",
    "latitude": 2.43823,
    "lastUpdated": "2020-07-16T20:00:10.545Z",
    "infected": 858,
    "id": "38T96Q3XNjt5FSJygPed",
    "dead": 32,
    "name": "Cauca",
    "pop": 1355000,
    "longitude": -76.6131592,
    "recovered": 252,
    "sick": 574,
    "invisible": false
  },
  {
    "recovered": 1412,
    "name": "Zambia",
    "latitude": -13.133896,
    "id": "3IlPjAbP5qVMn1nlgLTJ",
    "pop": 17090000,
    "dead": 42,
    "lastUpdated": "2020-07-16T20:16:02.885Z",
    "infected": 1895,
    "country": "ZM",
    "longitude": 27.849332,
    "sick": 441,
    "invisible": false
  },
  {
    "id": "3LstMSN5XMYBkxbe5HN7",
    "recovered": 330,
    "lastUpdated": "2020-07-16T20:16:02.886Z",
    "infected": 1287,
    "name": "Montenegro",
    "dead": 24,
    "pop": 631219,
    "longitude": 19.3958,
    "country": "ME",
    "latitude": 42.7044,
    "sick": 933,
    "invisible": false
  },
  {
    "id": "3OZoQsKrzxZ18EKyfGE6",
    "country": "AU",
    "infected": 113,
    "lastUpdated": "2020-07-16T20:13:21.064Z",
    "longitude": 149.0124,
    "name": "Australian Capital Territory",
    "recovered": 105,
    "latitude": -35.4735,
    "dead": 3,
    "state": "ACT",
    "pop": 418440,
    "sick": 5,
    "invisible": false
  },
  {
    "recovered": 4660,
    "latitude": 57.8992,
    "id": "3PfzjWjvOkfgxc672BHQ",
    "infected": 5431,
    "country": "RU",
    "dead": 22,
    "pop": 608000,
    "lastUpdated": "2020-07-16T20:00:09.473Z",
    "longitude": 38.8389,
    "name": "Yaroslavl Oblast",
    "sick": 749,
    "invisible": false
  },
  {
    "lastUpdated": "2020-07-16T20:00:09.472Z",
    "longitude": 95.626,
    "latitude": 51.8873,
    "name": "Tuva",
    "dead": 45,
    "recovered": 2529,
    "country": "RU",
    "pop": 321000,
    "infected": 5582,
    "id": "3PpqgIUJAtzxo1j7z56i",
    "sick": 3008,
    "invisible": false
  },
  {
    "pop": 30940000,
    "name": "Assam",
    "dead": 55,
    "recovered": 13555,
    "lastUpdated": "2020-07-16T20:11:01.921Z",
    "country": "IN",
    "latitude": 26.2006,
    "longitude": 92.9376,
    "id": "3cCbnJCsK7mKlTO08K1o",
    "infected": 20647,
    "sick": 7037,
    "invisible": false
  },
  {
    "longitude": -82.9071,
    "recovered": 0,
    "infected": 70601,
    "dead": 3103,
    "id": "3fC3bAyIRUquOQOEnQNe",
    "country": "US",
    "name": "Ohio",
    "state": "OH",
    "lastUpdated": "2020-07-16T20:17:02.104Z",
    "pop": 11690000,
    "latitude": 40.4173,
    "sick": 67498,
    "invisible": false
  },
  {
    "id": "3kFCzJguabtBvXaHxgiu",
    "dead": 1721,
    "infected": 10773,
    "name": "Sinaloa",
    "lastUpdated": "2020-07-16T20:02:10.281Z",
    "latitude": 25,
    "pop": 3066400,
    "country": "MX",
    "longitude": -107.5,
    "recovered": 0,
    "sick": 9052,
    "invisible": false
  },
  {
    "longitude": -76.522224,
    "recovered": 6318,
    "dead": 483,
    "latitude": 3.420556,
    "infected": 13929,
    "country": "CO",
    "id": "3mC2LveOpXV8P1PmQGUj",
    "lastUpdated": "2020-07-16T20:00:10.541Z",
    "name": "Valle del Cauca",
    "pop": 4708300,
    "sick": 7128,
    "invisible": false
  },
  {
    "infected": 5564,
    "lastUpdated": "2020-07-16T20:16:02.884Z",
    "dead": 149,
    "longitude": -10.9408,
    "country": "MR",
    "name": "Mauritania",
    "pop": 4420000,
    "id": "4NnFMekRK2m14IlnZZoj",
    "recovered": 2830,
    "latitude": 21.0079,
    "sick": 2585,
    "invisible": false
  },
  {
    "pop": 5071000,
    "recovered": 2753,
    "lastUpdated": "2020-07-16T20:07:02.384Z",
    "dead": 189,
    "country": "CA",
    "latitude": 53.7267,
    "id": "4hfZRUoUgI4a3vrG0GBk",
    "name": "British Columbia",
    "longitude": -127.6476,
    "infected": 3149,
    "state": "BC",
    "sick": 207,
    "invisible": false
  },
  {
    "dead": 11757,
    "latitude": -22.908333,
    "infected": 134449,
    "recovered": 0,
    "state": "RJ",
    "longitude": -43.196388,
    "lastUpdated": "2020-07-16T19:57:34.142Z",
    "country": "BR",
    "pop": 17159960,
    "name": "Rio de Janeiro",
    "id": "4kq0z3kh5zt3YAUWxvtE",
    "sick": 122692,
    "invisible": false
  },
  {
    "dead": 2638,
    "country": "BR",
    "pop": 14812617,
    "id": "4yDbkEyqsNzZJjfrciYV",
    "infected": 112993,
    "recovered": 0,
    "state": "BA",
    "lastUpdated": "2020-07-16T19:57:34.143Z",
    "latitude": -11.409874,
    "name": "Bahia",
    "longitude": -41.280857,
    "sick": 110355,
    "invisible": false
  },
  {
    "country": "AZ",
    "pop": 9898000,
    "id": "4zqzRm2xHn0CDVOUQJ8p",
    "name": "Azerbaijan",
    "dead": 334,
    "infected": 26165,
    "latitude": 40.3426,
    "longitude": 47.93802,
    "recovered": 17256,
    "lastUpdated": "2020-07-16T20:16:02.880Z",
    "sick": 8575,
    "invisible": false
  },
  {
    "recovered": 0,
    "name": "Tamaulipas",
    "lastUpdated": "2020-07-16T20:02:10.282Z",
    "dead": 742,
    "infected": 11189,
    "longitude": -97.861099,
    "country": "MX",
    "latitude": 22.233105,
    "pop": 3672300,
    "id": "54cfsdsRF76XVHWtZs19",
    "sick": 10447,
    "invisible": false
  },
  {
    "name": "Flanders",
    "country": "BE",
    "pop": 6596000,
    "lastUpdated": "2020-07-16T20:07:07.395Z",
    "id": "57ydD48mLRD2YoyteJZj",
    "dead": 4910,
    "infected": 35442,
    "longitude": 3.7265,
    "state": "VLG",
    "recovered": 9484,
    "latitude": 51.0109,
    "sick": 21048,
    "invisible": false
  },
  {
    "pop": 395361,
    "name": "Bahamas",
    "country": "BS",
    "id": "5MHegCUO9L3LiAU7DDey",
    "recovered": 91,
    "dead": 11,
    "latitude": 25.025885,
    "longitude": -78.035889,
    "infected": 119,
    "lastUpdated": "2020-07-16T20:16:02.890Z",
    "sick": 17,
    "invisible": false
  },
  {
    "infected": 3527,
    "pop": 7544000,
    "latitude": -31.253218,
    "dead": 49,
    "state": "NSW",
    "country": "AU",
    "lastUpdated": "2020-07-16T20:13:21.065Z",
    "name": "New South Wales",
    "longitude": 146.921097,
    "id": "5N16a2OXXRpsEFanw0TC",
    "recovered": 2988,
    "sick": 490,
    "invisible": false
  },
  {
    "lastUpdated": "2020-07-16T20:16:02.885Z",
    "latitude": 6.8769908,
    "pop": 12580000,
    "longitude": 31.3069782,
    "country": "SS",
    "recovered": 1175,
    "name": "South Sudan",
    "id": "5N4PRxsCDzzwk7R200V1",
    "infected": 2153,
    "dead": 41,
    "sick": 937,
    "invisible": false
  },
  {
    "state": "VC",
    "latitude": 39.484,
    "id": "5Va9A7CXR8AXdUz4HTJj",
    "dead": 1432,
    "pop": 4975000,
    "infected": 15664,
    "longitude": -0.7533,
    "name": "C. Valenciana",
    "recovered": 9970,
    "lastUpdated": "2020-07-15T22:28:18.100Z",
    "country": "ES",
    "sick": 4262,
    "invisible": false
  },
  {
    "recovered": 21,
    "dead": 0,
    "id": "5fg04eyDwFw3kEXnrxez",
    "country": "NC",
    "name": "New Caledonia",
    "pop": 280460,
    "longitude": 165.618042,
    "lastUpdated": "2020-07-16T20:16:02.896Z",
    "infected": 22,
    "latitude": -20.9043045,
    "sick": 1,
    "invisible": false
  },
  {
    "recovered": 11249,
    "lastUpdated": "2020-07-16T20:16:02.881Z",
    "infected": 17344,
    "longitude": 84.124008,
    "id": "5gXZIjRgAvd6xWN1LOv8",
    "latitude": 28.394857,
    "dead": 39,
    "name": "Nepal",
    "pop": 29300000,
    "country": "NP",
    "sick": 6056,
    "invisible": false
  },
  {
    "id": "5pwmh7aSdGRKqRbnuyc0",
    "longitude": 121.774017,
    "infected": 61266,
    "pop": 104900000,
    "recovered": 21440,
    "lastUpdated": "2020-07-16T20:16:02.878Z",
    "latitude": 12.879721,
    "country": "PH",
    "dead": 1643,
    "name": "Philippines",
    "sick": 38183,
    "invisible": false
  },
  {
    "country": "ZW",
    "latitude": -17.824858,
    "id": "5qtR9nx4BLwu1ODTniaY",
    "lastUpdated": "2020-07-16T20:16:02.886Z",
    "dead": 20,
    "name": "Zimbabwe",
    "pop": 14802190,
    "recovered": 395,
    "longitude": 31.053028,
    "infected": 1089,
    "sick": 674,
    "invisible": false
  },
  {
    "country": "US",
    "name": "Navajo Nation",
    "state": "NA",
    "invisible": false,
    "id": "5vkKgxTaKq1IH0Go357L",
    "infected": 8370,
    "lastUpdated": "2020-07-16T20:17:02.108Z",
    "longitude": -109.188,
    "recovered": 0,
    "pop": 356890,
    "dead": 405,
    "latitude": 36.0672,
    "sick": 7965
  },
  {
    "pop": 8781300,
    "dead": 7910,
    "id": "61E7TGjUwAo9xu6Y6gAH",
    "name": "Ciudad de México",
    "latitude": 19.432241,
    "recovered": 0,
    "country": "MX",
    "lastUpdated": "2020-07-16T20:02:10.282Z",
    "infected": 59670,
    "longitude": -99.177254,
    "sick": 51760,
    "invisible": false
  },
  {
    "id": "63KYOuWe41mvqWQrJbr2",
    "name": "Kaluga Oblast",
    "infected": 6781,
    "country": "RU",
    "longitude": 35.1889,
    "recovered": 5086,
    "lastUpdated": "2020-07-16T20:00:09.470Z",
    "pop": 1012000,
    "dead": 54,
    "latitude": 54.3873,
    "sick": 1641,
    "invisible": false
  },
  {
    "latitude": 55.621011,
    "country": "LT",
    "dead": 79,
    "name": "Lithuania",
    "infected": 1902,
    "lastUpdated": "2020-07-16T20:16:02.885Z",
    "longitude": 23.804991,
    "recovered": 1593,
    "pop": 2794000,
    "id": "694ON7d0mRJDeM1gHBTR",
    "sick": 230,
    "invisible": false
  },
  {
    "state": "EN",
    "dead": 0,
    "id": "6IQAsvrmBv0HPdeTnh4x",
    "name": "South East",
    "country": "GB",
    "longitude": -0.5596,
    "infected": 34455,
    "pop": 9175000,
    "lastUpdated": "2020-07-16T20:13:11.583Z",
    "latitude": 51.1781,
    "recovered": 0,
    "sick": 34455,
    "invisible": false
  },
  {
    "id": "6IcHIIH0zXpY0POmBZTv",
    "lastUpdated": "2020-07-16T20:16:02.886Z",
    "pop": 7392000,
    "latitude": 22.396427,
    "longitude": 114.109497,
    "infected": 1656,
    "name": "Hong Kong",
    "recovered": 1254,
    "country": "HK",
    "dead": 10,
    "sick": 392,
    "invisible": false
  },
  {
    "infected": 16672,
    "recovered": 0,
    "lastUpdated": "2020-07-16T19:57:34.151Z",
    "state": "AC",
    "name": "Acre",
    "dead": 446,
    "latitude": -8.65,
    "longitude": -72.4,
    "country": "BR",
    "pop": 869265,
    "id": "6LQesrx5bHJsVUi1TXBp",
    "sick": 16226,
    "invisible": false
  },
  {
    "pop": 11180000,
    "recovered": 557,
    "country": "BJ",
    "name": "Benin",
    "latitude": 9.3077,
    "dead": 26,
    "longitude": 2.3158,
    "id": "6SlpghTyB6lpMFvx3g9U",
    "infected": 1378,
    "lastUpdated": "2020-07-16T20:16:02.886Z",
    "sick": 795,
    "invisible": false
  },
  {
    "state": "25",
    "infected": 95316,
    "country": "IT",
    "id": "6ZHcvMIzVWIaRnc4R3Qp",
    "name": "Lombardia",
    "lastUpdated": "2020-07-16T20:01:01.703Z",
    "longitude": 9.5,
    "recovered": 71032,
    "latitude": 45.6667,
    "pop": 10040000,
    "dead": 16775,
    "sick": 7509,
    "invisible": false
  },
  {
    "longitude": 14.5058,
    "lastUpdated": "2020-07-16T20:16:02.885Z",
    "latitude": 46.0569,
    "dead": 111,
    "recovered": 1522,
    "id": "6ahNiyKDSDAftCctgLH3",
    "country": "SI",
    "infected": 1897,
    "pop": 2067000,
    "name": "Slovenia",
    "sick": 264,
    "invisible": false
  },
  {
    "infected": 1734,
    "longitude": -70.331398,
    "recovered": 0,
    "name": "Atacama",
    "latitude": -27.3667908,
    "country": "CL",
    "dead": 10,
    "lastUpdated": "2020-07-16T20:20:12.612Z",
    "pop": 300000,
    "id": "6nyns7UGGgkU7pxrHf8i",
    "sick": 1724,
    "invisible": false
  },
  {
    "country": "GA",
    "dead": 46,
    "name": "Gabon",
    "recovered": 3664,
    "longitude": 11.6094,
    "id": "6pBi38TUgYfFm0bry2uh",
    "infected": 6121,
    "lastUpdated": "2020-07-16T20:16:02.884Z",
    "latitude": -0.8037,
    "pop": 2025000,
    "sick": 2411,
    "invisible": false
  },
  {
    "name": "San Luis Potosí",
    "recovered": 0,
    "country": "MX",
    "latitude": 22.1498,
    "dead": 311,
    "longitude": -100.9792,
    "id": "6vjIVg1gSANFZghV7xtS",
    "pop": 2831900,
    "lastUpdated": "2020-07-16T20:02:10.282Z",
    "infected": 5002,
    "sick": 4691,
    "invisible": false
  },
  {
    "id": "78Ox26bNHDA2Pk2b3Uwn",
    "country": "FR",
    "longitude": -62.818544,
    "recovered": 6,
    "alwaysShow": true,
    "lastUpdated": "2020-07-16T20:16:02.897Z",
    "infected": 6,
    "pop": 9131,
    "dead": 0,
    "name": "Saint-Barthélémy",
    "latitude": 17.901672,
    "sick": 0,
    "invisible": false
  },
  {
    "name": "Pomorskie",
    "latitude": 54.367,
    "pop": 2305000,
    "infected": 718,
    "country": "PL",
    "id": "7JDx6UJiwGSJyL1fChaJ",
    "longitude": 18.633,
    "recovered": 0,
    "lastUpdated": "2020-07-16T20:03:02.361Z",
    "dead": 38,
    "sick": 680,
    "invisible": false
  },
  {
    "latitude": 35.2923,
    "id": "7UASdZTZ1nPzzBwSTEA9",
    "dead": 2,
    "pop": 84690,
    "name": "Melilla",
    "state": "ML",
    "infected": 141,
    "longitude": -2.9381,
    "recovered": 125,
    "lastUpdated": "2020-07-15T22:30:55.104Z",
    "country": "ES",
    "sick": 14,
    "invisible": false
  },
  {
    "dead": 3,
    "infected": 74,
    "country": "AG",
    "id": "7hVFcEV7nV0MrQr3LHrl",
    "longitude": -61.7964,
    "pop": 102012,
    "name": "Antigua and Barbuda",
    "recovered": 57,
    "latitude": 17.0608,
    "lastUpdated": "2020-07-16T20:16:02.895Z",
    "sick": 14,
    "invisible": false
  },
  {
    "recovered": 45974,
    "longitude": 11.4979,
    "country": "DE",
    "dead": 2656,
    "lastUpdated": "2020-07-16T20:00:03.556Z",
    "infected": 49840,
    "id": "7kCrrlOBE3jN6FtOVNUB",
    "name": "Bayern",
    "state": "BY",
    "latitude": 48.7904,
    "pop": 13000000,
    "sick": 1210,
    "invisible": false
  },
  {
    "longitude": 19.0402,
    "lastUpdated": "2020-07-16T20:16:02.884Z",
    "latitude": 47.4979,
    "id": "7rYC2iFB50c55Ihgbs4Q",
    "country": "HU",
    "dead": 595,
    "recovered": 3156,
    "pop": 9773000,
    "name": "Hungary",
    "infected": 4279,
    "sick": 528,
    "invisible": false
  },
  {
    "id": "7tqLvLyXcBDK808nJv0m",
    "lastUpdated": "2020-07-16T20:00:10.543Z",
    "infected": 20165,
    "pop": 1206000,
    "name": "Barranquilla D.E.",
    "dead": 1191,
    "longitude": -74.7813,
    "latitude": 10.9685,
    "recovered": 9836,
    "country": "CO",
    "sick": 9138,
    "invisible": false
  },
  {
    "country": "CM",
    "name": "Cameroon",
    "latitude": 7.3697,
    "lastUpdated": "2020-07-16T20:16:02.881Z",
    "infected": 15173,
    "recovered": 11928,
    "pop": 24050000,
    "dead": 359,
    "longitude": 12.3547,
    "id": "8C0d7WVCjyUGtnc2gUAR",
    "sick": 2886,
    "invisible": false
  },
  {
    "lastUpdated": "2020-07-16T20:07:07.395Z",
    "longitude": 4.3517,
    "dead": 1490,
    "state": "BRU",
    "recovered": 2828,
    "latitude": 50.8503,
    "country": "BE",
    "infected": 6543,
    "pop": 1209000,
    "id": "8DOZWbN6bDdgaLXVlUEu",
    "name": "Brussels",
    "sick": 2225,
    "invisible": false
  },
  {
    "longitude": -63.5887,
    "lastUpdated": "2020-07-16T20:16:02.878Z",
    "pop": 11050000,
    "latitude": -16.2902,
    "country": "BO",
    "infected": 52218,
    "recovered": 16357,
    "id": "8RihJrXw4NQXPxaRxr1u",
    "name": "Bolivia",
    "dead": 1942,
    "sick": 33919,
    "invisible": false
  },
  {
    "infected": 35,
    "id": "8ZTySQROQejkDAad0qxQ",
    "country": "VC",
    "pop": 109897,
    "longitude": -61.2872,
    "latitude": 12.9843,
    "recovered": 29,
    "name": "St. Vincent Grenadines",
    "dead": 0,
    "lastUpdated": "2020-07-16T20:16:02.895Z",
    "sick": 6,
    "invisible": false
  },
  {
    "dead": 27,
    "longitude": 103.819839,
    "id": "8pA3fM4xC2c2wv1b4TnE",
    "latitude": 1.352083,
    "infected": 47126,
    "lastUpdated": "2020-07-16T20:16:02.879Z",
    "name": "Singapore",
    "country": "SG",
    "recovered": 43256,
    "pop": 5621000,
    "sick": 3843,
    "invisible": false
  },
  {
    "lastUpdated": "2020-07-15T22:42:39.399Z",
    "latitude": 47.2184,
    "country": "FR",
    "longitude": -1.5536,
    "name": "Pays de la Loire",
    "dead": 470,
    "id": "98hwAoohgWEOQVa3NlM5",
    "pop": 3787000,
    "infected": 4298,
    "recovered": 2120,
    "sick": 1708,
    "invisible": false
  },
  {
    "latitude": 19.30754,
    "name": "Campeche",
    "country": "MX",
    "longitude": -90.19885,
    "lastUpdated": "2020-07-16T20:02:10.282Z",
    "pop": 952300,
    "id": "9DAvxOObTqIvMOU93nlY",
    "recovered": 0,
    "dead": 320,
    "infected": 3305,
    "sick": 2985,
    "invisible": false
  },
  {
    "infected": 10527,
    "lastUpdated": "2020-07-16T20:16:02.882Z",
    "pop": 40530000,
    "id": "9DPOkpIqrFy9mR4e9fuv",
    "dead": 668,
    "recovered": 5601,
    "latitude": 12.8628,
    "country": "SD",
    "longitude": 30.2176,
    "name": "Sudan",
    "sick": 4258,
    "invisible": false
  },
  {
    "longitude": 43.9541,
    "infected": 1902,
    "country": "RU",
    "dead": 24,
    "name": "Kostroma Oblast",
    "recovered": 1268,
    "lastUpdated": "2020-07-16T20:00:09.487Z",
    "latitude": 58.5501,
    "id": "9JFYfvpcejMIgYlHpngA",
    "pop": 643000,
    "sick": 610,
    "invisible": false
  },
  {
    "infected": 35003,
    "country": "RO",
    "longitude": 24.966761,
    "id": "9QcETqEcM2fTv9zRvx5T",
    "latitude": 45.943161,
    "recovered": 22189,
    "dead": 1971,
    "name": "Romania",
    "lastUpdated": "2020-07-16T20:16:02.879Z",
    "pop": 19530000,
    "sick": 10843,
    "invisible": false
  },
  {
    "pop": 6218000,
    "longitude": -86.251389,
    "latitude": 12.136389,
    "country": "NI",
    "id": "9Y5wmCqNCC6ZrenM31uA",
    "infected": 3147,
    "lastUpdated": "2020-07-16T20:16:02.884Z",
    "recovered": 2282,
    "dead": 99,
    "name": "Nicaragua",
    "sick": 766,
    "invisible": false
  },
  {
    "country": "ML",
    "lastUpdated": "2020-07-16T20:16:02.885Z",
    "longitude": -3.996166,
    "infected": 2440,
    "name": "Mali",
    "dead": 121,
    "latitude": 17.5706921,
    "id": "9dIzxqDSVqPyINkHqwGv",
    "recovered": 1777,
    "pop": 18540000,
    "sick": 542,
    "invisible": false
  },
  {
    "longitude": 25.748152,
    "pop": 5513000,
    "id": "9p6OCdZbUUwBLA60Gk3W",
    "name": "Finland",
    "recovered": 6880,
    "dead": 328,
    "infected": 7296,
    "lastUpdated": "2020-07-16T10:31:02.679Z",
    "country": "FI",
    "latitude": 61.92411,
    "sick": 88,
    "invisible": false
  },
  {
    "country": "RU",
    "pop": 2876000,
    "dead": 251,
    "id": "A6Us0fpQVCc85SoIqzg3",
    "latitude": 64.248,
    "longitude": 95.1104,
    "name": "Krasnoyarsk Krai",
    "lastUpdated": "2020-07-16T20:00:09.467Z",
    "infected": 11020,
    "recovered": 7710,
    "sick": 3059,
    "invisible": false
  },
  {
    "id": "A84CwQ52kA46Hr7pn6Bm",
    "recovered": 0,
    "country": "US",
    "latitude": 43.311643,
    "longitude": -71.590315,
    "dead": 394,
    "infected": 6113,
    "state": "NH",
    "name": "New Hampshire",
    "lastUpdated": "2020-07-16T20:17:02.107Z",
    "pop": 1356000,
    "sick": 5719,
    "invisible": false
  },
  {
    "dead": 988,
    "latitude": 41.823261,
    "country": "US",
    "id": "AEUWUHS65qvjEslew11c",
    "state": "RI",
    "infected": 17711,
    "recovered": 0,
    "lastUpdated": "2020-07-16T20:17:02.106Z",
    "longitude": -71.412257,
    "name": "Rhode Island",
    "pop": 1057000,
    "sick": 16723,
    "invisible": false
  },
  {
    "state": "45",
    "recovered": 23566,
    "country": "IT",
    "pop": 4453000,
    "name": "Emilia-Romagna",
    "lastUpdated": "2020-07-16T20:01:01.703Z",
    "latitude": 44.498955,
    "dead": 4271,
    "longitude": 11.327591,
    "id": "AJ9jQ0iyKsafsmf5yHAR",
    "infected": 29035,
    "sick": 1198,
    "invisible": false
  },
  {
    "state": "SL",
    "lastUpdated": "2020-07-16T20:00:03.561Z",
    "dead": 178,
    "longitude": 7.023,
    "latitude": 49.3964,
    "pop": 990509,
    "recovered": 2625,
    "name": "Saarland",
    "infected": 2844,
    "id": "AKjFRQGnzuuZQhv5Qwx7",
    "country": "DE",
    "sick": 41,
    "invisible": false
  },
  {
    "lastUpdated": "2020-07-16T20:00:09.468Z",
    "pop": 3493000,
    "country": "RU",
    "name": "Chelyabinsk Oblast",
    "latitude": 54.4319,
    "longitude": 60.8789,
    "id": "AOapJ3gElQApd8Gnt8EL",
    "dead": 88,
    "recovered": 5282,
    "infected": 9289,
    "sick": 3919,
    "invisible": false
  },
  {
    "longitude": -71.167,
    "recovered": 0,
    "lastUpdated": "2020-07-16T20:20:12.612Z",
    "id": "APTPgjAsjFi0nsGyJV7M",
    "infected": 7462,
    "country": "CL",
    "latitude": -35.717,
    "name": "Maule",
    "dead": 99,
    "pop": 1125002,
    "sick": 7363,
    "invisible": false
  },
  {
    "longitude": -42.6043,
    "pop": 56171,
    "infected": 13,
    "name": "Greenland",
    "lastUpdated": "2020-07-16T20:16:02.896Z",
    "id": "APaZzlGCEeuoLBtzTJMe",
    "country": "GL",
    "latitude": 71.7069,
    "dead": 0,
    "recovered": 13,
    "sick": 0,
    "invisible": false
  },
  {
    "id": "ATxF6ZoDJ2ibdE6ZRYIX",
    "name": "Buryatia",
    "latitude": 54.8331,
    "infected": 3522,
    "recovered": 2720,
    "longitude": 112.4061,
    "pop": 984000,
    "lastUpdated": "2020-07-16T20:00:09.483Z",
    "dead": 29,
    "country": "RU",
    "sick": 773,
    "invisible": false
  },
  {
    "state": "NS",
    "pop": 971395,
    "id": "AVCpxeh0fuH2WrHWNDYH",
    "dead": 63,
    "longitude": -63.582687,
    "country": "CA",
    "recovered": 1002,
    "lastUpdated": "2020-07-16T20:07:02.385Z",
    "latitude": 45.65107,
    "name": "Nova Scotia",
    "infected": 1067,
    "sick": 2,
    "invisible": false
  },
  {
    "latitude": 47.012918,
    "recovered": 0,
    "infected": 2231,
    "pop": 1062000,
    "id": "AcULcZBozObOhwuRKMjJ",
    "state": "MT",
    "country": "US",
    "name": "Montana",
    "longitude": -109.128641,
    "lastUpdated": "2020-07-16T20:17:02.107Z",
    "dead": 35,
    "sick": 2196,
    "invisible": false
  },
  {
    "id": "AiIGs3ybYZZhm1ytVopr",
    "latitude": 38.861,
    "infected": 6695,
    "longitude": 71.2761,
    "lastUpdated": "2020-07-16T20:16:02.883Z",
    "pop": 9275000,
    "country": "TJ",
    "name": "Tajikistan",
    "recovered": 5383,
    "dead": 56,
    "sick": 1256,
    "invisible": false
  },
  {
    "lastUpdated": "2020-07-16T20:08:04.116Z",
    "recovered": 931,
    "latitude": 27.285971,
    "longitude": 116.01609,
    "name": "Jiangxi",
    "pop": 45200000,
    "dead": 1,
    "id": "AmBYm5J6E9Cuez1FQjiN",
    "infected": 932,
    "country": "CN",
    "sick": 0,
    "invisible": false
  },
  {
    "state": "WA",
    "country": "GB",
    "longitude": -3.7837,
    "id": "AoLhHdTydeWTfmp9koEX",
    "latitude": 52.1307,
    "dead": 1545,
    "pop": 3136000,
    "infected": 16871,
    "name": "Wales",
    "recovered": 0,
    "lastUpdated": "2020-07-16T20:13:11.581Z",
    "sick": 15326,
    "invisible": false
  },
  {
    "recovered": 1909,
    "longitude": 90.3982,
    "pop": 537000,
    "lastUpdated": "2020-07-16T20:00:09.486Z",
    "dead": 23,
    "id": "Avls64fLKoEsBFH0Ol0b",
    "latitude": 53.0452,
    "country": "RU",
    "name": "Khakassia",
    "infected": 2484,
    "sick": 552,
    "invisible": false
  },
  {
    "dead": 1052,
    "lastUpdated": "2020-07-16T20:16:02.881Z",
    "longitude": 1.659626,
    "pop": 41320000,
    "recovered": 15107,
    "latitude": 28.033886,
    "name": "Algeria",
    "id": "AwN0CScPDApcLFgz6e3z",
    "infected": 21355,
    "country": "DZ",
    "sick": 5196,
    "invisible": false
  },
  {
    "longitude": 15.2,
    "pop": 4076000,
    "id": "B82Ef45M8cDu4q7VsSHF",
    "lastUpdated": "2020-07-16T20:16:02.884Z",
    "dead": 120,
    "name": "Croatia",
    "recovered": 2729,
    "infected": 4039,
    "country": "HR",
    "latitude": 45.099998,
    "sick": 1190,
    "invisible": false
  },
  {
    "longitude": 8.081666,
    "infected": 1100,
    "latitude": 17.6077881,
    "country": "NE",
    "name": "Niger",
    "pop": 23716000,
    "lastUpdated": "2020-07-16T20:16:02.886Z",
    "recovered": 993,
    "dead": 69,
    "id": "BENubqQInFUJzhpZTsLT",
    "sick": 38,
    "invisible": false
  },
  {
    "country": "US",
    "pop": 6043000,
    "id": "BF51mWl51fgEcyBpCSzb",
    "state": "MD",
    "longitude": -76.98432,
    "latitude": 39.509109,
    "infected": 75664,
    "recovered": 0,
    "lastUpdated": "2020-07-16T20:17:02.104Z",
    "dead": 3347,
    "name": "Maryland",
    "sick": 72317,
    "invisible": false
  },
  {
    "recovered": 56915,
    "dead": 485,
    "country": "BY",
    "name": "Belarus",
    "longitude": 27.953388,
    "id": "BGg6yVU5VP71B8NXU0oh",
    "lastUpdated": "2020-07-16T20:16:02.878Z",
    "infected": 65623,
    "latitude": 53.709808,
    "pop": 9508000,
    "sick": 8223,
    "invisible": false
  },
  {
    "recovered": 1709,
    "infected": 3696,
    "dead": 436,
    "longitude": 0.1713,
    "country": "FR",
    "latitude": 48.8799,
    "id": "BGtoyzb7y54LVlJ91rbf",
    "lastUpdated": "2020-07-15T22:42:05.727Z",
    "pop": 3319000,
    "name": "Normandie",
    "sick": 1551,
    "invisible": false
  },
  {
    "recovered": 0,
    "latitude": 50.7772,
    "longitude": -3.9995,
    "state": "EN",
    "dead": 0,
    "pop": 5616000,
    "lastUpdated": "2020-07-16T20:13:11.583Z",
    "country": "GB",
    "id": "BQqMOlPFD36ZEDTGd3WC",
    "infected": 12901,
    "name": "South West",
    "sick": 12901,
    "invisible": false
  },
  {
    "name": "Arizona",
    "id": "BTEESCuD2ZbS1afunR2A",
    "longitude": -111.093735,
    "state": "AZ",
    "infected": 134613,
    "pop": 7172000,
    "lastUpdated": "2020-07-16T20:17:02.103Z",
    "dead": 2492,
    "recovered": 0,
    "country": "US",
    "latitude": 34.048927,
    "sick": 132121,
    "invisible": false
  },
  {
    "infected": 5262,
    "recovered": 3180,
    "dead": 83,
    "id": "BUb7oDHcBM4lQ5cufNoG",
    "country": "RU",
    "latitude": 54.9883,
    "name": "Smolensk Oblast",
    "longitude": 32.6677,
    "lastUpdated": "2020-07-16T20:00:09.473Z",
    "pop": 949000,
    "sick": 1999,
    "invisible": false
  },
  {
    "id": "BWojXmuKU3szKlS7CE4k",
    "infected": 3990,
    "dead": 49,
    "country": "RU",
    "longitude": 50.2097,
    "latitude": 58.4199,
    "recovered": 3613,
    "name": "Kirov Oblast",
    "lastUpdated": "2020-07-16T20:00:09.482Z",
    "pop": 1283000,
    "sick": 328,
    "invisible": false
  },
  {
    "longitude": 14.552812,
    "latitude": 53.428543,
    "dead": 23,
    "recovered": 0,
    "infected": 645,
    "id": "BZwZOAlDJ8AIiaRVLyC9",
    "pop": 1676000,
    "name": "Zachodniopomorskie",
    "lastUpdated": "2020-07-16T20:03:02.366Z",
    "country": "PL",
    "sick": 622,
    "invisible": false
  },
  {
    "longitude": -70.6693,
    "lastUpdated": "2020-07-16T20:16:02.876Z",
    "infected": 0,
    "invisible": true,
    "recovered": 295301,
    "id": "BbiuZcm8oURX7cZwaa5U",
    "latitude": -33.4489,
    "country": "CL",
    "name": "Unknown Chile region",
    "dead": 0,
    "sick": 0
  },
  {
    "latitude": -13.2543,
    "infected": 2614,
    "longitude": 34.3015,
    "name": "Malawi",
    "lastUpdated": "2020-07-16T20:16:02.885Z",
    "country": "MW",
    "pop": 18620000,
    "recovered": 1005,
    "dead": 43,
    "id": "BfT8o5DaEixC6JIZ28kY",
    "sick": 1566,
    "invisible": false
  },
  {
    "id": "BnpMamidC5yYzeK8tPUL",
    "recovered": 207,
    "pop": 10860000,
    "longitude": 29.9188862,
    "name": "Burundi",
    "infected": 269,
    "country": "BI",
    "latitude": -3.3730559,
    "lastUpdated": "2020-07-16T20:16:02.889Z",
    "dead": 1,
    "sick": 61,
    "invisible": false
  },
  {
    "infected": 5536,
    "name": "Mazowieckie",
    "pop": 5385000,
    "id": "BrToMzyq8y2xdwXn75kM",
    "longitude": 21.002,
    "latitude": 52.257,
    "dead": 359,
    "recovered": 0,
    "lastUpdated": "2020-07-16T20:03:02.360Z",
    "country": "PL",
    "sick": 5177,
    "invisible": false
  },
  {
    "name": "Amazonas (Colombia)",
    "recovered": 2230,
    "longitude": -71.347573,
    "latitude": -1.333845,
    "pop": 74751,
    "country": "CO",
    "id": "C25xSDm4iYibX5RYML14",
    "infected": 2433,
    "dead": 101,
    "lastUpdated": "2020-07-16T20:00:10.548Z",
    "sick": 102,
    "invisible": false
  },
  {
    "country": "US",
    "dead": 32512,
    "recovered": 0,
    "infected": 430923,
    "latitude": 40.719042,
    "lastUpdated": "2020-07-16T20:17:02.098Z",
    "id": "C3BCUzV80z9GfiuByIcr",
    "longitude": -73.982597,
    "state": "NY",
    "pop": 19540000,
    "name": "New York",
    "sick": 398411,
    "invisible": false
  },
  {
    "lastUpdated": "2020-07-16T20:00:10.548Z",
    "name": "Guainía",
    "longitude": -67.92389,
    "pop": 42800,
    "recovered": 11,
    "latitude": 3.86528,
    "country": "CO",
    "id": "C5YXFiytAc1w9swtVGLz",
    "infected": 14,
    "dead": 1,
    "sick": 2,
    "invisible": false
  },
  {
    "pop": 10650000,
    "id": "C6S76AggdWVU8G22jFHQ",
    "name": "Czechia",
    "recovered": 8507,
    "lastUpdated": "2020-07-16T20:16:02.882Z",
    "latitude": 49.731626,
    "dead": 355,
    "infected": 13551,
    "longitude": 15.359413,
    "country": "CZ",
    "sick": 4689,
    "invisible": false
  },
  {
    "dead": 121,
    "recovered": 30320,
    "lastUpdated": "2020-07-16T20:16:02.879Z",
    "longitude": 50.557701,
    "name": "Bahrain",
    "latitude": 26.0667,
    "id": "C7cj4nwRITs13KnaJrQ2",
    "country": "BH",
    "infected": 34560,
    "pop": 1493000,
    "sick": 4119,
    "invisible": false
  },
  {
    "id": "CA9LaAl3bNaeAqBuozn4",
    "latitude": 10.4113,
    "country": "CO",
    "lastUpdated": "2020-07-16T20:00:10.547Z",
    "dead": 132,
    "longitude": -74.4057,
    "pop": 1285400,
    "name": "Magdalena",
    "infected": 1259,
    "recovered": 570,
    "sick": 557,
    "invisible": false
  },
  {
    "pop": 3073500,
    "dead": 402,
    "name": "Coahuila",
    "lastUpdated": "2020-07-16T20:02:10.282Z",
    "latitude": 26.909979,
    "longitude": -101.430756,
    "id": "CCUFp4urvgXPo5unfMGy",
    "recovered": 0,
    "country": "MX",
    "infected": 7988,
    "sick": 7586,
    "invisible": false
  },
  {
    "latitude": 27.0238,
    "id": "CKZCZTPlrcq5fbfUPA9k",
    "name": "Rajasthan",
    "dead": 538,
    "country": "IN",
    "longitude": 74.2179,
    "recovered": 19970,
    "lastUpdated": "2020-07-16T20:11:01.921Z",
    "infected": 27174,
    "pop": 68890000,
    "sick": 6666,
    "invisible": false
  },
  {
    "name": "Altai",
    "recovered": 672,
    "infected": 1154,
    "id": "CX8z9U1iABNBhc1VK2Dy",
    "lastUpdated": "2020-07-16T20:00:09.487Z",
    "longitude": 86.2199,
    "latitude": 50.6182,
    "country": "RU",
    "dead": 1,
    "pop": 218000,
    "sick": 481,
    "invisible": false
  },
  {
    "longitude": -88.9053,
    "id": "Cgvmtle61ehMvCzRzYx7",
    "name": "El Salvador",
    "latitude": 13.803,
    "pop": 6378000,
    "dead": 298,
    "lastUpdated": "2020-07-16T20:16:02.882Z",
    "recovered": 6257,
    "infected": 10957,
    "country": "SV",
    "sick": 4402,
    "invisible": false
  },
  {
    "id": "D4WkbqyUXY1pazbOxfKx",
    "latitude": 62.6643,
    "lastUpdated": "2020-07-16T20:00:09.487Z",
    "country": "RU",
    "recovered": 644,
    "infected": 1098,
    "longitude": 153.915,
    "dead": 6,
    "name": "Magadan Oblast",
    "pop": 144000,
    "sick": 448,
    "invisible": false
  },
  {
    "country": "RU",
    "recovered": 1807,
    "longitude": 82.6765,
    "pop": 1078000,
    "dead": 25,
    "id": "DAp3PFow4BuCMYWWTo3i",
    "infected": 3262,
    "latitude": 58.897,
    "name": "Tomsk Oblast",
    "lastUpdated": "2020-07-16T20:00:09.483Z",
    "sick": 1430,
    "invisible": false
  },
  {
    "name": "Armenia",
    "infected": 33559,
    "latitude": 40.259003,
    "id": "DCJCtZoBTWQ4mzdDNljD",
    "country": "AM",
    "recovered": 21931,
    "pop": 2973000,
    "lastUpdated": "2020-07-16T20:16:02.880Z",
    "dead": 607,
    "longitude": 44.818474,
    "sick": 11021,
    "invisible": false
  },
  {
    "dead": 16,
    "name": "Boyacá",
    "infected": 524,
    "id": "DJJraANgQbEqz1wBBtZz",
    "lastUpdated": "2020-07-16T20:00:10.547Z",
    "longitude": -73.368,
    "latitude": 5.535,
    "recovered": 295,
    "pop": 1278000,
    "country": "CO",
    "sick": 213,
    "invisible": false
  },
  {
    "longitude": 44.0684,
    "infected": 3976,
    "recovered": 2887,
    "pop": 834000,
    "lastUpdated": "2020-07-16T20:00:09.482Z",
    "dead": 30,
    "country": "RU",
    "latitude": 54.2369,
    "id": "DKwy7USk22oXUQGEvO42",
    "name": "Mordovia",
    "sick": 1059,
    "invisible": false
  },
  {
    "id": "DPwBt2aJuwF0O71vwfM9",
    "infected": 43766,
    "lastUpdated": "2020-07-16T20:13:11.582Z",
    "recovered": 0,
    "dead": 0,
    "name": "North West",
    "longitude": -2.5945,
    "state": "EN",
    "latitude": 53.6221,
    "pop": 7300000,
    "country": "GB",
    "sick": 43766,
    "invisible": false
  },
  {
    "infected": 150,
    "longitude": -64.75737,
    "latitude": 32.3213844,
    "country": "BM",
    "id": "DZyTD0Mu5WIcK6yTcJ91",
    "lastUpdated": "2020-07-16T20:16:02.890Z",
    "name": "Bermuda",
    "pop": 65440,
    "recovered": 137,
    "dead": 9,
    "sick": 4,
    "invisible": false
  },
  {
    "id": "DaMrRSIGJXIG36nW0Pnc",
    "latitude": 21.694,
    "country": "TC",
    "lastUpdated": "2020-07-16T20:16:02.895Z",
    "infected": 72,
    "longitude": -71.7979,
    "pop": 35446,
    "dead": 2,
    "recovered": 12,
    "name": "Turks and Caicos",
    "sick": 58,
    "invisible": false
  },
  {
    "recovered": 6392,
    "country": "ES",
    "infected": 27033,
    "dead": 3031,
    "name": "Castilla La Mancha",
    "latitude": 39.2796,
    "id": "Dbng0NBTH41EEwBxhMzE",
    "longitude": -3.0977,
    "state": "CM",
    "lastUpdated": "2020-07-15T22:28:50.264Z",
    "pop": 2035000,
    "sick": 17610,
    "invisible": false
  },
  {
    "id": "DcQ3D0WkacXEbv6iznRB",
    "latitude": 50.023,
    "lastUpdated": "2020-07-16T20:03:02.361Z",
    "country": "PL",
    "longitude": 20.006,
    "dead": 47,
    "recovered": 0,
    "infected": 2233,
    "pop": 3361000,
    "name": "Malopolskie",
    "sick": 2186,
    "invisible": false
  },
  {
    "country": "MO",
    "dead": 0,
    "name": "Macao",
    "infected": 46,
    "pop": 622567,
    "id": "DdBt8qsG6A3g92oOR3ow",
    "longitude": 113.551262,
    "lastUpdated": "2020-07-16T20:16:02.895Z",
    "recovered": 45,
    "latitude": 22.192039,
    "sick": 1,
    "invisible": false
  },
  {
    "dead": 2,
    "name": "Meghalaya",
    "longitude": 91.3662,
    "latitude": 25.467,
    "country": "IN",
    "pop": 2651000,
    "recovered": 49,
    "infected": 377,
    "lastUpdated": "2020-07-16T20:11:01.926Z",
    "id": "Dh0O1vmhrVfmsCsfZCUg",
    "sick": 326,
    "invisible": false
  },
  {
    "country": "RU",
    "recovered": 8619,
    "name": "Rostov Oblast",
    "pop": 4220000,
    "id": "DqzAhNFTJFQVm88ma21P",
    "infected": 11117,
    "latitude": 47.6853,
    "longitude": 41.8259,
    "lastUpdated": "2020-07-16T20:00:09.467Z",
    "dead": 173,
    "sick": 2325,
    "invisible": false
  },
  {
    "id": "DrGzziUglmBognCGY7R2",
    "state": "WY",
    "latitude": 42.962334,
    "country": "US",
    "longitude": -107.534868,
    "lastUpdated": "2020-07-16T20:17:02.107Z",
    "name": "Wyoming",
    "dead": 22,
    "recovered": 0,
    "infected": 1985,
    "pop": 577737,
    "sick": 1963,
    "invisible": false
  },
  {
    "latitude": 37.9838,
    "name": "Greece",
    "longitude": 23.7275,
    "id": "Dtr1lap1RpJpXJdXGJiW",
    "dead": 193,
    "recovered": 1374,
    "lastUpdated": "2020-07-16T20:16:02.884Z",
    "country": "GR",
    "pop": 10740000,
    "infected": 3939,
    "sick": 2372,
    "invisible": false
  },
  {
    "longitude": 56.5872,
    "lastUpdated": "2020-07-16T20:00:09.478Z",
    "pop": 2623000,
    "id": "E8vIyXLVNtcY9dxLHICp",
    "latitude": 58.8232,
    "name": "Perm Krai",
    "country": "RU",
    "dead": 100,
    "infected": 4705,
    "recovered": 3719,
    "sick": 886,
    "invisible": false
  },
  {
    "lastUpdated": "2020-07-16T20:00:09.478Z",
    "longitude": 66.9483,
    "latitude": 56.9634,
    "infected": 4367,
    "country": "RU",
    "dead": 22,
    "id": "EHKZ6ivhrJUs3XqNDBOw",
    "name": "Tyumen Oblast",
    "recovered": 2768,
    "pop": 3692000,
    "sick": 1577,
    "invisible": false
  },
  {
    "name": "Taiwan",
    "dead": 7,
    "lastUpdated": "2020-07-16T20:16:02.888Z",
    "country": "TW",
    "latitude": 25.03841,
    "longitude": 121.563698,
    "pop": 23780000,
    "id": "EKTfs8e7M6DXzI1HqyyX",
    "recovered": 440,
    "infected": 452,
    "sick": 5,
    "invisible": false
  },
  {
    "id": "EQzJvzVHKjs8kLmK7BMu",
    "name": "Costa Rica",
    "pop": 4906000,
    "latitude": 10.327273,
    "lastUpdated": "2020-07-16T20:16:02.883Z",
    "dead": 42,
    "infected": 9546,
    "longitude": -84.387618,
    "recovered": 2673,
    "country": "CR",
    "sick": 6831,
    "invisible": false
  },
  {
    "lastUpdated": "2020-07-16T20:11:01.921Z",
    "name": "Gujarat",
    "longitude": 71.1924,
    "country": "IN",
    "dead": 2090,
    "id": "ERwk9R9en4m9WbdoMbIg",
    "recovered": 32174,
    "latitude": 22.2587,
    "infected": 45567,
    "pop": 62700000,
    "sick": 11303,
    "invisible": false
  },
  {
    "latitude": 63.2853,
    "recovered": 4938,
    "infected": 7492,
    "country": "RU",
    "dead": 116,
    "lastUpdated": "2020-07-16T20:00:09.470Z",
    "id": "EVMBsgCJedjHy91mDYEC",
    "longitude": 42.5884,
    "pop": 1155000,
    "name": "Arkhangelsk Oblast",
    "sick": 2438,
    "invisible": false
  },
  {
    "recovered": 476,
    "id": "Esl5UlCVB9s8pmGB5Ofr",
    "lastUpdated": "2020-07-16T20:11:01.926Z",
    "longitude": 76.7794,
    "infected": 635,
    "latitude": 30.7333,
    "country": "IN",
    "pop": 1055000,
    "name": "Chandigarh",
    "dead": 11,
    "sick": 148,
    "invisible": false
  },
  {
    "infected": 849,
    "recovered": 0,
    "name": "Lubelskie",
    "lastUpdated": "2020-07-16T20:03:02.361Z",
    "latitude": 51.24,
    "country": "PL",
    "longitude": 22.653,
    "dead": 20,
    "id": "Esy1La2CxwH5uB8bGVWZ",
    "pop": 2148000,
    "sick": 829,
    "invisible": false
  },
  {
    "longitude": -66.664513,
    "lastUpdated": "2020-07-16T20:17:02.108Z",
    "name": "Puerto Rico",
    "dead": 172,
    "state": "PR",
    "alwaysShow": true,
    "pop": 3195000,
    "country": "US",
    "infected": 10574,
    "latitude": 18.200178,
    "recovered": 0,
    "id": "F4rPrEVGAIMM5rfPEMv4",
    "sick": 10402,
    "invisible": false
  },
  {
    "dead": 107,
    "longitude": -74.058655,
    "latitude": 4.862437,
    "recovered": 2205,
    "infected": 4644,
    "lastUpdated": "2020-07-16T20:00:10.543Z",
    "pop": 2919000,
    "id": "F7MED5VwEhi3JvJu6KjB",
    "name": "Cundinamarca",
    "country": "CO",
    "sick": 2332,
    "invisible": false
  },
  {
    "name": "Comoros",
    "recovered": 302,
    "latitude": -11.6455,
    "country": "KM",
    "dead": 7,
    "longitude": 43.3333,
    "infected": 321,
    "id": "F8LnLqvuWoWh8awBqiw1",
    "pop": 832322,
    "lastUpdated": "2020-07-16T20:16:02.889Z",
    "sick": 12,
    "invisible": false
  },
  {
    "pop": 35530000,
    "name": "Afghanistan",
    "longitude": 67.709953,
    "dead": 1113,
    "recovered": 22824,
    "lastUpdated": "2020-07-16T20:16:02.879Z",
    "country": "AF",
    "id": "FCDmlmnIIswd8bQiUjfN",
    "latitude": 33.93911,
    "infected": 35070,
    "sick": 11133,
    "invisible": false
  },
  {
    "latitude": 29.431585,
    "lastUpdated": "2020-07-16T20:08:04.114Z",
    "country": "CN",
    "infected": 583,
    "name": "Chongqing",
    "dead": 6,
    "pop": 30480000,
    "recovered": 576,
    "longitude": 106.912254,
    "id": "FErOU1m4Tj7jIkRam3vF",
    "sick": 1,
    "invisible": false
  },
  {
    "country": "KW",
    "name": "Kuwait",
    "latitude": 29.311661,
    "longitude": 47.481766,
    "infected": 57668,
    "id": "FZsUkhxBEgqsPb4eO0PN",
    "dead": 402,
    "recovered": 47545,
    "pop": 4137000,
    "lastUpdated": "2020-07-16T20:16:02.878Z",
    "sick": 9721,
    "invisible": false
  },
  {
    "id": "FboWeolpM62SZCLwdilT",
    "recovered": 0,
    "pop": 2278308,
    "dead": 1054,
    "longitude": -37.0717,
    "state": "SE",
    "name": "Sergipe",
    "infected": 40139,
    "country": "BR",
    "latitude": -10.9111,
    "lastUpdated": "2020-07-16T19:57:34.144Z",
    "sick": 39085,
    "invisible": false
  },
  {
    "name": "Tamil Nadu",
    "lastUpdated": "2020-07-16T20:11:01.921Z",
    "recovered": 107416,
    "latitude": 11.1271,
    "pop": 67860000,
    "longitude": 78.6569,
    "dead": 2236,
    "id": "FeS45oMNC27pI17F0xEV",
    "country": "IN",
    "infected": 156369,
    "sick": 46717,
    "invisible": false
  },
  {
    "name": "Dominican Republic",
    "infected": 48743,
    "id": "FuiVEJvWb0QMCpxJ3563",
    "latitude": 18.947829,
    "pop": 10770000,
    "recovered": 23636,
    "country": "DO",
    "lastUpdated": "2020-07-16T20:16:02.878Z",
    "longitude": -70.430399,
    "dead": 941,
    "sick": 24166,
    "invisible": false
  },
  {
    "longitude": 79.0193,
    "country": "IN",
    "latitude": 18.1124,
    "infected": 41018,
    "pop": 35190000,
    "id": "FyC551oNwmENxbr9Yght",
    "lastUpdated": "2020-07-16T20:11:01.921Z",
    "recovered": 27295,
    "name": "Telengana",
    "dead": 396,
    "sick": 13327,
    "invisible": false
  },
  {
    "longitude": 19.699,
    "lastUpdated": "2020-07-16T20:16:02.885Z",
    "id": "FzIDXoqWnTI3nUfhPyT2",
    "country": "SK",
    "dead": 28,
    "recovered": 1514,
    "infected": 1951,
    "pop": 5450000,
    "name": "Slovakia",
    "latitude": 48.669,
    "sick": 409,
    "invisible": false
  },
  {
    "name": "Pakistan",
    "latitude": 30.37532,
    "pop": 197000000,
    "lastUpdated": "2020-07-16T20:16:02.876Z",
    "dead": 5426,
    "id": "GAp7Wb6IMhdgbvEtMza9",
    "infected": 257914,
    "recovered": 178737,
    "country": "PK",
    "longitude": 69.345116,
    "sick": 73751,
    "invisible": false
  },
  {
    "name": "Punjab",
    "id": "GGru8cG08mANO8XDDUtZ",
    "infected": 9094,
    "country": "IN",
    "lastUpdated": "2020-07-16T14:41:02.014Z",
    "pop": 27980000,
    "latitude": 31.1471,
    "dead": 239,
    "longitude": 75.3412,
    "recovered": 6350,
    "sick": 2505,
    "invisible": false
  },
  {
    "lastUpdated": "2020-07-16T20:16:02.878Z",
    "infected": 56129,
    "pop": 9400000,
    "longitude": 53.847816,
    "country": "AE",
    "latitude": 23.424076,
    "name": "United Arab Emirates",
    "dead": 335,
    "recovered": 47412,
    "id": "GHzBIsHy2GiBc5JV2HMs",
    "sick": 8382,
    "invisible": false
  },
  {
    "name": "Grand Princess",
    "latitude": 37.0902,
    "lastUpdated": "2020-07-16T20:17:02.108Z",
    "longitude": -95.7129,
    "id": "GLViSIjDjwvptOphedAu",
    "invisible": true,
    "infected": 103,
    "dead": 3,
    "country": "US",
    "recovered": 0,
    "sick": 100
  },
  {
    "country": "GB",
    "infected": 34341,
    "longitude": -0.1278,
    "lastUpdated": "2020-07-16T20:13:11.582Z",
    "latitude": 51.5074,
    "id": "GPtoS0Yy2EnNafpmmTqY",
    "state": "EN",
    "recovered": 0,
    "pop": 10100000,
    "name": "London",
    "dead": 0,
    "sick": 34341,
    "invisible": false
  },
  {
    "pop": 39560000,
    "state": "CA",
    "id": "Gh46r6vuaY7fbGt3IboN",
    "recovered": 0,
    "dead": 7374,
    "latitude": 36.621981,
    "name": "California",
    "lastUpdated": "2020-07-16T20:17:02.099Z",
    "infected": 358153,
    "longitude": -119.339046,
    "country": "US",
    "sick": 350779,
    "invisible": false
  },
  {
    "latitude": 20.4283,
    "country": "IN",
    "name": "Dadra and Nagar Haveli",
    "pop": 343709,
    "infected": 576,
    "lastUpdated": "2020-07-16T20:11:01.926Z",
    "longitude": 72.8397,
    "id": "GljWeVnun6o9DeW6rlEm",
    "recovered": 392,
    "dead": 2,
    "sick": 182,
    "invisible": false
  },
  {
    "longitude": -97.145514,
    "pop": 3943000,
    "state": "OK",
    "lastUpdated": "2020-07-16T20:17:02.105Z",
    "country": "US",
    "latitude": 35.87189,
    "recovered": 0,
    "infected": 23441,
    "name": "Oklahoma",
    "id": "GpF8ULuKOQiFDCUHN44h",
    "dead": 438,
    "sick": 23003,
    "invisible": false
  },
  {
    "id": "Gr09a1wn3BnMqjQbgEun",
    "dead": 0,
    "recovered": 64,
    "country": "CO",
    "name": "Arauca",
    "pop": 256627,
    "longitude": -71.557,
    "lastUpdated": "2020-07-16T20:00:10.548Z",
    "infected": 160,
    "latitude": 6.492,
    "sick": 96,
    "invisible": false
  },
  {
    "id": "GsecjBfopdgTOnyRgtCA",
    "pop": 1014000,
    "lastUpdated": "2020-07-16T20:00:09.472Z",
    "country": "RU",
    "dead": 61,
    "name": "Ivanovo Oblast",
    "longitude": 41.483,
    "recovered": 4088,
    "infected": 5752,
    "latitude": 57.1057,
    "sick": 1603,
    "invisible": false
  },
  {
    "recovered": 2288,
    "latitude": 46.5,
    "pop": 520891,
    "dead": 292,
    "longitude": 11.35,
    "id": "Gzx6GX1qhBm714BkEC6l",
    "state": "BA",
    "name": "P.A. Bolzano",
    "lastUpdated": "2020-07-16T15:31:12.340Z",
    "infected": 2677,
    "country": "IT",
    "sick": 97,
    "invisible": false
  },
  {
    "id": "H3JeVigVbo5CSYfZG4WI",
    "latitude": 42.83263,
    "longitude": 113.750972,
    "dead": 1,
    "lastUpdated": "2020-07-16T20:08:04.112Z",
    "infected": 249,
    "pop": 24710000,
    "name": "Inner Mongolia",
    "recovered": 237,
    "country": "CN",
    "sick": 11,
    "invisible": false
  },
  {
    "country": "US",
    "state": "NV",
    "lastUpdated": "2020-07-16T20:17:02.105Z",
    "id": "H3bDg4eV30up4WWrIDAS",
    "name": "Nevada",
    "pop": 3034000,
    "dead": 626,
    "longitude": -116.724977,
    "recovered": 0,
    "infected": 31915,
    "latitude": 39.74536,
    "sick": 31289,
    "invisible": false
  },
  {
    "name": "Ceará",
    "latitude": -3.731862,
    "id": "HEMWNnFxeFEoeOCBOLJD",
    "lastUpdated": "2020-07-16T19:57:34.142Z",
    "infected": 141248,
    "longitude": -38.526669,
    "state": "CE",
    "recovered": 0,
    "country": "BR",
    "dead": 7030,
    "pop": 9075649,
    "sick": 134218,
    "invisible": false
  },
  {
    "id": "HN5mGmxlqlSeFSNeu1K5",
    "latitude": 15.3173,
    "pop": 64060000,
    "recovered": 19730,
    "country": "IN",
    "lastUpdated": "2020-07-16T20:11:01.921Z",
    "infected": 51422,
    "name": "Karnataka",
    "dead": 1037,
    "longitude": 75.7139,
    "sick": 30655,
    "invisible": false
  },
  {
    "id": "HRDpwyxpqW9RN0xLFyNu",
    "infected": 84,
    "longitude": 90.4336,
    "recovered": 78,
    "lastUpdated": "2020-07-16T20:16:02.894Z",
    "country": "BT",
    "name": "Bhutan",
    "latitude": 27.5142,
    "dead": 0,
    "pop": 807610,
    "sick": 6,
    "invisible": false
  },
  {
    "lastUpdated": "2020-07-16T20:16:02.881Z",
    "longitude": 64.5853,
    "infected": 14991,
    "country": "UZ",
    "dead": 73,
    "pop": 32390000,
    "id": "HRTA10dtrruDEwjJEGMp",
    "name": "Uzbekistan",
    "latitude": 41.3775,
    "recovered": 8655,
    "sick": 6263,
    "invisible": false
  },
  {
    "state": "NM",
    "infected": 15841,
    "latitude": 34.138916,
    "name": "New Mexico",
    "country": "US",
    "pop": 2095000,
    "recovered": 0,
    "dead": 557,
    "longitude": -105.576255,
    "lastUpdated": "2020-07-16T20:17:02.106Z",
    "id": "HSSFomRju0doHhWgW8On",
    "sick": 15284,
    "invisible": false
  },
  {
    "longitude": -72.3311,
    "dead": 11,
    "latitude": -40.231,
    "id": "HZkACHjW7NlYjg8vEMj2",
    "recovered": 0,
    "country": "CL",
    "infected": 796,
    "pop": 412812,
    "name": "Los Ríos",
    "lastUpdated": "2020-07-16T20:20:12.613Z",
    "sick": 785,
    "invisible": false
  },
  {
    "infected": 810,
    "country": "DE",
    "state": "MV",
    "pop": 1635000,
    "name": "Mecklenburg-Vorpommern",
    "id": "He1gSS1v50t06i3YrqvB",
    "longitude": 12.4296,
    "lastUpdated": "2020-07-16T20:00:03.558Z",
    "latitude": 53.6127,
    "dead": 21,
    "recovered": 784,
    "sick": 5,
    "invisible": false
  },
  {
    "recovered": 2745,
    "country": "IT",
    "pop": 1315000,
    "state": "65",
    "id": "I9EqrZfbPnkioNU4wZGz",
    "lastUpdated": "2020-07-16T20:01:01.702Z",
    "infected": 3333,
    "longitude": 13.75,
    "name": "Abruzzo",
    "latitude": 42.25,
    "dead": 468,
    "sick": 120,
    "invisible": false
  },
  {
    "recovered": 1636,
    "infected": 1650,
    "country": "CN",
    "latitude": 23.363855,
    "id": "IAX0OQLVnUwU7FX0ENF1",
    "longitude": 113.373448,
    "pop": 113460000,
    "name": "Guangdong",
    "lastUpdated": "2020-07-16T20:08:04.112Z",
    "dead": 8,
    "sick": 6,
    "invisible": false
  },
  {
    "name": "Henan",
    "latitude": 33.875408,
    "longitude": 113.484016,
    "recovered": 1254,
    "country": "CN",
    "pop": 94000000,
    "dead": 22,
    "id": "IFuMrMvSjoiX5agYvllh",
    "lastUpdated": "2020-07-16T20:08:04.115Z",
    "infected": 1276,
    "sick": 0,
    "invisible": false
  },
  {
    "name": "Algarve",
    "dead": 15,
    "pop": 451000,
    "country": "PT",
    "latitude": 37.2,
    "id": "IHqRHC8K3OZPN8gniM7V",
    "longitude": -8.16667,
    "infected": 757,
    "recovered": 0,
    "lastUpdated": "2020-07-16T19:53:07.965Z",
    "sick": 742,
    "invisible": false
  },
  {
    "pop": 333194,
    "longitude": -77.0197,
    "latitude": 3.883,
    "id": "IKWjRUo0SYgHQKdWjTvq",
    "country": "CO",
    "dead": 118,
    "name": "Buenaventura D.E.",
    "recovered": 1158,
    "lastUpdated": "2020-07-16T20:00:10.548Z",
    "infected": 1787,
    "sick": 511,
    "invisible": false
  },
  {
    "pop": 4811000,
    "state": "EN",
    "recovered": 0,
    "lastUpdated": "2020-07-16T20:13:11.582Z",
    "infected": 22250,
    "longitude": -0.995,
    "name": "East Midlands",
    "id": "INyu1R48Ppv8cfW4Nuz4",
    "latitude": 52.87,
    "dead": 0,
    "country": "GB",
    "sick": 22250,
    "invisible": false
  },
  {
    "longitude": -102.317,
    "country": "MX",
    "name": "Aguascalientes",
    "latitude": 22.017,
    "lastUpdated": "2020-07-16T20:02:10.283Z",
    "infected": 4047,
    "dead": 219,
    "id": "ISRKMzEDojyrZ9iyWwex",
    "pop": 1342600,
    "recovered": 0,
    "sick": 3828,
    "invisible": false
  },
  {
    "pop": 5321300,
    "infected": 21359,
    "recovered": 0,
    "name": "Nuevo León",
    "lastUpdated": "2020-07-16T20:02:10.283Z",
    "latitude": 25.686613,
    "dead": 675,
    "id": "IdKbgzgKLpjBFh4UPOwu",
    "longitude": -100.316116,
    "country": "MX",
    "sick": 20684,
    "invisible": false
  },
  {
    "lastUpdated": "2020-07-16T20:02:10.281Z",
    "pop": 3826900,
    "id": "IhhiYI6T0TX4CYVPcnmH",
    "dead": 797,
    "country": "MX",
    "longitude": -106.069099,
    "recovered": 0,
    "infected": 6279,
    "name": "Chihuahua",
    "latitude": 28.632996,
    "sick": 5482,
    "invisible": false
  },
  {
    "longitude": -72.57,
    "infected": 3080,
    "pop": 480600,
    "lastUpdated": "2020-07-16T20:20:12.612Z",
    "name": "Ñuble",
    "country": "CL",
    "latitude": -36.7,
    "id": "ImnOiVx9Cb8Nw7cbRcQ7",
    "recovered": 0,
    "dead": 40,
    "sick": 3040,
    "invisible": false
  },
  {
    "lastUpdated": "2020-07-16T20:16:02.883Z",
    "longitude": -73.0513,
    "latitude": 19.0558,
    "dead": 145,
    "recovered": 3484,
    "pop": 10980000,
    "country": "HT",
    "name": "Haiti",
    "id": "InZ38sIqyK7FN7XAOZoX",
    "infected": 6902,
    "sick": 3273,
    "invisible": false
  },
  {
    "infected": 131275,
    "lastUpdated": "2020-07-16T20:17:02.103Z",
    "latitude": 32.528564,
    "country": "US",
    "pop": 10520000,
    "state": "GA",
    "dead": 3104,
    "id": "IvQkDJkTAsoIqPRAU25n",
    "name": "Georgia (US)",
    "recovered": 0,
    "longitude": -83.280125,
    "sick": 128171,
    "invisible": false
  },
  {
    "pop": 4794000,
    "recovered": 1499,
    "name": "New Zealand",
    "longitude": 172.488081,
    "country": "NZ",
    "infected": 1548,
    "lastUpdated": "2020-07-16T20:16:02.886Z",
    "dead": 22,
    "latitude": -42.8285,
    "id": "IvVhpOoGpH6JVkGyUhXN",
    "sick": 27,
    "invisible": false
  },
  {
    "pop": 1255000,
    "id": "IwYKiIVY18NGwdGQFGWW",
    "lastUpdated": "2020-07-16T20:11:01.926Z",
    "latitude": 28.218,
    "dead": 3,
    "country": "IN",
    "longitude": 94.7278,
    "infected": 543,
    "recovered": 153,
    "name": "Arunachal Pradesh",
    "sick": 387,
    "invisible": false
  },
  {
    "lastUpdated": "2020-07-16T20:16:02.883Z",
    "recovered": 3050,
    "country": "VE",
    "dead": 100,
    "latitude": 6.4238,
    "infected": 10428,
    "longitude": -66.5897,
    "pop": 28870000,
    "id": "J3mZXlfEnnJx4CDZLvRG",
    "name": "Venezuela",
    "sick": 7278,
    "invisible": false
  },
  {
    "name": "Guaviare",
    "recovered": 37,
    "pop": 107932,
    "lastUpdated": "2020-07-16T20:00:10.548Z",
    "country": "CO",
    "dead": 0,
    "latitude": 2.567,
    "id": "JEMCwkwXK39jd1lZ7VgJ",
    "infected": 48,
    "longitude": -72.633,
    "sick": 11,
    "invisible": false
  },
  {
    "infected": 2308,
    "lastUpdated": "2020-07-16T20:00:09.486Z",
    "longitude": 40.1754,
    "name": "Adygea",
    "country": "RU",
    "id": "JOJVBvOnsLDJPVeYJaI2",
    "pop": 453000,
    "latitude": 44.8229,
    "recovered": 1868,
    "dead": 16,
    "sick": 424,
    "invisible": false
  },
  {
    "longitude": 33.4299,
    "lastUpdated": "2020-07-16T20:16:02.887Z",
    "latitude": 35.1264,
    "dead": 19,
    "infected": 1025,
    "pop": 1170000,
    "name": "Cyprus",
    "country": "CY",
    "recovered": 839,
    "id": "JQByE4l2OA6sGOqIcWrM",
    "sick": 167,
    "invisible": false
  },
  {
    "infected": 21558,
    "id": "JR7hOGked7CZtIs2nCV5",
    "latitude": 25.0961,
    "pop": 99020000,
    "dead": 167,
    "lastUpdated": "2020-07-16T20:11:01.921Z",
    "recovered": 14101,
    "country": "IN",
    "longitude": 85.3131,
    "name": "Bihar",
    "sick": 7290,
    "invisible": false
  },
  {
    "pop": 17250000,
    "name": "Guatemala",
    "lastUpdated": "2020-07-16T20:16:02.880Z",
    "country": "GT",
    "dead": 1350,
    "id": "JUWE6bG3b5oL7fKQMSvv",
    "infected": 32074,
    "longitude": -90.522713,
    "recovered": 4624,
    "latitude": 14.628434,
    "sick": 26100,
    "invisible": false
  },
  {
    "dead": 111,
    "latitude": 49.8153,
    "longitude": 6.1296,
    "recovered": 4247,
    "pop": 602005,
    "id": "JcFsHSn2WvZ5LJW42ovG",
    "name": "Luxembourg",
    "lastUpdated": "2020-07-16T20:16:02.884Z",
    "country": "LU",
    "infected": 5122,
    "sick": 764,
    "invisible": false
  },
  {
    "country": "CO",
    "pop": 2049000,
    "name": "Bolívar",
    "recovered": 695,
    "lastUpdated": "2020-07-16T20:00:10.547Z",
    "infected": 1442,
    "dead": 66,
    "longitude": -74.167,
    "id": "JmOyaFe25yZCIV64JbZj",
    "latitude": 8.8,
    "sick": 681,
    "invisible": false
  },
  {
    "name": "Baja California",
    "recovered": 0,
    "country": "MX",
    "lastUpdated": "2020-07-16T20:02:10.281Z",
    "dead": 2268,
    "infected": 11247,
    "latitude": 31.4,
    "id": "Jp9ePErcc8i1aOozEAMf",
    "longitude": -115.783,
    "pop": 3648100,
    "sick": 8979,
    "invisible": false
  },
  {
    "country": "CO",
    "pop": 1786500,
    "dead": 219,
    "lastUpdated": "2020-07-16T20:00:10.547Z",
    "infected": 1773,
    "latitude": 8.7479801,
    "recovered": 439,
    "name": "Córdoba",
    "longitude": -75.8814316,
    "id": "Jr8syCB0lydmPDXw8Q6N",
    "sick": 1115,
    "invisible": false
  },
  {
    "recovered": 534,
    "pop": 7798000,
    "infected": 740,
    "dead": 15,
    "latitude": 8.6195,
    "country": "TG",
    "lastUpdated": "2020-07-16T20:16:02.887Z",
    "id": "JrBbirlBKGdWSdcDt7PF",
    "longitude": 0.8248,
    "name": "Togo",
    "sick": 191,
    "invisible": false
  },
  {
    "longitude": 25.4858,
    "id": "JzZ8sbqzjutThVjkPKPL",
    "recovered": 3841,
    "pop": 7050000,
    "name": "Bulgaria",
    "latitude": 42.7339,
    "country": "BG",
    "lastUpdated": "2020-07-16T20:16:02.883Z",
    "dead": 289,
    "infected": 7877,
    "sick": 3747,
    "invisible": false
  },
  {
    "infected": 869,
    "longitude": 20.709,
    "latitude": 50.823,
    "dead": 44,
    "recovered": 0,
    "country": "PL",
    "pop": 1263000,
    "id": "KGrK7gafkeWjmU6sHQd2",
    "name": "Świętokrzyskie",
    "lastUpdated": "2020-07-16T20:03:02.361Z",
    "sick": 825,
    "invisible": false
  },
  {
    "lastUpdated": "2020-07-16T20:00:09.467Z",
    "latitude": 59.0077,
    "country": "RU",
    "pop": 4325000,
    "dead": 179,
    "infected": 16984,
    "recovered": 10937,
    "longitude": 61.9316,
    "id": "KLBR5QHW6DePaGcFxlqH",
    "name": "Sverdlovsk Oblast",
    "sick": 5868,
    "invisible": false
  },
  {
    "pop": 1557000,
    "recovered": 8285,
    "name": "Liguria",
    "longitude": 8.833,
    "country": "IT",
    "state": "42",
    "id": "KLXicxFogWnu0dLp4bNK",
    "infected": 10050,
    "lastUpdated": "2020-07-16T20:01:01.703Z",
    "dead": 1564,
    "latitude": 44.5,
    "sick": 201,
    "invisible": false
  },
  {
    "id": "KUnAVGJH6fLwFetE8A2x",
    "pop": 682000,
    "longitude": 47.9608,
    "country": "RU",
    "name": "Mari El Republic",
    "lastUpdated": "2020-07-16T20:00:09.483Z",
    "dead": 31,
    "latitude": 56.4385,
    "infected": 3409,
    "recovered": 2930,
    "sick": 448,
    "invisible": false
  },
  {
    "country": "CO",
    "longitude": -73.2532,
    "recovered": 924,
    "lastUpdated": "2020-07-16T20:00:10.546Z",
    "name": "Cesar",
    "infected": 1665,
    "id": "KpOz3WmiZkrXUMlUJNlV",
    "dead": 37,
    "latitude": 10.4631,
    "pop": 1201000,
    "sick": 704,
    "invisible": false
  },
  {
    "recovered": 8908,
    "name": "Toscana",
    "dead": 1127,
    "pop": 3737000,
    "latitude": 43.4167,
    "country": "IT",
    "infected": 10350,
    "lastUpdated": "2020-07-16T20:01:01.704Z",
    "longitude": 11,
    "id": "KrLrJbpDqqiXgUPGCCW9",
    "state": "52",
    "sick": 315,
    "invisible": false
  },
  {
    "country": "LK",
    "pop": 21440000,
    "infected": 2686,
    "recovered": 2007,
    "dead": 11,
    "longitude": 80.771797,
    "name": "Sri Lanka",
    "latitude": 7.873054,
    "id": "KsWzJO06cf0d6LJ4ZNh9",
    "lastUpdated": "2020-07-16T20:16:02.885Z",
    "sick": 668,
    "invisible": false
  },
  {
    "pop": 49670000,
    "name": "Andhra Pradesh",
    "lastUpdated": "2020-07-16T10:41:01.864Z",
    "longitude": 79.74,
    "infected": 38044,
    "latitude": 15.9129,
    "dead": 492,
    "country": "IN",
    "id": "KtQIo2DoqjELtPAlyDVO",
    "recovered": 19394,
    "sick": 18158,
    "invisible": false
  },
  {
    "alwaysShow": true,
    "name": "Saint-Martin",
    "lastUpdated": "2020-07-16T20:16:02.895Z",
    "pop": 32125,
    "country": "FR",
    "latitude": 18.0708,
    "dead": 3,
    "longitude": -63.0501,
    "id": "LBUtrLDKJiupXjlUNTUe",
    "infected": 43,
    "recovered": 37,
    "sick": 3,
    "invisible": false
  },
  {
    "id": "LD8TNScpLrLRvgpQAn9T",
    "lastUpdated": "2020-07-16T20:00:09.473Z",
    "country": "RU",
    "dead": 75,
    "name": "Oryol Oblast",
    "longitude": 36.9242,
    "pop": 747000,
    "latitude": 52.7856,
    "infected": 5198,
    "recovered": 3759,
    "sick": 1364,
    "invisible": false
  },
  {
    "longitude": 9.5554,
    "id": "LTGEU2E9MFkrCcFhZYVk",
    "recovered": 81,
    "pop": 38557,
    "infected": 84,
    "lastUpdated": "2020-07-16T20:16:02.894Z",
    "country": "LI",
    "dead": 1,
    "latitude": 47.166,
    "name": "Liechtenstein",
    "sick": 2,
    "invisible": false
  },
  {
    "id": "LU2QWt5ao8IJa8evNYVV",
    "lastUpdated": "2020-07-16T20:16:02.884Z",
    "latitude": 9.9456,
    "infected": 6276,
    "name": "Guinea",
    "recovered": 4981,
    "pop": 12720000,
    "longitude": -9.6966,
    "country": "GN",
    "dead": 38,
    "sick": 1257,
    "invisible": false
  },
  {
    "lastUpdated": "2020-07-16T20:02:10.281Z",
    "country": "MX",
    "infected": 13560,
    "dead": 1357,
    "latitude": 29.6667,
    "longitude": -110.5,
    "name": "Sonora",
    "pop": 3062000,
    "id": "LYCBHrA9ms6GcxpLGPCT",
    "recovered": 0,
    "sick": 12203,
    "invisible": false
  },
  {
    "longitude": -56.0277824,
    "lastUpdated": "2020-07-16T20:16:02.887Z",
    "pop": 563402,
    "dead": 18,
    "name": "Suriname",
    "latitude": 3.9193051,
    "infected": 849,
    "country": "SR",
    "recovered": 573,
    "id": "LglKINHyQpYpFxjckbQ6",
    "sick": 258,
    "invisible": false
  },
  {
    "name": "Saskatchewan",
    "latitude": 52.9399,
    "longitude": -106.4509,
    "lastUpdated": "2020-07-16T20:07:02.385Z",
    "country": "CA",
    "id": "LkIDKY0CMAqzbwBHyYCP",
    "state": "SK",
    "infected": 881,
    "pop": 1174000,
    "recovered": 791,
    "dead": 15,
    "sick": 75,
    "invisible": false
  },
  {
    "latitude": 24.2155,
    "id": "LooNn6RuMiDhQnwa9svw",
    "pop": 636442,
    "lastUpdated": "2020-07-16T20:16:02.896Z",
    "infected": 10,
    "longitude": -12.8858,
    "name": "Western Sahara",
    "recovered": 8,
    "country": "EH",
    "dead": 1,
    "sick": 1,
    "invisible": false
  },
  {
    "lastUpdated": "2020-07-15T22:31:13.654Z",
    "country": "ES",
    "dead": 334,
    "id": "Lsga7AvYNnY0qQ5gEfV8",
    "state": "AS",
    "name": "Principado de Asturias",
    "longitude": -5.951843,
    "infected": 3427,
    "latitude": 43.363129,
    "recovered": 1063,
    "pop": 1022000,
    "sick": 2030,
    "invisible": false
  },
  {
    "state": "EX",
    "pop": 1065000,
    "longitude": -6.0679,
    "id": "LuEErlF7dVKI0eJsRjFm",
    "lastUpdated": "2020-07-15T22:30:09.787Z",
    "latitude": 39.4937,
    "infected": 4209,
    "recovered": 2652,
    "name": "Extremadura",
    "country": "ES",
    "dead": 519,
    "sick": 1038,
    "invisible": false
  },
  {
    "longitude": -101.2591,
    "dead": 871,
    "infected": 15105,
    "latitude": 21.0186,
    "id": "M3wdiueFtwrUHiQ2rOXA",
    "country": "MX",
    "name": "Guanajuato",
    "pop": 5965000,
    "recovered": 0,
    "lastUpdated": "2020-07-16T20:02:10.282Z",
    "sick": 14234,
    "invisible": false
  },
  {
    "infected": 21083,
    "state": "KY",
    "recovered": 0,
    "longitude": -84.27,
    "name": "Kentucky",
    "lastUpdated": "2020-07-16T20:17:02.106Z",
    "id": "MC8MXFw9iXYybnF8v7e6",
    "latitude": 37.8393,
    "country": "US",
    "pop": 4468000,
    "dead": 648,
    "sick": 20435,
    "invisible": false
  },
  {
    "latitude": 55.3781,
    "invisible": true,
    "id": "MEjlm8VYdGA28TTTnQmf",
    "name": "Unknown UK region or state",
    "dead": 40528,
    "longitude": -3.436,
    "lastUpdated": "2020-07-16T20:13:11.583Z",
    "infected": 8309,
    "country": "GB",
    "recovered": 0,
    "sick": 0
  },
  {
    "id": "MG4e9tulLJ010SZJvbYN",
    "longitude": -7.7441,
    "name": "Norte",
    "dead": 826,
    "latitude": 41.3006,
    "country": "PT",
    "pop": 3689000,
    "infected": 18253,
    "recovered": 0,
    "lastUpdated": "2020-07-16T19:53:07.965Z",
    "sick": 17427,
    "invisible": false
  },
  {
    "recovered": 0,
    "id": "MObRYyIriHG337L8FyFC",
    "pop": 5450000,
    "latitude": 56.4907,
    "country": "GB",
    "name": "Scotland",
    "lastUpdated": "2020-07-16T20:13:11.582Z",
    "longitude": -4.2026,
    "dead": 2490,
    "state": "SC",
    "infected": 18384,
    "sick": 15894,
    "invisible": false
  },
  {
    "latitude": 40.2672,
    "state": "IN",
    "dead": 2795,
    "recovered": 0,
    "pop": 6692000,
    "infected": 54080,
    "country": "US",
    "lastUpdated": "2020-07-16T20:17:02.104Z",
    "longitude": -86.1349,
    "name": "Indiana",
    "id": "MOxDkmQ4wBi1CuAdVxDE",
    "sick": 51285,
    "invisible": false
  },
  {
    "infected": 13403,
    "country": "CI",
    "lastUpdated": "2020-07-16T20:16:02.882Z",
    "latitude": 7.54,
    "dead": 87,
    "name": "Ivory Coast",
    "recovered": 7146,
    "id": "MdQOfc1gNh2DOqwSP6UV",
    "longitude": -5.5471,
    "pop": 24290000,
    "sick": 6170,
    "invisible": false
  },
  {
    "lastUpdated": "2020-07-16T20:00:03.560Z",
    "id": "MjpYq3zQyAvSQlVVYjD2",
    "recovered": 41906,
    "country": "DE",
    "latitude": 51.4332,
    "dead": 1725,
    "longitude": 7.6616,
    "state": "NW",
    "infected": 45400,
    "name": "Nordrhein-Westfalen",
    "pop": 17910000,
    "sick": 1769,
    "invisible": false
  },
  {
    "country": "CN",
    "dead": 0,
    "longitude": 105.977203,
    "lastUpdated": "2020-07-16T20:08:04.117Z",
    "infected": 75,
    "recovered": 75,
    "pop": 6301000,
    "id": "MntmjjuHljarCdt6aIeE",
    "name": "Ningxia",
    "latitude": 37.330509,
    "sick": 0,
    "invisible": false
  },
  {
    "recovered": 0,
    "dead": 5337,
    "name": "Pará",
    "infected": 130834,
    "latitude": -3.20166586,
    "lastUpdated": "2020-07-16T19:57:34.143Z",
    "country": "BR",
    "id": "MuEB2UgkId5crsxi9zQT",
    "longitude": -52.203499186,
    "pop": 8513497,
    "state": "PA",
    "sick": 125497,
    "invisible": false
  },
  {
    "lastUpdated": "2020-07-16T20:00:09.478Z",
    "pop": 1150000,
    "recovered": 3173,
    "name": "Lipetsk Oblast",
    "id": "N0KGfqgROVOjAxWcd8wi",
    "country": "RU",
    "dead": 19,
    "longitude": 39.2032,
    "infected": 4318,
    "latitude": 52.5265,
    "sick": 1126,
    "invisible": false
  },
  {
    "country": "DE",
    "recovered": 33848,
    "longitude": 9.3501,
    "id": "N3XsRBwJSsNclkEf7Zz5",
    "state": "BW",
    "name": "Baden-Württemberg",
    "lastUpdated": "2020-07-16T20:00:03.555Z",
    "infected": 36611,
    "dead": 1894,
    "pop": 11020000,
    "latitude": 48.6616,
    "sick": 869,
    "invisible": false
  },
  {
    "id": "N7c13sCQF0G789XAVazJ",
    "dead": 240,
    "name": "Bosnia and Herzegovina",
    "pop": 3507000,
    "latitude": 44.696652,
    "infected": 7681,
    "country": "BA",
    "recovered": 3534,
    "longitude": 17.824332,
    "lastUpdated": "2020-07-16T20:16:02.883Z",
    "sick": 3907,
    "invisible": false
  },
  {
    "infected": 201,
    "recovered": 198,
    "name": "Shanxi",
    "longitude": 111.856857,
    "pop": 36500000,
    "dead": 0,
    "lastUpdated": "2020-07-16T20:08:04.113Z",
    "latitude": 37.242565,
    "id": "NBRIGIRrJB1Ry8prDNAC",
    "country": "CN",
    "sick": 3,
    "invisible": false
  },
  {
    "state": "NC",
    "recovered": 0,
    "dead": 1619,
    "infected": 93467,
    "id": "NC64Qp5kTqAfiTuR27k8",
    "longitude": -79.0193,
    "latitude": 35.7596,
    "pop": 10380000,
    "name": "North Carolina",
    "lastUpdated": "2020-07-16T20:17:02.103Z",
    "country": "US",
    "sick": 91848,
    "invisible": false
  },
  {
    "infected": 3527,
    "country": "DE",
    "pop": 2504000,
    "dead": 177,
    "name": "Brandenburg",
    "id": "NJjo2gfBvnbK4xatrsUz",
    "longitude": 12.5316,
    "state": "BB",
    "latitude": 52.4125,
    "lastUpdated": "2020-07-16T20:00:03.557Z",
    "recovered": 3261,
    "sick": 89,
    "invisible": false
  },
  {
    "dead": 2,
    "infected": 36,
    "alwaysShow": true,
    "latitude": 15.0979,
    "pop": 55144,
    "recovered": 0,
    "longitude": 145.6739,
    "lastUpdated": "2020-07-16T20:17:02.108Z",
    "state": "MP",
    "name": "Northern Mariana Islands",
    "id": "NLLL6pJhJSw0lrDMD4uP",
    "country": "US",
    "sick": 34,
    "invisible": false
  },
  {
    "name": "Uttarakhand",
    "longitude": 79.0193,
    "recovered": 2995,
    "dead": 50,
    "pop": 10080000,
    "id": "NMeZEcGToxXfpi16PfFV",
    "latitude": 30.0668,
    "country": "IN",
    "lastUpdated": "2020-07-16T20:11:01.922Z",
    "infected": 3982,
    "sick": 937,
    "invisible": false
  },
  {
    "latitude": 50.6521,
    "dead": 521,
    "country": "DE",
    "name": "Hessen",
    "longitude": 9.1624,
    "state": "HE",
    "infected": 11283,
    "recovered": 10392,
    "lastUpdated": "2020-07-16T20:00:03.557Z",
    "pop": 6243000,
    "id": "Nk5vPgUIXsWVfbWZf15O",
    "sick": 370,
    "invisible": false
  },
  {
    "dead": 31,
    "longitude": 25.837107,
    "lastUpdated": "2020-07-16T20:16:02.886Z",
    "recovered": 1022,
    "id": "NmmMKy0YqA8StHdGzB5N",
    "name": "Latvia",
    "pop": 1920000,
    "infected": 1179,
    "latitude": 56.96776,
    "country": "LV",
    "sick": 126,
    "invisible": false
  },
  {
    "recovered": 0,
    "country": "BR",
    "dead": 5772,
    "longitude": -37.946777,
    "id": "NyGlFL1gATK1Omv9qtcC",
    "state": "PE",
    "lastUpdated": "2020-07-16T19:57:34.143Z",
    "infected": 74960,
    "latitude": -8.472372,
    "name": "Pernambuco",
    "pop": 9496294,
    "sick": 69188,
    "invisible": false
  },
  {
    "dead": 51,
    "country": "LR",
    "longitude": -9.4295,
    "recovered": 447,
    "name": "Liberia",
    "infected": 1056,
    "pop": 4732000,
    "lastUpdated": "2020-07-16T20:16:02.887Z",
    "latitude": 6.4281,
    "id": "O4g88K49HKEZLFXm5gxb",
    "sick": 558,
    "invisible": false
  },
  {
    "name": "Altai Krai",
    "infected": 6755,
    "dead": 54,
    "id": "O5fNOGWKosps6JTrzkpn",
    "country": "RU",
    "latitude": 51.7936,
    "longitude": 82.6759,
    "lastUpdated": "2020-07-16T20:00:09.470Z",
    "pop": 2350000,
    "recovered": 4318,
    "sick": 2383,
    "invisible": false
  },
  {
    "recovered": 2958,
    "pop": 1072000,
    "country": "RU",
    "name": "Zabaykalsky Krai",
    "dead": 47,
    "longitude": 116.9677,
    "lastUpdated": "2020-07-16T20:00:09.482Z",
    "latitude": 53.0929,
    "id": "O6PDzAxKENYbLsLjPx2K",
    "infected": 3802,
    "sick": 797,
    "invisible": false
  },
  {
    "state": "SC",
    "id": "ONU4CK8QjViFHKg2w5if",
    "name": "South Carolina",
    "latitude": 34.003307,
    "pop": 5084000,
    "country": "US",
    "recovered": 0,
    "dead": 1070,
    "longitude": -80.525613,
    "infected": 64083,
    "lastUpdated": "2020-07-16T20:17:02.104Z",
    "sick": 63013,
    "invisible": false
  },
  {
    "id": "OYa0jFzdbAgo8zUsRv6q",
    "infected": 39797,
    "state": "MS",
    "pop": 2987000,
    "longitude": -89.582775,
    "lastUpdated": "2020-07-16T20:17:02.105Z",
    "country": "US",
    "dead": 1308,
    "name": "Mississippi",
    "latitude": 33.51822,
    "recovered": 0,
    "sick": 38489,
    "invisible": false
  },
  {
    "country": "US",
    "latitude": 45.2538,
    "pop": 1338000,
    "state": "ME",
    "name": "Maine",
    "longitude": -69.4455,
    "infected": 3598,
    "dead": 114,
    "id": "OcXNp9kNVSwrRlG3bNVN",
    "lastUpdated": "2020-07-16T20:17:02.107Z",
    "recovered": 0,
    "sick": 3484,
    "invisible": false
  },
  {
    "lastUpdated": "2020-07-16T20:00:09.483Z",
    "infected": 3366,
    "name": "Ingushetia",
    "recovered": 2531,
    "pop": 488000,
    "country": "RU",
    "id": "OlKS5SPydHY2TedStFuf",
    "dead": 71,
    "longitude": 44.8203,
    "latitude": 43.4052,
    "sick": 764,
    "invisible": false
  },
  {
    "state": "TAS",
    "infected": 228,
    "name": "Tasmania",
    "lastUpdated": "2020-07-16T20:13:21.066Z",
    "id": "OnOseaqWdnuP18oruABW",
    "longitude": 146.725256,
    "pop": 515000,
    "country": "AU",
    "dead": 13,
    "latitude": -41.915264,
    "recovered": 215,
    "sick": 0,
    "invisible": false
  },
  {
    "dead": 1174,
    "recovered": 0,
    "country": "BR",
    "id": "P0GHFGUt1pkKTk5PM8uz",
    "lastUpdated": "2020-07-16T19:57:34.150Z",
    "latitude": -16.35,
    "name": "Mato Grosso",
    "infected": 30319,
    "longitude": -56.666668,
    "state": "MT",
    "pop": 3441998,
    "sick": 29145,
    "invisible": false
  },
  {
    "country": "RU",
    "longitude": 40.5927,
    "lastUpdated": "2020-07-16T20:00:09.473Z",
    "dead": 100,
    "name": "Vladimir Oblast",
    "infected": 5091,
    "id": "P2I90oqdFSoVk03AaGo4",
    "pop": 1378000,
    "latitude": 56.1553,
    "recovered": 4255,
    "sick": 736,
    "invisible": false
  },
  {
    "longitude": -81.2546,
    "pop": 61559,
    "infected": 203,
    "latitude": 19.3133,
    "recovered": 200,
    "id": "P4mwRFLbrvT0t75uD8Wo",
    "name": "Cayman Islands",
    "lastUpdated": "2020-07-16T20:16:02.889Z",
    "dead": 1,
    "country": "KY",
    "sick": 2,
    "invisible": false
  },
  {
    "country": "MS",
    "recovered": 10,
    "id": "PEDkeFMTOZpvHiSVxBk7",
    "infected": 12,
    "latitude": 16.7424984,
    "dead": 1,
    "lastUpdated": "2020-07-16T20:16:02.896Z",
    "name": "Montserrat",
    "longitude": -62.1873665,
    "pop": 5900,
    "sick": 1,
    "invisible": false
  },
  {
    "name": "Rwanda",
    "pop": 12210000,
    "id": "PEcgZGEkyhABztt1Ufgc",
    "dead": 4,
    "infected": 1435,
    "recovered": 752,
    "lastUpdated": "2020-07-16T20:16:02.886Z",
    "latitude": -1.9403,
    "longitude": 29.8739,
    "country": "RW",
    "sick": 679,
    "invisible": false
  },
  {
    "pop": 4063000,
    "name": "Bashkortostan",
    "country": "RU",
    "dead": 19,
    "recovered": 4320,
    "longitude": 56.1645,
    "id": "PHlHdeqYd6KgxsJGfEz0",
    "latitude": 54.2312,
    "lastUpdated": "2020-07-16T20:00:09.470Z",
    "infected": 6134,
    "sick": 1795,
    "invisible": false
  },
  {
    "recovered": 0,
    "state": "MN",
    "country": "US",
    "lastUpdated": "2020-07-16T20:17:02.105Z",
    "pop": 5611000,
    "infected": 44347,
    "longitude": -94.6859,
    "latitude": 46.7296,
    "dead": 1566,
    "id": "PJvVYosLIhbcRZYnKX1R",
    "name": "Minnesota",
    "sick": 42781,
    "invisible": false
  },
  {
    "pop": 12740000,
    "id": "PTwQr9ijo0TBBsPH2sdJ",
    "latitude": 40.6331,
    "name": "Illinois",
    "country": "US",
    "state": "IL",
    "infected": 159082,
    "recovered": 0,
    "dead": 7452,
    "longitude": -89.3985,
    "lastUpdated": "2020-07-16T20:17:02.103Z",
    "sick": 151630,
    "invisible": false
  },
  {
    "lastUpdated": "2020-07-16T20:16:02.896Z",
    "id": "PjLqCeFdyzdZNcZxMkK1",
    "infected": 22,
    "latitude": 13.909444,
    "dead": 0,
    "recovered": 19,
    "country": "LC",
    "longitude": -60.978893,
    "name": "Saint Lucia",
    "pop": 178844,
    "sick": 3,
    "invisible": false
  },
  {
    "country": "ES",
    "recovered": 3905,
    "latitude": 42.6954,
    "state": "NC",
    "infected": 8784,
    "dead": 528,
    "longitude": -1.6761,
    "lastUpdated": "2020-07-15T22:29:37.949Z",
    "pop": 649900,
    "id": "PmUlsNx2uFLU797wwU39",
    "name": "Comunidad Foral de Navarra",
    "sick": 4351,
    "invisible": false
  },
  {
    "longitude": 9.460554,
    "id": "Pr76V4raf108uSRoEXac",
    "dead": 50,
    "name": "Tunisia",
    "country": "TN",
    "latitude": 34.201507,
    "pop": 11530000,
    "lastUpdated": "2020-07-16T20:16:02.886Z",
    "infected": 1327,
    "recovered": 1093,
    "sick": 184,
    "invisible": false
  },
  {
    "lastUpdated": "2020-07-16T20:16:02.886Z",
    "longitude": 31.4659,
    "id": "PuQgOd9KWiMzGZXm11sR",
    "latitude": -26.5225,
    "country": "SZ",
    "name": "Eswatini",
    "infected": 1489,
    "pop": 1367000,
    "dead": 20,
    "recovered": 724,
    "sick": 745,
    "invisible": false
  },
  {
    "name": "Victoria",
    "state": "VIC",
    "longitude": 143.94853,
    "recovered": 2591,
    "lastUpdated": "2020-07-16T20:13:21.066Z",
    "country": "AU",
    "latitude": -37.009609,
    "dead": 29,
    "pop": 6359000,
    "id": "Q18mrGvFWTLX2BU9SqhQ",
    "infected": 4750,
    "sick": 2130,
    "invisible": false
  },
  {
    "infected": 3239,
    "pop": 2890000,
    "id": "Q39XkabIYxt15mHINzTa",
    "recovered": 3034,
    "dead": 159,
    "lastUpdated": "2020-07-16T20:00:03.561Z",
    "latitude": 54.2194,
    "longitude": 9.6961,
    "name": "Schleswig-Holstein",
    "state": "SH",
    "country": "DE",
    "sick": 46,
    "invisible": false
  },
  {
    "country": "BR",
    "id": "QGpQNhuoVTUPHXvS7qcu",
    "infected": 42239,
    "recovered": 0,
    "latitude": -27.953491,
    "lastUpdated": "2020-07-16T19:57:34.144Z",
    "pop": 11329605,
    "name": "Rio Grande do Sul",
    "dead": 1101,
    "longitude": -52.031696,
    "state": "RS",
    "sick": 41138,
    "invisible": false
  },
  {
    "latitude": 55.5596,
    "recovered": 3280,
    "country": "RU",
    "longitude": 46.9284,
    "infected": 6055,
    "pop": 1231000,
    "id": "QGyuno7Bc4kwuvGFgMiO",
    "name": "Chuvashia",
    "lastUpdated": "2020-07-16T20:00:09.471Z",
    "dead": 48,
    "sick": 2727,
    "invisible": false
  },
  {
    "pop": 1328000,
    "lastUpdated": "2020-07-16T20:16:02.885Z",
    "country": "EE",
    "longitude": 25.013607,
    "id": "QR9go2hQKXjty7JHUYe4",
    "infected": 2016,
    "latitude": 58.595272,
    "name": "Estonia",
    "dead": 69,
    "recovered": 1904,
    "sick": 43,
    "invisible": false
  },
  {
    "lastUpdated": "2020-07-16T20:00:09.478Z",
    "name": "Komi Republic",
    "id": "QTafh5fpbS8abcuyEjaL",
    "infected": 4469,
    "longitude": 54.8313,
    "country": "RU",
    "pop": 840000,
    "recovered": 2538,
    "latitude": 63.8631,
    "dead": 39,
    "sick": 1892,
    "invisible": false
  },
  {
    "dead": 2097,
    "state": "ES",
    "lastUpdated": "2020-07-16T19:57:34.143Z",
    "country": "BR",
    "recovered": 0,
    "id": "QaWDLKH8SuwD0Qxq6c38",
    "name": "Espírito Santo",
    "infected": 66352,
    "latitude": -20.318,
    "pop": 3972388,
    "longitude": -40.336,
    "sick": 64255,
    "invisible": false
  },
  {
    "longitude": 35.0884,
    "lastUpdated": "2020-07-16T20:00:09.469Z",
    "latitude": 67.8443,
    "recovered": 4238,
    "country": "RU",
    "infected": 7780,
    "pop": 795000,
    "id": "Qh73PKA4KWeuPoqZfWXz",
    "dead": 42,
    "name": "Murmansk Oblast",
    "sick": 3500,
    "invisible": false
  },
  {
    "pop": 8222700,
    "country": "MX",
    "name": "Jalisco",
    "id": "Qkho455pBwx88Gohs3hL",
    "infected": 20278,
    "lastUpdated": "2020-07-16T20:02:10.283Z",
    "longitude": -103.6667,
    "dead": 1105,
    "recovered": 0,
    "latitude": 20.3333,
    "sick": 19173,
    "invisible": false
  },
  {
    "pop": 8251000,
    "country": "PG",
    "longitude": 143.9555,
    "id": "QlZrE4nosm5WfdA2aCDg",
    "latitude": -6.315,
    "name": "Papua New Guinea",
    "lastUpdated": "2020-07-16T20:16:02.896Z",
    "infected": 11,
    "dead": 0,
    "recovered": 8,
    "sick": 3,
    "invisible": false
  },
  {
    "dead": 6,
    "country": "US",
    "longitude": -64.8963,
    "infected": 249,
    "lastUpdated": "2020-07-16T20:17:02.108Z",
    "id": "QqhD3YDMKXojvQY3Yu41",
    "latitude": 18.3358,
    "recovered": 0,
    "alwaysShow": true,
    "state": "VI",
    "pop": 107268,
    "name": "U.S. Virgin Islands",
    "sick": 243,
    "invisible": false
  },
  {
    "country": "DM",
    "dead": 0,
    "id": "Qy2qW2ep5wltnYjPJBxh",
    "infected": 18,
    "pop": 71937,
    "name": "Dominica",
    "lastUpdated": "2020-07-16T20:16:02.896Z",
    "longitude": -61.3709755,
    "latitude": 15.414999,
    "recovered": 18,
    "sick": 0,
    "invisible": false
  },
  {
    "country": "CO",
    "name": "Casanare",
    "lastUpdated": "2020-07-16T20:00:10.546Z",
    "id": "R3IHMWqIUhOJJTlrmbUZ",
    "infected": 136,
    "recovered": 62,
    "longitude": -72.167,
    "latitude": 5.167,
    "pop": 344027,
    "dead": 1,
    "sick": 73,
    "invisible": false
  },
  {
    "longitude": -80.7821,
    "id": "R8YCgephnxTufvcPWMgx",
    "country": "PA",
    "dead": 982,
    "name": "Panama",
    "recovered": 25417,
    "lastUpdated": "2020-07-16T20:16:02.878Z",
    "infected": 49243,
    "latitude": 8.538,
    "pop": 4099000,
    "sick": 22844,
    "invisible": false
  },
  {
    "latitude": 15.2,
    "name": "Honduras",
    "lastUpdated": "2020-07-16T20:16:02.880Z",
    "country": "HN",
    "longitude": -86.2419,
    "id": "RA2SE0p2bVhqo0P2hzGY",
    "recovered": 3379,
    "pop": 9265000,
    "dead": 825,
    "infected": 30036,
    "sick": 25832,
    "invisible": false
  },
  {
    "lastUpdated": "2020-07-16T20:20:12.606Z",
    "id": "RBt9RiwP7WUbMnJfD0lo",
    "name": "Arica y Parinacota",
    "dead": 32,
    "recovered": 0,
    "infected": 2840,
    "pop": 224500,
    "longitude": -70.2979202,
    "country": "CL",
    "latitude": -18.4745998,
    "sick": 2808,
    "invisible": false
  },
  {
    "name": "Friuli Venezia Giulia",
    "lastUpdated": "2020-07-16T20:01:01.703Z",
    "country": "IT",
    "longitude": 13.8,
    "dead": 345,
    "infected": 3343,
    "state": "36",
    "latitude": 45.633331,
    "pop": 1216000,
    "id": "RCrDBCdBNYzgLNr0aB2H",
    "recovered": 2901,
    "sick": 97,
    "invisible": false
  },
  {
    "longitude": -93.0977,
    "infected": 37132,
    "latitude": 41.878,
    "id": "RX0KDu1AFrlCsrRso0nb",
    "name": "Iowa",
    "recovered": 0,
    "state": "IA",
    "country": "US",
    "pop": 3156000,
    "lastUpdated": "2020-07-16T20:17:02.105Z",
    "dead": 778,
    "sick": 36354,
    "invisible": false
  },
  {
    "id": "RZ6PCe5TZsO15JjDObwO",
    "longitude": -74.063644,
    "pop": 7413000,
    "name": "Bogotá D.C.",
    "recovered": 19668,
    "latitude": 4.624335,
    "country": "CO",
    "dead": 1287,
    "infected": 55056,
    "lastUpdated": "2020-07-16T20:00:10.540Z",
    "sick": 34101,
    "invisible": false
  },
  {
    "recovered": 379,
    "country": "LY",
    "id": "RaJxbzlnRFTuj4B8IbpC",
    "name": "Libya",
    "dead": 46,
    "lastUpdated": "2020-07-16T20:16:02.886Z",
    "longitude": 17.2283306,
    "latitude": 26.3351002,
    "pop": 6846000,
    "infected": 1652,
    "sick": 1227,
    "invisible": false
  },
  {
    "latitude": 39.0119,
    "name": "Kansas",
    "state": "KS",
    "country": "US",
    "pop": 2912000,
    "lastUpdated": "2020-07-16T20:17:02.106Z",
    "longitude": -98.4842,
    "infected": 21151,
    "recovered": 0,
    "dead": 304,
    "id": "Rf4uvBfP3GRDSHdZElRd",
    "sick": 20847,
    "invisible": false
  },
  {
    "dead": 3591,
    "id": "RmEgf1xeclWt7XCF9oiR",
    "latitude": 48.6998,
    "lastUpdated": "2020-07-15T22:41:16.236Z",
    "longitude": 6.1878,
    "infected": 26644,
    "recovered": 12445,
    "country": "FR",
    "name": "Grand Est",
    "pop": 5518000,
    "sick": 10608,
    "invisible": false
  },
  {
    "dead": 3392,
    "infected": 19594,
    "latitude": 50.4176,
    "name": "Wallonia",
    "pop": 3644000,
    "state": "WAL",
    "recovered": 4941,
    "lastUpdated": "2020-07-16T20:07:07.395Z",
    "country": "BE",
    "id": "RryHraSohKQLAsdr1dHO",
    "longitude": 4.451,
    "sick": 11261,
    "invisible": false
  },
  {
    "state": "ON",
    "name": "Ontario",
    "recovered": 32920,
    "pop": 14570000,
    "infected": 37052,
    "id": "Rx4TuyMpfGb3S8wYJX0x",
    "longitude": -85.3232,
    "latitude": 51.2538,
    "country": "CA",
    "lastUpdated": "2020-07-16T20:07:02.384Z",
    "dead": 2732,
    "sick": 1400,
    "invisible": false
  },
  {
    "latitude": 41.652779,
    "dead": 2793,
    "id": "S8ewN4zaYp8mjtuqqOTw",
    "country": "ES",
    "infected": 26127,
    "lastUpdated": "2020-07-15T22:29:03.142Z",
    "pop": 2408000,
    "state": "CL",
    "recovered": 8716,
    "longitude": -4.723611,
    "name": "Castilla y León",
    "sick": 14618,
    "invisible": false
  },
  {
    "longitude": -61.011715,
    "name": "Martinique",
    "latitude": 14.652027,
    "pop": 376480,
    "lastUpdated": "2020-07-16T20:16:02.889Z",
    "id": "SDdefnq1bc3ZNr7SpEsW",
    "dead": 15,
    "infected": 255,
    "country": "FR",
    "alwaysShow": true,
    "recovered": 98,
    "sick": 142,
    "invisible": false
  },
  {
    "infected": 26125,
    "latitude": 7.9465,
    "longitude": -1.0232,
    "id": "SG9VWLOV3x2JsTkXmVSz",
    "name": "Ghana",
    "country": "GH",
    "lastUpdated": "2020-07-16T20:16:02.880Z",
    "dead": 139,
    "recovered": 22270,
    "pop": 28830000,
    "sick": 3716,
    "invisible": false
  },
  {
    "name": "Switzerland",
    "longitude": 8.227512,
    "infected": 33290,
    "dead": 1969,
    "id": "SGe9sCPayMqh6RsGFaBA",
    "lastUpdated": "2020-07-16T20:16:02.880Z",
    "latitude": 46.818188,
    "pop": 8570000,
    "country": "CH",
    "recovered": 29800,
    "sick": 1521,
    "invisible": false
  },
  {
    "infected": 5034,
    "longitude": 124.1238,
    "pop": 964000,
    "lastUpdated": "2020-07-16T20:00:09.476Z",
    "dead": 38,
    "id": "SGhKBmmh5hss7hrNR8hK",
    "name": "Yakutia",
    "country": "RU",
    "recovered": 4525,
    "latitude": 66.7613,
    "sick": 471,
    "invisible": false
  },
  {
    "country": "CA",
    "lastUpdated": "2020-07-16T20:07:02.385Z",
    "infected": 56859,
    "id": "SHoOE3NiJgWAlDVBzwYH",
    "pop": 8485000,
    "dead": 5636,
    "recovered": 26097,
    "longitude": -71.208,
    "state": "QC",
    "name": "Quebec",
    "latitude": 46.8139,
    "sick": 25126,
    "invisible": false
  },
  {
    "longitude": 20.903,
    "id": "SMWvuMMuKp2QK7O2tNia",
    "country": "XK",
    "infected": 5237,
    "pop": 1831000,
    "recovered": 2462,
    "latitude": 42.6026,
    "dead": 112,
    "lastUpdated": "2020-07-16T19:40:02.104Z",
    "name": "Kosovo",
    "sick": 2663,
    "invisible": false
  },
  {
    "recovered": 4014,
    "lastUpdated": "2020-07-16T20:00:09.473Z",
    "country": "RU",
    "dead": 60,
    "longitude": 135,
    "infected": 5305,
    "name": "Primorsky Krai",
    "id": "SNWCQwRwqYfxX8HZndTA",
    "pop": 1913000,
    "latitude": 45.0526,
    "sick": 1231,
    "invisible": false
  },
  {
    "longitude": 74.124,
    "name": "Goa",
    "pop": 1817000,
    "dead": 19,
    "latitude": 15.2993,
    "lastUpdated": "2020-07-16T20:11:01.922Z",
    "country": "IN",
    "id": "SPcujsH2YlUaoAr8AiWF",
    "infected": 3108,
    "recovered": 1817,
    "sick": 1272,
    "invisible": false
  },
  {
    "recovered": 0,
    "lastUpdated": "2020-07-16T19:57:34.144Z",
    "pop": 6921161,
    "id": "SV5AMF59J61Vt4cXWLgy",
    "country": "BR",
    "longitude": -48.953403,
    "latitude": -16.328547,
    "state": "GO",
    "dead": 927,
    "infected": 38895,
    "name": "Goiás",
    "sick": 37968,
    "invisible": false
  },
  {
    "country": "CO",
    "id": "SYFarIS62W0EW9bOaJmN",
    "latitude": 6.181,
    "infected": 1,
    "longitude": -68.436,
    "lastUpdated": "2020-07-16T20:00:10.548Z",
    "recovered": 1,
    "dead": 0,
    "pop": 75500,
    "name": "Vichada",
    "sick": 0,
    "invisible": false
  },
  {
    "dead": 97,
    "name": "Calabria",
    "longitude": 16.5,
    "id": "SZdF624x0v1LlyzZjKFu",
    "infected": 1226,
    "pop": 1957000,
    "recovered": 1064,
    "country": "IT",
    "lastUpdated": "2020-07-16T20:01:01.702Z",
    "state": "78",
    "latitude": 39,
    "sick": 65,
    "invisible": false
  },
  {
    "id": "SakhKQzKu1LRI8laqdQq",
    "longitude": -99.9018,
    "latitude": 41.4925,
    "infected": 21979,
    "pop": 1929000,
    "country": "US",
    "name": "Nebraska",
    "dead": 291,
    "state": "NE",
    "recovered": 0,
    "lastUpdated": "2020-07-16T20:17:02.105Z",
    "sick": 21688,
    "invisible": false
  },
  {
    "longitude": 55.5364,
    "lastUpdated": "2020-07-16T20:16:02.888Z",
    "dead": 3,
    "alwaysShow": true,
    "infected": 612,
    "recovered": 472,
    "country": "FR",
    "latitude": -21.1151,
    "pop": 859959,
    "id": "SgHzWAAYK1j2sipovxM6",
    "name": "La Réunion",
    "sick": 137,
    "invisible": false
  },
  {
    "latitude": 12.565679,
    "longitude": 104.990967,
    "country": "KH",
    "dead": 0,
    "lastUpdated": "2020-07-16T20:16:02.890Z",
    "id": "SioMALgUbo7peXmbco2f",
    "infected": 166,
    "name": "Cambodia",
    "recovered": 133,
    "pop": 16010000,
    "sick": 33,
    "invisible": false
  },
  {
    "name": "Guam",
    "state": "GU",
    "country": "US",
    "infected": 314,
    "dead": 5,
    "recovered": 0,
    "pop": 164229,
    "latitude": 13.4443,
    "longitude": 144.7937,
    "id": "SsWhuEElU7dCTTuH5fdQ",
    "lastUpdated": "2020-07-16T20:17:02.108Z",
    "alwaysShow": true,
    "sick": 309,
    "invisible": false
  },
  {
    "country": "PL",
    "name": "Unknown Poland region",
    "id": "SuCr5emUaJ9RHTll1P1p",
    "dead": 0,
    "recovered": 28928,
    "lastUpdated": "2020-07-16T20:16:02.879Z",
    "invisible": true,
    "longitude": 19.1344,
    "infected": 0,
    "latitude": 51.9189,
    "sick": 0
  },
  {
    "lastUpdated": "2020-07-16T20:00:09.487Z",
    "latitude": 57.067,
    "longitude": 53.0278,
    "name": "Udmurtia",
    "infected": 1923,
    "id": "Sx03z01BJCAbrYkWhEaD",
    "recovered": 1406,
    "country": "RU",
    "pop": 1513000,
    "dead": 19,
    "sick": 498,
    "invisible": false
  },
  {
    "name": "DR Congo",
    "country": "CD",
    "latitude": -4.0383,
    "pop": 84070000,
    "recovered": 4248,
    "lastUpdated": "2020-07-16T20:16:02.883Z",
    "id": "T3iRf8mTUTAzbKrORTap",
    "longitude": 21.7587,
    "dead": 193,
    "infected": 8199,
    "sick": 3758,
    "invisible": false
  },
  {
    "recovered": 187622,
    "latitude": 23.635796,
    "pop": 32940000,
    "longitude": 44.344334,
    "id": "T7NffoeCgTUpAbOHvYwP",
    "name": "Saudi Arabia",
    "lastUpdated": "2020-07-16T20:16:02.877Z",
    "dead": 2370,
    "infected": 243238,
    "country": "SA",
    "sick": 53246,
    "invisible": false
  },
  {
    "pop": 315700,
    "id": "TNDTapyb0k3l7Mds9q9R",
    "country": "ES",
    "longitude": -2.5396,
    "infected": 5502,
    "latitude": 42.2871,
    "name": "La Rioja",
    "state": "RI",
    "recovered": 3107,
    "lastUpdated": "2020-07-15T22:30:40.038Z",
    "dead": 366,
    "sick": 2029,
    "invisible": false
  },
  {
    "name": "Yucatán",
    "lastUpdated": "2020-07-16T20:02:10.282Z",
    "latitude": 20.400417,
    "dead": 707,
    "id": "TQCWbhIpJQBQxBjhCGVJ",
    "infected": 6826,
    "longitude": -89.134857,
    "pop": 2207200,
    "country": "MX",
    "recovered": 0,
    "sick": 6119,
    "invisible": false
  },
  {
    "lastUpdated": "2020-07-16T20:16:02.890Z",
    "longitude": 114.650692,
    "name": "Brunei",
    "latitude": 4.506106,
    "recovered": 138,
    "id": "TQZmzsLhJqjtCSExAkCP",
    "pop": 428697,
    "country": "BN",
    "infected": 141,
    "dead": 3,
    "sick": 0,
    "invisible": false
  },
  {
    "longitude": 4.3853,
    "state": "",
    "name": "Auvergne-Rhône-Alpes",
    "id": "TT0MKODSjrxHvG19xZCa",
    "country": "FR",
    "dead": 1748,
    "recovered": 7833,
    "lastUpdated": "2020-07-15T22:39:56.417Z",
    "pop": 8027000,
    "latitude": 45.4471,
    "infected": 15794,
    "sick": 6213,
    "invisible": false
  },