[
  {
    "recovered": 17,
    "infected": 24,
    "id": "01b09TY4vmuZwzVuiRFK",
    "pop": 72600,
    "country": "CO",
    "longitude": -81.7006,
    "name": "San Andrés",
    "latitude": 12.5847,
    "dead": 0,
    "lastUpdated": "2020-06-27T20:00:09.574Z",
    "sick": 7,
    "invisible": false
  },
  {
    "alwaysShow": false,
    "latitude": 49.4482,
    "dead": 13,
    "lastUpdated": "2020-06-27T19:34:10.727Z",
    "recovered": 238,
    "infected": 252,
    "id": "0FOJefeLxQYXQ1CnJm9o",
    "pop": 63196,
    "country": "GG",
    "longitude": -2.5895,
    "name": "Guernsey",
    "sick": 1,
    "invisible": false
  },
  {
    "longitude": 14.333333,
    "name": "Campania",
    "latitude": 41.066666,
    "dead": 431,
    "lastUpdated": "2020-06-27T20:01:01.548Z",
    "recovered": 4071,
    "infected": 4665,
    "state": "72",
    "id": "0GJcws44NSPsDHAuxJhW",
    "pop": 5827000,
    "country": "IT",
    "sick": 163,
    "invisible": false
  },
  {
    "latitude": -20.2167,
    "dead": 88,
    "lastUpdated": "2020-06-27T20:21:04.533Z",
    "recovered": 0,
    "infected": 5771,
    "id": "0HDQbiHe462xMCUV5HiI",
    "pop": 383870,
    "country": "CL",
    "longitude": -70.14222,
    "name": "Tarapacá",
    "sick": 5683,
    "invisible": false
  },
  {
    "longitude": 85.0985,
    "name": "Odisha",
    "latitude": 20.9517,
    "dead": 25,
    "lastUpdated": "2020-06-27T20:11:01.540Z",
    "recovered": 4606,
    "infected": 6350,
    "id": "0VG7S6aaK4eSo59fL9JO",
    "pop": 45990000,
    "country": "IN",
    "sick": 1719,
    "invisible": false
  },
  {
    "latitude": 20.4737,
    "dead": 610,
    "lastUpdated": "2020-06-27T20:02:01.462Z",
    "recovered": 0,
    "infected": 3647,
    "id": "0XmCRqiK2ZaehoEJvfer",
    "pop": 2990300,
    "country": "MX",
    "longitude": -98.8582,
    "name": "Hidalgo",
    "sick": 3037,
    "invisible": false
  },
  {
    "lastUpdated": "2020-06-27T20:11:01.542Z",
    "recovered": 43,
    "infected": 72,
    "id": "0jStOpTUNRaQYJqgmRoK",
    "pop": 427246,
    "country": "IN",
    "longitude": 92.6586,
    "name": "Andaman and Nicobar Islands",
    "latitude": 11.7401,
    "dead": 0,
    "sick": 29,
    "invisible": false
  },
  {
    "recovered": 77225,
    "infected": 93663,
    "id": "0m4aECS0Z2DGFEr8ldgI",
    "pop": 2639000,
    "country": "QA",
    "longitude": 51.145517,
    "name": "Qatar",
    "latitude": 25.315058,
    "dead": 110,
    "lastUpdated": "2020-06-27T20:16:02.953Z",
    "sick": 16328,
    "invisible": false
  },
  {
    "latitude": 22.9868,
    "dead": 629,
    "lastUpdated": "2020-06-27T20:11:01.537Z",
    "recovered": 10789,
    "infected": 16711,
    "id": "0n54EMSDJcRoT1QEvw80",
    "pop": 90320000,
    "country": "IN",
    "longitude": 87.855,
    "name": "West Bengal",
    "sick": 5293,
    "invisible": false
  },
  {
    "latitude": 22.9734,
    "dead": 550,
    "lastUpdated": "2020-06-27T20:11:01.537Z",
    "recovered": 9971,
    "infected": 12965,
    "id": "0s18o5DrDAHjbu5MFcrj",
    "pop": 73340000,
    "country": "IN",
    "longitude": 78.6569,
    "name": "Madhya Pradesh",
    "sick": 2444,
    "invisible": false
  },
  {
    "latitude": 37.0902,
    "dead": 0,
    "lastUpdated": "2020-06-27T20:16:02.948Z",
    "recovered": 1073328,
    "infected": 0,
    "id": "0tFoopNTs6e4tOoaltu2",
    "country": "US",
    "longitude": -95.7129,
    "invisible": true,
    "name": "Unknown US state",
    "sick": 0
  },
  {
    "latitude": 35.64249,
    "dead": 3,
    "lastUpdated": "2020-06-27T20:08:03.767Z",
    "recovered": 307,
    "infected": 319,
    "id": "0x2HLhr5z5xAtEdO4iZm",
    "pop": 37330000,
    "country": "CN",
    "longitude": 108.472214,
    "name": "Shaanxi",
    "sick": 9,
    "invisible": false
  },
  {
    "latitude": 41.643351,
    "dead": 277,
    "lastUpdated": "2020-06-27T20:16:02.959Z",
    "recovered": 2236,
    "infected": 5906,
    "id": "19MvIhipqTyYv1H37Upw",
    "pop": 2077000,
    "country": "MK",
    "longitude": 21.668393,
    "name": "North Macedonia",
    "sick": 3393,
    "invisible": false
  },
  {
    "country": "CA",
    "longitude": -57.6604,
    "name": "Newfoundland and Labrador",
    "latitude": 53.1355,
    "dead": 3,
    "lastUpdated": "2020-06-27T20:10:02.167Z",
    "recovered": 0,
    "infected": 261,
    "state": "NL",
    "id": "1DOMOmCWDtva46OVSZLv",
    "pop": 521542,
    "sick": 258,
    "invisible": false
  },
  {
    "id": "1Fap7rZu9SIRqf5TG9Dg",
    "pop": 5627000,
    "country": "CN",
    "longitude": 96.779286,
    "name": "Qinghai",
    "latitude": 35.801933,
    "dead": 0,
    "lastUpdated": "2020-06-27T20:08:03.771Z",
    "recovered": 18,
    "infected": 18,
    "sick": 0,
    "invisible": false
  },
  {
    "lastUpdated": "2020-06-27T20:16:02.950Z",
    "recovered": 120562,
    "infected": 0,
    "id": "1YXQMlVL3fUeDZmcVfJw",
    "pop": 126200000,
    "country": "MX",
    "longitude": -102.5528,
    "invisible": true,
    "name": "Unknown Mexico state",
    "latitude": 23.6345,
    "dead": 0,
    "sick": 0
  },
  {
    "latitude": 55.0555,
    "dead": 27,
    "lastUpdated": "2020-06-27T20:00:08.905Z",
    "recovered": 1955,
    "infected": 3372,
    "id": "1at5nIap9H51v32otlQl",
    "pop": 1960000,
    "country": "RU",
    "longitude": 73.3167,
    "name": "Omsk Oblast",
    "sick": 1390,
    "invisible": false
  },
  {
    "name": "Piemonte",
    "latitude": 44.9,
    "dead": 4080,
    "lastUpdated": "2020-06-27T20:01:01.548Z",
    "recovered": 25739,
    "infected": 31322,
    "state": "21",
    "id": "1eTSQyfp8RoDPeFrIwun",
    "pop": 4376000,
    "country": "IT",
    "longitude": 8.206944,
    "sick": 1503,
    "invisible": false
  },
  {
    "country": "PL",
    "longitude": 15.461,
    "name": "Lubuskie",
    "latitude": 51.993,
    "dead": 0,
    "lastUpdated": "2020-06-27T20:03:09.781Z",
    "recovered": 0,
    "infected": 149,
    "id": "1j1OurxLTpZYuWIWwQ9F",
    "pop": 1003000,
    "sick": 149,
    "invisible": false
  },
  {
    "recovered": 8963,
    "infected": 16080,
    "id": "1qTPB8X3tyLyIdsb5TN3",
    "pop": 3550000,
    "country": "MD",
    "longitude": 28.3699,
    "name": "Moldova",
    "latitude": 47.4116,
    "dead": 521,
    "lastUpdated": "2020-06-27T20:16:02.957Z",
    "sick": 6596,
    "invisible": false
  },
  {
    "latitude": 37.0902,
    "dead": 90,
    "lastUpdated": "2020-06-27T20:17:07.158Z",
    "recovered": 0,
    "infected": 7176,
    "id": "22PJOAThcDFKgSbyQIkD",
    "country": "US",
    "longitude": -95.7129,
    "invisible": true,
    "name": "Federal Bureau of Prisons",
    "sick": 7086
  },
  {
    "latitude": 30.15336,
    "dead": 0,
    "lastUpdated": "2020-06-27T20:08:03.772Z",
    "recovered": 1,
    "infected": 1,
    "id": "25qIBtsW2nfQj3pwBKg9",
    "pop": 3180000,
    "country": "CN",
    "longitude": 88.787865,
    "name": "Tibet",
    "sick": 0,
    "invisible": false
  },
  {
    "recovered": 21909,
    "infected": 52812,
    "id": "2KHYUb5t3lwzVVmDjwNX",
    "pop": 264000000,
    "country": "ID",
    "longitude": 115.66779,
    "name": "Indonesia",
    "latitude": -1.572184,
    "dead": 2720,
    "lastUpdated": "2020-06-27T20:16:02.954Z",
    "sick": 28183,
    "invisible": false
  },
  {
    "latitude": 43.807191,
    "dead": 202,
    "lastUpdated": "2020-06-27T20:17:07.156Z",
    "recovered": 0,
    "infected": 8094,
    "state": "OR",
    "id": "2OrsssmGUs4XCzaZzvTv",
    "pop": 4191000,
    "country": "US",
    "longitude": -120.585594,
    "name": "Oregon",
    "sick": 7892,
    "invisible": false
  },
  {
    "latitude": -23.65,
    "dead": 142,
    "lastUpdated": "2020-06-27T20:21:04.533Z",
    "recovered": 0,
    "infected": 8027,
    "id": "2c5HBZ1ffkCVXnMYUWnY",
    "pop": 425000,
    "country": "CL",
    "longitude": -70.400002,
    "name": "Antofagasta",
    "sick": 7885,
    "invisible": false
  },
  {
    "name": "Amapá",
    "latitude": 0.035574,
    "dead": 401,
    "lastUpdated": "2020-06-27T20:15:01.307Z",
    "recovered": 0,
    "infected": 27662,
    "state": "AP",
    "id": "2dzhyWsBSPpENWlNew0b",
    "pop": 9029000,
    "country": "BR",
    "longitude": -51.070534,
    "sick": 27261,
    "invisible": false
  },
  {
    "latitude": 43.851921,
    "dead": 2,
    "lastUpdated": "2020-06-27T20:08:03.769Z",
    "recovered": 153,
    "infected": 155,
    "id": "2jxHvSsxdnom0nPNvOT8",
    "pop": 27460000,
    "country": "CN",
    "longitude": 126.548103,
    "name": "Jilin",
    "sick": 0,
    "invisible": false
  },
  {
    "name": "Gibraltar",
    "latitude": 36.1408,
    "dead": 0,
    "lastUpdated": "2020-06-27T20:16:02.969Z",
    "recovered": 176,
    "infected": 177,
    "id": "2p11BjSAs3wVyymgqBOe",
    "pop": 34571,
    "country": "GI",
    "longitude": -5.3536,
    "sick": 1,
    "invisible": false
  },
  {
    "recovered": 1939,
    "infected": 4428,
    "id": "2sLNkkHpyaHx7dD3aMDO",
    "pop": 2567000,
    "country": "FR",
    "longitude": 1.6751,
    "name": "Centre-Val de Loire",
    "latitude": 47.7516,
    "dead": 545,
    "lastUpdated": "2020-06-26T23:53:35.495Z",
    "sick": 1944,
    "invisible": false
  },
  {
    "longitude": 12.643751,
    "name": "Umbria",
    "latitude": 42.565044,
    "dead": 79,
    "lastUpdated": "2020-06-27T15:31:01.860Z",
    "recovered": 1351,
    "infected": 1440,
    "state": "55",
    "id": "319tiZOMczx1y0DfvOib",
    "pop": 884640,
    "country": "IT",
    "sick": 10,
    "invisible": false
  },
  {
    "latitude": 2.43823,
    "dead": 13,
    "lastUpdated": "2020-06-27T20:00:09.574Z",
    "recovered": 134,
    "infected": 321,
    "id": "38T96Q3XNjt5FSJygPed",
    "pop": 1355000,
    "country": "CO",
    "longitude": -76.6131592,
    "name": "Cauca",
    "sick": 174,
    "invisible": false
  },
  {
    "id": "3IlPjAbP5qVMn1nlgLTJ",
    "pop": 17090000,
    "country": "ZM",
    "longitude": 27.849332,
    "name": "Zambia",
    "latitude": -13.133896,
    "dead": 21,
    "lastUpdated": "2020-06-27T20:16:02.964Z",
    "recovered": 1233,
    "infected": 1531,
    "sick": 277,
    "invisible": false
  },
  {
    "latitude": 42.7044,
    "dead": 9,
    "lastUpdated": "2020-06-27T20:16:02.968Z",
    "recovered": 315,
    "infected": 469,
    "id": "3LstMSN5XMYBkxbe5HN7",
    "pop": 631219,
    "country": "ME",
    "longitude": 19.3958,
    "name": "Montenegro",
    "sick": 145,
    "invisible": false
  },
  {
    "state": "ACT",
    "id": "3OZoQsKrzxZ18EKyfGE6",
    "pop": 418440,
    "country": "AU",
    "longitude": 149.0124,
    "name": "Australian Capital Territory",
    "latitude": -35.4735,
    "dead": 3,
    "lastUpdated": "2020-06-27T20:13:29.729Z",
    "recovered": 105,
    "infected": 108,
    "sick": 0,
    "invisible": false
  },
  {
    "recovered": 2996,
    "infected": 4658,
    "id": "3PfzjWjvOkfgxc672BHQ",
    "pop": 608000,
    "country": "RU",
    "longitude": 38.8389,
    "name": "Yaroslavl Oblast",
    "latitude": 57.8992,
    "dead": 19,
    "lastUpdated": "2020-06-27T20:00:08.900Z",
    "sick": 1643,
    "invisible": false
  },
  {
    "name": "Tuva",
    "latitude": 51.8873,
    "dead": 3,
    "lastUpdated": "2020-06-27T20:00:08.904Z",
    "recovered": 997,
    "infected": 4111,
    "id": "3PpqgIUJAtzxo1j7z56i",
    "pop": 321000,
    "country": "RU",
    "longitude": 95.626,
    "sick": 3111,
    "invisible": false
  },
  {
    "latitude": 26.2006,
    "dead": 10,
    "lastUpdated": "2020-06-27T20:11:01.540Z",
    "recovered": 4815,
    "infected": 7166,
    "id": "3cCbnJCsK7mKlTO08K1o",
    "pop": 30940000,
    "country": "IN",
    "longitude": 92.9376,
    "name": "Assam",
    "sick": 2341,
    "invisible": false
  },
  {
    "country": "US",
    "longitude": -82.9071,
    "name": "Ohio",
    "latitude": 40.4173,
    "dead": 2813,
    "lastUpdated": "2020-06-27T20:17:07.154Z",
    "recovered": 0,
    "infected": 49475,
    "state": "OH",
    "id": "3fC3bAyIRUquOQOEnQNe",
    "pop": 11690000,
    "sick": 46662,
    "invisible": false
  },
  {
    "id": "3kFCzJguabtBvXaHxgiu",
    "pop": 3066400,
    "country": "MX",
    "longitude": -107.5,
    "name": "Sinaloa",
    "latitude": 25,
    "dead": 1169,
    "lastUpdated": "2020-06-27T20:02:01.372Z",
    "recovered": 0,
    "infected": 7775,
    "sick": 6606,
    "invisible": false
  },
  {
    "latitude": 3.420556,
    "dead": 295,
    "lastUpdated": "2020-06-27T20:00:09.572Z",
    "recovered": 3217,
    "infected": 7582,
    "id": "3mC2LveOpXV8P1PmQGUj",
    "pop": 4708300,
    "country": "CO",
    "longitude": -76.522224,
    "name": "Valle del Cauca",
    "sick": 4070,
    "invisible": false
  },
  {
    "recovered": 1344,
    "infected": 4025,
    "id": "4NnFMekRK2m14IlnZZoj",
    "pop": 4420000,
    "country": "MR",
    "longitude": -10.9408,
    "name": "Mauritania",
    "latitude": 21.0079,
    "dead": 121,
    "lastUpdated": "2020-06-27T20:16:02.960Z",
    "sick": 2560,
    "invisible": false
  },
  {
    "longitude": -127.6476,
    "name": "British Columbia",
    "latitude": 53.7267,
    "dead": 174,
    "lastUpdated": "2020-06-27T20:10:02.165Z",
    "recovered": 0,
    "infected": 2878,
    "state": "BC",
    "id": "4hfZRUoUgI4a3vrG0GBk",
    "pop": 5071000,
    "country": "CA",
    "sick": 2704,
    "invisible": false
  },
  {
    "country": "BR",
    "longitude": -43.196388,
    "name": "Rio de Janeiro",
    "latitude": -22.908333,
    "dead": 9587,
    "lastUpdated": "2020-06-27T20:15:01.306Z",
    "recovered": 0,
    "infected": 108497,
    "state": "RJ",
    "id": "4kq0z3kh5zt3YAUWxvtE",
    "pop": 17159960,
    "sick": 98910,
    "invisible": false
  },
  {
    "latitude": -11.409874,
    "dead": 1642,
    "lastUpdated": "2020-06-27T20:15:01.306Z",
    "recovered": 0,
    "infected": 56422,
    "state": "BA",
    "id": "4yDbkEyqsNzZJjfrciYV",
    "pop": 14812617,
    "country": "BR",
    "longitude": -41.280857,
    "name": "Bahia",
    "sick": 54780,
    "invisible": false
  },
  {
    "latitude": 40.3426,
    "dead": 193,
    "lastUpdated": "2020-06-27T20:16:02.957Z",
    "recovered": 8719,
    "infected": 15890,
    "id": "4zqzRm2xHn0CDVOUQJ8p",
    "pop": 9898000,
    "country": "AZ",
    "longitude": 47.93802,
    "name": "Azerbaijan",
    "sick": 6978,
    "invisible": false
  },
  {
    "name": "Tamaulipas",
    "latitude": 22.233105,
    "dead": 361,
    "lastUpdated": "2020-06-27T20:02:01.462Z",
    "recovered": 0,
    "infected": 5539,
    "id": "54cfsdsRF76XVHWtZs19",
    "pop": 3672300,
    "country": "MX",
    "longitude": -97.861099,
    "sick": 5178,
    "invisible": false
  },
  {
    "state": "VLG",
    "id": "57ydD48mLRD2YoyteJZj",
    "pop": 6596000,
    "country": "BE",
    "longitude": 3.7265,
    "name": "Flanders",
    "latitude": 51.0109,
    "dead": 4886,
    "lastUpdated": "2020-06-27T20:07:06.457Z",
    "recovered": 9297,
    "infected": 34321,
    "sick": 20138,
    "invisible": false
  },
  {
    "longitude": -78.035889,
    "name": "Bahamas",
    "latitude": 25.025885,
    "dead": 11,
    "lastUpdated": "2020-06-27T20:16:02.970Z",
    "recovered": 84,
    "infected": 104,
    "id": "5MHegCUO9L3LiAU7DDey",
    "pop": 395361,
    "country": "BS",
    "sick": 9,
    "invisible": false
  },
  {
    "latitude": -31.253218,
    "dead": 49,
    "lastUpdated": "2020-06-27T20:13:29.741Z",
    "recovered": 2784,
    "infected": 3174,
    "state": "NSW",
    "id": "5N16a2OXXRpsEFanw0TC",
    "pop": 7544000,
    "country": "AU",
    "longitude": 146.921097,
    "name": "New South Wales",
    "sick": 341,
    "invisible": false
  },
  {
    "id": "5N4PRxsCDzzwk7R200V1",
    "pop": 12580000,
    "country": "SS",
    "longitude": 31.3069782,
    "name": "South Sudan",
    "latitude": 6.8769908,
    "dead": 36,
    "lastUpdated": "2020-06-27T20:16:02.964Z",
    "recovered": 224,
    "infected": 1942,
    "sick": 1682,
    "invisible": false
  },
  {
    "longitude": -0.7533,
    "name": "C. Valenciana",
    "latitude": 39.484,
    "dead": 1432,
    "lastUpdated": "2020-06-26T23:34:03.417Z",
    "recovered": 9970,
    "infected": 15322,
    "state": "VC",
    "id": "5Va9A7CXR8AXdUz4HTJj",
    "pop": 4975000,
    "country": "ES",
    "sick": 3920,
    "invisible": false
  },
  {
    "id": "5fg04eyDwFw3kEXnrxez",
    "pop": 280460,
    "country": "NC",
    "longitude": 165.618042,
    "name": "New Caledonia",
    "latitude": -20.9043045,
    "dead": 0,
    "lastUpdated": "2020-06-27T20:16:02.973Z",
    "recovered": 21,
    "infected": 21,
    "sick": 0,
    "invisible": false
  },
  {
    "recovered": 2834,
    "infected": 12309,
    "id": "5gXZIjRgAvd6xWN1LOv8",
    "pop": 29300000,
    "country": "NP",
    "longitude": 84.124008,
    "name": "Nepal",
    "latitude": 28.394857,
    "dead": 28,
    "lastUpdated": "2020-06-27T20:16:02.958Z",
    "sick": 9447,
    "invisible": false
  },
  {
    "latitude": 12.879721,
    "dead": 1236,
    "lastUpdated": "2020-06-27T20:16:02.955Z",
    "recovered": 9430,
    "infected": 34803,
    "id": "5pwmh7aSdGRKqRbnuyc0",
    "pop": 104900000,
    "country": "PH",
    "longitude": 121.774017,
    "name": "Philippines",
    "sick": 24137,
    "invisible": false
  },
  {
    "country": "ZW",
    "longitude": 31.053028,
    "name": "Zimbabwe",
    "latitude": -17.824858,
    "dead": 6,
    "lastUpdated": "2020-06-27T20:16:02.968Z",
    "recovered": 135,
    "infected": 561,
    "id": "5qtR9nx4BLwu1ODTniaY",
    "pop": 14802190,
    "sick": 420,
    "invisible": false
  },
  {
    "dead": 350,
    "latitude": 36.0672,
    "infected": 7320,
    "recovered": 0,
    "pop": 356890,
    "country": "US",
    "lastUpdated": "2020-06-27T20:17:07.158Z",
    "state": "NA",
    "id": "5vkKgxTaKq1IH0Go357L",
    "longitude": -109.188,
    "invisible": false,
    "name": "Navajo Nation",
    "sick": 6970
  },
  {
    "longitude": -99.177254,
    "name": "Ciudad de México",
    "latitude": 19.432241,
    "dead": 6245,
    "lastUpdated": "2020-06-27T20:02:01.374Z",
    "recovered": 0,
    "infected": 45977,
    "id": "61E7TGjUwAo9xu6Y6gAH",
    "pop": 8781300,
    "country": "MX",
    "sick": 39732,
    "invisible": false
  },
  {
    "latitude": 54.3873,
    "dead": 44,
    "lastUpdated": "2020-06-27T20:00:08.898Z",
    "recovered": 3492,
    "infected": 5880,
    "id": "63KYOuWe41mvqWQrJbr2",
    "pop": 1012000,
    "country": "RU",
    "longitude": 35.1889,
    "name": "Kaluga Oblast",
    "sick": 2344,
    "invisible": false
  },
  {
    "lastUpdated": "2020-06-27T20:16:02.964Z",
    "recovered": 1503,
    "infected": 1813,
    "id": "694ON7d0mRJDeM1gHBTR",
    "pop": 2794000,
    "country": "LT",
    "longitude": 23.804991,
    "name": "Lithuania",
    "latitude": 55.621011,
    "dead": 78,
    "sick": 232,
    "invisible": false
  },
  {
    "longitude": -0.5596,
    "name": "South East",
    "latitude": 51.1781,
    "dead": 0,
    "lastUpdated": "2020-06-27T20:13:17.264Z",
    "recovered": 0,
    "infected": 22783,
    "state": "EN",
    "id": "6IQAsvrmBv0HPdeTnh4x",
    "pop": 9175000,
    "country": "GB",
    "sick": 22783,
    "invisible": false
  },
  {
    "lastUpdated": "2020-06-27T20:16:02.965Z",
    "recovered": 1095,
    "infected": 1198,
    "id": "6IcHIIH0zXpY0POmBZTv",
    "pop": 7392000,
    "country": "HK",
    "longitude": 114.109497,
    "name": "Hong Kong",
    "latitude": 22.396427,
    "dead": 7,
    "sick": 96,
    "invisible": false
  },
  {
    "latitude": -8.65,
    "dead": 343,
    "lastUpdated": "2020-06-27T20:15:01.307Z",
    "recovered": 0,
    "infected": 12644,
    "state": "AC",
    "id": "6LQesrx5bHJsVUi1TXBp",
    "pop": 869265,
    "country": "BR",
    "longitude": -72.4,
    "name": "Acre",
    "sick": 12301,
    "invisible": false
  },
  {
    "longitude": 2.3158,
    "name": "Benin",
    "latitude": 9.3077,
    "dead": 14,
    "lastUpdated": "2020-06-27T20:16:02.965Z",
    "recovered": 295,
    "infected": 1124,
    "id": "6SlpghTyB6lpMFvx3g9U",
    "pop": 11180000,
    "country": "BJ",
    "sick": 815,
    "invisible": false
  },
  {
    "latitude": 45.6667,
    "dead": 16626,
    "lastUpdated": "2020-06-27T20:01:01.548Z",
    "recovered": 66046,
    "infected": 93664,
    "state": "25",
    "id": "6ZHcvMIzVWIaRnc4R3Qp",
    "pop": 10040000,
    "country": "IT",
    "longitude": 9.5,
    "name": "Lombardia",
    "sick": 10992,
    "invisible": false
  },
  {
    "name": "Slovenia",
    "latitude": 46.0569,
    "dead": 109,
    "lastUpdated": "2020-06-27T20:16:02.964Z",
    "recovered": 1376,
    "infected": 1572,
    "id": "6ahNiyKDSDAftCctgLH3",
    "pop": 2067000,
    "country": "SI",
    "longitude": 14.5058,
    "sick": 87,
    "invisible": false
  },
  {
    "recovered": 0,
    "infected": 925,
    "id": "6nyns7UGGgkU7pxrHf8i",
    "pop": 300000,
    "country": "CL",
    "longitude": -70.331398,
    "name": "Atacama",
    "latitude": -27.3667908,
    "dead": 2,
    "lastUpdated": "2020-06-27T20:21:04.533Z",
    "sick": 923,
    "invisible": false
  },
  {
    "recovered": 2327,
    "infected": 5209,
    "id": "6pBi38TUgYfFm0bry2uh",
    "pop": 2025000,
    "country": "GA",
    "longitude": 11.6094,
    "name": "Gabon",
    "latitude": -0.8037,
    "dead": 40,
    "lastUpdated": "2020-06-27T20:16:02.959Z",
    "sick": 2842,
    "invisible": false
  },
  {
    "latitude": 22.1498,
    "dead": 157,
    "lastUpdated": "2020-06-27T20:02:01.462Z",
    "recovered": 0,
    "infected": 2643,
    "id": "6vjIVg1gSANFZghV7xtS",
    "pop": 2831900,
    "country": "MX",
    "longitude": -100.9792,
    "name": "San Luis Potosí",
    "sick": 2486,
    "invisible": false
  },
  {
    "recovered": 6,
    "infected": 6,
    "id": "78Ox26bNHDA2Pk2b3Uwn",
    "pop": 9131,
    "country": "FR",
    "longitude": -62.818544,
    "name": "Saint-Barthélémy",
    "alwaysShow": true,
    "latitude": 17.901672,
    "dead": 0,
    "lastUpdated": "2020-06-27T20:16:02.988Z",
    "sick": 0,
    "invisible": false
  },
  {
    "country": "PL",
    "longitude": 18.633,
    "name": "Pomorskie",
    "latitude": 54.367,
    "dead": 38,
    "lastUpdated": "2020-06-27T20:03:09.780Z",
    "recovered": 0,
    "infected": 653,
    "id": "7JDx6UJiwGSJyL1fChaJ",
    "pop": 2305000,
    "sick": 615,
    "invisible": false
  },
  {
    "name": "Melilla",
    "latitude": 35.2923,
    "dead": 2,
    "lastUpdated": "2020-06-26T23:36:19.151Z",
    "recovered": 125,
    "infected": 139,
    "state": "ML",
    "id": "7UASdZTZ1nPzzBwSTEA9",
    "pop": 84690,
    "country": "ES",
    "longitude": -2.9381,
    "sick": 12,
    "invisible": false
  },
  {
    "name": "Antigua and Barbuda",
    "latitude": 17.0608,
    "dead": 3,
    "lastUpdated": "2020-06-27T20:16:02.971Z",
    "recovered": 22,
    "infected": 65,
    "id": "7hVFcEV7nV0MrQr3LHrl",
    "pop": 102012,
    "country": "AG",
    "longitude": -61.7964,
    "sick": 40,
    "invisible": false
  },
  {
    "recovered": 45101,
    "infected": 48598,
    "state": "BY",
    "id": "7kCrrlOBE3jN6FtOVNUB",
    "pop": 13000000,
    "country": "DE",
    "longitude": 11.4979,
    "name": "Bayern",
    "latitude": 48.7904,
    "dead": 2633,
    "lastUpdated": "2020-06-27T20:00:03.154Z",
    "sick": 864,
    "invisible": false
  },
  {
    "latitude": 47.4979,
    "dead": 578,
    "lastUpdated": "2020-06-27T20:16:02.960Z",
    "recovered": 2681,
    "infected": 4138,
    "id": "7rYC2iFB50c55Ihgbs4Q",
    "pop": 9773000,
    "country": "HU",
    "longitude": 19.0402,
    "name": "Hungary",
    "sick": 879,
    "invisible": false
  },
  {
    "recovered": 3087,
    "infected": 10922,
    "id": "7tqLvLyXcBDK808nJv0m",
    "pop": 1206000,
    "country": "CO",
    "longitude": -74.7813,
    "name": "Barranquilla D.E.",
    "latitude": 10.9685,
    "dead": 537,
    "lastUpdated": "2020-06-27T20:00:09.573Z",
    "sick": 7298,
    "invisible": false
  },
  {
    "longitude": 12.3547,
    "name": "Cameroon",
    "latitude": 7.3697,
    "dead": 313,
    "lastUpdated": "2020-06-27T20:16:02.958Z",
    "recovered": 10100,
    "infected": 12592,
    "id": "8C0d7WVCjyUGtnc2gUAR",
    "pop": 24050000,
    "country": "CM",
    "sick": 2179,
    "invisible": false
  },
  {
    "country": "BE",
    "longitude": 4.3517,
    "name": "Brussels",
    "latitude": 50.8503,
    "dead": 1483,
    "lastUpdated": "2020-06-27T09:07:13.551Z",
    "recovered": 2783,
    "infected": 6256,
    "state": "BRU",
    "id": "8DOZWbN6bDdgaLXVlUEu",
    "pop": 1209000,
    "sick": 1990,
    "invisible": false
  },
  {
    "recovered": 7736,
    "infected": 29423,
    "id": "8RihJrXw4NQXPxaRxr1u",
    "pop": 11050000,
    "country": "BO",
    "longitude": -63.5887,
    "name": "Bolivia",
    "latitude": -16.2902,
    "dead": 934,
    "lastUpdated": "2020-06-27T20:16:02.956Z",
    "sick": 20753,
    "invisible": false
  },
  {
    "longitude": -61.2872,
    "name": "St. Vincent Grenadines",
    "latitude": 12.9843,
    "dead": 0,
    "lastUpdated": "2020-06-27T20:16:02.971Z",
    "recovered": 29,
    "infected": 29,
    "id": "8ZTySQROQejkDAad0qxQ",
    "pop": 109897,
    "country": "VC",
    "sick": 0,
    "invisible": false
  },
  {
    "longitude": 103.819839,
    "name": "Singapore",
    "latitude": 1.352083,
    "dead": 26,
    "lastUpdated": "2020-06-27T20:16:02.955Z",
    "recovered": 37163,
    "infected": 43246,
    "id": "8pA3fM4xC2c2wv1b4TnE",
    "pop": 5621000,
    "country": "SG",
    "sick": 6057,
    "invisible": false
  },
  {
    "id": "98hwAoohgWEOQVa3NlM5",
    "pop": 3787000,
    "country": "FR",
    "longitude": -1.5536,
    "name": "Pays de la Loire",
    "latitude": 47.2184,
    "dead": 467,
    "lastUpdated": "2020-06-26T23:53:00.546Z",
    "recovered": 2054,
    "infected": 4090,
    "sick": 1569,
    "invisible": false
  },
  {
    "recovered": 0,
    "infected": 1764,
    "id": "9DAvxOObTqIvMOU93nlY",
    "pop": 952300,
    "country": "MX",
    "longitude": -90.19885,
    "name": "Campeche",
    "latitude": 19.30754,
    "dead": 181,
    "lastUpdated": "2020-06-27T20:02:01.462Z",
    "sick": 1583,
    "invisible": false
  },
  {
    "id": "9DPOkpIqrFy9mR4e9fuv",
    "pop": 40530000,
    "country": "SD",
    "longitude": 30.2176,
    "name": "Sudan",
    "latitude": 12.8628,
    "dead": 572,
    "lastUpdated": "2020-06-27T20:16:02.958Z",
    "recovered": 4014,
    "infected": 9257,
    "sick": 4671,
    "invisible": false
  },
  {
    "name": "Kostroma Oblast",
    "latitude": 58.5501,
    "dead": 17,
    "lastUpdated": "2020-06-27T20:00:08.908Z",
    "recovered": 852,
    "infected": 1494,
    "id": "9JFYfvpcejMIgYlHpngA",
    "pop": 643000,
    "country": "RU",
    "longitude": 43.9541,
    "sick": 625,
    "invisible": false
  },
  {
    "recovered": 18530,
    "infected": 26022,
    "id": "9QcETqEcM2fTv9zRvx5T",
    "pop": 19530000,
    "country": "RO",
    "longitude": 24.966761,
    "name": "Romania",
    "latitude": 45.943161,
    "dead": 1589,
    "lastUpdated": "2020-06-27T20:16:02.956Z",
    "sick": 5903,
    "invisible": false
  },
  {
    "latitude": 12.136389,
    "dead": 74,
    "lastUpdated": "2020-06-27T20:16:02.963Z",
    "recovered": 1238,
    "infected": 2170,
    "id": "9Y5wmCqNCC6ZrenM31uA",
    "pop": 6218000,
    "country": "NI",
    "longitude": -86.251389,
    "name": "Nicaragua",
    "sick": 858,
    "invisible": false
  },
  {
    "latitude": 17.5706921,
    "dead": 113,
    "lastUpdated": "2020-06-27T20:16:02.963Z",
    "recovered": 1398,
    "infected": 2118,
    "id": "9dIzxqDSVqPyINkHqwGv",
    "pop": 18540000,
    "country": "ML",
    "longitude": -3.996166,
    "name": "Mali",
    "sick": 607,
    "invisible": false
  },
  {
    "recovered": 6600,
    "infected": 7198,
    "id": "9p6OCdZbUUwBLA60Gk3W",
    "pop": 5513000,
    "country": "FI",
    "longitude": 25.748152,
    "name": "Finland",
    "latitude": 61.92411,
    "dead": 328,
    "lastUpdated": "2020-06-27T20:16:02.958Z",
    "sick": 270,
    "invisible": false
  },
  {
    "longitude": 95.1104,
    "name": "Krasnoyarsk Krai",
    "latitude": 64.248,
    "dead": 115,
    "lastUpdated": "2020-06-27T20:00:08.896Z",
    "recovered": 3465,
    "infected": 8476,
    "id": "A6Us0fpQVCc85SoIqzg3",
    "pop": 2876000,
    "country": "RU",
    "sick": 4896,
    "invisible": false
  },
  {
    "longitude": -71.590315,
    "name": "New Hampshire",
    "latitude": 43.311643,
    "dead": 365,
    "lastUpdated": "2020-06-27T20:17:07.157Z",
    "recovered": 0,
    "infected": 5671,
    "state": "NH",
    "id": "A84CwQ52kA46Hr7pn6Bm",
    "pop": 1356000,
    "country": "US",
    "sick": 5306,
    "invisible": false
  },
  {
    "state": "RI",
    "id": "AEUWUHS65qvjEslew11c",
    "pop": 1057000,
    "country": "US",
    "longitude": -71.412257,
    "name": "Rhode Island",
    "latitude": 41.823261,
    "dead": 927,
    "lastUpdated": "2020-06-27T20:17:07.156Z",
    "recovered": 0,
    "infected": 16661,
    "sick": 15734,
    "invisible": false
  },
  {
    "longitude": 11.327591,
    "name": "Emilia-Romagna",
    "latitude": 44.498955,
    "dead": 4252,
    "lastUpdated": "2020-06-27T20:01:01.548Z",
    "recovered": 23142,
    "infected": 28435,
    "state": "45",
    "id": "AJ9jQ0iyKsafsmf5yHAR",
    "pop": 4453000,
    "country": "IT",
    "sick": 1041,
    "invisible": false
  },
  {
    "state": "SL",
    "id": "AKjFRQGnzuuZQhv5Qwx7",
    "pop": 990509,
    "country": "DE",
    "longitude": 7.023,
    "name": "Saarland",
    "latitude": 49.3964,
    "dead": 176,
    "lastUpdated": "2020-06-27T20:00:03.157Z",
    "recovered": 2611,
    "infected": 2826,
    "sick": 39,
    "invisible": false
  },
  {
    "latitude": 54.4319,
    "dead": 88,
    "lastUpdated": "2020-06-27T20:00:08.897Z",
    "recovered": 3560,
    "infected": 6760,
    "id": "AOapJ3gElQApd8Gnt8EL",
    "pop": 3493000,
    "country": "RU",
    "longitude": 60.8789,
    "name": "Chelyabinsk Oblast",
    "sick": 3112,
    "invisible": false
  },
  {
    "latitude": -35.717,
    "dead": 41,
    "lastUpdated": "2020-06-27T20:21:04.534Z",
    "recovered": 0,
    "infected": 5182,
    "id": "APTPgjAsjFi0nsGyJV7M",
    "pop": 1125002,
    "country": "CL",
    "longitude": -71.167,
    "name": "Maule",
    "sick": 5141,
    "invisible": false
  },
  {
    "id": "APaZzlGCEeuoLBtzTJMe",
    "pop": 56171,
    "country": "GL",
    "longitude": -42.6043,
    "name": "Greenland",
    "latitude": 71.7069,
    "dead": 0,
    "lastUpdated": "2020-06-27T20:16:02.975Z",
    "recovered": 13,
    "infected": 13,
    "sick": 0,
    "invisible": false
  },
  {
    "id": "ATxF6ZoDJ2ibdE6ZRYIX",
    "pop": 984000,
    "country": "RU",
    "longitude": 112.4061,
    "name": "Buryatia",
    "latitude": 54.8331,
    "dead": 17,
    "lastUpdated": "2020-06-27T20:00:08.907Z",
    "recovered": 1906,
    "infected": 2831,
    "sick": 908,
    "invisible": false
  },
  {
    "latitude": 45.65107,
    "dead": 63,
    "lastUpdated": "2020-06-27T20:10:02.166Z",
    "recovered": 0,
    "infected": 1061,
    "state": "NS",
    "id": "AVCpxeh0fuH2WrHWNDYH",
    "pop": 971395,
    "country": "CA",
    "longitude": -63.582687,
    "name": "Nova Scotia",
    "sick": 998,
    "invisible": false
  },
  {
    "country": "US",
    "longitude": -109.128641,
    "name": "Montana",
    "latitude": 47.012918,
    "dead": 22,
    "lastUpdated": "2020-06-27T20:17:07.157Z",
    "recovered": 0,
    "infected": 852,
    "state": "MT",
    "id": "AcULcZBozObOhwuRKMjJ",
    "pop": 1062000,
    "sick": 830,
    "invisible": false
  },
  {
    "name": "Tajikistan",
    "latitude": 38.861,
    "dead": 52,
    "lastUpdated": "2020-06-27T20:16:02.959Z",
    "recovered": 4391,
    "infected": 5799,
    "id": "AiIGs3ybYZZhm1ytVopr",
    "pop": 9275000,
    "country": "TJ",
    "longitude": 71.2761,
    "sick": 1356,
    "invisible": false
  },
  {
    "lastUpdated": "2020-06-27T20:08:03.769Z",
    "recovered": 931,
    "infected": 932,
    "id": "AmBYm5J6E9Cuez1FQjiN",
    "pop": 45200000,
    "country": "CN",
    "longitude": 116.01609,
    "name": "Jiangxi",
    "latitude": 27.285971,
    "dead": 1,
    "sick": 0,
    "invisible": false
  },
  {
    "country": "GB",
    "longitude": -3.7837,
    "name": "Wales",
    "latitude": 52.1307,
    "dead": 1502,
    "lastUpdated": "2020-06-27T20:13:17.262Z",
    "recovered": 0,
    "infected": 15577,
    "state": "WA",
    "id": "AoLhHdTydeWTfmp9koEX",
    "pop": 3136000,
    "sick": 14075,
    "invisible": false
  },
  {
    "longitude": 90.3982,
    "name": "Khakassia",
    "latitude": 53.0452,
    "dead": 15,
    "lastUpdated": "2020-06-27T20:00:08.907Z",
    "recovered": 1310,
    "infected": 1771,
    "id": "Avls64fLKoEsBFH0Ol0b",
    "pop": 537000,
    "country": "RU",
    "sick": 446,
    "invisible": false
  },
  {
    "id": "AwN0CScPDApcLFgz6e3z",
    "pop": 41320000,
    "country": "DZ",
    "longitude": 1.659626,
    "name": "Algeria",
    "latitude": 28.033886,
    "dead": 892,
    "lastUpdated": "2020-06-27T20:16:02.957Z",
    "recovered": 9202,
    "infected": 12968,
    "sick": 2874,
    "invisible": false
  },
  {
    "recovered": 2152,
    "infected": 2624,
    "id": "B82Ef45M8cDu4q7VsSHF",
    "pop": 4076000,
    "country": "HR",
    "longitude": 15.2,
    "name": "Croatia",
    "latitude": 45.099998,
    "dead": 107,
    "lastUpdated": "2020-06-27T20:16:02.962Z",
    "sick": 365,
    "invisible": false
  },
  {
    "longitude": 8.081666,
    "name": "Niger",
    "latitude": 17.6077881,
    "dead": 67,
    "lastUpdated": "2020-06-27T20:16:02.966Z",
    "recovered": 924,
    "infected": 1062,
    "id": "BENubqQInFUJzhpZTsLT",
    "pop": 23716000,
    "country": "NE",
    "sick": 71,
    "invisible": false
  },
  {
    "country": "US",
    "longitude": -76.98432,
    "name": "Maryland",
    "latitude": 39.509109,
    "dead": 3157,
    "lastUpdated": "2020-06-27T20:17:07.154Z",
    "recovered": 0,
    "infected": 66450,
    "state": "MD",
    "id": "BF51mWl51fgEcyBpCSzb",
    "pop": 6043000,
    "sick": 63293,
    "invisible": false
  },
  {
    "latitude": 53.709808,
    "dead": 377,
    "lastUpdated": "2020-06-27T20:16:02.953Z",
    "recovered": 44126,
    "infected": 61095,
    "id": "BGg6yVU5VP71B8NXU0oh",
    "pop": 9508000,
    "country": "BY",
    "longitude": 27.953388,
    "name": "Belarus",
    "sick": 16592,
    "invisible": false
  },
  {
    "name": "Normandie",
    "latitude": 48.8799,
    "dead": 431,
    "lastUpdated": "2020-06-26T23:53:19.205Z",
    "recovered": 1626,
    "infected": 3485,
    "id": "BGtoyzb7y54LVlJ91rbf",
    "pop": 3319000,
    "country": "FR",
    "longitude": 0.1713,
    "sick": 1428,
    "invisible": false
  },
  {
    "country": "GB",
    "longitude": -3.9995,
    "name": "South West",
    "latitude": 50.7772,
    "dead": 0,
    "lastUpdated": "2020-06-27T20:13:17.264Z",
    "recovered": 0,
    "infected": 7946,
    "state": "EN",
    "id": "BQqMOlPFD36ZEDTGd3WC",
    "pop": 5616000,
    "sick": 7946,
    "invisible": false
  },
  {
    "recovered": 0,
    "infected": 70051,
    "state": "AZ",
    "id": "BTEESCuD2ZbS1afunR2A",
    "pop": 7172000,
    "country": "US",
    "longitude": -111.093735,
    "name": "Arizona",
    "latitude": 34.048927,
    "dead": 1579,
    "lastUpdated": "2020-06-27T20:17:07.154Z",
    "sick": 68472,
    "invisible": false
  },
  {
    "name": "Smolensk Oblast",
    "latitude": 54.9883,
    "dead": 63,
    "lastUpdated": "2020-06-27T20:00:08.903Z",
    "recovered": 2234,
    "infected": 4463,
    "id": "BUb7oDHcBM4lQ5cufNoG",
    "pop": 949000,
    "country": "RU",
    "longitude": 32.6677,
    "sick": 2166,
    "invisible": false
  },
  {
    "latitude": 58.4199,
    "dead": 34,
    "lastUpdated": "2020-06-27T20:00:08.906Z",
    "recovered": 2411,
    "infected": 3117,
    "id": "BWojXmuKU3szKlS7CE4k",
    "pop": 1283000,
    "country": "RU",
    "longitude": 50.2097,
    "name": "Kirov Oblast",
    "sick": 672,
    "invisible": false
  },
  {
    "name": "Zachodniopomorskie",
    "latitude": 53.428543,
    "dead": 20,
    "lastUpdated": "2020-06-27T20:03:09.781Z",
    "recovered": 0,
    "infected": 609,
    "id": "BZwZOAlDJ8AIiaRVLyC9",
    "pop": 1676000,
    "country": "PL",
    "longitude": 14.552812,
    "sick": 589,
    "invisible": false
  },
  {
    "name": "Unknown Chile region",
    "latitude": -33.4489,
    "dead": 0,
    "lastUpdated": "2020-06-27T20:16:02.950Z",
    "recovered": 228055,
    "infected": 0,
    "id": "BbiuZcm8oURX7cZwaa5U",
    "country": "CL",
    "longitude": -70.6693,
    "invisible": true,
    "sick": 0
  },
  {
    "latitude": -13.2543,
    "dead": 13,
    "lastUpdated": "2020-06-27T20:16:02.966Z",
    "recovered": 260,
    "infected": 1005,
    "id": "BfT8o5DaEixC6JIZ28kY",
    "pop": 18620000,
    "country": "MW",
    "longitude": 34.3015,
    "name": "Malawi",
    "sick": 732,
    "invisible": false
  },
  {
    "latitude": -3.3730559,
    "dead": 1,
    "lastUpdated": "2020-06-27T20:16:02.970Z",
    "recovered": 93,
    "infected": 144,
    "id": "BnpMamidC5yYzeK8tPUL",
    "pop": 10860000,
    "country": "BI",
    "longitude": 29.9188862,
    "name": "Burundi",
    "sick": 50,
    "invisible": false
  },
  {
    "lastUpdated": "2020-06-27T20:03:09.777Z",
    "recovered": 0,
    "infected": 4943,
    "id": "BrToMzyq8y2xdwXn75kM",
    "pop": 5385000,
    "country": "PL",
    "longitude": 21.002,
    "name": "Mazowieckie",
    "latitude": 52.257,
    "dead": 327,
    "sick": 4616,
    "invisible": false
  },
  {
    "id": "C25xSDm4iYibX5RYML14",
    "pop": 74751,
    "country": "CO",
    "longitude": -71.347573,
    "name": "Amazonas (Colombia)",
    "latitude": -1.333845,
    "dead": 88,
    "lastUpdated": "2020-06-27T20:00:09.575Z",
    "recovered": 1862,
    "infected": 2241,
    "sick": 291,
    "invisible": false
  },
  {
    "latitude": 40.719042,
    "dead": 31447,
    "lastUpdated": "2020-06-27T20:17:07.152Z",
    "recovered": 0,
    "infected": 415824,
    "state": "NY",
    "id": "C3BCUzV80z9GfiuByIcr",
    "pop": 19540000,
    "country": "US",
    "longitude": -73.982597,
    "name": "New York",
    "sick": 384377,
    "invisible": false
  },
  {
    "latitude": 3.86528,
    "dead": 1,
    "lastUpdated": "2020-06-27T20:00:09.575Z",
    "recovered": 2,
    "infected": 14,
    "id": "C5YXFiytAc1w9swtVGLz",
    "pop": 42800,
    "country": "CO",
    "longitude": -67.92389,
    "name": "Guainía",
    "sick": 11,
    "invisible": false
  },
  {
    "recovered": 7681,
    "infected": 11164,
    "id": "C6S76AggdWVU8G22jFHQ",
    "pop": 10650000,
    "country": "CZ",
    "longitude": 15.359413,
    "name": "Czechia",
    "latitude": 49.731626,
    "dead": 349,
    "lastUpdated": "2020-06-27T20:16:02.958Z",
    "sick": 3134,
    "invisible": false
  },
  {
    "latitude": 26.0667,
    "dead": 78,
    "lastUpdated": "2020-06-27T20:16:02.956Z",
    "recovered": 19137,
    "infected": 24805,
    "id": "C7cj4nwRITs13KnaJrQ2",
    "pop": 1493000,
    "country": "BH",
    "longitude": 50.557701,
    "name": "Bahrain",
    "sick": 5590,
    "invisible": false
  },
  {
    "recovered": 290,
    "infected": 717,
    "id": "CA9LaAl3bNaeAqBuozn4",
    "pop": 1285400,
    "country": "CO",
    "longitude": -74.4057,
    "name": "Magdalena",
    "latitude": 10.4113,
    "dead": 67,
    "lastUpdated": "2020-06-27T20:00:09.575Z",
    "sick": 360,
    "invisible": false
  },
  {
    "lastUpdated": "2020-06-27T20:02:01.374Z",
    "recovered": 0,
    "infected": 3688,
    "id": "CCUFp4urvgXPo5unfMGy",
    "pop": 3073500,
    "country": "MX",
    "longitude": -101.430756,
    "name": "Coahuila",
    "latitude": 26.909979,
    "dead": 198,
    "sick": 3490,
    "invisible": false
  },
  {
    "longitude": 74.2179,
    "name": "Rajasthan",
    "latitude": 27.0238,
    "dead": 391,
    "lastUpdated": "2020-06-27T20:11:01.537Z",
    "recovered": 13367,
    "infected": 16944,
    "id": "CKZCZTPlrcq5fbfUPA9k",
    "pop": 68890000,
    "country": "IN",
    "sick": 3186,
    "invisible": false
  },
  {
    "recovered": 247,
    "infected": 561,
    "id": "CX8z9U1iABNBhc1VK2Dy",
    "pop": 218000,
    "country": "RU",
    "longitude": 86.2199,
    "name": "Altai",
    "latitude": 50.6182,
    "dead": 0,
    "lastUpdated": "2020-06-27T20:00:08.909Z",
    "sick": 314,
    "invisible": false
  },
  {
    "recovered": 3447,
    "infected": 5727,
    "id": "Cgvmtle61ehMvCzRzYx7",
    "pop": 6378000,
    "country": "SV",
    "longitude": -88.9053,
    "name": "El Salvador",
    "latitude": 13.803,
    "dead": 143,
    "lastUpdated": "2020-06-27T20:16:02.959Z",
    "sick": 2137,
    "invisible": false
  },
  {
    "country": "RU",
    "longitude": 153.915,
    "name": "Magadan Oblast",
    "latitude": 62.6643,
    "dead": 4,
    "lastUpdated": "2020-06-27T20:00:08.909Z",
    "recovered": 347,
    "infected": 669,
    "id": "D4WkbqyUXY1pazbOxfKx",
    "pop": 144000,
    "sick": 318,
    "invisible": false
  },
  {
    "country": "RU",
    "longitude": 82.6765,
    "name": "Tomsk Oblast",
    "latitude": 58.897,
    "dead": 14,
    "lastUpdated": "2020-06-27T20:00:08.907Z",
    "recovered": 922,
    "infected": 2089,
    "id": "DAp3PFow4BuCMYWWTo3i",
    "pop": 1078000,
    "sick": 1153,
    "invisible": false
  },
  {
    "latitude": 40.259003,
    "dead": 421,
    "lastUpdated": "2020-06-27T20:16:02.956Z",
    "recovered": 12911,
    "infected": 23909,
    "id": "DCJCtZoBTWQ4mzdDNljD",
    "pop": 2973000,
    "country": "AM",
    "longitude": 44.818474,
    "name": "Armenia",
    "sick": 10577,
    "invisible": false
  },
  {
    "recovered": 203,
    "infected": 340,
    "id": "DJJraANgQbEqz1wBBtZz",
    "pop": 1278000,
    "country": "CO",
    "longitude": -73.368,
    "name": "Boyacá",
    "latitude": 5.535,
    "dead": 11,
    "lastUpdated": "2020-06-27T20:00:09.574Z",
    "sick": 126,
    "invisible": false
  },
  {
    "id": "DKwy7USk22oXUQGEvO42",
    "pop": 834000,
    "country": "RU",
    "longitude": 44.0684,
    "name": "Mordovia",
    "latitude": 54.2369,
    "dead": 26,
    "lastUpdated": "2020-06-27T20:00:08.905Z",
    "recovered": 2106,
    "infected": 3284,
    "sick": 1152,
    "invisible": false
  },
  {
    "lastUpdated": "2020-06-27T20:13:17.264Z",
    "recovered": 0,
    "infected": 27226,
    "state": "EN",
    "id": "DPwBt2aJuwF0O71vwfM9",
    "pop": 7300000,
    "country": "GB",
    "longitude": -2.5945,
    "name": "North West",
    "latitude": 53.6221,
    "dead": 0,
    "sick": 27226,
    "invisible": false
  },
  {
    "recovered": 133,
    "infected": 146,
    "id": "DZyTD0Mu5WIcK6yTcJ91",
    "pop": 65440,
    "country": "BM",
    "longitude": -64.75737,
    "name": "Bermuda",
    "latitude": 32.3213844,
    "dead": 9,
    "lastUpdated": "2020-06-27T20:16:02.970Z",
    "sick": 4,
    "invisible": false
  },
  {
    "latitude": 21.694,
    "dead": 1,
    "lastUpdated": "2020-06-27T20:16:02.974Z",
    "recovered": 11,
    "infected": 16,
    "id": "DaMrRSIGJXIG36nW0Pnc",
    "pop": 35446,
    "country": "TC",
    "longitude": -71.7979,
    "name": "Turks and Caicos",
    "sick": 4,
    "invisible": false
  },
  {
    "lastUpdated": "2020-06-26T23:34:32.405Z",
    "recovered": 6392,
    "infected": 26658,
    "state": "CM",
    "id": "Dbng0NBTH41EEwBxhMzE",
    "pop": 2035000,
    "country": "ES",
    "longitude": -3.0977,
    "name": "Castilla La Mancha",
    "latitude": 39.2796,
    "dead": 3024,
    "sick": 17242,
    "invisible": false
  },
  {
    "country": "PL",
    "longitude": 20.006,
    "name": "Malopolskie",
    "latitude": 50.023,
    "dead": 44,
    "lastUpdated": "2020-06-27T20:03:09.780Z",
    "recovered": 0,
    "infected": 1667,
    "id": "DcQ3D0WkacXEbv6iznRB",
    "pop": 3361000,
    "sick": 1623,
    "invisible": false
  },
  {
    "latitude": 22.192039,
    "dead": 0,
    "lastUpdated": "2020-06-27T20:16:02.971Z",
    "recovered": 45,
    "infected": 46,
    "id": "DdBt8qsG6A3g92oOR3ow",
    "pop": 622567,
    "country": "MO",
    "longitude": 113.551262,
    "name": "Macao",
    "sick": 1,
    "invisible": false
  },
  {
    "name": "Meghalaya",
    "latitude": 25.467,
    "dead": 1,
    "lastUpdated": "2020-06-27T20:11:01.542Z",
    "recovered": 42,
    "infected": 48,
    "id": "Dh0O1vmhrVfmsCsfZCUg",
    "pop": 2651000,
    "country": "IN",
    "longitude": 91.3662,
    "sick": 5,
    "invisible": false
  },
  {
    "latitude": 47.6853,
    "dead": 115,
    "lastUpdated": "2020-06-27T20:00:08.896Z",
    "recovered": 5353,
    "infected": 9311,
    "id": "DqzAhNFTJFQVm88ma21P",
    "pop": 4220000,
    "country": "RU",
    "longitude": 41.8259,
    "name": "Rostov Oblast",
    "sick": 3843,
    "invisible": false
  },
  {
    "name": "Wyoming",
    "latitude": 42.962334,
    "dead": 20,
    "lastUpdated": "2020-06-27T20:17:07.157Z",
    "recovered": 0,
    "infected": 1392,
    "state": "WY",
    "id": "DrGzziUglmBognCGY7R2",
    "pop": 577737,
    "country": "US",
    "longitude": -107.534868,
    "sick": 1372,
    "invisible": false
  },
  {
    "latitude": 37.9838,
    "dead": 191,
    "lastUpdated": "2020-06-27T20:16:02.961Z",
    "recovered": 1374,
    "infected": 3366,
    "id": "Dtr1lap1RpJpXJdXGJiW",
    "pop": 10740000,
    "country": "GR",
    "longitude": 23.7275,
    "name": "Greece",
    "sick": 1801,
    "invisible": false
  },
  {
    "lastUpdated": "2020-06-27T20:00:08.904Z",
    "recovered": 2661,
    "infected": 3529,
    "id": "E8vIyXLVNtcY9dxLHICp",
    "pop": 2623000,
    "country": "RU",
    "longitude": 56.5872,
    "name": "Perm Krai",
    "latitude": 58.8232,
    "dead": 78,
    "sick": 790,
    "invisible": false
  },
  {
    "latitude": 56.9634,
    "dead": 16,
    "lastUpdated": "2020-06-27T20:00:08.906Z",
    "recovered": 1731,
    "infected": 2886,
    "id": "EHKZ6ivhrJUs3XqNDBOw",
    "pop": 3692000,
    "country": "RU",
    "longitude": 66.9483,
    "name": "Tyumen Oblast",
    "sick": 1139,
    "invisible": false
  },
  {
    "latitude": 25.03841,
    "dead": 7,
    "lastUpdated": "2020-06-27T20:16:02.968Z",
    "recovered": 435,
    "infected": 447,
    "id": "EKTfs8e7M6DXzI1HqyyX",
    "pop": 23780000,
    "country": "TW",
    "longitude": 121.563698,
    "name": "Taiwan",
    "sick": 5,
    "invisible": false
  },
  {
    "latitude": 10.327273,
    "dead": 13,
    "lastUpdated": "2020-06-27T20:16:02.961Z",
    "recovered": 1325,
    "infected": 2979,
    "id": "EQzJvzVHKjs8kLmK7BMu",
    "pop": 4906000,
    "country": "CR",
    "longitude": -84.387618,
    "name": "Costa Rica",
    "sick": 1641,
    "invisible": false
  },
  {
    "recovered": 22417,
    "infected": 30771,
    "id": "ERwk9R9en4m9WbdoMbIg",
    "pop": 62700000,
    "country": "IN",
    "longitude": 71.1924,
    "name": "Gujarat",
    "latitude": 22.2587,
    "dead": 1790,
    "lastUpdated": "2020-06-27T20:11:01.536Z",
    "sick": 6564,
    "invisible": false
  },
  {
    "name": "Arkhangelsk Oblast",
    "latitude": 63.2853,
    "dead": 50,
    "lastUpdated": "2020-06-27T20:00:08.899Z",
    "recovered": 2463,
    "infected": 5225,
    "id": "EVMBsgCJedjHy91mDYEC",
    "pop": 1155000,
    "country": "RU",
    "longitude": 42.5884,
    "sick": 2712,
    "invisible": false
  },
  {
    "longitude": 76.7794,
    "name": "Chandigarh",
    "latitude": 30.7333,
    "dead": 6,
    "lastUpdated": "2020-06-27T20:11:01.541Z",
    "recovered": 335,
    "infected": 428,
    "id": "Esl5UlCVB9s8pmGB5Ofr",
    "pop": 1055000,
    "country": "IN",
    "sick": 87,
    "invisible": false
  },
  {
    "country": "PL",
    "longitude": 22.653,
    "name": "Lubelskie",
    "latitude": 51.24,
    "dead": 17,
    "lastUpdated": "2020-06-27T20:03:09.781Z",
    "recovered": 0,
    "infected": 632,
    "id": "Esy1La2CxwH5uB8bGVWZ",
    "pop": 2148000,
    "sick": 615,
    "invisible": false
  },
  {
    "infected": 7066,
    "recovered": 0,
    "pop": 3195000,
    "country": "US",
    "lastUpdated": "2020-06-27T20:17:07.158Z",
    "state": "PR",
    "id": "F4rPrEVGAIMM5rfPEMv4",
    "longitude": -66.664513,
    "name": "Puerto Rico",
    "alwaysShow": true,
    "dead": 152,
    "latitude": 18.200178,
    "sick": 6914,
    "invisible": false
  },
  {
    "latitude": 4.862437,
    "dead": 53,
    "lastUpdated": "2020-06-27T20:00:09.573Z",
    "recovered": 1178,
    "infected": 2380,
    "id": "F7MED5VwEhi3JvJu6KjB",
    "pop": 2919000,
    "country": "CO",
    "longitude": -74.058655,
    "name": "Cundinamarca",
    "sick": 1149,
    "invisible": false
  },
  {
    "longitude": 43.3333,
    "name": "Comoros",
    "latitude": -11.6455,
    "dead": 7,
    "lastUpdated": "2020-06-27T20:16:02.969Z",
    "recovered": 161,
    "infected": 272,
    "id": "F8LnLqvuWoWh8awBqiw1",
    "pop": 832322,
    "country": "KM",
    "sick": 104,
    "invisible": false
  },
  {
    "latitude": 33.93911,
    "dead": 703,
    "lastUpdated": "2020-06-27T20:16:02.956Z",
    "recovered": 10674,
    "infected": 30616,
    "id": "FCDmlmnIIswd8bQiUjfN",
    "pop": 35530000,
    "country": "AF",
    "longitude": 67.709953,
    "name": "Afghanistan",
    "sick": 19239,
    "invisible": false
  },
  {
    "country": "CN",
    "longitude": 106.912254,
    "name": "Chongqing",
    "latitude": 29.431585,
    "dead": 6,
    "lastUpdated": "2020-06-27T20:08:03.768Z",
    "recovered": 573,
    "infected": 582,
    "id": "FErOU1m4Tj7jIkRam3vF",
    "pop": 30480000,
    "sick": 3,
    "invisible": false
  },
  {
    "id": "FZsUkhxBEgqsPb4eO0PN",
    "pop": 4137000,
    "country": "KW",
    "longitude": 47.481766,
    "name": "Kuwait",
    "latitude": 29.311661,
    "dead": 344,
    "lastUpdated": "2020-06-27T20:16:02.954Z",
    "recovered": 34586,
    "infected": 44391,
    "sick": 9461,
    "invisible": false
  },
  {
    "state": "SE",
    "id": "FboWeolpM62SZCLwdilT",
    "pop": 2278308,
    "country": "BR",
    "longitude": -37.0717,
    "name": "Sergipe",
    "latitude": -10.9111,
    "dead": 579,
    "lastUpdated": "2020-06-27T20:15:01.307Z",
    "recovered": 0,
    "infected": 21908,
    "sick": 21329,
    "invisible": false
  },
  {
    "latitude": 11.1271,
    "dead": 1025,
    "lastUpdated": "2020-06-27T20:11:01.536Z",
    "recovered": 44094,
    "infected": 78335,
    "id": "FeS45oMNC27pI17F0xEV",
    "pop": 67860000,
    "country": "IN",
    "longitude": 78.6569,
    "name": "Tamil Nadu",
    "sick": 33216,
    "invisible": false
  },
  {
    "country": "DO",
    "longitude": -70.430399,
    "name": "Dominican Republic",
    "latitude": 18.947829,
    "dead": 718,
    "lastUpdated": "2020-06-27T20:16:02.956Z",
    "recovered": 16666,
    "infected": 30619,
    "id": "FuiVEJvWb0QMCpxJ3563",
    "pop": 10770000,
    "sick": 13235,
    "invisible": false
  },
  {
    "id": "FyC551oNwmENxbr9Yght",
    "pop": 35190000,
    "country": "IN",
    "longitude": 79.0193,
    "name": "Telengana",
    "latitude": 18.1124,
    "dead": 243,
    "lastUpdated": "2020-06-27T20:11:01.539Z",
    "recovered": 4928,
    "infected": 13436,
    "sick": 8265,
    "invisible": false
  },
  {
    "country": "SK",
    "longitude": 19.699,
    "name": "Slovakia",
    "latitude": 48.669,
    "dead": 28,
    "lastUpdated": "2020-06-27T20:16:02.964Z",
    "recovered": 1455,
    "infected": 1657,
    "id": "FzIDXoqWnTI3nUfhPyT2",
    "pop": 5450000,
    "sick": 174,
    "invisible": false
  },
  {
    "name": "Pakistan",
    "latitude": 30.37532,
    "dead": 4035,
    "lastUpdated": "2020-06-27T20:16:02.950Z",
    "recovered": 86906,
    "infected": 198883,
    "id": "GAp7Wb6IMhdgbvEtMza9",
    "pop": 197000000,
    "country": "PK",
    "longitude": 69.345116,
    "sick": 107942,
    "invisible": false
  },
  {
    "latitude": 31.1471,
    "dead": 128,
    "lastUpdated": "2020-06-27T20:11:01.541Z",
    "recovered": 3320,
    "infected": 5056,
    "id": "GGru8cG08mANO8XDDUtZ",
    "pop": 27980000,
    "country": "IN",
    "longitude": 75.3412,
    "name": "Punjab",
    "sick": 1608,
    "invisible": false
  },
  {
    "lastUpdated": "2020-06-27T20:16:02.954Z",
    "recovered": 35834,
    "infected": 47360,
    "id": "GHzBIsHy2GiBc5JV2HMs",
    "pop": 9400000,
    "country": "AE",
    "longitude": 53.847816,
    "name": "United Arab Emirates",
    "latitude": 23.424076,
    "dead": 311,
    "sick": 11215,
    "invisible": false
  },
  {
    "id": "GLViSIjDjwvptOphedAu",
    "country": "US",
    "longitude": -95.7129,
    "invisible": true,
    "name": "Grand Princess",
    "latitude": 37.0902,
    "dead": 3,
    "lastUpdated": "2020-06-27T20:17:07.158Z",
    "recovered": 0,
    "infected": 103,
    "sick": 100
  },
  {
    "name": "London",
    "latitude": 51.5074,
    "dead": 0,
    "lastUpdated": "2020-06-27T20:13:17.264Z",
    "recovered": 0,
    "infected": 27628,
    "state": "EN",
    "id": "GPtoS0Yy2EnNafpmmTqY",
    "pop": 10100000,
    "country": "GB",
    "longitude": -0.1278,
    "sick": 27628,
    "invisible": false
  },
  {
    "name": "California",
    "latitude": 36.621981,
    "dead": 5873,
    "lastUpdated": "2020-06-27T20:17:07.153Z",
    "recovered": 0,
    "infected": 208004,
    "state": "CA",
    "id": "Gh46r6vuaY7fbGt3IboN",
    "pop": 39560000,
    "country": "US",
    "longitude": -119.339046,
    "sick": 202131,
    "invisible": false
  },
  {
    "latitude": 20.4283,
    "dead": 0,
    "lastUpdated": "2020-06-27T20:11:01.542Z",
    "recovered": 56,
    "infected": 184,
    "id": "GljWeVnun6o9DeW6rlEm",
    "pop": 343709,
    "country": "IN",
    "longitude": 72.8397,
    "name": "Dadra and Nagar Haveli",
    "sick": 128,
    "invisible": false
  },
  {
    "latitude": 35.87189,
    "dead": 384,
    "lastUpdated": "2020-06-27T20:17:07.156Z",
    "recovered": 0,
    "infected": 12642,
    "state": "OK",
    "id": "GpF8ULuKOQiFDCUHN44h",
    "pop": 3943000,
    "country": "US",
    "longitude": -97.145514,
    "name": "Oklahoma",
    "sick": 12258,
    "invisible": false
  },
  {
    "country": "CO",
    "longitude": -71.557,
    "name": "Arauca",
    "latitude": 6.492,
    "dead": 0,
    "lastUpdated": "2020-06-27T20:00:09.575Z",
    "recovered": 3,
    "infected": 76,
    "id": "Gr09a1wn3BnMqjQbgEun",
    "pop": 256627,
    "sick": 73,
    "invisible": false
  },
  {
    "id": "GsecjBfopdgTOnyRgtCA",
    "pop": 1014000,
    "country": "RU",
    "longitude": 41.483,
    "name": "Ivanovo Oblast",
    "latitude": 57.1057,
    "dead": 40,
    "lastUpdated": "2020-06-27T20:00:08.901Z",
    "recovered": 2836,
    "infected": 4479,
    "sick": 1603,
    "invisible": false
  },
  {
    "lastUpdated": "2020-06-27T20:01:01.547Z",
    "recovered": 2257,
    "infected": 2636,
    "state": "BA",
    "id": "Gzx6GX1qhBm714BkEC6l",
    "pop": 520891,
    "country": "IT",
    "longitude": 11.35,
    "name": "P.A. Bolzano",
    "latitude": 46.5,
    "dead": 292,
    "sick": 87,
    "invisible": false
  },
  {
    "recovered": 236,
    "infected": 238,
    "id": "H3JeVigVbo5CSYfZG4WI",
    "pop": 24710000,
    "country": "CN",
    "longitude": 113.750972,
    "name": "Inner Mongolia",
    "latitude": 42.83263,
    "dead": 1,
    "lastUpdated": "2020-06-27T20:08:03.768Z",
    "sick": 1,
    "invisible": false
  },
  {
    "longitude": -116.724977,
    "name": "Nevada",
    "latitude": 39.74536,
    "dead": 500,
    "lastUpdated": "2020-06-27T20:17:07.156Z",
    "recovered": 0,
    "infected": 16339,
    "state": "NV",
    "id": "H3bDg4eV30up4WWrIDAS",
    "pop": 3034000,
    "country": "US",
    "sick": 15839,
    "invisible": false
  },
  {
    "longitude": -38.526669,
    "name": "Ceará",
    "latitude": -3.731862,
    "dead": 5920,
    "lastUpdated": "2020-06-27T20:15:01.306Z",
    "recovered": 0,
    "infected": 104422,
    "state": "CE",
    "id": "HEMWNnFxeFEoeOCBOLJD",
    "pop": 9075649,
    "country": "BR",
    "sick": 98502,
    "invisible": false
  },
  {
    "lastUpdated": "2020-06-27T20:11:01.538Z",
    "recovered": 7289,
    "infected": 11923,
    "id": "HN5mGmxlqlSeFSNeu1K5",
    "pop": 64060000,
    "country": "IN",
    "longitude": 75.7139,
    "name": "Karnataka",
    "latitude": 15.3173,
    "dead": 191,
    "sick": 4443,
    "invisible": false
  },
  {
    "lastUpdated": "2020-06-27T20:16:02.971Z",
    "recovered": 38,
    "infected": 75,
    "id": "HRDpwyxpqW9RN0xLFyNu",
    "pop": 807610,
    "country": "BT",
    "longitude": 90.4336,
    "name": "Bhutan",
    "latitude": 27.5142,
    "dead": 0,
    "sick": 37,
    "invisible": false
  },
  {
    "name": "Uzbekistan",
    "latitude": 41.3775,
    "dead": 20,
    "lastUpdated": "2020-06-27T20:16:02.958Z",
    "recovered": 5240,
    "infected": 7682,
    "id": "HRTA10dtrruDEwjJEGMp",
    "pop": 32390000,
    "country": "UZ",
    "longitude": 64.5853,
    "sick": 2422,
    "invisible": false
  },
  {
    "latitude": 34.138916,
    "dead": 489,
    "lastUpdated": "2020-06-27T20:17:07.156Z",
    "recovered": 0,
    "infected": 11408,
    "state": "NM",
    "id": "HSSFomRju0doHhWgW8On",
    "pop": 2095000,
    "country": "US",
    "longitude": -105.576255,
    "name": "New Mexico",
    "sick": 10919,
    "invisible": false
  },
  {
    "latitude": -40.231,
    "dead": 10,
    "lastUpdated": "2020-06-27T20:21:04.534Z",
    "recovered": 0,
    "infected": 659,
    "id": "HZkACHjW7NlYjg8vEMj2",
    "pop": 412812,
    "country": "CL",
    "longitude": -72.3311,
    "name": "Los Ríos",
    "sick": 649,
    "invisible": false
  },
  {
    "latitude": 53.6127,
    "dead": 21,
    "lastUpdated": "2020-06-27T20:00:03.156Z",
    "recovered": 761,
    "infected": 806,
    "state": "MV",
    "id": "He1gSS1v50t06i3YrqvB",
    "pop": 1635000,
    "country": "DE",
    "longitude": 12.4296,
    "name": "Mecklenburg-Vorpommern",
    "sick": 24,
    "invisible": false
  },
  {
    "latitude": 42.25,
    "dead": 461,
    "lastUpdated": "2020-06-27T20:01:01.547Z",
    "recovered": 2487,
    "infected": 3285,
    "state": "65",
    "id": "I9EqrZfbPnkioNU4wZGz",
    "pop": 1315000,
    "country": "IT",
    "longitude": 13.75,
    "name": "Abruzzo",
    "sick": 337,
    "invisible": false
  },
  {
    "latitude": 23.363855,
    "dead": 8,
    "lastUpdated": "2020-06-27T20:08:03.767Z",
    "recovered": 1622,
    "infected": 1637,
    "id": "IAX0OQLVnUwU7FX0ENF1",
    "pop": 113460000,
    "country": "CN",
    "longitude": 113.373448,
    "name": "Guangdong",
    "sick": 7,
    "invisible": false
  },
  {
    "id": "IFuMrMvSjoiX5agYvllh",
    "pop": 94000000,
    "country": "CN",
    "longitude": 113.484016,
    "name": "Henan",
    "latitude": 33.875408,
    "dead": 22,
    "lastUpdated": "2020-06-27T20:08:03.768Z",
    "recovered": 1254,
    "infected": 1276,
    "sick": 0,
    "invisible": false
  },
  {
    "name": "Algarve",
    "latitude": 37.2,
    "dead": 15,
    "lastUpdated": "2020-06-27T20:23:01.575Z",
    "recovered": 0,
    "infected": 595,
    "id": "IHqRHC8K3OZPN8gniM7V",
    "pop": 451000,
    "country": "PT",
    "longitude": -8.16667,
    "sick": 580,
    "invisible": false
  },
  {
    "latitude": 3.883,
    "dead": 82,
    "lastUpdated": "2020-06-27T20:00:09.575Z",
    "recovered": 589,
    "infected": 1356,
    "id": "IKWjRUo0SYgHQKdWjTvq",
    "pop": 333194,
    "country": "CO",
    "longitude": -77.0197,
    "name": "Buenaventura D.E.",
    "sick": 685,
    "invisible": false
  },
  {
    "name": "East Midlands",
    "latitude": 52.87,
    "dead": 0,
    "lastUpdated": "2020-06-27T20:13:17.263Z",
    "recovered": 0,
    "infected": 9901,
    "state": "EN",
    "id": "INyu1R48Ppv8cfW4Nuz4",
    "pop": 4811000,
    "country": "GB",
    "longitude": -0.995,
    "sick": 9901,
    "invisible": false
  },
  {
    "name": "Aguascalientes",
    "latitude": 22.017,
    "dead": 139,
    "lastUpdated": "2020-06-27T20:02:01.463Z",
    "recovered": 0,
    "infected": 2795,
    "id": "ISRKMzEDojyrZ9iyWwex",
    "pop": 1342600,
    "country": "MX",
    "longitude": -102.317,
    "sick": 2656,
    "invisible": false
  },
  {
    "id": "IdKbgzgKLpjBFh4UPOwu",
    "pop": 5321300,
    "country": "MX",
    "longitude": -100.316116,
    "name": "Nuevo León",
    "latitude": 25.686613,
    "dead": 316,
    "lastUpdated": "2020-06-27T20:02:01.463Z",
    "recovered": 0,
    "infected": 8565,
    "sick": 8249,
    "invisible": false
  },
  {
    "latitude": 28.632996,
    "dead": 624,
    "lastUpdated": "2020-06-27T20:02:01.373Z",
    "recovered": 0,
    "infected": 4299,
    "id": "IhhiYI6T0TX4CYVPcnmH",
    "pop": 3826900,
    "country": "MX",
    "longitude": -106.069099,
    "name": "Chihuahua",
    "sick": 3675,
    "invisible": false
  },
  {
    "latitude": -36.7,
    "dead": 31,
    "lastUpdated": "2020-06-27T20:21:04.534Z",
    "recovered": 0,
    "infected": 2317,
    "id": "ImnOiVx9Cb8Nw7cbRcQ7",
    "pop": 480600,
    "country": "CL",
    "longitude": -72.57,
    "name": "Ñuble",
    "sick": 2286,
    "invisible": false
  },
  {
    "latitude": 19.0558,
    "dead": 98,
    "lastUpdated": "2020-06-27T20:16:02.959Z",
    "recovered": 641,
    "infected": 5722,
    "id": "InZ38sIqyK7FN7XAOZoX",
    "pop": 10980000,
    "country": "HT",
    "longitude": -73.0513,
    "name": "Haiti",
    "sick": 4983,
    "invisible": false
  },
  {
    "state": "GA",
    "id": "IvQkDJkTAsoIqPRAU25n",
    "pop": 10520000,
    "country": "US",
    "longitude": -83.280125,
    "name": "Georgia (US)",
    "latitude": 32.528564,
    "dead": 2776,
    "lastUpdated": "2020-06-27T20:17:07.154Z",
    "recovered": 0,
    "infected": 74985,
    "sick": 72209,
    "invisible": false
  },
  {
    "longitude": 172.488081,
    "name": "New Zealand",
    "latitude": -42.8285,
    "dead": 22,
    "lastUpdated": "2020-06-27T20:16:02.964Z",
    "recovered": 1484,
    "infected": 1522,
    "id": "IvVhpOoGpH6JVkGyUhXN",
    "pop": 4794000,
    "country": "NZ",
    "sick": 16,
    "invisible": false
  },
  {
    "longitude": 94.7278,
    "name": "Arunachal Pradesh",
    "latitude": 28.218,
    "dead": 1,
    "lastUpdated": "2020-06-27T20:11:01.542Z",
    "recovered": 54,
    "infected": 177,
    "id": "IwYKiIVY18NGwdGQFGWW",
    "pop": 1255000,
    "country": "IN",
    "sick": 122,
    "invisible": false
  },
  {
    "latitude": 6.4238,
    "dead": 41,
    "lastUpdated": "2020-06-27T20:16:02.959Z",
    "recovered": 1327,
    "infected": 4779,
    "id": "J3mZXlfEnnJx4CDZLvRG",
    "pop": 31980000,
    "country": "VE",
    "longitude": -66.5897,
    "name": "Venezuela",
    "sick": 3411,
    "invisible": false
  },
  {
    "latitude": 2.567,
    "dead": 0,
    "lastUpdated": "2020-06-27T20:00:09.576Z",
    "recovered": 3,
    "infected": 37,
    "id": "JEMCwkwXK39jd1lZ7VgJ",
    "pop": 107932,
    "country": "CO",
    "longitude": -72.633,
    "name": "Guaviare",
    "sick": 34,
    "invisible": false
  },
  {
    "longitude": 40.1754,
    "name": "Adygea",
    "latitude": 44.8229,
    "dead": 12,
    "lastUpdated": "2020-06-27T20:00:08.907Z",
    "recovered": 1182,
    "infected": 1746,
    "id": "JOJVBvOnsLDJPVeYJaI2",
    "pop": 453000,
    "country": "RU",
    "sick": 552,
    "invisible": false
  },
  {
    "longitude": 33.4299,
    "name": "Cyprus",
    "latitude": 35.1264,
    "dead": 19,
    "lastUpdated": "2020-06-27T20:16:02.967Z",
    "recovered": 824,
    "infected": 994,
    "id": "JQByE4l2OA6sGOqIcWrM",
    "pop": 1170000,
    "country": "CY",
    "sick": 151,
    "invisible": false
  },
  {
    "lastUpdated": "2020-06-27T20:11:01.539Z",
    "recovered": 6930,
    "infected": 8980,
    "id": "JR7hOGked7CZtIs2nCV5",
    "pop": 99020000,
    "country": "IN",
    "longitude": 85.3131,
    "name": "Bihar",
    "latitude": 25.0961,
    "dead": 58,
    "sick": 1992,
    "invisible": false
  },
  {
    "id": "JUWE6bG3b5oL7fKQMSvv",
    "pop": 17250000,
    "country": "GT",
    "longitude": -90.522713,
    "name": "Guatemala",
    "latitude": 14.628434,
    "dead": 672,
    "lastUpdated": "2020-06-27T20:16:02.957Z",
    "recovered": 3028,
    "infected": 15828,
    "sick": 12128,
    "invisible": false
  },
  {
    "latitude": 49.8153,
    "dead": 110,
    "lastUpdated": "2020-06-27T20:16:02.960Z",
    "recovered": 3978,
    "infected": 4217,
    "id": "JcFsHSn2WvZ5LJW42ovG",
    "pop": 602005,
    "country": "LU",
    "longitude": 6.1296,
    "name": "Luxembourg",
    "sick": 129,
    "invisible": false
  },
  {
    "longitude": -74.167,
    "name": "Bolívar",
    "latitude": 8.8,
    "dead": 33,
    "lastUpdated": "2020-06-27T20:00:09.574Z",
    "recovered": 247,
    "infected": 808,
    "id": "JmOyaFe25yZCIV64JbZj",
    "pop": 2049000,
    "country": "CO",
    "sick": 528,
    "invisible": false
  },
  {
    "id": "Jp9ePErcc8i1aOozEAMf",
    "pop": 3648100,
    "country": "MX",
    "longitude": -115.783,
    "name": "Baja California",
    "latitude": 31.4,
    "dead": 1805,
    "lastUpdated": "2020-06-27T20:02:01.371Z",
    "recovered": 0,
    "infected": 8487,
    "sick": 6682,
    "invisible": false
  },
  {
    "name": "Córdoba",
    "latitude": 8.7479801,
    "dead": 33,
    "lastUpdated": "2020-06-27T20:00:09.574Z",
    "recovered": 176,
    "infected": 548,
    "id": "Jr8syCB0lydmPDXw8Q6N",
    "pop": 1786500,
    "country": "CO",
    "longitude": -75.8814316,
    "sick": 339,
    "invisible": false
  },
  {
    "id": "JrBbirlBKGdWSdcDt7PF",
    "pop": 7798000,
    "country": "TG",
    "longitude": 0.8248,
    "name": "Togo",
    "latitude": 8.6195,
    "dead": 14,
    "lastUpdated": "2020-06-27T20:16:02.968Z",
    "recovered": 395,
    "infected": 591,
    "sick": 182,
    "invisible": false
  },
  {
    "longitude": 25.4858,
    "name": "Bulgaria",
    "latitude": 42.7339,
    "dead": 215,
    "lastUpdated": "2020-06-27T20:16:02.959Z",
    "recovered": 2457,
    "infected": 4513,
    "id": "JzZ8sbqzjutThVjkPKPL",
    "pop": 7050000,
    "country": "BG",
    "sick": 1841,
    "invisible": false
  },
  {
    "longitude": 20.709,
    "name": "Świętokrzyskie",
    "latitude": 50.823,
    "dead": 37,
    "lastUpdated": "2020-06-27T20:03:09.780Z",
    "recovered": 0,
    "infected": 766,
    "id": "KGrK7gafkeWjmU6sHQd2",
    "pop": 1263000,
    "country": "PL",
    "sick": 729,
    "invisible": false
  },
  {
    "latitude": 59.0077,
    "dead": 90,
    "lastUpdated": "2020-06-27T20:00:08.896Z",
    "recovered": 7009,
    "infected": 12093,
    "id": "KLBR5QHW6DePaGcFxlqH",
    "pop": 4325000,
    "country": "RU",
    "longitude": 61.9316,
    "name": "Sverdlovsk Oblast",
    "sick": 4994,
    "invisible": false
  },
  {
    "state": "42",
    "id": "KLXicxFogWnu0dLp4bNK",
    "pop": 1557000,
    "country": "IT",
    "longitude": 8.833,
    "name": "Liguria",
    "latitude": 44.5,
    "dead": 1556,
    "lastUpdated": "2020-06-26T23:18:27.624Z",
    "recovered": 8139,
    "infected": 9954,
    "sick": 259,
    "invisible": false
  },
  {
    "lastUpdated": "2020-06-27T20:00:08.907Z",
    "recovered": 2811,
    "infected": 2880,
    "id": "KUnAVGJH6fLwFetE8A2x",
    "pop": 682000,
    "country": "RU",
    "longitude": 47.9608,
    "name": "Mari El Republic",
    "latitude": 56.4385,
    "dead": 22,
    "sick": 47,
    "invisible": false
  },
  {
    "country": "CO",
    "longitude": -73.2532,
    "name": "Cesar",
    "latitude": 10.4631,
    "dead": 21,
    "lastUpdated": "2020-06-27T20:00:09.574Z",
    "recovered": 315,
    "infected": 813,
    "id": "KpOz3WmiZkrXUMlUJNlV",
    "pop": 1201000,
    "sick": 477,
    "invisible": false
  },
  {
    "longitude": 11,
    "name": "Toscana",
    "latitude": 43.4167,
    "dead": 1103,
    "lastUpdated": "2020-06-27T20:01:01.549Z",
    "recovered": 8817,
    "infected": 10238,
    "state": "52",
    "id": "KrLrJbpDqqiXgUPGCCW9",
    "pop": 3737000,
    "country": "IT",
    "sick": 318,
    "invisible": false
  },
  {
    "longitude": 80.771797,
    "name": "Sri Lanka",
    "latitude": 7.873054,
    "dead": 11,
    "lastUpdated": "2020-06-27T20:16:02.963Z",
    "recovered": 1639,
    "infected": 2033,
    "id": "KsWzJO06cf0d6LJ4ZNh9",
    "pop": 21440000,
    "country": "LK",
    "sick": 383,
    "invisible": false
  },
  {
    "lastUpdated": "2020-06-27T20:11:01.539Z",
    "recovered": 5480,
    "infected": 12285,
    "id": "KtQIo2DoqjELtPAlyDVO",
    "pop": 49670000,
    "country": "IN",
    "longitude": 79.74,
    "name": "Andhra Pradesh",
    "latitude": 15.9129,
    "dead": 157,
    "sick": 6648,
    "invisible": false
  },
  {
    "id": "LBUtrLDKJiupXjlUNTUe",
    "pop": 32125,
    "country": "FR",
    "longitude": -63.0501,
    "name": "Saint-Martin",
    "alwaysShow": true,
    "latitude": 18.0708,
    "dead": 3,
    "lastUpdated": "2020-06-26T23:53:42.568Z",
    "recovered": 36,
    "infected": 43,
    "sick": 4,
    "invisible": false
  },
  {
    "id": "LD8TNScpLrLRvgpQAn9T",
    "pop": 747000,
    "country": "RU",
    "longitude": 36.9242,
    "name": "Oryol Oblast",
    "latitude": 52.7856,
    "dead": 57,
    "lastUpdated": "2020-06-27T20:00:08.903Z",
    "recovered": 2669,
    "infected": 4396,
    "sick": 1670,
    "invisible": false
  },
  {
    "recovered": 81,
    "infected": 82,
    "id": "LTGEU2E9MFkrCcFhZYVk",
    "pop": 38557,
    "country": "LI",
    "longitude": 9.5554,
    "name": "Liechtenstein",
    "latitude": 47.166,
    "dead": 1,
    "lastUpdated": "2020-06-27T20:16:02.970Z",
    "sick": 0,
    "invisible": false
  },
  {
    "name": "Guinea",
    "latitude": 9.9456,
    "dead": 29,
    "lastUpdated": "2020-06-27T20:16:02.959Z",
    "recovered": 4155,
    "infected": 5260,
    "id": "LU2QWt5ao8IJa8evNYVV",
    "pop": 12720000,
    "country": "GN",
    "longitude": -9.6966,
    "sick": 1076,
    "invisible": false
  },
  {
    "lastUpdated": "2020-06-27T20:02:01.373Z",
    "recovered": 0,
    "infected": 7901,
    "id": "LYCBHrA9ms6GcxpLGPCT",
    "pop": 3062000,
    "country": "MX",
    "longitude": -110.5,
    "name": "Sonora",
    "latitude": 29.6667,
    "dead": 787,
    "sick": 7114,
    "invisible": false
  },
  {
    "id": "LglKINHyQpYpFxjckbQ6",
    "pop": 563402,
    "country": "SR",
    "longitude": -56.0277824,
    "name": "Suriname",
    "latitude": 3.9193051,
    "dead": 10,
    "lastUpdated": "2020-06-27T20:16:02.968Z",
    "recovered": 181,
    "infected": 391,
    "sick": 200,
    "invisible": false
  },
  {
    "longitude": -106.4509,
    "name": "Saskatchewan",
    "latitude": 52.9399,
    "dead": 13,
    "lastUpdated": "2020-06-27T20:10:02.167Z",
    "recovered": 0,
    "infected": 772,
    "state": "SK",
    "id": "LkIDKY0CMAqzbwBHyYCP",
    "pop": 1174000,
    "country": "CA",
    "sick": 759,
    "invisible": false
  },
  {
    "longitude": -12.8858,
    "name": "Western Sahara",
    "latitude": 24.2155,
    "dead": 1,
    "lastUpdated": "2020-06-27T20:16:02.988Z",
    "recovered": 8,
    "infected": 10,
    "id": "LooNn6RuMiDhQnwa9svw",
    "pop": 636442,
    "country": "EH",
    "sick": 1,
    "invisible": false
  },
  {
    "lastUpdated": "2020-06-26T23:36:38.055Z",
    "recovered": 1063,
    "infected": 3420,
    "state": "AS",
    "id": "Lsga7AvYNnY0qQ5gEfV8",
    "pop": 1022000,
    "country": "ES",
    "longitude": -5.951843,
    "name": "Principado de Asturias",
    "latitude": 43.363129,
    "dead": 334,
    "sick": 2023,
    "invisible": false
  },
  {
    "latitude": 39.4937,
    "dead": 519,
    "lastUpdated": "2020-06-26T23:35:41.636Z",
    "recovered": 2652,
    "infected": 4026,
    "state": "EX",
    "id": "LuEErlF7dVKI0eJsRjFm",
    "pop": 1065000,
    "country": "ES",
    "longitude": -6.0679,
    "name": "Extremadura",
    "sick": 855,
    "invisible": false
  },
  {
    "id": "M3wdiueFtwrUHiQ2rOXA",
    "pop": 5965000,
    "country": "MX",
    "longitude": -101.2591,
    "name": "Guanajuato",
    "latitude": 21.0186,
    "dead": 487,
    "lastUpdated": "2020-06-27T20:02:01.462Z",
    "recovered": 0,
    "infected": 7997,
    "sick": 7510,
    "invisible": false
  },
  {
    "latitude": 37.8393,
    "dead": 553,
    "lastUpdated": "2020-06-27T20:17:07.156Z",
    "recovered": 0,
    "infected": 14859,
    "state": "KY",
    "id": "MC8MXFw9iXYybnF8v7e6",
    "pop": 4468000,
    "country": "US",
    "longitude": -84.27,
    "name": "Kentucky",
    "sick": 14306,
    "invisible": false
  },
  {
    "latitude": 55.3781,
    "dead": 38982,
    "lastUpdated": "2020-06-27T20:13:17.265Z",
    "recovered": 0,
    "infected": 120427,
    "id": "MEjlm8VYdGA28TTTnQmf",
    "country": "GB",
    "longitude": -3.436,
    "invisible": true,
    "name": "Unknown UK region or state",
    "sick": 81445
  },
  {
    "latitude": 41.3006,
    "dead": 814,
    "lastUpdated": "2020-06-26T23:30:54.369Z",
    "recovered": 0,
    "infected": 17339,
    "id": "MG4e9tulLJ010SZJvbYN",
    "pop": 3689000,
    "country": "PT",
    "longitude": -7.7441,
    "name": "Norte",
    "sick": 16525,
    "invisible": false
  },
  {
    "country": "GB",
    "longitude": -4.2026,
    "name": "Scotland",
    "latitude": 56.4907,
    "dead": 2482,
    "lastUpdated": "2020-06-27T20:13:17.263Z",
    "recovered": 0,
    "infected": 15814,
    "state": "SC",
    "id": "MObRYyIriHG337L8FyFC",
    "pop": 5450000,
    "sick": 13332,
    "invisible": false
  },
  {
    "latitude": 40.2672,
    "dead": 2616,
    "lastUpdated": "2020-06-27T20:17:07.154Z",
    "recovered": 0,
    "infected": 44575,
    "state": "IN",
    "id": "MOxDkmQ4wBi1CuAdVxDE",
    "pop": 6692000,
    "country": "US",
    "longitude": -86.1349,
    "name": "Indiana",
    "sick": 41959,
    "invisible": false
  },
  {
    "longitude": -5.5471,
    "name": "Ivory Coast",
    "latitude": 7.54,
    "dead": 66,
    "lastUpdated": "2020-06-27T20:16:02.958Z",
    "recovered": 3722,
    "infected": 8944,
    "id": "MdQOfc1gNh2DOqwSP6UV",
    "pop": 24290000,
    "country": "CI",
    "sick": 5156,
    "invisible": false
  },
  {
    "latitude": 51.4332,
    "dead": 1687,
    "lastUpdated": "2020-06-27T19:30:02.649Z",
    "recovered": 37632,
    "infected": 42710,
    "state": "NW",
    "id": "MjpYq3zQyAvSQlVVYjD2",
    "pop": 17910000,
    "country": "DE",
    "longitude": 7.6616,
    "name": "Nordrhein-Westfalen",
    "sick": 3391,
    "invisible": false
  },
  {
    "recovered": 75,
    "infected": 75,
    "id": "MntmjjuHljarCdt6aIeE",
    "pop": 6301000,
    "country": "CN",
    "longitude": 105.977203,
    "name": "Ningxia",
    "latitude": 37.330509,
    "dead": 0,
    "lastUpdated": "2020-06-27T20:08:03.771Z",
    "sick": 0,
    "invisible": false
  },
  {
    "country": "BR",
    "longitude": -52.203499186,
    "name": "Pará",
    "latitude": -3.20166586,
    "dead": 4803,
    "lastUpdated": "2020-06-27T20:15:01.306Z",
    "recovered": 0,
    "infected": 96472,
    "state": "PA",
    "id": "MuEB2UgkId5crsxi9zQT",
    "pop": 8513497,
    "sick": 91669,
    "invisible": false
  },
  {
    "name": "Lipetsk Oblast",
    "latitude": 52.5265,
    "dead": 14,
    "lastUpdated": "2020-06-27T20:00:08.904Z",
    "recovered": 2248,
    "infected": 3663,
    "id": "N0KGfqgROVOjAxWcd8wi",
    "pop": 1150000,
    "country": "RU",
    "longitude": 39.2032,
    "sick": 1401,
    "invisible": false
  },
  {
    "state": "BW",
    "id": "N3XsRBwJSsNclkEf7Zz5",
    "pop": 11020000,
    "country": "DE",
    "longitude": 9.3501,
    "name": "Baden-Württemberg",
    "latitude": 48.6616,
    "dead": 1884,
    "lastUpdated": "2020-06-27T20:00:03.153Z",
    "recovered": 33259,
    "infected": 35996,
    "sick": 853,
    "invisible": false
  },
  {
    "longitude": 17.824332,
    "name": "Bosnia and Herzegovina",
    "latitude": 44.696652,
    "dead": 178,
    "lastUpdated": "2020-06-27T20:16:02.960Z",
    "recovered": 2338,
    "infected": 3935,
    "id": "N7c13sCQF0G789XAVazJ",
    "pop": 3507000,
    "country": "BA",
    "sick": 1419,
    "invisible": false
  },
  {
    "country": "CN",
    "longitude": 111.856857,
    "name": "Shanxi",
    "latitude": 37.242565,
    "dead": 0,
    "lastUpdated": "2020-06-27T20:08:03.769Z",
    "recovered": 198,
    "infected": 198,
    "id": "NBRIGIRrJB1Ry8prDNAC",
    "pop": 36500000,
    "sick": 0,
    "invisible": false
  },
  {
    "latitude": 35.7596,
    "dead": 1347,
    "lastUpdated": "2020-06-27T20:17:07.154Z",
    "recovered": 0,
    "infected": 60537,
    "state": "NC",
    "id": "NC64Qp5kTqAfiTuR27k8",
    "pop": 10380000,
    "country": "US",
    "longitude": -79.0193,
    "name": "North Carolina",
    "sick": 59190,
    "invisible": false
  },
  {
    "longitude": 12.5316,
    "name": "Brandenburg",
    "latitude": 52.4125,
    "dead": 175,
    "lastUpdated": "2020-06-27T20:00:03.155Z",
    "recovered": 3168,
    "infected": 3479,
    "state": "BB",
    "id": "NJjo2gfBvnbK4xatrsUz",
    "pop": 2504000,
    "country": "DE",
    "sick": 136,
    "invisible": false
  },
  {
    "longitude": 145.6739,
    "name": "Northern Mariana Islands",
    "alwaysShow": true,
    "dead": 2,
    "latitude": 15.0979,
    "infected": 31,
    "recovered": 0,
    "pop": 55144,
    "country": "US",
    "lastUpdated": "2020-06-27T20:17:07.158Z",
    "state": "MP",
    "id": "NLLL6pJhJSw0lrDMD4uP",
    "sick": 29,
    "invisible": false
  },
  {
    "id": "NMeZEcGToxXfpi16PfFV",
    "pop": 10080000,
    "country": "IN",
    "longitude": 79.0193,
    "name": "Uttarakhand",
    "latitude": 30.0668,
    "dead": 37,
    "lastUpdated": "2020-06-27T20:11:01.541Z",
    "recovered": 1909,
    "infected": 2791,
    "sick": 845,
    "invisible": false
  },
  {
    "name": "Hessen",
    "latitude": 50.6521,
    "dead": 513,
    "lastUpdated": "2020-06-27T20:00:03.156Z",
    "recovered": 9864,
    "infected": 10781,
    "state": "HE",
    "id": "Nk5vPgUIXsWVfbWZf15O",
    "pop": 6243000,
    "country": "DE",
    "longitude": 9.1624,
    "sick": 404,
    "invisible": false
  },
  {
    "recovered": 932,
    "infected": 1115,
    "id": "NmmMKy0YqA8StHdGzB5N",
    "pop": 1920000,
    "country": "LV",
    "longitude": 25.837107,
    "name": "Latvia",
    "latitude": 56.96776,
    "dead": 30,
    "lastUpdated": "2020-06-27T20:16:02.965Z",
    "sick": 153,
    "invisible": false
  },
  {
    "name": "Pernambuco",
    "latitude": -8.472372,
    "dead": 4610,
    "lastUpdated": "2020-06-27T20:15:01.306Z",
    "recovered": 0,
    "infected": 55804,
    "state": "PE",
    "id": "NyGlFL1gATK1Omv9qtcC",
    "pop": 9496294,
    "country": "BR",
    "longitude": -37.946777,
    "sick": 51194,
    "invisible": false
  },
  {
    "recovered": 291,
    "infected": 729,
    "id": "O4g88K49HKEZLFXm5gxb",
    "pop": 4732000,
    "country": "LR",
    "longitude": -9.4295,
    "name": "Liberia",
    "latitude": 6.4281,
    "dead": 34,
    "lastUpdated": "2020-06-27T20:16:02.967Z",
    "sick": 404,
    "invisible": false
  },
  {
    "name": "Altai Krai",
    "latitude": 51.7936,
    "dead": 31,
    "lastUpdated": "2020-06-27T20:00:08.904Z",
    "recovered": 2697,
    "infected": 3753,
    "id": "O5fNOGWKosps6JTrzkpn",
    "pop": 2350000,
    "country": "RU",
    "longitude": 82.6759,
    "sick": 1025,
    "invisible": false
  },
  {
    "latitude": 53.0929,
    "dead": 41,
    "lastUpdated": "2020-06-27T20:00:08.906Z",
    "recovered": 1826,
    "infected": 2916,
    "id": "O6PDzAxKENYbLsLjPx2K",
    "pop": 1072000,
    "country": "RU",
    "longitude": 116.9677,
    "name": "Zabaykalsky Krai",
    "sick": 1049,
    "invisible": false
  },
  {
    "lastUpdated": "2020-06-27T20:17:07.155Z",
    "recovered": 0,
    "infected": 31939,
    "state": "SC",
    "id": "ONU4CK8QjViFHKg2w5if",
    "pop": 5084000,
    "country": "US",
    "longitude": -80.525613,
    "name": "South Carolina",
    "latitude": 34.003307,
    "dead": 711,
    "sick": 31228,
    "invisible": false
  },
  {
    "state": "MS",
    "id": "OYa0jFzdbAgo8zUsRv6q",
    "pop": 2987000,
    "country": "US",
    "longitude": -89.582775,
    "name": "Mississippi",
    "latitude": 33.51822,
    "dead": 1035,
    "lastUpdated": "2020-06-27T20:17:07.155Z",
    "recovered": 0,
    "infected": 25531,
    "sick": 24496,
    "invisible": false
  },
  {
    "recovered": 0,
    "infected": 3154,
    "state": "ME",
    "id": "OcXNp9kNVSwrRlG3bNVN",
    "pop": 1338000,
    "country": "US",
    "longitude": -69.4455,
    "name": "Maine",
    "latitude": 45.2538,
    "dead": 104,
    "lastUpdated": "2020-06-27T20:17:07.157Z",
    "sick": 3050,
    "invisible": false
  },
  {
    "id": "OlKS5SPydHY2TedStFuf",
    "pop": 488000,
    "country": "RU",
    "longitude": 44.8203,
    "name": "Ingushetia",
    "latitude": 43.4052,
    "dead": 67,
    "lastUpdated": "2020-06-27T20:00:08.906Z",
    "recovered": 2434,
    "infected": 2978,
    "sick": 477,
    "invisible": false
  },
  {
    "name": "Tasmania",
    "latitude": -41.915264,
    "dead": 13,
    "lastUpdated": "2020-06-27T20:13:29.742Z",
    "recovered": 215,
    "infected": 228,
    "state": "TAS",
    "id": "OnOseaqWdnuP18oruABW",
    "pop": 515000,
    "country": "AU",
    "longitude": 146.725256,
    "sick": 0,
    "invisible": false
  },
  {
    "recovered": 0,
    "infected": 13026,
    "state": "MT",
    "id": "P0GHFGUt1pkKTk5PM8uz",
    "pop": 3441998,
    "country": "BR",
    "longitude": -56.666668,
    "name": "Mato Grosso",
    "latitude": -16.35,
    "dead": 480,
    "lastUpdated": "2020-06-27T20:15:01.307Z",
    "sick": 12546,
    "invisible": false
  },
  {
    "id": "P2I90oqdFSoVk03AaGo4",
    "pop": 1378000,
    "country": "RU",
    "longitude": 40.5927,
    "name": "Vladimir Oblast",
    "latitude": 56.1553,
    "dead": 61,
    "lastUpdated": "2020-06-27T20:00:08.904Z",
    "recovered": 2543,
    "infected": 4214,
    "sick": 1610,
    "invisible": false
  },
  {
    "id": "P4mwRFLbrvT0t75uD8Wo",
    "pop": 61559,
    "country": "KY",
    "longitude": -81.2546,
    "name": "Cayman Islands",
    "latitude": 19.3133,
    "dead": 1,
    "lastUpdated": "2020-06-27T20:16:02.969Z",
    "recovered": 186,
    "infected": 196,
    "sick": 9,
    "invisible": false
  },
  {
    "latitude": 16.7424984,
    "dead": 1,
    "lastUpdated": "2020-06-27T20:16:02.975Z",
    "recovered": 10,
    "infected": 11,
    "id": "PEDkeFMTOZpvHiSVxBk7",
    "pop": 5900,
    "country": "MS",
    "longitude": -62.1873665,
    "name": "Montserrat",
    "sick": 0,
    "invisible": false
  },
  {
    "latitude": -1.9403,
    "dead": 2,
    "lastUpdated": "2020-06-27T20:16:02.967Z",
    "recovered": 413,
    "infected": 878,
    "id": "PEcgZGEkyhABztt1Ufgc",
    "pop": 12210000,
    "country": "RW",
    "longitude": 29.8739,
    "name": "Rwanda",
    "sick": 463,
    "invisible": false
  },
  {
    "name": "Bashkortostan",
    "latitude": 54.2312,
    "dead": 18,
    "lastUpdated": "2020-06-27T20:00:08.899Z",
    "recovered": 2843,
    "infected": 5220,
    "id": "PHlHdeqYd6KgxsJGfEz0",
    "pop": 4063000,
    "country": "RU",
    "longitude": 56.1645,
    "sick": 2359,
    "invisible": false
  },
  {
    "state": "MN",
    "id": "PJvVYosLIhbcRZYnKX1R",
    "pop": 5611000,
    "country": "US",
    "longitude": -94.6859,
    "name": "Minnesota",
    "latitude": 46.7296,
    "dead": 1452,
    "lastUpdated": "2020-06-27T20:17:07.155Z",
    "recovered": 0,
    "infected": 35033,
    "sick": 33581,
    "invisible": false
  },
  {
    "name": "Illinois",
    "latitude": 40.6331,
    "dead": 7048,
    "lastUpdated": "2020-06-27T20:17:07.153Z",
    "recovered": 0,
    "infected": 141344,
    "state": "IL",
    "id": "PTwQr9ijo0TBBsPH2sdJ",
    "pop": 12740000,
    "country": "US",
    "longitude": -89.3985,
    "sick": 134296,
    "invisible": false
  },
  {
    "name": "Saint Lucia",
    "latitude": 13.909444,
    "dead": 0,
    "lastUpdated": "2020-06-27T20:16:02.973Z",
    "recovered": 19,
    "infected": 19,
    "id": "PjLqCeFdyzdZNcZxMkK1",
    "pop": 178844,
    "country": "LC",
    "longitude": -60.978893,
    "sick": 0,
    "invisible": false
  },
  {
    "state": "NC",
    "id": "PmUlsNx2uFLU797wwU39",
    "pop": 649900,
    "country": "ES",
    "longitude": -1.6761,
    "name": "Comunidad Foral de Navarra",
    "latitude": 42.6954,
    "dead": 528,
    "lastUpdated": "2020-06-26T23:35:21.249Z",
    "recovered": 3905,
    "infected": 8599,
    "sick": 4166,
    "invisible": false
  },
  {
    "country": "TN",
    "longitude": 9.460554,
    "name": "Tunisia",
    "latitude": 34.201507,
    "dead": 50,
    "lastUpdated": "2020-06-27T20:16:02.965Z",
    "recovered": 1025,
    "infected": 1168,
    "id": "Pr76V4raf108uSRoEXac",
    "pop": 11530000,
    "sick": 93,
    "invisible": false
  },
  {
    "id": "PuQgOd9KWiMzGZXm11sR",
    "pop": 1367000,
    "country": "SZ",
    "longitude": 31.4659,
    "name": "Eswatini",
    "latitude": -26.5225,
    "dead": 8,
    "lastUpdated": "2020-06-27T20:16:02.967Z",
    "recovered": 370,
    "infected": 745,
    "sick": 367,
    "invisible": false
  },
  {
    "latitude": -37.009609,
    "dead": 20,
    "lastUpdated": "2020-06-27T20:13:29.742Z",
    "recovered": 1761,
    "infected": 1987,
    "state": "VIC",
    "id": "Q18mrGvFWTLX2BU9SqhQ",
    "pop": 6359000,
    "country": "AU",
    "longitude": 143.94853,
    "name": "Victoria",
    "sick": 206,
    "invisible": false
  },
  {
    "state": "SH",
    "id": "Q39XkabIYxt15mHINzTa",
    "pop": 2890000,
    "country": "DE",
    "longitude": 9.6961,
    "name": "Schleswig-Holstein",
    "latitude": 54.2194,
    "dead": 157,
    "lastUpdated": "2020-06-27T20:00:03.158Z",
    "recovered": 2968,
    "infected": 3157,
    "sick": 32,
    "invisible": false
  },
  {
    "lastUpdated": "2020-06-27T20:15:01.307Z",
    "recovered": 0,
    "infected": 24114,
    "state": "RS",
    "id": "QGpQNhuoVTUPHXvS7qcu",
    "pop": 11329605,
    "country": "BR",
    "longitude": -52.031696,
    "name": "Rio Grande do Sul",
    "latitude": -27.953491,
    "dead": 540,
    "sick": 23574,
    "invisible": false
  },
  {
    "name": "Chuvashia",
    "latitude": 55.5596,
    "dead": 28,
    "lastUpdated": "2020-06-27T20:00:08.899Z",
    "recovered": 2830,
    "infected": 4915,
    "id": "QGyuno7Bc4kwuvGFgMiO",
    "pop": 1231000,
    "country": "RU",
    "longitude": 46.9284,
    "sick": 2057,
    "invisible": false
  },
  {
    "lastUpdated": "2020-06-27T20:16:02.964Z",
    "recovered": 1812,
    "infected": 1986,
    "id": "QR9go2hQKXjty7JHUYe4",
    "pop": 1328000,
    "country": "EE",
    "longitude": 25.013607,
    "name": "Estonia",
    "latitude": 58.595272,
    "dead": 69,
    "sick": 105,
    "invisible": false
  },
  {
    "lastUpdated": "2020-06-27T20:00:08.905Z",
    "recovered": 1501,
    "infected": 3173,
    "id": "QTafh5fpbS8abcuyEjaL",
    "pop": 840000,
    "country": "RU",
    "longitude": 54.8313,
    "name": "Komi Republic",
    "latitude": 63.8631,
    "dead": 30,
    "sick": 1642,
    "invisible": false
  },
  {
    "lastUpdated": "2020-06-27T20:15:01.306Z",
    "recovered": 0,
    "infected": 41652,
    "state": "ES",
    "id": "QaWDLKH8SuwD0Qxq6c38",
    "pop": 3972388,
    "country": "BR",
    "longitude": -40.336,
    "name": "Espírito Santo",
    "latitude": -20.318,
    "dead": 1507,
    "sick": 40145,
    "invisible": false
  },
  {
    "longitude": 35.0884,
    "name": "Murmansk Oblast",
    "latitude": 67.8443,
    "dead": 12,
    "lastUpdated": "2020-06-27T20:00:08.900Z",
    "recovered": 3497,
    "infected": 4901,
    "id": "Qh73PKA4KWeuPoqZfWXz",
    "pop": 795000,
    "country": "RU",
    "sick": 1392,
    "invisible": false
  },
  {
    "recovered": 0,
    "infected": 11283,
    "id": "Qkho455pBwx88Gohs3hL",
    "pop": 8222700,
    "country": "MX",
    "longitude": -103.6667,
    "name": "Jalisco",
    "latitude": 20.3333,
    "dead": 603,
    "lastUpdated": "2020-06-27T20:02:01.463Z",
    "sick": 10680,
    "invisible": false
  },
  {
    "name": "Papua New Guinea",
    "latitude": -6.315,
    "dead": 0,
    "lastUpdated": "2020-06-27T20:16:02.975Z",
    "recovered": 8,
    "infected": 11,
    "id": "QlZrE4nosm5WfdA2aCDg",
    "pop": 8251000,
    "country": "PG",
    "longitude": 143.9555,
    "sick": 3,
    "invisible": false
  },
  {
    "longitude": -64.8963,
    "name": "U.S. Virgin Islands",
    "alwaysShow": true,
    "dead": 6,
    "latitude": 18.3358,
    "infected": 81,
    "recovered": 0,
    "pop": 107268,
    "country": "US",
    "lastUpdated": "2020-06-27T20:17:07.158Z",
    "state": "VI",
    "id": "QqhD3YDMKXojvQY3Yu41",
    "sick": 75,
    "invisible": false
  },
  {
    "latitude": 15.414999,
    "dead": 0,
    "lastUpdated": "2020-06-27T20:16:02.973Z",
    "recovered": 18,
    "infected": 18,
    "id": "Qy2qW2ep5wltnYjPJBxh",
    "pop": 71937,
    "country": "DM",
    "longitude": -61.3709755,
    "name": "Dominica",
    "sick": 0,
    "invisible": false
  },
  {
    "name": "Casanare",
    "latitude": 5.167,
    "dead": 0,
    "lastUpdated": "2020-06-27T20:00:09.574Z",
    "recovered": 35,
    "infected": 64,
    "id": "R3IHMWqIUhOJJTlrmbUZ",
    "pop": 344027,
    "country": "CO",
    "longitude": -72.167,
    "sick": 29,
    "invisible": false
  },
  {
    "name": "Panama",
    "latitude": 8.538,
    "dead": 575,
    "lastUpdated": "2020-06-27T20:16:02.956Z",
    "recovered": 15270,
    "infected": 29905,
    "id": "R8YCgephnxTufvcPWMgx",
    "pop": 4099000,
    "country": "PA",
    "longitude": -80.7821,
    "sick": 14060,
    "invisible": false
  },
  {
    "id": "RA2SE0p2bVhqo0P2hzGY",
    "pop": 9265000,
    "country": "HN",
    "longitude": -86.2419,
    "name": "Honduras",
    "latitude": 15.2,
    "dead": 471,
    "lastUpdated": "2020-06-27T20:16:02.957Z",
    "recovered": 1678,
    "infected": 15994,
    "sick": 13845,
    "invisible": false
  },
  {
    "longitude": -70.2979202,
    "name": "Arica y Parinacota",
    "latitude": -18.4745998,
    "dead": 20,
    "lastUpdated": "2020-06-27T20:21:04.532Z",
    "recovered": 0,
    "infected": 1611,
    "id": "RBt9RiwP7WUbMnJfD0lo",
    "pop": 224500,
    "country": "CL",
    "sick": 1591,
    "invisible": false
  },
  {
    "name": "Friuli Venezia Giulia",
    "latitude": 45.633331,
    "dead": 345,
    "lastUpdated": "2020-06-27T20:01:01.548Z",
    "recovered": 2920,
    "infected": 3307,
    "state": "36",
    "id": "RCrDBCdBNYzgLNr0aB2H",
    "pop": 1216000,
    "country": "IT",
    "longitude": 13.8,
    "sick": 42,
    "invisible": false
  },
  {
    "state": "IA",
    "id": "RX0KDu1AFrlCsrRso0nb",
    "pop": 3156000,
    "country": "US",
    "longitude": -93.0977,
    "name": "Iowa",
    "latitude": 41.878,
    "dead": 704,
    "lastUpdated": "2020-06-27T20:17:07.155Z",
    "recovered": 0,
    "infected": 28012,
    "sick": 27308,
    "invisible": false
  },
  {
    "country": "CO",
    "longitude": -74.063644,
    "name": "Bogotá D.C.",
    "latitude": 4.624335,
    "dead": 572,
    "lastUpdated": "2020-06-27T20:00:09.566Z",
    "recovered": 10999,
    "infected": 25540,
    "id": "RZ6PCe5TZsO15JjDObwO",
    "pop": 7413000,
    "sick": 13969,
    "invisible": false
  },
  {
    "latitude": 26.3351002,
    "dead": 18,
    "lastUpdated": "2020-06-27T20:16:02.967Z",
    "recovered": 142,
    "infected": 713,
    "id": "RaJxbzlnRFTuj4B8IbpC",
    "pop": 6846000,
    "country": "LY",
    "longitude": 17.2283306,
    "name": "Libya",
    "sick": 553,
    "invisible": false
  },
  {
    "lastUpdated": "2020-06-27T20:17:07.156Z",
    "recovered": 0,
    "infected": 13677,
    "state": "KS",
    "id": "Rf4uvBfP3GRDSHdZElRd",
    "pop": 2912000,
    "country": "US",
    "longitude": -98.4842,
    "name": "Kansas",
    "latitude": 39.0119,
    "dead": 270,
    "sick": 13407,
    "invisible": false
  },
  {
    "country": "FR",
    "longitude": 6.1878,
    "name": "Grand Est",
    "latitude": 48.6998,
    "dead": 3556,
    "lastUpdated": "2020-06-26T23:50:49.564Z",
    "recovered": 12039,
    "infected": 25522,
    "id": "RmEgf1xeclWt7XCF9oiR",
    "pop": 5518000,
    "sick": 9927,
    "invisible": false
  },
  {
    "lastUpdated": "2020-06-27T20:07:06.458Z",
    "recovered": 4855,
    "infected": 19225,
    "state": "WAL",
    "id": "RryHraSohKQLAsdr1dHO",
    "pop": 3644000,
    "country": "BE",
    "longitude": 4.451,
    "name": "Wallonia",
    "latitude": 50.4176,
    "dead": 3367,
    "sick": 11003,
    "invisible": false
  },
  {
    "country": "CA",
    "longitude": -85.3232,
    "name": "Ontario",
    "latitude": 51.2538,
    "dead": 2706,
    "lastUpdated": "2020-06-27T16:40:01.272Z",
    "recovered": 0,
    "infected": 36169,
    "state": "ON",
    "id": "Rx4TuyMpfGb3S8wYJX0x",
    "pop": 14570000,
    "sick": 33463,
    "invisible": false
  },
  {
    "state": "CL",
    "id": "S8ewN4zaYp8mjtuqqOTw",
    "pop": 2408000,
    "country": "ES",
    "longitude": -4.723611,
    "name": "Castilla y León",
    "latitude": 41.652779,
    "dead": 2783,
    "lastUpdated": "2020-06-26T23:34:43.433Z",
    "recovered": 8716,
    "infected": 25898,
    "sick": 14399,
    "invisible": false
  },
  {
    "recovered": 98,
    "infected": 242,
    "id": "SDdefnq1bc3ZNr7SpEsW",
    "pop": 376480,
    "country": "FR",
    "longitude": -61.011715,
    "name": "Martinique",
    "alwaysShow": true,
    "latitude": 14.652027,
    "dead": 14,
    "lastUpdated": "2020-06-27T20:16:02.969Z",
    "sick": 130,
    "invisible": false
  },
  {
    "lastUpdated": "2020-06-27T20:16:02.957Z",
    "recovered": 12257,
    "infected": 16431,
    "id": "SG9VWLOV3x2JsTkXmVSz",
    "pop": 28830000,
    "country": "GH",
    "longitude": -1.0232,
    "name": "Ghana",
    "latitude": 7.9465,
    "dead": 103,
    "sick": 4071,
    "invisible": false
  },
  {
    "name": "Switzerland",
    "latitude": 46.818188,
    "dead": 1962,
    "lastUpdated": "2020-06-27T20:16:02.956Z",
    "recovered": 29000,
    "infected": 31555,
    "id": "SGe9sCPayMqh6RsGFaBA",
    "pop": 8570000,
    "country": "CH",
    "longitude": 8.227512,
    "sick": 593,
    "invisible": false
  },
  {
    "latitude": 66.7613,
    "dead": 28,
    "lastUpdated": "2020-06-27T20:00:08.904Z",
    "recovered": 2844,
    "infected": 4075,
    "id": "SGhKBmmh5hss7hrNR8hK",
    "pop": 964000,
    "country": "RU",
    "longitude": 124.1238,
    "name": "Yakutia",
    "sick": 1203,
    "invisible": false
  },
  {
    "lastUpdated": "2020-06-27T20:10:02.164Z",
    "recovered": 0,
    "infected": 55079,
    "state": "QC",
    "id": "SHoOE3NiJgWAlDVBzwYH",
    "pop": 8485000,
    "country": "CA",
    "longitude": -71.208,
    "name": "Quebec",
    "latitude": 46.8139,
    "dead": 5448,
    "sick": 49631,
    "invisible": false
  },
  {
    "recovered": 1047,
    "infected": 2169,
    "id": "SMWvuMMuKp2QK7O2tNia",
    "pop": 1831000,
    "country": "XK",
    "longitude": 20.903,
    "name": "Kosovo",
    "latitude": 42.6026,
    "dead": 37,
    "lastUpdated": "2020-06-27T19:40:01.286Z",
    "sick": 1085,
    "invisible": false
  },
  {
    "id": "SNWCQwRwqYfxX8HZndTA",
    "pop": 1913000,
    "country": "RU",
    "longitude": 135,
    "name": "Primorsky Krai",
    "latitude": 45.0526,
    "dead": 41,
    "lastUpdated": "2020-06-27T20:00:08.904Z",
    "recovered": 2636,
    "infected": 4063,
    "sick": 1386,
    "invisible": false
  },
  {
    "country": "IN",
    "longitude": 74.124,
    "name": "Goa",
    "latitude": 15.2993,
    "dead": 2,
    "lastUpdated": "2020-06-27T20:11:01.541Z",
    "recovered": 420,
    "infected": 1128,
    "id": "SPcujsH2YlUaoAr8AiWF",
    "pop": 1817000,
    "sick": 706,
    "invisible": false
  },
  {
    "state": "GO",
    "id": "SV5AMF59J61Vt4cXWLgy",
    "pop": 6921161,
    "country": "BR",
    "longitude": -48.953403,
    "name": "Goiás",
    "latitude": -16.328547,
    "dead": 409,
    "lastUpdated": "2020-06-27T20:15:01.307Z",
    "recovered": 0,
    "infected": 20863,
    "sick": 20454,
    "invisible": false
  },
  {
    "id": "SYFarIS62W0EW9bOaJmN",
    "pop": 75500,
    "country": "CO",
    "longitude": -68.436,
    "name": "Vichada",
    "latitude": 6.181,
    "dead": 0,
    "lastUpdated": "2020-06-27T20:00:09.575Z",
    "recovered": 1,
    "infected": 1,
    "sick": 0,
    "invisible": false
  },
  {
    "latitude": 39,
    "dead": 97,
    "lastUpdated": "2020-06-27T20:01:01.548Z",
    "recovered": 1051,
    "infected": 1179,
    "state": "78",
    "id": "SZdF624x0v1LlyzZjKFu",
    "pop": 1957000,
    "country": "IT",
    "longitude": 16.5,
    "name": "Calabria",
    "sick": 31,
    "invisible": false
  },
  {
    "country": "US",
    "longitude": -99.9018,
    "name": "Nebraska",
    "latitude": 41.4925,
    "dead": 266,
    "lastUpdated": "2020-06-27T20:17:07.156Z",
    "recovered": 0,
    "infected": 18524,
    "state": "NE",
    "id": "SakhKQzKu1LRI8laqdQq",
    "pop": 1929000,
    "sick": 18258,
    "invisible": false
  },
  {
    "country": "FR",
    "longitude": 55.5364,
    "name": "La Réunion",
    "alwaysShow": true,
    "latitude": -21.1151,
    "dead": 2,
    "lastUpdated": "2020-06-27T20:16:02.968Z",
    "recovered": 472,
    "infected": 520,
    "id": "SgHzWAAYK1j2sipovxM6",
    "pop": 859959,
    "sick": 46,
    "invisible": false
  },
  {
    "country": "KH",
    "longitude": 104.990967,
    "name": "Cambodia",
    "latitude": 12.565679,
    "dead": 0,
    "lastUpdated": "2020-06-27T20:16:02.970Z",
    "recovered": 129,
    "infected": 139,
    "id": "SioMALgUbo7peXmbco2f",
    "pop": 16010000,
    "sick": 10,
    "invisible": false
  },
  {
    "longitude": 144.7937,
    "name": "Guam",
    "alwaysShow": true,
    "dead": 5,
    "latitude": 13.4443,
    "infected": 247,
    "recovered": 0,
    "pop": 164229,
    "country": "US",
    "lastUpdated": "2020-06-27T20:17:07.157Z",
    "state": "GU",
    "id": "SsWhuEElU7dCTTuH5fdQ",
    "sick": 242,
    "invisible": false
  },
  {
    "latitude": 51.9189,
    "dead": 0,
    "lastUpdated": "2020-06-27T20:16:02.955Z",
    "recovered": 19972,
    "infected": 0,
    "id": "SuCr5emUaJ9RHTll1P1p",
    "country": "PL",
    "longitude": 19.1344,
    "invisible": true,
    "name": "Unknown Poland region",
    "sick": 0
  },
  {
    "lastUpdated": "2020-06-27T20:00:08.908Z",
    "recovered": 998,
    "infected": 1357,
    "id": "Sx03z01BJCAbrYkWhEaD",
    "pop": 1513000,
    "country": "RU",
    "longitude": 53.0278,
    "name": "Udmurtia",
    "latitude": 57.067,
    "dead": 16,
    "sick": 343,
    "invisible": false
  },
  {
    "id": "T3iRf8mTUTAzbKrORTap",
    "pop": 84070000,
    "country": "CD",
    "longitude": 21.7587,
    "name": "DR Congo",
    "latitude": -4.0383,
    "dead": 153,
    "lastUpdated": "2020-06-27T20:16:02.958Z",
    "recovered": 937,
    "infected": 6690,
    "sick": 5600,
    "invisible": false
  },
  {
    "id": "T7NffoeCgTUpAbOHvYwP",
    "pop": 32940000,
    "country": "SA",
    "longitude": 44.344334,
    "name": "Saudi Arabia",
    "latitude": 23.635796,
    "dead": 1511,
    "lastUpdated": "2020-06-27T20:16:02.952Z",
    "recovered": 122128,
    "infected": 178504,
    "sick": 54865,
    "invisible": false
  },
  {
    "lastUpdated": "2020-06-26T23:36:12.031Z",
    "recovered": 3107,
    "infected": 5471,
    "state": "RI",
    "id": "TNDTapyb0k3l7Mds9q9R",
    "pop": 315700,
    "country": "ES",
    "longitude": -2.5396,
    "name": "La Rioja",
    "latitude": 42.2871,
    "dead": 365,
    "sick": 1999,
    "invisible": false
  },
  {
    "longitude": -89.134857,
    "name": "Yucatán",
    "latitude": 20.400417,
    "dead": 413,
    "lastUpdated": "2020-06-27T20:02:01.374Z",
    "recovered": 0,
    "infected": 3803,
    "id": "TQCWbhIpJQBQxBjhCGVJ",
    "pop": 2207200,
    "country": "MX",
    "sick": 3390,
    "invisible": false
  },
  {
    "lastUpdated": "2020-06-27T20:16:02.970Z",
    "recovered": 138,
    "infected": 141,
    "id": "TQZmzsLhJqjtCSExAkCP",
    "pop": 428697,
    "country": "BN",
    "longitude": 114.650692,
    "name": "Brunei",
    "latitude": 4.506106,
    "dead": 3,
    "sick": 0,
    "invisible": false
  },
  {
    "recovered": 7649,
    "infected": 15097,
    "state": "",
    "id": "TT0MKODSjrxHvG19xZCa",
    "pop": 8027000,
    "country": "FR",
    "longitude": 4.3853,
    "name": "Auvergne-Rhône-Alpes",
    "latitude": 45.4471,
    "dead": 1729,
    "lastUpdated": "2020-06-26T23:51:34.818Z",
    "sick": 5719,
    "invisible": false
  },
  {
    "name": "Alentejo",
    "latitude": 38.5667,
    "dead": 4,
    "lastUpdated": "2020-06-27T20:23:01.575Z",
    "recovered": 0,
    "infected": 467,
    "id": "TeoNTu4aw5riC04sTd73",
    "pop": 758700,
    "country": "PT",
    "longitude": -7.9,
    "sick": 463,
    "invisible": false
  },