[
  {
    "longitude": 85.0985,
    "name": "Odisha",
    "country": "IN",
    "dead": 0,
    "lastUpdated": "2020-03-23T15:56:02.384Z",
    "id": "0VG7S6aaK4eSo59fL9JO",
    "infected": 2,
    "recovered": 0,
    "latitude": 20.9517,
    "sick": 2
  },
  {
    "longitude": 51.145517,
    "name": "Qatar",
    "country": "QA",
    "dead": 0,
    "lastUpdated": "2020-03-23T15:43:03.663Z",
    "id": "0m4aECS0Z2DGFEr8ldgI",
    "infected": 494,
    "recovered": 33,
    "latitude": 25.315058,
    "sick": 461
  },
  {
    "id": "0n54EMSDJcRoT1QEvw80",
    "infected": 7,
    "recovered": 0,
    "latitude": 22.9868,
    "pop": 90320000,
    "longitude": 87.855,
    "name": "West Bengal",
    "country": "IN",
    "lastUpdated": "2020-03-23T15:56:02.406Z",
    "dead": 1,
    "sick": 6
  },
  {
    "id": "0s18o5DrDAHjbu5MFcrj",
    "infected": 6,
    "recovered": 0,
    "latitude": 22.9734,
    "longitude": 78.6569,
    "name": "Madhya Pradesh",
    "country": "IN",
    "dead": 0,
    "lastUpdated": "2020-03-23T15:56:02.408Z",
    "sick": 6
  },
  {
    "longitude": -95.7129,
    "name": "Unknown US state",
    "country": "US",
    "dead": 0,
    "lastUpdated": "2020-03-23T15:43:03.622Z",
    "id": "0tFoopNTs6e4tOoaltu2",
    "infected": 0,
    "recovered": 184,
    "latitude": 37.0902,
    "sick": 0
  },
  {
    "dead": 3,
    "lastUpdated": "2020-03-23T08:46:13.568Z",
    "id": "0x2HLhr5z5xAtEdO4iZm",
    "infected": 248,
    "recovered": 239,
    "latitude": 35.64249,
    "longitude": 108.472214,
    "name": "Shaanxi",
    "country": "CN",
    "sick": 6
  },
  {
    "dead": 2,
    "lastUpdated": "2020-03-23T15:43:03.823Z",
    "id": "19MvIhipqTyYv1H37Upw",
    "infected": 136,
    "recovered": 1,
    "latitude": 41.643351,
    "longitude": 21.668393,
    "name": "North Macedonia",
    "country": "MK",
    "sick": 133
  },
  {
    "latitude": 53.1355,
    "longitude": -57.6604,
    "name": "Newfoundland and Labrador",
    "country": "CA",
    "dead": 0,
    "lastUpdated": "2020-03-23T15:42:01.542Z",
    "id": "1DOMOmCWDtva46OVSZLv",
    "infected": 9,
    "recovered": 0,
    "sick": 9
  },
  {
    "latitude": 35.801933,
    "longitude": 96.779286,
    "name": "Qinghai",
    "country": "CN",
    "dead": 0,
    "lastUpdated": "2020-03-23T08:45:53.450Z",
    "id": "1Fap7rZu9SIRqf5TG9Dg",
    "infected": 18,
    "recovered": 18,
    "sick": 0
  },
  {
    "dead": 25,
    "lastUpdated": "2020-03-23T15:43:03.761Z",
    "id": "1f0YoV0vAcexEhpESyZc",
    "infected": 1620,
    "recovered": 2,
    "latitude": -14.235004,
    "longitude": -51.925282,
    "name": "Brazil",
    "country": "BR",
    "sick": 1593
  },
  {
    "infected": 109,
    "recovered": 2,
    "latitude": 47.4116,
    "pop": 3550000,
    "longitude": 28.3699,
    "name": "Moldova",
    "country": "MD",
    "lastUpdated": "2020-03-23T15:43:03.757Z",
    "dead": 1,
    "id": "1qTPB8X3tyLyIdsb5TN3",
    "sick": 106
  },
  {
    "infected": 1,
    "recovered": 1,
    "latitude": 30.15336,
    "pop": 3180000,
    "longitude": 88.787865,
    "name": "Tibet",
    "country": "CN",
    "lastUpdated": "2020-03-23T08:46:51.100Z",
    "dead": 0,
    "id": "25qIBtsW2nfQj3pwBKg9",
    "sick": 0
  },
  {
    "recovered": 30,
    "latitude": -1.572184,
    "longitude": 115.66779,
    "name": "Indonesia",
    "country": "ID",
    "dead": 49,
    "lastUpdated": "2020-03-23T15:43:03.698Z",
    "id": "2KHYUb5t3lwzVVmDjwNX",
    "infected": 579,
    "sick": 500
  },
  {
    "dead": 5,
    "lastUpdated": "2020-03-23T15:42:01.622Z",
    "id": "2OrsssmGUs4XCzaZzvTv",
    "infected": 161,
    "recovered": 0,
    "latitude": 43.807191,
    "longitude": -120.585594,
    "name": "Oregon",
    "country": "US",
    "sick": 156
  },
  {
    "id": "2jxHvSsxdnom0nPNvOT8",
    "infected": 93,
    "recovered": 92,
    "latitude": 43.851921,
    "longitude": 126.548103,
    "name": "Jilin",
    "country": "CN",
    "dead": 1,
    "lastUpdated": "2020-03-23T08:45:47.889Z",
    "sick": 0
  },
  {
    "infected": 15,
    "recovered": 5,
    "latitude": 36.1408,
    "longitude": -5.3536,
    "name": "Gibraltar",
    "country": "GI",
    "dead": 0,
    "lastUpdated": "2020-03-23T15:43:04.102Z",
    "id": "2p11BjSAs3wVyymgqBOe",
    "sick": 10
  },
  {
    "longitude": 1.6751,
    "name": "Centre-Val de Loire",
    "country": "FR",
    "dead": 0,
    "lastUpdated": "2020-03-23T15:49:06.650Z",
    "id": "2sLNkkHpyaHx7dD3aMDO",
    "infected": 291,
    "recovered": 0,
    "latitude": 47.7516,
    "sick": 291
  },
  {
    "latitude": -13.133896,
    "pop": 17090000,
    "longitude": 27.849332,
    "name": "Zambia",
    "country": "ZM",
    "lastUpdated": "2020-03-23T15:43:03.965Z",
    "dead": 0,
    "id": "3IlPjAbP5qVMn1nlgLTJ",
    "infected": 3,
    "recovered": 0,
    "sick": 3
  },
  {
    "latitude": 42.7044,
    "longitude": 19.3958,
    "name": "Montenegro",
    "country": "ME",
    "dead": 1,
    "lastUpdated": "2020-03-23T15:43:04.088Z",
    "id": "3LstMSN5XMYBkxbe5HN7",
    "infected": 22,
    "recovered": 0,
    "sick": 21
  },
  {
    "longitude": 149.0124,
    "name": "Australian Capital Territory",
    "country": "AU",
    "dead": 0,
    "lastUpdated": "2020-03-23T15:55:03.236Z",
    "id": "3OZoQsKrzxZ18EKyfGE6",
    "infected": 32,
    "recovered": 0,
    "latitude": -35.4735,
    "sick": 32
  },
  {
    "infected": 358,
    "recovered": 0,
    "latitude": 40.4173,
    "longitude": -82.9071,
    "name": "Ohio",
    "country": "US",
    "dead": 3,
    "lastUpdated": "2020-03-23T15:42:01.598Z",
    "id": "3fC3bAyIRUquOQOEnQNe",
    "sick": 355
  },
  {
    "infected": 2,
    "recovered": 0,
    "latitude": 21.0079,
    "longitude": -10.9408,
    "name": "Mauritania",
    "country": "MR",
    "dead": 0,
    "lastUpdated": "2020-03-23T15:43:04.098Z",
    "id": "4NnFMekRK2m14IlnZZoj",
    "sick": 2
  },
  {
    "latitude": 53.7267,
    "longitude": -127.6476,
    "name": "British Columbia",
    "country": "CA",
    "dead": 10,
    "lastUpdated": "2020-03-23T14:01:01.791Z",
    "id": "4hfZRUoUgI4a3vrG0GBk",
    "infected": 424,
    "recovered": 4,
    "sick": 410
  },
  {
    "recovered": 14,
    "latitude": 41.065877,
    "longitude": -7.920053,
    "name": "Portugal",
    "country": "PT",
    "dead": 23,
    "lastUpdated": "2020-03-23T15:43:03.760Z",
    "id": "4rQLxUCMmQLpbi6E9tbH",
    "infected": 2060,
    "sick": 2023
  },
  {
    "latitude": 40.3426,
    "longitude": 47.93802,
    "name": "Azerbaijan",
    "country": "AZ",
    "dead": 1,
    "lastUpdated": "2020-03-23T15:43:03.680Z",
    "id": "4zqzRm2xHn0CDVOUQJ8p",
    "infected": 72,
    "recovered": 10,
    "sick": 61
  },
  {
    "id": "5MHegCUO9L3LiAU7DDey",
    "infected": 4,
    "recovered": 0,
    "latitude": 25.025885,
    "longitude": -78.035889,
    "name": "Bahamas",
    "country": "BS",
    "dead": 0,
    "lastUpdated": "2020-03-23T15:43:04.119Z",
    "sick": 4
  },
  {
    "infected": 704,
    "recovered": 4,
    "latitude": -31.253218,
    "longitude": 146.921097,
    "name": "New South Wales",
    "country": "AU",
    "dead": 6,
    "lastUpdated": "2020-03-23T15:55:03.328Z",
    "id": "5N16a2OXXRpsEFanw0TC",
    "sick": 694
  },
  {
    "id": "5fg04eyDwFw3kEXnrxez",
    "infected": 8,
    "recovered": 0,
    "latitude": -20.9043045,
    "longitude": 165.618042,
    "name": "New Caledonia",
    "country": "NC",
    "dead": 0,
    "lastUpdated": "2020-03-23T15:43:03.972Z",
    "sick": 8
  },
  {
    "infected": 2,
    "recovered": 1,
    "latitude": 28.394857,
    "longitude": 84.124008,
    "name": "Nepal",
    "country": "NP",
    "dead": 0,
    "lastUpdated": "2020-03-23T15:43:04.000Z",
    "id": "5gXZIjRgAvd6xWN1LOv8",
    "sick": 1
  },
  {
    "id": "5pwmh7aSdGRKqRbnuyc0",
    "infected": 462,
    "recovered": 18,
    "latitude": 12.879721,
    "longitude": 121.774017,
    "name": "Philippines",
    "country": "PH",
    "dead": 33,
    "lastUpdated": "2020-03-23T15:43:03.861Z",
    "sick": 411
  },
  {
    "latitude": -17.824858,
    "pop": 14802190,
    "longitude": 31.053028,
    "name": "Zimbabwe",
    "country": "ZW",
    "lastUpdated": "2020-03-23T15:43:03.980Z",
    "dead": 1,
    "id": "5qtR9nx4BLwu1ODTniaY",
    "infected": 3,
    "recovered": 0,
    "sick": 2
  },
  {
    "latitude": 55.621011,
    "longitude": 23.804991,
    "name": "Lithuania",
    "country": "LT",
    "dead": 1,
    "lastUpdated": "2020-03-23T15:43:03.692Z",
    "id": "694ON7d0mRJDeM1gHBTR",
    "infected": 160,
    "recovered": 1,
    "sick": 158
  },
  {
    "infected": 356,
    "recovered": 100,
    "latitude": 22.396427,
    "pop": 7392000,
    "longitude": 114.109497,
    "name": "Hong Kong",
    "country": "HK",
    "lastUpdated": "2020-03-23T15:43:03.724Z",
    "dead": 4,
    "id": "6IcHIIH0zXpY0POmBZTv",
    "sick": 252
  },
  {
    "longitude": 2.3158,
    "name": "Benin",
    "country": "BJ",
    "dead": 0,
    "lastUpdated": "2020-03-23T15:43:04.116Z",
    "id": "6SlpghTyB6lpMFvx3g9U",
    "infected": 2,
    "recovered": 0,
    "latitude": 9.3077,
    "sick": 2
  },
  {
    "infected": 442,
    "recovered": 0,
    "latitude": 46.0569,
    "longitude": 14.5058,
    "name": "Slovenia",
    "country": "SI",
    "dead": 3,
    "lastUpdated": "2020-03-23T15:43:03.733Z",
    "id": "6ahNiyKDSDAftCctgLH3",
    "sick": 439
  },
  {
    "infected": 5,
    "recovered": 0,
    "latitude": -0.8037,
    "longitude": 11.6094,
    "name": "Gabon",
    "country": "GA",
    "dead": 1,
    "lastUpdated": "2020-03-23T15:43:04.079Z",
    "id": "6pBi38TUgYfFm0bry2uh",
    "sick": 4
  },
  {
    "id": "78Ox26bNHDA2Pk2b3Uwn",
    "infected": 3,
    "recovered": 0,
    "latitude": 17.901672,
    "longitude": -62.818544,
    "name": "Saint-Barthélemy",
    "country": "FR",
    "dead": 0,
    "lastUpdated": "2020-03-23T14:18:13.651Z",
    "sick": 3
  },
  {
    "id": "7hVFcEV7nV0MrQr3LHrl",
    "infected": 1,
    "recovered": 0,
    "latitude": 17.0608,
    "longitude": -61.7964,
    "name": "Antigua and Barbuda",
    "country": "AG",
    "dead": 0,
    "lastUpdated": "2020-03-23T15:43:04.023Z",
    "sick": 1
  },
  {
    "recovered": 21,
    "latitude": 48.7904,
    "longitude": 11.4979,
    "name": "Bayern",
    "country": "DE",
    "dead": 27,
    "lastUpdated": "2020-03-23T15:42:03.225Z",
    "id": "7kCrrlOBE3jN6FtOVNUB",
    "infected": 5719,
    "sick": 5671
  },
  {
    "longitude": 19.0402,
    "name": "Hungary",
    "country": "HU",
    "lastUpdated": "2020-03-23T15:43:03.747Z",
    "dead": 7,
    "id": "7rYC2iFB50c55Ihgbs4Q",
    "infected": 167,
    "recovered": 16,
    "latitude": 47.4979,
    "pop": 9773000,
    "sick": 144
  },
  {
    "longitude": 12.3547,
    "name": "Cameroon",
    "country": "CM",
    "dead": 0,
    "lastUpdated": "2020-03-23T15:43:03.866Z",
    "id": "8C0d7WVCjyUGtnc2gUAR",
    "infected": 56,
    "recovered": 2,
    "latitude": 7.3697,
    "sick": 54
  },
  {
    "latitude": -16.2902,
    "longitude": -63.5887,
    "name": "Bolivia",
    "country": "BO",
    "dead": 0,
    "lastUpdated": "2020-03-23T15:43:04.021Z",
    "id": "8RihJrXw4NQXPxaRxr1u",
    "infected": 27,
    "recovered": 0,
    "sick": 27
  },
  {
    "infected": 1,
    "recovered": 0,
    "latitude": 12.9843,
    "pop": 109897,
    "longitude": -61.2872,
    "name": "St. Vincent Grenadines",
    "country": "VC",
    "lastUpdated": "2020-03-23T15:43:04.083Z",
    "dead": 0,
    "id": "8ZTySQROQejkDAad0qxQ",
    "sick": 1
  },
  {
    "longitude": 103.819839,
    "name": "Singapore",
    "country": "SG",
    "dead": 2,
    "lastUpdated": "2020-03-23T15:43:03.723Z",
    "id": "8pA3fM4xC2c2wv1b4TnE",
    "infected": 509,
    "recovered": 152,
    "latitude": 1.352083,
    "sick": 355
  },
  {
    "latitude": 47.2184,
    "longitude": -1.5536,
    "name": "Pays de la Loire",
    "country": "FR",
    "dead": 1,
    "lastUpdated": "2020-03-23T15:49:06.643Z",
    "id": "98hwAoohgWEOQVa3NlM5",
    "infected": 270,
    "recovered": 0,
    "sick": 269
  },
  {
    "recovered": 0,
    "latitude": 12.8628,
    "pop": 40530000,
    "longitude": 30.2176,
    "name": "Sudan",
    "country": "SD",
    "lastUpdated": "2020-03-23T15:43:03.999Z",
    "dead": 1,
    "id": "9DPOkpIqrFy9mR4e9fuv",
    "infected": 2,
    "sick": 1
  },
  {
    "infected": 576,
    "recovered": 73,
    "latitude": 45.943161,
    "longitude": 24.966761,
    "name": "Romania",
    "country": "RO",
    "dead": 5,
    "lastUpdated": "2020-03-23T15:43:03.637Z",
    "id": "9QcETqEcM2fTv9zRvx5T",
    "sick": 498
  },
  {
    "infected": 2,
    "recovered": 0,
    "latitude": 12.136389,
    "longitude": -86.251389,
    "name": "Nicaragua",
    "country": "NI",
    "dead": 0,
    "lastUpdated": "2020-03-23T15:43:04.138Z",
    "id": "9Y5wmCqNCC6ZrenM31uA",
    "sick": 2
  },
  {
    "infected": 700,
    "recovered": 10,
    "latitude": 61.92411,
    "longitude": 25.748152,
    "name": "Finland",
    "country": "FI",
    "dead": 1,
    "lastUpdated": "2020-03-23T15:43:03.767Z",
    "id": "9p6OCdZbUUwBLA60Gk3W",
    "sick": 689
  },
  {
    "longitude": -71.590315,
    "name": "New Hampshire",
    "country": "US",
    "dead": 0,
    "lastUpdated": "2020-03-23T15:42:01.656Z",
    "id": "A84CwQ52kA46Hr7pn6Bm",
    "infected": 78,
    "recovered": 0,
    "latitude": 43.311643,
    "sick": 78
  },
  {
    "longitude": -71.412257,
    "name": "Rhode Island",
    "country": "US",
    "dead": 0,
    "lastUpdated": "2020-03-23T15:42:01.611Z",
    "id": "AEUWUHS65qvjEslew11c",
    "infected": 83,
    "recovered": 0,
    "latitude": 41.823261,
    "sick": 83
  },
  {
    "latitude": 49.3964,
    "longitude": 7.023,
    "name": "Saarland",
    "country": "DE",
    "dead": 1,
    "lastUpdated": "2020-03-23T15:42:03.523Z",
    "id": "AKjFRQGnzuuZQhv5Qwx7",
    "infected": 318,
    "recovered": 0,
    "sick": 317
  },
  {
    "infected": 4,
    "recovered": 0,
    "latitude": 71.7069,
    "longitude": -42.6043,
    "name": "Greenland",
    "country": "GL",
    "dead": 0,
    "lastUpdated": "2020-03-23T15:43:04.125Z",
    "id": "APaZzlGCEeuoLBtzTJMe",
    "sick": 4
  },
  {
    "infected": 28,
    "recovered": 0,
    "latitude": 45.65107,
    "longitude": -63.582687,
    "name": "Nova Scotia",
    "country": "CA",
    "dead": 0,
    "lastUpdated": "2020-03-23T15:42:01.668Z",
    "id": "AVCpxeh0fuH2WrHWNDYH",
    "sick": 28
  },
  {
    "recovered": 0,
    "latitude": 47.012918,
    "longitude": -109.128641,
    "name": "Montana",
    "country": "US",
    "dead": 0,
    "lastUpdated": "2020-03-23T15:42:01.726Z",
    "id": "AcULcZBozObOhwuRKMjJ",
    "infected": 34,
    "sick": 34
  },
  {
    "longitude": 116.01609,
    "name": "Jiangxi",
    "country": "CN",
    "dead": 1,
    "lastUpdated": "2020-03-23T08:43:59.755Z",
    "id": "AmBYm5J6E9Cuez1FQjiN",
    "infected": 936,
    "recovered": 934,
    "latitude": 27.285971,
    "sick": 1
  },
  {
    "latitude": 28.033886,
    "longitude": 1.659626,
    "name": "Algeria",
    "country": "DZ",
    "dead": 17,
    "lastUpdated": "2020-03-23T15:43:03.809Z",
    "id": "AwN0CScPDApcLFgz6e3z",
    "infected": 201,
    "recovered": 65,
    "sick": 119
  },
  {
    "dead": 1,
    "lastUpdated": "2020-03-23T15:43:03.872Z",
    "id": "B82Ef45M8cDu4q7VsSHF",
    "infected": 315,
    "recovered": 5,
    "latitude": 45.099998,
    "longitude": 15.2,
    "name": "Croatia",
    "country": "HR",
    "sick": 309
  },
  {
    "infected": 288,
    "recovered": 0,
    "latitude": 39.509109,
    "longitude": -76.98432,
    "name": "Maryland",
    "country": "US",
    "dead": 3,
    "lastUpdated": "2020-03-23T15:42:01.596Z",
    "id": "BF51mWl51fgEcyBpCSzb",
    "sick": 285
  },
  {
    "infected": 81,
    "recovered": 22,
    "latitude": 53.709808,
    "longitude": 27.953388,
    "name": "Belarus",
    "country": "BY",
    "dead": 0,
    "lastUpdated": "2020-03-23T15:43:03.696Z",
    "id": "BGg6yVU5VP71B8NXU0oh",
    "sick": 59
  },
  {
    "infected": 462,
    "recovered": 0,
    "latitude": 48.8799,
    "longitude": 0.1713,
    "name": "Normandie",
    "country": "FR",
    "dead": 9,
    "lastUpdated": "2020-03-23T15:49:06.639Z",
    "id": "BGtoyzb7y54LVlJ91rbf",
    "sick": 453
  },
  {
    "infected": 152,
    "recovered": 0,
    "latitude": 34.048927,
    "longitude": -111.093735,
    "name": "Arizona",
    "country": "US",
    "dead": 2,
    "lastUpdated": "2020-03-23T15:42:01.658Z",
    "id": "BTEESCuD2ZbS1afunR2A",
    "sick": 150
  },
  {
    "longitude": -73.982597,
    "name": "New York",
    "country": "US",
    "dead": 153,
    "lastUpdated": "2020-03-23T15:42:01.631Z",
    "id": "C3BCUzV80z9GfiuByIcr",
    "infected": 16916,
    "recovered": 0,
    "latitude": 40.719042,
    "sick": 16763
  },
  {
    "longitude": 15.359413,
    "name": "Czechia",
    "country": "CZ",
    "dead": 1,
    "lastUpdated": "2020-03-23T15:43:03.703Z",
    "id": "C6S76AggdWVU8G22jFHQ",
    "infected": 1165,
    "recovered": 6,
    "latitude": 49.731626,
    "sick": 1158
  },
  {
    "longitude": 50.557701,
    "name": "Bahrain",
    "country": "BH",
    "dead": 2,
    "lastUpdated": "2020-03-23T15:43:03.765Z",
    "id": "C7cj4nwRITs13KnaJrQ2",
    "infected": 339,
    "recovered": 160,
    "latitude": 26.0667,
    "sick": 177
  },
  {
    "dead": 0,
    "lastUpdated": "2020-03-23T15:56:02.399Z",
    "id": "CKZCZTPlrcq5fbfUPA9k",
    "infected": 28,
    "recovered": 3,
    "latitude": 27.0238,
    "longitude": 74.2179,
    "name": "Rajasthan",
    "country": "IN",
    "sick": 25
  },
  {
    "latitude": 13.803,
    "longitude": -88.9053,
    "name": "El Salvador",
    "country": "SV",
    "dead": 0,
    "lastUpdated": "2020-03-23T15:43:03.994Z",
    "id": "Cgvmtle61ehMvCzRzYx7",
    "infected": 3,
    "recovered": 0,
    "sick": 3
  },
  {
    "lastUpdated": "2020-03-23T15:43:03.619Z",
    "dead": 289,
    "id": "CrXu6i5Sqx11iwdfHfBs",
    "infected": 5837,
    "recovered": 135,
    "latitude": 52.355518,
    "pop": 66440000,
    "longitude": -1.17432,
    "name": "United Kingdom",
    "country": "GB",
    "sick": 5413
  },
  {
    "longitude": 44.818474,
    "name": "Armenia",
    "country": "AM",
    "dead": 0,
    "lastUpdated": "2020-03-23T15:43:03.726Z",
    "id": "DCJCtZoBTWQ4mzdDNljD",
    "infected": 194,
    "recovered": 2,
    "latitude": 40.259003,
    "sick": 192
  },
  {
    "longitude": 113.551262,
    "name": "Macao",
    "country": "MO",
    "dead": 0,
    "lastUpdated": "2020-03-23T15:43:03.708Z",
    "id": "DdBt8qsG6A3g92oOR3ow",
    "infected": 24,
    "recovered": 10,
    "latitude": 22.192039,
    "sick": 14
  },
  {
    "id": "DrGzziUglmBognCGY7R2",
    "infected": 26,
    "recovered": 0,
    "latitude": 42.962334,
    "pop": 577737,
    "longitude": -107.534868,
    "name": "Wyoming",
    "country": "US",
    "lastUpdated": "2020-03-23T15:42:01.623Z",
    "dead": 0,
    "sick": 26
  },
  {
    "infected": 624,
    "recovered": 19,
    "latitude": 40.6401,
    "longitude": 22.9444,
    "name": "Greece",
    "country": "GR",
    "dead": 17,
    "lastUpdated": "2020-03-23T15:43:03.754Z",
    "id": "Dtr1lap1RpJpXJdXGJiW",
    "sick": 588
  },
  {
    "latitude": 25.03841,
    "pop": 23780000,
    "longitude": 121.563698,
    "name": "Taiwan",
    "country": "TW",
    "lastUpdated": "2020-03-23T13:24:29.764Z",
    "dead": 2,
    "id": "EKTfs8e7M6DXzI1HqyyX",
    "infected": 195,
    "recovered": 29,
    "sick": 164
  },
  {
    "dead": 2,
    "lastUpdated": "2020-03-23T15:43:03.735Z",
    "id": "EQzJvzVHKjs8kLmK7BMu",
    "infected": 134,
    "recovered": 2,
    "latitude": 10.327273,
    "longitude": -84.387618,
    "name": "Costa Rica",
    "country": "CR",
    "sick": 130
  },
  {
    "infected": 29,
    "recovered": 0,
    "latitude": 22.2587,
    "longitude": 71.1924,
    "name": "Gujarat",
    "country": "IN",
    "dead": 1,
    "lastUpdated": "2020-03-23T15:56:02.354Z",
    "id": "ERwk9R9en4m9WbdoMbIg",
    "sick": 28
  },
  {
    "recovered": 0,
    "latitude": 30.7333,
    "longitude": 76.7794,
    "name": "Chandigarh",
    "country": "IN",
    "dead": 0,
    "lastUpdated": "2020-03-23T15:56:02.422Z",
    "id": "Esl5UlCVB9s8pmGB5Ofr",
    "infected": 6,
    "sick": 6
  },
  {
    "latitude": 18.200178,
    "longitude": -66.664513,
    "name": "Puerto Rico",
    "country": "PR",
    "dead": 2,
    "lastUpdated": "2020-03-23T15:43:03.710Z",
    "id": "F4rPrEVGAIMM5rfPEMv4",
    "infected": 31,
    "recovered": 1,
    "sick": 28
  },
  {
    "recovered": 1,
    "latitude": 33.93911,
    "longitude": 67.709953,
    "name": "Afghanistan",
    "country": "AF",
    "dead": 1,
    "lastUpdated": "2020-03-23T15:43:03.954Z",
    "id": "FCDmlmnIIswd8bQiUjfN",
    "infected": 40,
    "sick": 38
  },
  {
    "id": "FErOU1m4Tj7jIkRam3vF",
    "infected": 577,
    "recovered": 570,
    "latitude": 29.431585,
    "longitude": 106.912254,
    "name": "Chongqing",
    "country": "CN",
    "dead": 6,
    "lastUpdated": "2020-03-23T08:43:17.834Z",
    "sick": 1
  },
  {
    "longitude": 47.481766,
    "name": "Kuwait",
    "country": "KW",
    "dead": 0,
    "lastUpdated": "2020-03-23T15:43:03.857Z",
    "id": "FZsUkhxBEgqsPb4eO0PN",
    "infected": 189,
    "recovered": 30,
    "latitude": 29.311661,
    "sick": 159
  },
  {
    "latitude": 11.1271,
    "pop": 67860000,
    "longitude": 78.6569,
    "name": "Tamil Nadu",
    "country": "IN",
    "lastUpdated": "2020-03-23T15:56:02.416Z",
    "dead": 0,
    "id": "FeS45oMNC27pI17F0xEV",
    "infected": 9,
    "recovered": 1,
    "sick": 8
  },
  {
    "id": "FuiVEJvWb0QMCpxJ3563",
    "infected": 245,
    "recovered": 0,
    "latitude": 18.947829,
    "longitude": -70.430399,
    "name": "Dominican Republic",
    "country": "DO",
    "dead": 3,
    "lastUpdated": "2020-03-23T15:43:03.863Z",
    "sick": 242
  },
  {
    "recovered": 1,
    "latitude": 18.1124,
    "pop": 35190000,
    "longitude": 79.0193,
    "name": "Telangana",
    "country": "IN",
    "lastUpdated": "2020-03-23T14:30:01.147Z",
    "dead": 0,
    "id": "FyC551oNwmENxbr9Yght",
    "infected": 32,
    "sick": 31
  },
  {
    "dead": 0,
    "lastUpdated": "2020-03-23T15:43:03.817Z",
    "id": "FzIDXoqWnTI3nUfhPyT2",
    "infected": 186,
    "recovered": 7,
    "latitude": 48.669,
    "longitude": 19.699,
    "name": "Slovakia",
    "country": "SK",
    "sick": 179
  },
  {
    "id": "GAp7Wb6IMhdgbvEtMza9",
    "infected": 873,
    "recovered": 13,
    "latitude": 30.37532,
    "longitude": 69.345116,
    "name": "Pakistan",
    "country": "PK",
    "dead": 6,
    "lastUpdated": "2020-03-23T15:43:03.803Z",
    "sick": 854
  },
  {
    "infected": 21,
    "recovered": 0,
    "latitude": 31.1471,
    "longitude": 75.3412,
    "name": "Punjab",
    "country": "IN",
    "dead": 1,
    "lastUpdated": "2020-03-23T15:56:02.419Z",
    "id": "GGru8cG08mANO8XDDUtZ",
    "sick": 20
  },
  {
    "id": "GHzBIsHy2GiBc5JV2HMs",
    "infected": 198,
    "recovered": 41,
    "latitude": 23.424076,
    "pop": 9400000,
    "longitude": 53.847816,
    "name": "United Arab Emirates",
    "country": "AE",
    "lastUpdated": "2020-03-23T15:43:03.669Z",
    "dead": 2,
    "sick": 155
  },
  {
    "latitude": 36.621981,
    "longitude": -119.339046,
    "name": "California",
    "country": "US",
    "dead": 35,
    "lastUpdated": "2020-03-23T15:42:01.540Z",
    "id": "Gh46r6vuaY7fbGt3IboN",
    "infected": 1816,
    "recovered": 0,
    "sick": 1781
  },
  {
    "infected": 68,
    "recovered": 0,
    "latitude": 35.87189,
    "longitude": -97.145514,
    "name": "Oklahoma",
    "country": "US",
    "dead": 2,
    "lastUpdated": "2020-03-23T15:42:01.757Z",
    "id": "GpF8ULuKOQiFDCUHN44h",
    "sick": 66
  },
  {
    "longitude": 113.750972,
    "name": "Inner Mongolia",
    "country": "CN",
    "dead": 1,
    "lastUpdated": "2020-03-23T08:46:27.170Z",
    "id": "H3JeVigVbo5CSYfZG4WI",
    "infected": 75,
    "recovered": 74,
    "latitude": 42.83263,
    "sick": 0
  },
  {
    "infected": 191,
    "recovered": 0,
    "latitude": 39.74536,
    "longitude": -116.724977,
    "name": "Nevada",
    "country": "US",
    "dead": 2,
    "lastUpdated": "2020-03-23T15:42:01.645Z",
    "id": "H3bDg4eV30up4WWrIDAS",
    "sick": 189
  },
  {
    "infected": 33,
    "recovered": 2,
    "latitude": 15.3173,
    "longitude": 75.7139,
    "name": "Karnataka",
    "country": "IN",
    "dead": 1,
    "lastUpdated": "2020-03-23T15:56:02.357Z",
    "id": "HN5mGmxlqlSeFSNeu1K5",
    "sick": 30
  },
  {
    "latitude": 27.5142,
    "longitude": 90.4336,
    "name": "Bhutan",
    "country": "BT",
    "dead": 0,
    "lastUpdated": "2020-03-23T15:43:04.130Z",
    "id": "HRDpwyxpqW9RN0xLFyNu",
    "infected": 2,
    "recovered": 0,
    "sick": 2
  },
  {
    "infected": 46,
    "recovered": 0,
    "latitude": 41.3775,
    "pop": 32390000,
    "longitude": 64.5853,
    "name": "Uzbekistan",
    "country": "UZ",
    "lastUpdated": "2020-03-23T15:43:03.968Z",
    "dead": 0,
    "id": "HRTA10dtrruDEwjJEGMp",
    "sick": 46
  },
  {
    "longitude": -105.576255,
    "name": "New Mexico",
    "country": "US",
    "dead": 0,
    "lastUpdated": "2020-03-23T15:42:01.750Z",
    "id": "HSSFomRju0doHhWgW8On",
    "infected": 65,
    "recovered": 0,
    "latitude": 34.138916,
    "sick": 65
  },
  {
    "recovered": 4,
    "latitude": 53.6127,
    "longitude": 12.4296,
    "name": "Mecklenburg-Vorpommern",
    "country": "DE",
    "dead": 0,
    "lastUpdated": "2020-03-23T15:42:03.235Z",
    "id": "He1gSS1v50t06i3YrqvB",
    "infected": 187,
    "sick": 183
  },
  {
    "recovered": 4,
    "latitude": 23.634501,
    "longitude": -102.552788,
    "name": "Mexico",
    "country": "MX",
    "dead": 2,
    "lastUpdated": "2020-03-23T15:43:03.721Z",
    "id": "I4OJ6z9Vjs1byOcbsJrd",
    "infected": 316,
    "sick": 310
  },
  {
    "longitude": 113.373448,
    "name": "Guangdong",
    "country": "CN",
    "dead": 8,
    "lastUpdated": "2020-03-23T08:44:07.686Z",
    "id": "IAX0OQLVnUwU7FX0ENF1",
    "infected": 1413,
    "recovered": 1332,
    "latitude": 23.363855,
    "sick": 73
  },
  {
    "latitude": 33.875408,
    "pop": 94000000,
    "longitude": 113.484016,
    "name": "Henan",
    "country": "CN",
    "lastUpdated": "2020-03-23T08:43:26.457Z",
    "dead": 22,
    "id": "IFuMrMvSjoiX5agYvllh",
    "infected": 1274,
    "recovered": 1250,
    "sick": 2
  },
  {
    "infected": 5,
    "recovered": 0,
    "latitude": 19.0558,
    "longitude": -73.0513,
    "name": "Haiti",
    "country": "HT",
    "dead": 0,
    "lastUpdated": "2020-03-23T15:43:04.108Z",
    "id": "InZ38sIqyK7FN7XAOZoX",
    "sick": 5
  },
  {
    "infected": 621,
    "recovered": 0,
    "latitude": 32.528564,
    "longitude": -83.280125,
    "name": "Georgia (US)",
    "country": "US",
    "dead": 25,
    "lastUpdated": "2020-03-23T15:42:01.628Z",
    "id": "IvQkDJkTAsoIqPRAU25n",
    "sick": 596
  },
  {
    "id": "IvVhpOoGpH6JVkGyUhXN",
    "infected": 102,
    "recovered": 0,
    "latitude": -42.8285,
    "longitude": 172.488081,
    "name": "New Zealand",
    "country": "NZ",
    "dead": 0,
    "lastUpdated": "2020-03-23T15:43:03.749Z",
    "sick": 102
  },
  {
    "latitude": 6.4238,
    "pop": 31980000,
    "longitude": -66.5897,
    "name": "Venezuela",
    "country": "VE",
    "lastUpdated": "2020-03-23T15:43:03.744Z",
    "dead": 0,
    "id": "J3mZXlfEnnJx4CDZLvRG",
    "infected": 77,
    "recovered": 15,
    "sick": 62
  },
  {
    "latitude": 35.1264,
    "longitude": 33.4299,
    "name": "Cyprus",
    "country": "CY",
    "dead": 1,
    "lastUpdated": "2020-03-23T15:43:03.820Z",
    "id": "JQByE4l2OA6sGOqIcWrM",
    "infected": 95,
    "recovered": 3,
    "sick": 91
  },
  {
    "latitude": 25.0961,
    "longitude": 85.3131,
    "name": "Bihar",
    "country": "IN",
    "dead": 1,
    "lastUpdated": "2020-03-23T15:56:02.402Z",
    "id": "JR7hOGked7CZtIs2nCV5",
    "infected": 2,
    "recovered": 0,
    "sick": 1
  },
  {
    "recovered": 0,
    "latitude": 14.628434,
    "longitude": -90.522713,
    "name": "Guatemala",
    "country": "GT",
    "dead": 1,
    "lastUpdated": "2020-03-23T15:43:04.012Z",
    "id": "JUWE6bG3b5oL7fKQMSvv",
    "infected": 19,
    "sick": 18
  },
  {
    "longitude": 6.1296,
    "name": "Luxembourg",
    "country": "LU",
    "dead": 8,
    "lastUpdated": "2020-03-23T15:43:03.656Z",
    "id": "JcFsHSn2WvZ5LJW42ovG",
    "infected": 798,
    "recovered": 6,
    "latitude": 49.8153,
    "sick": 784
  },
  {
    "longitude": 0.8248,
    "name": "Togo",
    "country": "TG",
    "lastUpdated": "2020-03-23T15:43:04.071Z",
    "dead": 0,
    "id": "JrBbirlBKGdWSdcDt7PF",
    "infected": 18,
    "recovered": 0,
    "latitude": 8.6195,
    "pop": 7798000,
    "sick": 18
  },
  {
    "infected": 201,
    "recovered": 3,
    "latitude": 42.7339,
    "longitude": 25.4858,
    "name": "Bulgaria",
    "country": "BG",
    "dead": 3,
    "lastUpdated": "2020-03-23T15:43:03.654Z",
    "id": "JzZ8sbqzjutThVjkPKPL",
    "sick": 195
  },
  {
    "infected": 92,
    "recovered": 3,
    "latitude": 7.873054,
    "pop": 21440000,
    "longitude": 80.771797,
    "name": "Sri Lanka",
    "country": "LK",
    "lastUpdated": "2020-03-23T15:43:03.728Z",
    "dead": 0,
    "id": "KsWzJO06cf0d6LJ4ZNh9",
    "sick": 89
  },
  {
    "id": "KtQIo2DoqjELtPAlyDVO",
    "infected": 7,
    "recovered": 0,
    "latitude": 15.9129,
    "longitude": 79.74,
    "name": "Andhra Pradesh",
    "country": "IN",
    "dead": 0,
    "lastUpdated": "2020-03-23T15:56:02.425Z",
    "sick": 7
  },
  {
    "infected": 438,
    "recovered": 17,
    "latitude": 61.52401,
    "longitude": 105.318756,
    "name": "Russia",
    "country": "RU",
    "dead": 1,
    "lastUpdated": "2020-03-23T15:43:03.791Z",
    "id": "KwOuGBKSMRlmwftxAvLX",
    "sick": 420
  },
  {
    "latitude": 18.0708,
    "longitude": -63.0501,
    "name": "Saint-Martin",
    "country": "FR",
    "dead": 0,
    "lastUpdated": "2020-03-23T15:49:06.737Z",
    "id": "LBUtrLDKJiupXjlUNTUe",
    "infected": 6,
    "recovered": 0,
    "sick": 6
  },
  {
    "infected": 46,
    "recovered": 0,
    "latitude": 47.166,
    "longitude": 9.5554,
    "name": "Liechtenstein",
    "country": "LI",
    "dead": 0,
    "lastUpdated": "2020-03-23T15:43:04.017Z",
    "id": "LTGEU2E9MFkrCcFhZYVk",
    "sick": 46
  },
  {
    "id": "LU2QWt5ao8IJa8evNYVV",
    "infected": 4,
    "recovered": 0,
    "latitude": 9.9456,
    "longitude": -9.6966,
    "name": "Guinea",
    "country": "GN",
    "dead": 0,
    "lastUpdated": "2020-03-23T15:43:04.077Z",
    "sick": 4
  },
  {
    "id": "LglKINHyQpYpFxjckbQ6",
    "infected": 5,
    "recovered": 0,
    "latitude": 3.9193051,
    "pop": 563402,
    "longitude": -56.0277824,
    "name": "Suriname",
    "country": "SR",
    "lastUpdated": "2020-03-23T15:43:04.123Z",
    "dead": 0,
    "sick": 5
  },
  {
    "infected": 52,
    "recovered": 0,
    "latitude": 52.9399,
    "longitude": -106.4509,
    "name": "Saskatchewan",
    "country": "CA",
    "dead": 0,
    "lastUpdated": "2020-03-23T15:42:01.653Z",
    "id": "LkIDKY0CMAqzbwBHyYCP",
    "sick": 52
  },
  {
    "longitude": -84.27,
    "name": "Kentucky",
    "country": "US",
    "dead": 3,
    "lastUpdated": "2020-03-23T15:42:01.652Z",
    "id": "MC8MXFw9iXYybnF8v7e6",
    "infected": 104,
    "recovered": 0,
    "latitude": 37.8393,
    "sick": 101
  },
  {
    "infected": 260,
    "recovered": 0,
    "latitude": 40.2672,
    "longitude": -86.1349,
    "name": "Indiana",
    "country": "US",
    "dead": 7,
    "lastUpdated": "2020-03-23T15:42:01.705Z",
    "id": "MOxDkmQ4wBi1CuAdVxDE",
    "sick": 253
  },
  {
    "dead": 0,
    "lastUpdated": "2020-03-23T15:43:03.874Z",
    "id": "MdQOfc1gNh2DOqwSP6UV",
    "infected": 25,
    "recovered": 2,
    "latitude": 7.54,
    "longitude": -5.5471,
    "name": "Ivory Coast",
    "country": "CI",
    "sick": 23
  },
  {
    "id": "MjpYq3zQyAvSQlVVYjD2",
    "infected": 8224,
    "recovered": 187,
    "latitude": 51.4332,
    "longitude": 7.6616,
    "name": "Nordrhein-Westfalen",
    "country": "DE",
    "dead": 41,
    "lastUpdated": "2020-03-23T15:42:03.325Z",
    "sick": 7996
  },
  {
    "longitude": 105.977203,
    "name": "Ningxia",
    "country": "CN",
    "dead": 0,
    "lastUpdated": "2020-03-23T08:46:39.178Z",
    "id": "MntmjjuHljarCdt6aIeE",
    "infected": 75,
    "recovered": 75,
    "latitude": 37.330509,
    "sick": 0
  },
  {
    "latitude": 48.6616,
    "longitude": 9.3501,
    "name": "Baden-Württemberg",
    "country": "DE",
    "dead": 27,
    "lastUpdated": "2020-03-23T11:57:02.979Z",
    "id": "N3XsRBwJSsNclkEf7Zz5",
    "infected": 4300,
    "recovered": 29,
    "sick": 4244
  },
  {
    "dead": 1,
    "lastUpdated": "2020-03-23T15:43:03.784Z",
    "id": "N7c13sCQF0G789XAVazJ",
    "infected": 130,
    "recovered": 2,
    "latitude": 44.696652,
    "longitude": 17.824332,
    "name": "Bosnia and Herzegovina",
    "country": "BA",
    "sick": 127
  },
  {
    "dead": 0,
    "lastUpdated": "2020-03-23T08:46:20.289Z",
    "id": "NBRIGIRrJB1Ry8prDNAC",
    "infected": 133,
    "recovered": 133,
    "latitude": 37.242565,
    "longitude": 111.856857,
    "name": "Shanxi",
    "country": "CN",
    "sick": 0
  },
  {
    "id": "NC64Qp5kTqAfiTuR27k8",
    "infected": 311,
    "recovered": 0,
    "latitude": 35.7596,
    "longitude": -79.0193,
    "name": "North Carolina",
    "country": "US",
    "dead": 0,
    "lastUpdated": "2020-03-23T15:42:01.736Z",
    "sick": 311
  },
  {
    "latitude": 52.4125,
    "longitude": 12.5316,
    "name": "Brandenburg",
    "country": "DE",
    "dead": 1,
    "lastUpdated": "2020-03-23T15:42:03.441Z",
    "id": "NJjo2gfBvnbK4xatrsUz",
    "infected": 385,
    "recovered": 1,
    "sick": 383
  },
  {
    "latitude": 30.0668,
    "pop": 10080000,
    "longitude": 79.0193,
    "name": "Uttarakhand",
    "country": "IN",
    "lastUpdated": "2020-03-23T15:56:02.395Z",
    "dead": 0,
    "id": "NMeZEcGToxXfpi16PfFV",
    "infected": 3,
    "recovered": 0,
    "sick": 3
  },
  {
    "infected": 1352,
    "recovered": 6,
    "latitude": 50.6521,
    "pop": 0,
    "longitude": 9.1624,
    "name": "Hessen",
    "country": "DE",
    "lastUpdated": "2020-03-23T15:42:03.242Z",
    "dead": 3,
    "id": "Nk5vPgUIXsWVfbWZf15O",
    "sick": 1343
  },
  {
    "recovered": 1,
    "latitude": 56.96776,
    "longitude": 25.837107,
    "name": "Latvia",
    "country": "LV",
    "dead": 0,
    "lastUpdated": "2020-03-23T15:43:03.838Z",
    "id": "NmmMKy0YqA8StHdGzB5N",
    "infected": 180,
    "sick": 179
  },
  {
    "dead": 0,
    "lastUpdated": "2020-03-23T15:43:04.043Z",
    "id": "O4g88K49HKEZLFXm5gxb",
    "infected": 3,
    "recovered": 0,
    "latitude": 6.4281,
    "longitude": -9.4295,
    "name": "Liberia",
    "country": "LR",
    "sick": 3
  },
  {
    "latitude": 34.003307,
    "longitude": -80.525613,
    "name": "South Carolina",
    "country": "US",
    "dead": 3,
    "lastUpdated": "2020-03-23T15:42:01.714Z",
    "id": "ONU4CK8QjViFHKg2w5if",
    "infected": 196,
    "recovered": 0,
    "sick": 193
  },
  {
    "infected": 207,
    "recovered": 0,
    "latitude": 33.51822,
    "longitude": -89.582775,
    "name": "Mississippi",
    "country": "US",
    "dead": 1,
    "lastUpdated": "2020-03-23T15:42:01.574Z",
    "id": "OYa0jFzdbAgo8zUsRv6q",
    "sick": 206
  },
  {
    "recovered": 0,
    "latitude": 45.2538,
    "longitude": -69.4455,
    "name": "Maine",
    "country": "US",
    "dead": 0,
    "lastUpdated": "2020-03-23T15:42:01.583Z",
    "id": "OcXNp9kNVSwrRlG3bNVN",
    "infected": 89,
    "sick": 89
  },
  {
    "id": "OnOseaqWdnuP18oruABW",
    "infected": 21,
    "recovered": 0,
    "latitude": -41.915264,
    "pop": 515000,
    "longitude": 146.725256,
    "name": "Tasmania",
    "country": "AU",
    "lastUpdated": "2020-03-23T15:55:03.239Z",
    "dead": 0,
    "sick": 21
  },
  {
    "latitude": 19.3133,
    "longitude": -81.2546,
    "name": "Cayman Islands",
    "country": "KY",
    "dead": 1,
    "lastUpdated": "2020-03-23T15:43:03.964Z",
    "id": "P4mwRFLbrvT0t75uD8Wo",
    "infected": 3,
    "recovered": 0,
    "sick": 2
  },
  {
    "infected": 1,
    "recovered": 0,
    "latitude": 16.7424984,
    "longitude": -62.1873665,
    "name": "Montserrat",
    "country": "MS",
    "dead": 0,
    "lastUpdated": "2020-03-23T15:43:03.996Z",
    "id": "PEDkeFMTOZpvHiSVxBk7",
    "sick": 1
  },
  {
    "dead": 0,
    "lastUpdated": "2020-03-23T15:43:03.969Z",
    "id": "PEcgZGEkyhABztt1Ufgc",
    "infected": 19,
    "recovered": 0,
    "latitude": -1.9403,
    "longitude": 29.8739,
    "name": "Rwanda",
    "country": "RW",
    "sick": 19
  },
  {
    "longitude": -94.6859,
    "name": "Minnesota",
    "country": "US",
    "dead": 1,
    "lastUpdated": "2020-03-23T15:42:01.729Z",
    "id": "PJvVYosLIhbcRZYnKX1R",
    "infected": 169,
    "recovered": 0,
    "latitude": 46.7296,
    "sick": 168
  },
  {
    "latitude": 40.6331,
    "longitude": -89.3985,
    "name": "Illinois",
    "country": "US",
    "dead": 9,
    "lastUpdated": "2020-03-23T15:42:01.625Z",
    "id": "PTwQr9ijo0TBBsPH2sdJ",
    "infected": 1050,
    "recovered": 0,
    "sick": 1041
  },
  {
    "infected": 2,
    "recovered": 0,
    "latitude": 13.909444,
    "longitude": -60.978893,
    "name": "Saint Lucia",
    "country": "LC",
    "dead": 0,
    "lastUpdated": "2020-03-23T15:43:04.015Z",
    "id": "PjLqCeFdyzdZNcZxMkK1",
    "sick": 2
  },
  {
    "recovered": 1,
    "latitude": 34.201507,
    "pop": 11530000,
    "longitude": 9.460554,
    "name": "Tunisia",
    "country": "TN",
    "lastUpdated": "2020-03-23T15:43:03.635Z",
    "dead": 3,
    "id": "Pr76V4raf108uSRoEXac",
    "infected": 89,
    "sick": 85
  },
  {
    "recovered": 0,
    "latitude": -26.5225,
    "longitude": 31.4659,
    "name": "Eswatini",
    "country": "SZ",
    "dead": 0,
    "lastUpdated": "2020-03-23T15:43:04.121Z",
    "id": "PuQgOd9KWiMzGZXm11sR",
    "infected": 4,
    "sick": 4
  },
  {
    "latitude": -37.009609,
    "pop": 6359000,
    "longitude": 143.94853,
    "name": "Victoria",
    "country": "AU",
    "lastUpdated": "2020-03-23T15:55:03.339Z",
    "dead": 0,
    "id": "Q18mrGvFWTLX2BU9SqhQ",
    "infected": 355,
    "recovered": 97,
    "sick": 258
  },
  {
    "latitude": 54.2194,
    "longitude": 9.6961,
    "name": "Schleswig-Holstein",
    "country": "DE",
    "dead": 1,
    "lastUpdated": "2020-03-23T15:42:03.420Z",
    "id": "Q39XkabIYxt15mHINzTa",
    "infected": 467,
    "recovered": 1,
    "sick": 465
  },
  {
    "infected": 352,
    "recovered": 4,
    "latitude": 58.595272,
    "longitude": 25.013607,
    "name": "Estonia",
    "country": "EE",
    "dead": 0,
    "lastUpdated": "2020-03-23T15:43:03.639Z",
    "id": "QR9go2hQKXjty7JHUYe4",
    "sick": 348
  },
  {
    "id": "QlZrE4nosm5WfdA2aCDg",
    "infected": 1,
    "recovered": 0,
    "latitude": -6.315,
    "longitude": 143.9555,
    "name": "Papua New Guinea",
    "country": "PG",
    "dead": 0,
    "lastUpdated": "2020-03-23T15:43:04.106Z",
    "sick": 1
  },
  {
    "infected": 17,
    "recovered": 0,
    "latitude": 18.3358,
    "pop": 107268,
    "longitude": -64.8963,
    "name": "U.S. Virgin Islands",
    "country": "VI",
    "lastUpdated": "2020-03-23T15:43:04.055Z",
    "dead": 0,
    "id": "QqhD3YDMKXojvQY3Yu41",
    "sick": 17
  },
  {
    "recovered": 1,
    "latitude": 8.538,
    "longitude": -80.7821,
    "name": "Panama",
    "country": "PA",
    "dead": 3,
    "lastUpdated": "2020-03-23T15:43:03.602Z",
    "id": "R8YCgephnxTufvcPWMgx",
    "infected": 313,
    "sick": 309
  },
  {
    "recovered": 0,
    "latitude": 15.2,
    "pop": 9265000,
    "longitude": -86.2419,
    "name": "Honduras",
    "country": "HN",
    "lastUpdated": "2020-03-23T15:43:03.933Z",
    "dead": 0,
    "id": "RA2SE0p2bVhqo0P2hzGY",
    "infected": 27,
    "sick": 27
  },
  {
    "latitude": 41.878,
    "longitude": -93.0977,
    "name": "Iowa",
    "country": "US",
    "dead": 0,
    "lastUpdated": "2020-03-23T15:42:01.567Z",
    "id": "RX0KDu1AFrlCsrRso0nb",
    "infected": 90,
    "recovered": 0,
    "sick": 90
  },
  {
    "latitude": 39.0119,
    "longitude": -98.4842,
    "name": "Kansas",
    "country": "US",
    "dead": 2,
    "lastUpdated": "2020-03-23T15:42:01.582Z",
    "id": "Rf4uvBfP3GRDSHdZElRd",
    "infected": 67,
    "recovered": 0,
    "sick": 65
  },
  {
    "recovered": 0,
    "latitude": 48.6998,
    "longitude": 6.1878,
    "name": "Grand Est",
    "country": "FR",
    "dead": 61,
    "lastUpdated": "2020-03-23T15:49:06.645Z",
    "id": "RmEgf1xeclWt7XCF9oiR",
    "infected": 3395,
    "sick": 3334
  },
  {
    "infected": 425,
    "recovered": 6,
    "latitude": 51.2538,
    "longitude": -85.3232,
    "name": "Ontario",
    "country": "CA",
    "dead": 5,
    "lastUpdated": "2020-03-23T14:01:01.865Z",
    "id": "Rx4TuyMpfGb3S8wYJX0x",
    "sick": 414
  },
  {
    "infected": 44,
    "recovered": 0,
    "latitude": 14.652027,
    "longitude": -61.011715,
    "name": "Martinique",
    "country": "FR",
    "dead": 1,
    "lastUpdated": "2020-03-23T15:49:06.652Z",
    "id": "SDdefnq1bc3ZNr7SpEsW",
    "sick": 43
  },
  {
    "dead": 1,
    "lastUpdated": "2020-03-23T15:43:04.051Z",
    "id": "SG9VWLOV3x2JsTkXmVSz",
    "infected": 24,
    "recovered": 0,
    "latitude": 7.9465,
    "longitude": -1.0232,
    "name": "Ghana",
    "country": "GH",
    "sick": 23
  },
  {
    "id": "SGe9sCPayMqh6RsGFaBA",
    "infected": 8547,
    "recovered": 131,
    "latitude": 46.818188,
    "pop": 8570000,
    "longitude": 8.227512,
    "name": "Switzerland",
    "country": "CH",
    "lastUpdated": "2020-03-23T15:43:03.641Z",
    "dead": 118,
    "sick": 8298
  },
  {
    "latitude": 46.8139,
    "longitude": -71.208,
    "name": "Quebec",
    "country": "CA",
    "dead": 5,
    "lastUpdated": "2020-03-23T14:01:01.785Z",
    "id": "SHoOE3NiJgWAlDVBzwYH",
    "infected": 219,
    "recovered": 0,
    "sick": 214
  },
  {
    "recovered": 0,
    "latitude": 42.6026,
    "longitude": 20.903,
    "name": "Kosovo",
    "country": "XK",
    "dead": 1,
    "lastUpdated": "2020-03-23T15:44:07.856Z",
    "id": "SMWvuMMuKp2QK7O2tNia",
    "infected": 33,
    "sick": 32
  },
  {
    "latitude": 41.4925,
    "longitude": -99.9018,
    "name": "Nebraska",
    "country": "US",
    "dead": 0,
    "lastUpdated": "2020-03-23T15:42:01.731Z",
    "id": "SakhKQzKu1LRI8laqdQq",
    "infected": 51,
    "recovered": 0,
    "sick": 51
  },
  {
    "infected": 64,
    "recovered": 0,
    "latitude": -21.1151,
    "longitude": 55.5364,
    "name": "La Réunion",
    "country": "FR",
    "dead": 0,
    "lastUpdated": "2020-03-23T15:49:06.638Z",
    "id": "SgHzWAAYK1j2sipovxM6",
    "sick": 64
  },
  {
    "infected": 86,
    "recovered": 2,
    "latitude": 12.565679,
    "longitude": 104.990967,
    "name": "Cambodia",
    "country": "KH",
    "dead": 0,
    "lastUpdated": "2020-03-23T15:43:03.842Z",
    "id": "SioMALgUbo7peXmbco2f",
    "sick": 84
  },
  {
    "latitude": 13.4443,
    "longitude": 144.7937,
    "name": "Guam",
    "country": "GU",
    "dead": 1,
    "lastUpdated": "2020-03-23T15:43:03.941Z",
    "id": "SsWhuEElU7dCTTuH5fdQ",
    "infected": 29,
    "recovered": 0,
    "sick": 28
  },
  {
    "latitude": -4.0383,
    "longitude": 21.7587,
    "name": "DR Congo",
    "country": "CD",
    "dead": 1,
    "lastUpdated": "2020-03-23T15:43:03.971Z",
    "id": "T3iRf8mTUTAzbKrORTap",
    "infected": 36,
    "recovered": 0,
    "sick": 35
  },
  {
    "longitude": 44.344334,
    "name": "Saudi Arabia",
    "country": "SA",
    "dead": 0,
    "lastUpdated": "2020-03-23T15:43:03.755Z",
    "id": "T7NffoeCgTUpAbOHvYwP",
    "infected": 562,
    "recovered": 19,
    "latitude": 23.635796,
    "sick": 543
  },
  {
    "recovered": 2,
    "latitude": 4.506106,
    "longitude": 114.650692,
    "name": "Brunei",
    "country": "BN",
    "dead": 0,
    "lastUpdated": "2020-03-23T15:43:03.666Z",
    "id": "TQZmzsLhJqjtCSExAkCP",
    "infected": 91,
    "sick": 89
  },
  {
    "recovered": 0,
    "latitude": 45.4471,
    "longitude": 4.3853,
    "name": "Auvergne-Rhône-Alpes",
    "country": "FR",
    "dead": 7,
    "lastUpdated": "2020-03-23T15:49:06.442Z",
    "id": "TT0MKODSjrxHvG19xZCa",
    "infected": 1431,
    "sick": 1424
  },
  {
    "recovered": 0,
    "latitude": 39.318928,
    "longitude": -105.461392,
    "name": "Colorado",
    "country": "US",
    "dead": 7,
    "lastUpdated": "2020-03-23T15:42:01.720Z",
    "id": "Th4dlpXXmSDgi1OHs36P",
    "infected": 595,
    "sick": 588
  },
  {
    "dead": 4,
    "lastUpdated": "2020-03-23T15:43:03.745Z",
    "id": "Tup6oDCHj6DgqZR3nQ3x",
    "infected": 99,
    "recovered": 5,
    "latitude": 12.2383,
    "longitude": -1.5616,
    "name": "Burkina Faso",
    "country": "BF",
    "sick": 90
  },
  {
    "infected": 1540,
    "recovered": 1,
    "latitude": 55.675758,
    "longitude": 12.56902,
    "name": "Denmark",
    "country": "DK",
    "dead": 24,
    "lastUpdated": "2020-03-23T14:43:04.072Z",
    "id": "Ty1AY3VLPJcRZgdBIERx",
    "sick": 1515
  },
  {
    "recovered": 751,
    "latitude": 36.395859,
    "longitude": 118.769882,
    "name": "Shandong",
    "country": "CN",
    "dead": 7,
    "lastUpdated": "2020-03-23T08:46:01.512Z",
    "id": "U0tkTJ9CGsBuFJ2Gdoum",
    "infected": 767,
    "sick": 9
  },
  {
    "infected": 187,
    "recovered": 4,
    "latitude": 43.94236,
    "longitude": 12.457777,
    "name": "San Marino",
    "country": "SM",
    "dead": 20,
    "lastUpdated": "2020-03-23T15:43:03.634Z",
    "id": "U12rMD5GDW58Q0lIwrB1",
    "sick": 163
  },
  {
    "latitude": 36.204823,
    "longitude": 138.25293,
    "name": "Japan",
    "country": "JP",
    "dead": 41,
    "lastUpdated": "2020-03-23T15:43:03.806Z",
    "id": "U13Gy4BpRLAZ95bPmBXd",
    "infected": 1101,
    "recovered": 235,
    "sick": 825
  },
  {
    "latitude": 1.3733,
    "pop": 42860000,
    "longitude": 32.2903,
    "name": "Uganda",
    "country": "UG",
    "lastUpdated": "2020-03-23T15:43:03.978Z",
    "dead": 0,
    "id": "UCZXEgnHtxUoChWLR6fQ",
    "infected": 1,
    "recovered": 0,
    "sick": 1
  },
  {
    "latitude": -11.2027,
    "longitude": 17.8739,
    "name": "Angola",
    "country": "AO",
    "dead": 0,
    "lastUpdated": "2020-03-23T15:43:04.114Z",
    "id": "UIbrFy6kiTTF0D37Kqmp",
    "infected": 2,
    "recovered": 0,
    "sick": 2
  },
  {
    "infected": 397,
    "recovered": 0,
    "latitude": 48.202,
    "longitude": -2.9326,
    "name": "Bretagne",
    "country": "FR",
    "dead": 3,
    "lastUpdated": "2020-03-23T15:49:06.641Z",
    "id": "URKMlJ7OTNldjpaxFbjE",
    "sick": 394
  },
  {
    "infected": 989,
    "recovered": 1,
    "latitude": 53.5511,
    "longitude": 9.9937,
    "name": "Hamburg",
    "country": "DE",
    "dead": 1,
    "lastUpdated": "2020-03-23T15:42:03.434Z",
    "id": "UfFaUECHINUutv1M9tzq",
    "sick": 987
  },
  {
    "infected": 4,
    "recovered": 0,
    "latitude": -19.4914,
    "longitude": 132.551,
    "name": "Northern Territory",
    "country": "AU",
    "dead": 0,
    "lastUpdated": "2020-03-23T15:55:03.322Z",
    "id": "UrF45V1VqMo6YBib2KlL",
    "sick": 4
  },
  {
    "id": "UsxgpiuFCtlR2CW1UUFm",
    "infected": 1,
    "recovered": 0,
    "latitude": 18.0424805,
    "longitude": -63.0548286,
    "name": "Sint Maarten",
    "country": "SX",
    "dead": 0,
    "lastUpdated": "2020-03-23T15:43:04.008Z",
    "sick": 1
  },
  {
    "infected": 1,
    "recovered": 0,
    "latitude": 11.943179,
    "longitude": 79.808206,
    "name": "Puducherry",
    "country": "IN",
    "dead": 0,
    "lastUpdated": "2020-03-23T15:56:02.372Z",
    "id": "V1qE740s3EUGyKGr6SVv",
    "sick": 1
  },
  {
    "recovered": 3,
    "latitude": 3.527606,
    "longitude": -72.998674,
    "name": "Colombia",
    "country": "CO",
    "dead": 3,
    "lastUpdated": "2020-03-23T15:43:03.649Z",
    "id": "VAAmtxtDuCY0o55zRsOh",
    "infected": 235,
    "sick": 229
  },
  {
    "infected": 35,
    "recovered": 0,
    "latitude": 21.5218,
    "longitude": -77.7812,
    "name": "Cuba",
    "country": "CU",
    "dead": 1,
    "lastUpdated": "2020-03-23T15:43:04.057Z",
    "id": "VAG9AcMABTf8oIAfELPh",
    "sick": 34
  },
  {
    "recovered": 172,
    "latitude": 25.181129,
    "pop": 45970000,
    "longitude": 101.864143,
    "name": "Yunnan",
    "country": "CN",
    "lastUpdated": "2020-03-23T08:44:49.495Z",
    "dead": 2,
    "id": "VIf8T8PD3ZzlzAm5eBCX",
    "infected": 176,
    "sick": 2
  },
  {
    "infected": 31,
    "recovered": 9,
    "latitude": 26.8467,
    "pop": 204200000,
    "longitude": 80.9462,
    "name": "Uttar Pradesh",
    "country": "IN",
    "lastUpdated": "2020-03-23T15:56:02.378Z",
    "dead": 0,
    "id": "VcKcLdCkC6YpPfIDnRVD",
    "sick": 22
  },
  {
    "id": "WAnbFrEjtZDTCIYBt8rz",
    "infected": 671,
    "recovered": 0,
    "latitude": 43.8927,
    "longitude": 3.2828,
    "name": "Occitanie",
    "country": "FR",
    "dead": 10,
    "lastUpdated": "2020-03-23T15:49:06.440Z",
    "sick": 661
  },
  {
    "latitude": -30.5595,
    "longitude": 22.9375,
    "name": "South Africa",
    "country": "ZA",
    "dead": 0,
    "lastUpdated": "2020-03-23T15:43:03.814Z",
    "id": "Whrue10NtwIObLvFFyBr",
    "infected": 402,
    "recovered": 4,
    "sick": 398
  },
  {
    "dead": 1,
    "lastUpdated": "2020-03-23T15:43:04.025Z",
    "id": "Wk811YwpQxsOCfz8As86",
    "infected": 2,
    "recovered": 0,
    "latitude": 13.443182,
    "longitude": -15.3101387,
    "name": "Gambia",
    "country": "GM",
    "sick": 1
  },
  {
    "infected": 33,
    "recovered": 5,
    "latitude": 23.685,
    "longitude": 90.3563,
    "name": "Bangladesh",
    "country": "BD",
    "dead": 3,
    "lastUpdated": "2020-03-23T15:43:03.677Z",
    "id": "WpLayPPLIJ7VcHZdQaoM",
    "sick": 25
  },
  {
    "infected": 13,
    "recovered": 0,
    "latitude": 34.152588,
    "longitude": 77.577049,
    "name": "Ladakh",
    "country": "IN",
    "dead": 0,
    "lastUpdated": "2020-03-23T15:56:02.392Z",
    "id": "X3PZqaJxtnlxcgP4tzya",
    "sick": 13
  },
  {
    "infected": 313,
    "recovered": 295,
    "latitude": 25.92448,
    "longitude": 118.278992,
    "name": "Fujian",
    "country": "CN",
    "dead": 1,
    "lastUpdated": "2020-03-23T08:44:14.679Z",
    "id": "XBBw0iMPrmiEu3qogkbi",
    "sick": 17
  },
  {
    "latitude": 41.871941,
    "longitude": 12.56738,
    "name": "Italy",
    "country": "IT",
    "dead": 5476,
    "lastUpdated": "2020-03-23T15:43:03.614Z",
    "id": "XdekMZcw1lJK2MWpBlNK",
    "infected": 59138,
    "recovered": 7024,
    "sick": 46638
  },
  {
    "infected": 158,
    "recovered": 0,
    "latitude": -32.5228,
    "pop": 3457000,
    "longitude": -55.7658,
    "name": "Uruguay",
    "country": "UY",
    "lastUpdated": "2020-03-23T15:43:03.827Z",
    "dead": 0,
    "id": "XrsuLstdybIqIvv0E0aJ",
    "sick": 158
  },
  {
    "longitude": 9.0129,
    "name": "Corse",
    "country": "FR",
    "dead": 7,
    "lastUpdated": "2020-03-23T15:49:06.438Z",
    "id": "YGXgIObKVabP2CYEdcb9",
    "infected": 183,
    "recovered": 0,
    "latitude": 42.0396,
    "sick": 176
  },
  {
    "longitude": 35.2332,
    "name": "Palestine",
    "country": "PS",
    "dead": 0,
    "lastUpdated": "2020-03-23T15:43:03.689Z",
    "id": "YMzKw0SnXG71VT7H1jff",
    "infected": 59,
    "recovered": 17,
    "latitude": 31.9522,
    "sick": 42
  },
  {
    "latitude": 64.2008,
    "longitude": -149.4937,
    "name": "Alaska",
    "country": "US",
    "dead": 0,
    "lastUpdated": "2020-03-23T15:42:01.591Z",
    "id": "YaCODTMD1KKRnrAlkg2u",
    "infected": 30,
    "recovered": 0,
    "sick": 30
  },
  {
    "recovered": 3166,
    "latitude": 37.568291,
    "pop": 51470000,
    "longitude": 126.99778,
    "name": "South Korea",
    "country": "KR",
    "lastUpdated": "2020-03-23T15:43:03.815Z",
    "dead": 111,
    "id": "Yw9uBekNlefXBcOCNMfP",
    "infected": 8961,
    "sick": 5684
  },
  {
    "latitude": 13.193887,
    "longitude": -59.543198,
    "name": "Barbados",
    "country": "BB",
    "dead": 0,
    "lastUpdated": "2020-03-23T15:43:04.132Z",
    "id": "YzZqZMJGvG6joQCdiuXC",
    "infected": 17,
    "recovered": 0,
    "sick": 17
  },
  {
    "dead": 8,
    "lastUpdated": "2020-03-23T15:43:03.681Z",
    "id": "ZAZNuCK1VweBaTLCFzCk",
    "infected": 684,
    "recovered": 13,
    "latitude": 52.2297,
    "longitude": 21.0122,
    "name": "Poland",
    "country": "PL",
    "sick": 663
  },
  {
    "infected": 3,
    "recovered": 0,
    "latitude": -17.713371,
    "longitude": 178.065033,
    "name": "Fiji",
    "country": "FJ",
    "dead": 0,
    "lastUpdated": "2020-03-23T15:43:04.019Z",
    "id": "ZmzOT0sJgfWXEpRImItC",
    "sick": 3
  },
  {
    "infected": 327,
    "recovered": 0,
    "latitude": 41.6032,
    "longitude": -73.0877,
    "name": "Connecticut",
    "country": "US",
    "dead": 8,
    "lastUpdated": "2020-03-23T15:42:01.717Z",
    "id": "Zqy0gftQzocR49jEJNMl",
    "sick": 319
  },
  {
    "latitude": 51.011,
    "pop": 0,
    "longitude": 10.8453,
    "name": "Thüringen",
    "country": "DE",
    "lastUpdated": "2020-03-23T11:36:56.108Z",
    "dead": 1,
    "id": "a9OgUWo6ZSWA3HyF0xnj",
    "infected": 336,
    "recovered": 27,
    "sick": 308
  },
  {
    "infected": 134,
    "recovered": 6,
    "latitude": -30.000233,
    "longitude": 136.209152,
    "name": "South Australia",
    "country": "AU",
    "dead": 0,
    "lastUpdated": "2020-03-23T15:55:03.334Z",
    "id": "a9p9pAOsjg1WAjPGc2a6",
    "sick": 128
  },
  {
    "longitude": -91.8318,
    "name": "Missouri",
    "country": "US",
    "dead": 3,
    "lastUpdated": "2020-03-23T15:42:01.685Z",
    "id": "aPubGfQ8ToSEuKJldKRT",
    "infected": 150,
    "recovered": 0,
    "latitude": 37.9643,
    "sick": 147
  },
  {
    "latitude": 23.64407,
    "longitude": 108.26651,
    "name": "Guangxi",
    "country": "CN",
    "dead": 2,
    "lastUpdated": "2020-03-23T08:44:20.278Z",
    "id": "aTa8MiBjtH3iY0SRs2HQ",
    "infected": 254,
    "recovered": 250,
    "sick": 2
  },
  {
    "latitude": 6.6111,
    "longitude": 20.9394,
    "name": "CAR",
    "country": "CF",
    "dead": 0,
    "lastUpdated": "2020-03-23T15:43:04.095Z",
    "id": "adcBUeAYp6ey0ZXCzKNs",
    "infected": 3,
    "recovered": 0,
    "sick": 3
  },
  {
    "id": "afeZTVC1J1SMMNFxkrcc",
    "infected": 221,
    "recovered": 0,
    "latitude": 37.4316,
    "pop": 8518000,
    "longitude": -78.6569,
    "name": "Virginia",
    "country": "US",
    "lastUpdated": "2020-03-23T15:42:01.710Z",
    "dead": 6,
    "sick": 215
  },
  {
    "longitude": 116.407394,
    "name": "Beijing",
    "country": "CN",
    "dead": 8,
    "lastUpdated": "2020-03-23T08:45:04.344Z",
    "id": "alj4hkxg9cjrTxOzwFKt",
    "infected": 537,
    "recovered": 401,
    "latitude": 39.904202,
    "sick": 128
  },
  {
    "recovered": 62,
    "latitude": 33.22319,
    "longitude": 43.679291,
    "name": "Iraq",
    "country": "IQ",
    "dead": 23,
    "lastUpdated": "2020-03-23T15:43:03.796Z",
    "id": "b7TwXX46FA0EmH1CjHET",
    "infected": 266,
    "sick": 181
  },
  {
    "infected": 67,
    "recovered": 5,
    "latitude": 14.457474,
    "longitude": -14.358636,
    "name": "Senegal",
    "country": "SN",
    "dead": 0,
    "lastUpdated": "2020-03-23T15:43:03.739Z",
    "id": "b9p1JhVml3GGC7iiPmKv",
    "sick": 62
  },
  {
    "latitude": -0.0236,
    "longitude": 37.9062,
    "name": "Kenya",
    "country": "KE",
    "dead": 0,
    "lastUpdated": "2020-03-23T15:43:04.128Z",
    "id": "bVHiTolbUJGHIeVht3eG",
    "infected": 16,
    "recovered": 0,
    "sick": 16
  },
  {
    "latitude": 39.561889,
    "longitude": -74.672169,
    "name": "New Jersey",
    "country": "US",
    "dead": 21,
    "lastUpdated": "2020-03-23T15:42:01.536Z",
    "id": "bYp4RRHv19M7lYtSzQeV",
    "infected": 1914,
    "recovered": 0,
    "sick": 1893
  },
  {
    "dead": 14,
    "lastUpdated": "2020-03-23T15:43:03.712Z",
    "id": "bdqD4kpdqGgUaX70Tm2Q",
    "infected": 1518,
    "recovered": 159,
    "latitude": 3.139,
    "longitude": 101.6869,
    "name": "Malaysia",
    "country": "MY",
    "sick": 1345
  },
  {
    "infected": 2046,
    "recovered": 16,
    "latitude": 60.128162,
    "pop": 10120000,
    "longitude": 18.643501,
    "name": "Sweden",
    "country": "SE",
    "lastUpdated": "2020-03-23T15:43:03.624Z",
    "dead": 25,
    "id": "bignnyt2A8BBx8VNo32p",
    "sick": 2005
  },
  {
    "latitude": 40.973765,
    "longitude": 20.010162,
    "name": "Albania",
    "country": "AL",
    "dead": 4,
    "lastUpdated": "2020-03-23T15:43:03.840Z",
    "id": "cCGmFmwHOoBrEpvG3qBP",
    "infected": 104,
    "recovered": 2,
    "sick": 98
  },
  {
    "dead": 0,
    "lastUpdated": "2020-03-23T15:43:04.109Z",
    "id": "cO8TChMvQvAtoZMNurTQ",
    "infected": 1,
    "recovered": 0,
    "latitude": -25.953724,
    "longitude": 32.588711,
    "name": "Mozambique",
    "country": "MZ",
    "sick": 1
  },
  {
    "infected": 10,
    "recovered": 0,
    "latitude": 46.8625,
    "longitude": 103.8467,
    "name": "Mongolia",
    "country": "MN",
    "dead": 0,
    "lastUpdated": "2020-03-23T15:43:03.956Z",
    "id": "cPxONYsVo6BgvCW9HUeQ",
    "sick": 10
  },
  {
    "lastUpdated": "2020-03-23T15:43:03.851Z",
    "dead": 1,
    "id": "cPxe7nsRnOf6aOPqHElJ",
    "infected": 588,
    "recovered": 51,
    "latitude": 64.963051,
    "pop": 364260,
    "longitude": -19.020836,
    "name": "Iceland",
    "country": "IS",
    "sick": 536
  },
  {
    "latitude": 31.046051,
    "longitude": 34.851612,
    "name": "Israel",
    "country": "IL",
    "dead": 1,
    "lastUpdated": "2020-03-23T15:43:03.716Z",
    "id": "cX891t0ONLNFj0MYq6La",
    "infected": 1238,
    "recovered": 37,
    "sick": 1200
  },
  {
    "id": "cc7s6hYGQ2MovBBBgkKb",
    "infected": 19,
    "recovered": 0,
    "latitude": 4.749531,
    "longitude": -53.112909,
    "name": "Guyane",
    "country": "FR",
    "dead": 0,
    "lastUpdated": "2020-03-23T15:49:06.649Z",
    "sick": 19
  },
  {
    "infected": 118,
    "recovered": 14,
    "latitude": 61.8926,
    "longitude": -6.9118,
    "name": "Faeroe Islands",
    "country": "FO",
    "dead": 0,
    "lastUpdated": "2020-03-23T15:43:03.762Z",
    "id": "cgzd5EM8PZv5ziJtTz1w",
    "sick": 104
  },
  {
    "id": "chj2FF3zb4Xxcop9RHre",
    "infected": 516,
    "recovered": 0,
    "latitude": 41.2033,
    "longitude": -77.1945,
    "name": "Pennsylvania",
    "country": "US",
    "dead": 5,
    "lastUpdated": "2020-03-23T15:42:01.728Z",
    "sick": 511
  },
  {
    "recovered": 0,
    "latitude": 45.7087,
    "longitude": 0.6269,
    "name": "Nouvelle-Aquitaine",
    "country": "FR",
    "dead": 2,
    "lastUpdated": "2020-03-23T15:49:06.435Z",
    "id": "cpf3Y5PQTYywIm3PrpIQ",
    "infected": 612,
    "sick": 610
  },
  {
    "id": "d0ExINgPaWUBm3l4ioJL",
    "infected": 33089,
    "recovered": 3355,
    "latitude": 40.463669,
    "pop": 46660000,
    "longitude": -3.74922,
    "name": "Spain",
    "country": "ES",
    "lastUpdated": "2020-03-23T15:43:03.646Z",
    "dead": 2206,
    "sick": 27528
  },
  {
    "dead": 1,
    "lastUpdated": "2020-03-23T15:43:03.801Z",
    "id": "dedMXSYR2k92wkSXNZqn",
    "infected": 133,
    "recovered": 1,
    "latitude": 42.50837,
    "longitude": 1.517155,
    "name": "Andorra",
    "country": "AD",
    "sick": 131
  },
  {
    "latitude": 38.831163,
    "longitude": -75.375673,
    "name": "Delaware",
    "country": "US",
    "dead": 0,
    "lastUpdated": "2020-03-23T15:42:01.707Z",
    "id": "dzCgqYduzyncjNKU9z6G",
    "infected": 64,
    "recovered": 0,
    "sick": 64
  },
  {
    "infected": 1236,
    "recovered": 0,
    "latitude": 38.9637,
    "pop": 80810000,
    "longitude": 35.2433,
    "name": "Turkey",
    "country": "TR",
    "lastUpdated": "2020-03-23T15:43:03.758Z",
    "dead": 30,
    "id": "dzIcCaUZlbIXuRw0SyDE",
    "sick": 1206
  },
  {
    "dead": 21,
    "lastUpdated": "2020-03-23T15:43:03.651Z",
    "id": "e3BtI12qbqhE8jypOoZu",
    "infected": 4057,
    "recovered": 9,
    "latitude": 47.516232,
    "longitude": 14.550072,
    "name": "Austria",
    "country": "AT",
    "sick": 4027
  },
  {
    "infected": 1586,
    "recovered": 28,
    "latitude": 52.6367,
    "longitude": 9.8451,
    "name": "Niedersachsen",
    "country": "DE",
    "dead": 5,
    "lastUpdated": "2020-03-23T15:42:03.332Z",
    "id": "e3CJgTO8wVbBQZaxqNze",
    "sick": 1553
  },
  {
    "recovered": 124,
    "latitude": 41.097481,
    "longitude": 122.310669,
    "name": "Liaoning",
    "country": "CN",
    "dead": 2,
    "lastUpdated": "2020-03-23T08:45:18.714Z",
    "id": "e7P83iImanpd9r36oXK3",
    "infected": 127,
    "sick": 1
  },
  {
    "longitude": 121.473701,
    "name": "Shanghai",
    "country": "CN",
    "dead": 4,
    "lastUpdated": "2020-03-23T08:44:27.801Z",
    "id": "e9pQqQa7CEblCYoDtfKo",
    "infected": 404,
    "recovered": 329,
    "latitude": 31.230391,
    "sick": 71
  },
  {
    "longitude": -71.382439,
    "name": "Massachusetts",
    "country": "US",
    "dead": 5,
    "lastUpdated": "2020-03-23T15:42:01.636Z",
    "id": "eCKDGssww4pF7NrxOySu",
    "infected": 646,
    "recovered": 0,
    "latitude": 42.407211,
    "sick": 641
  },
  {
    "latitude": 43.740451,
    "pop": 38695,
    "longitude": 7.432032,
    "name": "Monaco",
    "country": "MC",
    "lastUpdated": "2020-03-23T15:43:04.112Z",
    "dead": 0,
    "id": "eLgKPNUwYM5MNDAtF6ql",
    "infected": 23,
    "recovered": 1,
    "sick": 22
  },
  {
    "longitude": 4.9994,
    "name": "Bourgogne-Franche-Comté",
    "country": "FR",
    "dead": 20,
    "lastUpdated": "2020-03-23T15:49:06.734Z",
    "id": "ejrjMKfHexGnK52FS9Aa",
    "infected": 1178,
    "recovered": 0,
    "latitude": 47.2805,
    "sick": 1158
  },
  {
    "infected": 62,
    "recovered": 0,
    "latitude": 48.0196,
    "longitude": 66.9237,
    "name": "Kazakhstan",
    "country": "KZ",
    "dead": 0,
    "lastUpdated": "2020-03-23T15:43:03.750Z",
    "id": "etrmrftkQg6Kbd9seAga",
    "sick": 62
  },
  {
    "longitude": 102.960701,
    "name": "Sichuan",
    "country": "CN",
    "dead": 3,
    "lastUpdated": "2020-03-23T08:44:35.136Z",
    "id": "eyK5bxFkwdoAouIBvLFM",
    "infected": 543,
    "recovered": 536,
    "latitude": 30.14208,
    "sick": 4
  },
  {
    "latitude": 21.473534,
    "longitude": 55.975414,
    "name": "Oman",
    "country": "OM",
    "dead": 0,
    "lastUpdated": "2020-03-23T15:43:03.825Z",
    "id": "f9kmlhYtc3WA3kjbWszW",
    "infected": 66,
    "recovered": 17,
    "sick": 49
  },
  {
    "latitude": 51.1045,
    "longitude": 13.2017,
    "name": "Sachsen",
    "country": "DE",
    "dead": 1,
    "lastUpdated": "2020-03-23T15:42:03.327Z",
    "id": "fGqVm2khm3IBRs709S1f",
    "infected": 865,
    "recovered": 2,
    "sick": 862
  },
  {
    "latitude": 47,
    "longitude": 2,
    "name": "Région non communiquée",
    "country": "FR",
    "dead": 489,
    "lastUpdated": "2020-03-23T15:43:03.673Z",
    "id": "fIp76gl05LhZ0aOxUbhz",
    "infected": 0,
    "recovered": 2200,
    "sick": 0
  },
  {
    "recovered": 0,
    "latitude": 15.4542,
    "pop": 14900000,
    "longitude": 18.7322,
    "name": "Chad",
    "country": "TD",
    "lastUpdated": "2020-03-23T15:43:03.975Z",
    "dead": 0,
    "id": "fJc9CaZGR1OCHaW8Tn4V",
    "infected": 1,
    "sick": 1
  },
  {
    "infected": 112,
    "recovered": 1,
    "latitude": 31.295929,
    "longitude": 36.691952,
    "name": "Jordan",
    "country": "JO",
    "dead": 0,
    "lastUpdated": "2020-03-23T15:43:03.869Z",
    "id": "fK06AziL8wyrcoz7rsmJ",
    "sick": 111
  },
  {
    "id": "fNganaGVPifA4QahEQPS",
    "infected": 1007,
    "recovered": 0,
    "latitude": 27.716933,
    "longitude": -81.555239,
    "name": "Florida",
    "country": "US",
    "dead": 13,
    "lastUpdated": "2020-03-23T15:42:01.642Z",
    "sick": 994
  },
  {
    "latitude": 35.452016,
    "longitude": 139.664285,
    "name": "Diamond Princess (Cruise)",
    "country": "ZZ",
    "dead": 8,
    "lastUpdated": "2020-03-23T08:40:41.684Z",
    "id": "fNnE9CD0SttEVrCUo1Ym",
    "infected": 712,
    "recovered": 567,
    "sick": 137
  },
  {
    "dead": 2,
    "lastUpdated": "2020-03-23T15:42:03.431Z",
    "id": "ffKhENYKy3bwsyBLiYtE",
    "infected": 1077,
    "recovered": 6,
    "latitude": 52.52,
    "longitude": 13.405,
    "name": "Berlin",
    "country": "DE",
    "sick": 1069
  },
  {
    "infected": 67800,
    "recovered": 59882,
    "latitude": 31.160629,
    "pop": 58500000,
    "longitude": 112.255402,
    "name": "Hubei",
    "country": "CN",
    "lastUpdated": "2020-03-23T08:43:35.688Z",
    "dead": 3153,
    "id": "fiJ14DCxw15e3SMemh8R",
    "sick": 4765
  },
  {
    "lastUpdated": "2020-03-23T15:43:03.717Z",
    "dead": 3,
    "id": "flbZ2kaR5kBuV8XZ2Nsu",
    "infected": 73,
    "recovered": 1,
    "latitude": 50.4501,
    "pop": 42220000,
    "longitude": 30.5234,
    "name": "Ukraine",
    "country": "UA",
    "sick": 69
  },
  {
    "recovered": 0,
    "latitude": 41.2044,
    "longitude": 74.7661,
    "name": "Kyrgyzstan",
    "country": "KG",
    "dead": 0,
    "lastUpdated": "2020-03-23T15:43:04.091Z",
    "id": "fst48lrFxiMJbQPf4nur",
    "infected": 16,
    "sick": 16
  },
  {
    "recovered": 2,
    "latitude": 52.132633,
    "longitude": 5.291266,
    "name": "Netherlands",
    "country": "NL",
    "dead": 213,
    "lastUpdated": "2020-03-23T15:43:03.742Z",
    "id": "g0lRMtEJbucWIGqSPn0I",
    "infected": 4749,
    "sick": 4534
  },
  {
    "infected": 165,
    "recovered": 0,
    "latitude": 34.69522,
    "longitude": -92.288012,
    "name": "Arkansas",
    "country": "US",
    "dead": 0,
    "lastUpdated": "2020-03-23T15:42:01.643Z",
    "id": "gIdgxJZfTl2QOSYEwMAz",
    "sick": 165
  },
  {
    "id": "gXd2X2PjmGP0XVwxpWqT",
    "infected": 19,
    "recovered": 0,
    "latitude": 4.8604159,
    "longitude": -58.9301796,
    "name": "Guyana",
    "country": "GY",
    "dead": 1,
    "lastUpdated": "2020-03-23T15:43:04.135Z",
    "sick": 18
  },
  {
    "infected": 21,
    "recovered": 0,
    "latitude": 43.9695,
    "pop": 882235,
    "longitude": -99.9018,
    "name": "South Dakota",
    "country": "US",
    "lastUpdated": "2020-03-23T15:42:01.738Z",
    "dead": 1,
    "id": "gYDsNgvuvtbg8t77w6FS",
    "sick": 20
  },
  {
    "id": "h9UqxYZ5xC4JZrmdDz0q",
    "infected": 107,
    "recovered": 2,
    "latitude": 35.894231,
    "longitude": 14.432846,
    "name": "Malta",
    "country": "MT",
    "dead": 0,
    "lastUpdated": "2020-03-23T15:43:03.667Z",
    "sick": 105
  },
  {
    "longitude": 77.1025,
    "name": "Delhi",
    "country": "IN",
    "dead": 1,
    "lastUpdated": "2020-03-23T15:56:02.381Z",
    "id": "hqwsh1rmvkWI3LFUVuMk",
    "infected": 29,
    "recovered": 5,
    "latitude": 28.7041,
    "sick": 23
  },
  {
    "infected": 136,
    "recovered": 114,
    "latitude": 35.751835,
    "longitude": 104.28611,
    "name": "Gansu",
    "country": "CN",
    "dead": 2,
    "lastUpdated": "2020-03-23T08:44:56.409Z",
    "id": "iGkTscdD0XyHFSP23Qrp",
    "sick": 20
  },
  {
    "recovered": 0,
    "latitude": 34.8021,
    "pop": 18270000,
    "longitude": 38.9968,
    "name": "Syria",
    "country": "SY",
    "lastUpdated": "2020-03-23T15:43:04.049Z",
    "dead": 0,
    "id": "iHf1IZQP3CA3sT2erzyh",
    "infected": 1,
    "sick": 1
  },
  {
    "recovered": 3,
    "latitude": 10.8505,
    "longitude": 76.2711,
    "name": "Kerala",
    "country": "IN",
    "dead": 0,
    "lastUpdated": "2020-03-23T15:56:02.388Z",
    "id": "idymmgoqLHImnBdyC7r7",
    "infected": 67,
    "sick": 64
  },
  {
    "dead": 0,
    "lastUpdated": "2020-03-23T15:43:03.700Z",
    "id": "iwcBlwhnL6MDiXogzf8g",
    "infected": 0,
    "recovered": 88,
    "latitude": -25.2744,
    "longitude": 133.7751,
    "name": "Unknown Australian state",
    "country": "AU",
    "sick": 0
  },
  {
    "latitude": 16.265,
    "longitude": -61.551,
    "name": "Guadeloupe",
    "country": "FR",
    "dead": 1,
    "lastUpdated": "2020-03-23T15:49:06.544Z",
    "id": "j8eMjjqNAqHAJhAKdBYN",
    "infected": 58,
    "recovered": 0,
    "sick": 57
  },
  {
    "dead": 4,
    "lastUpdated": "2020-03-23T15:42:03.520Z",
    "id": "jKn2pIFlIBScjb47GjRX",
    "infected": 1285,
    "recovered": 5,
    "latitude": 50.1183,
    "longitude": 7.309,
    "name": "Rheinland-Pfalz",
    "country": "DE",
    "sick": 1276
  },
  {
    "lastUpdated": "2020-03-23T08:45:32.566Z",
    "dead": 3,
    "id": "jMlHjIOb7eMPSxFBrmG1",
    "infected": 141,
    "recovered": 133,
    "latitude": 39.343357,
    "pop": 15000000,
    "longitude": 117.361649,
    "name": "Tianjin",
    "country": "CN",
    "sick": 5
  },
  {
    "recovered": 0,
    "latitude": 44.5588,
    "pop": 629299,
    "longitude": -72.5778,
    "name": "Vermont",
    "country": "US",
    "lastUpdated": "2020-03-23T15:42:01.744Z",
    "dead": 2,
    "id": "jPC0eOG50FWknCDe3K6P",
    "infected": 52,
    "sick": 50
  },
  {
    "dead": 4,
    "lastUpdated": "2020-03-23T15:43:03.655Z",
    "id": "jpVXEDCyfyq26gPoCtHL",
    "infected": 906,
    "recovered": 5,
    "latitude": 53.3498,
    "longitude": -6.2603,
    "name": "Ireland",
    "country": "IE",
    "sick": 897
  },
  {
    "recovered": 0,
    "latitude": 11.572076,
    "longitude": 43.145645,
    "name": "Djibouti",
    "country": "DJ",
    "dead": 0,
    "lastUpdated": "2020-03-23T15:43:04.048Z",
    "id": "l4nYeaqwy2yrEVqnijFj",
    "infected": 1,
    "sick": 1
  },
  {
    "infected": 51,
    "recovered": 0,
    "latitude": 44.0682,
    "pop": 1754000,
    "longitude": -114.742,
    "name": "Idaho",
    "country": "US",
    "lastUpdated": "2020-03-23T15:42:01.671Z",
    "dead": 0,
    "id": "l7fHSKOmcaRX3tq9FCT6",
    "sick": 51
  },
  {
    "recovered": 0,
    "latitude": 10.6918,
    "pop": 1369000,
    "longitude": -61.2225,
    "name": "Trinidad and Tobago",
    "country": "TT",
    "lastUpdated": "2020-03-23T15:43:04.018Z",
    "dead": 0,
    "id": "lfLdfRP7hyiA6MVnQqqn",
    "infected": 51,
    "sick": 51
  },
  {
    "latitude": 16.5388,
    "longitude": -23.0418,
    "name": "Cape Verde",
    "country": "CV",
    "dead": 0,
    "lastUpdated": "2020-03-23T15:43:04.127Z",
    "id": "lgqPuia1S3ApA5Lsl2la",
    "infected": 3,
    "recovered": 0,
    "sick": 3
  },
  {
    "latitude": 42.524635,
    "pop": 21810000,
    "longitude": 87.539589,
    "name": "Xinjiang",
    "country": "CN",
    "lastUpdated": "2020-03-23T08:46:44.495Z",
    "dead": 3,
    "id": "lhPjpn6CzqTRDN0RW8uE",
    "infected": 76,
    "recovered": 73,
    "sick": 0
  },
  {
    "infected": 13,
    "recovered": 5,
    "latitude": 3.2028,
    "longitude": 73.2207,
    "name": "Maldives",
    "country": "MV",
    "dead": 0,
    "lastUpdated": "2020-03-23T15:43:03.731Z",
    "id": "m45gI2UbWMuTrOnTtp9k",
    "sick": 8
  },
  {
    "recovered": 0,
    "latitude": 41.9029,
    "pop": 1000,
    "longitude": 12.4534,
    "name": "Vatican City",
    "country": "VA",
    "lastUpdated": "2020-03-23T15:43:04.086Z",
    "dead": 0,
    "id": "mF7rVMdVnazAuw8G22xs",
    "infected": 1,
    "sick": 1
  },
  {
    "recovered": 0,
    "latitude": 19.7515,
    "longitude": 75.7139,
    "name": "Maharashtra",
    "country": "IN",
    "dead": 2,
    "lastUpdated": "2020-03-23T15:56:02.386Z",
    "id": "mJtdLs4ub6CkcAOeMWUm",
    "infected": 74,
    "sick": 72
  },
  {
    "recovered": 11,
    "latitude": -33.4489,
    "longitude": -70.6693,
    "name": "Chile",
    "country": "CL",
    "dead": 2,
    "lastUpdated": "2020-03-23T15:43:03.719Z",
    "id": "mSACWVbCy5QE7ciLA93J",
    "infected": 746,
    "sick": 733
  },
  {
    "latitude": -6.369,
    "pop": 57310000,
    "longitude": 34.8888,
    "name": "Tanzania",
    "country": "TZ",
    "lastUpdated": "2020-03-23T15:43:04.046Z",
    "dead": 0,
    "id": "mnew3ojzmWV0dWSPfCQ9",
    "infected": 12,
    "recovered": 0,
    "sick": 12
  },
  {
    "id": "n6OSwOVBdUie3xeZJmOf",
    "infected": 1,
    "recovered": 0,
    "latitude": 15.1794,
    "pop": 4475000,
    "longitude": 39.7823,
    "name": "Eritrea",
    "country": "ER",
    "lastUpdated": "2020-03-23T15:43:03.977Z",
    "dead": 0,
    "sick": 1
  },
  {
    "id": "nLhJXE2apq8yNNj363ai",
    "infected": 505,
    "recovered": 0,
    "latitude": 35.693323,
    "pop": 6770000,
    "longitude": -86.605748,
    "name": "Tennessee",
    "country": "US",
    "lastUpdated": "2020-03-23T15:42:01.576Z",
    "dead": 2,
    "sick": 503
  },
  {
    "recovered": 0,
    "latitude": -4.6796,
    "longitude": 55.492,
    "name": "Seychelles",
    "country": "SC",
    "dead": 0,
    "lastUpdated": "2020-03-23T15:43:04.006Z",
    "id": "oB5fSyjWJ0FbNAkssuci",
    "infected": 7,
    "sick": 7
  },
  {
    "id": "oJ5vSDE9vgXC2PG8LElp",
    "infected": 134,
    "recovered": 3,
    "latitude": 31.893778,
    "longitude": -6.196132,
    "name": "Morocco",
    "country": "MA",
    "dead": 4,
    "lastUpdated": "2020-03-23T15:43:03.688Z",
    "sick": 127
  },
  {
    "latitude": 50.4801,
    "longitude": 2.7937,
    "name": "Hauts-de-France",
    "country": "FR",
    "dead": 46,
    "lastUpdated": "2020-03-23T15:49:06.549Z",
    "id": "ofWLu9EuQoK2nHjwU1mA",
    "infected": 936,
    "recovered": 0,
    "sick": 890
  },
  {
    "latitude": 31.1048,
    "pop": 6856000,
    "longitude": 77.1734,
    "name": "Himachal Pradesh",
    "country": "IN",
    "lastUpdated": "2020-03-23T15:56:02.435Z",
    "dead": 1,
    "id": "oqLEd2Z9P3FJeQsfIk8e",
    "infected": 3,
    "recovered": 0,
    "sick": 2
  },
  {
    "recovered": 8,
    "latitude": -20.917574,
    "longitude": 142.702789,
    "name": "Queensland",
    "country": "AU",
    "dead": 0,
    "lastUpdated": "2020-03-23T15:55:03.336Z",
    "id": "oxz2l1rJipCsfMfy8Mmk",
    "infected": 319,
    "sick": 311
  },
  {
    "latitude": 47.121647,
    "longitude": 128.738235,
    "name": "Heilongjiang",
    "country": "CN",
    "dead": 13,
    "lastUpdated": "2020-03-23T08:45:25.008Z",
    "id": "p1aZboN4BtRJe7hPl8cw",
    "infected": 484,
    "recovered": 465,
    "sick": 6
  },
  {
    "latitude": 32.026379,
    "longitude": 117.252747,
    "name": "Anhui",
    "country": "CN",
    "dead": 6,
    "lastUpdated": "2020-03-23T08:43:41.240Z",
    "id": "pFhBwPnGGpQ6DLppJ6YS",
    "infected": 990,
    "recovered": 984,
    "sick": 0
  },
  {
    "longitude": 45.318161,
    "name": "Somalia",
    "country": "SO",
    "dead": 0,
    "lastUpdated": "2020-03-23T15:43:04.093Z",
    "id": "pHrUAOBW5WDdMsVWpEEi",
    "infected": 1,
    "recovered": 0,
    "latitude": 2.046934,
    "sick": 1
  },
  {
    "latitude": 21.2787,
    "longitude": 81.8661,
    "name": "Chhattisgarh",
    "country": "IN",
    "dead": 0,
    "lastUpdated": "2020-03-23T15:56:02.414Z",
    "id": "pu6AXEsDnpmmqnhajobN",
    "infected": 1,
    "recovered": 0,
    "sick": 1
  },
  {
    "latitude": 38.9072,
    "pop": 633427,
    "longitude": -77.0369,
    "name": "Washington, D.C.",
    "country": "US",
    "lastUpdated": "2020-03-23T15:42:01.613Z",
    "dead": 2,
    "id": "q5cfvHprVTraL1yXnhDx",
    "infected": 120,
    "recovered": 0,
    "sick": 118
  },
  {
    "recovered": 1,
    "latitude": -26.190439,
    "pop": 2589000,
    "longitude": 123.325947,
    "name": "Western Australia",
    "country": "AU",
    "lastUpdated": "2020-03-23T15:55:03.330Z",
    "dead": 1,
    "id": "qnQ0dkxAxnDP01YpdZgk",
    "infected": 140,
    "sick": 138
  },
  {
    "dead": 88,
    "lastUpdated": "2020-03-23T15:43:03.829Z",
    "id": "qpAxVz0garcS0gNZxtOw",
    "infected": 3743,
    "recovered": 401,
    "latitude": 50.503887,
    "longitude": 4.469936,
    "name": "Belgium",
    "country": "BE",
    "sick": 3254
  },
  {
    "id": "qrYN2o4c4gAK3ffF5JIw",
    "infected": 16,
    "recovered": 0,
    "latitude": 39,
    "pop": 1806000,
    "longitude": -80.5,
    "name": "West Virginia",
    "country": "US",
    "lastUpdated": "2020-03-23T15:42:01.616Z",
    "dead": 0,
    "sick": 16
  },
  {
    "latitude": 31,
    "pop": 28700000,
    "longitude": -100,
    "name": "Texas",
    "country": "US",
    "lastUpdated": "2020-03-23T15:42:01.742Z",
    "dead": 8,
    "id": "qsrWiq0qCmIG66hpWojP",
    "infected": 670,
    "recovered": 0,
    "sick": 662
  },
  {
    "dead": 7,
    "lastUpdated": "2020-03-23T15:49:06.550Z",
    "id": "qyX9xXEuKg3co8yKe3Fl",
    "infected": 1372,
    "recovered": 0,
    "latitude": 43.9352,
    "longitude": 6.0679,
    "name": "Provence-Alpes-Côte d’Azur",
    "country": "FR",
    "sick": 1365
  },
  {
    "infected": 837,
    "recovered": 0,
    "latitude": 30.9843,
    "longitude": -91.9623,
    "name": "Louisiana",
    "country": "US",
    "dead": 20,
    "lastUpdated": "2020-03-23T15:42:01.749Z",
    "id": "qzuktS0qQVU4PEookjss",
    "sick": 817
  },
  {
    "id": "rKbrli0DkAmp1UpbrqHQ",
    "infected": 9,
    "recovered": 1,
    "latitude": 12.5211,
    "longitude": -69.9683,
    "name": "Aruba",
    "country": "AW",
    "dead": 0,
    "lastUpdated": "2020-03-23T15:43:04.010Z",
    "sick": 8
  },
  {
    "longitude": 108.277199,
    "name": "Vietnam",
    "country": "VN",
    "lastUpdated": "2020-03-23T15:43:03.664Z",
    "dead": 0,
    "id": "rKnSEyG03ak4YmGzonlg",
    "infected": 123,
    "recovered": 17,
    "latitude": 14.058324,
    "pop": 95540000,
    "sick": 106
  },
  {
    "dead": 0,
    "lastUpdated": "2020-03-23T15:43:04.103Z",
    "id": "rS04qvFoAknfeZsL2w5f",
    "infected": 9,
    "recovered": 0,
    "latitude": 1.6508009,
    "longitude": 10.2678947,
    "name": "Equatorial Guinea",
    "country": "GQ",
    "sick": 9
  },
  {
    "latitude": -12.8275,
    "longitude": 45.1662,
    "name": "Mayotte",
    "country": "FR",
    "dead": 0,
    "lastUpdated": "2020-03-23T15:49:06.635Z",
    "id": "rUQ6Z3pmWTPVlqEUSmN7",
    "infected": 14,
    "recovered": 0,
    "sick": 14
  },
  {
    "infected": 1238,
    "recovered": 1221,
    "latitude": 29.159849,
    "pop": 57370000,
    "longitude": 120.326447,
    "name": "Zhejiang",
    "country": "CN",
    "lastUpdated": "2020-03-23T08:44:42.708Z",
    "dead": 1,
    "id": "rgBVJ4hPofqjjchnroiY",
    "sick": 16
  },
  {
    "latitude": 60.472023,
    "longitude": 8.468946,
    "name": "Norway",
    "country": "NO",
    "dead": 10,
    "lastUpdated": "2020-03-23T15:43:03.618Z",
    "id": "rxSafpWsyKhfkV0HTtb4",
    "infected": 2547,
    "recovered": 6,
    "sick": 2531
  },
  {
    "recovered": 0,
    "latitude": 53.9333,
    "longitude": -116.5765,
    "name": "Alberta",
    "country": "CA",
    "dead": 1,
    "lastUpdated": "2020-03-23T15:42:01.665Z",
    "id": "sBFMOzZJdrdXdyLZpweO",
    "infected": 259,
    "sick": 258
  },
  {
    "dead": 6,
    "lastUpdated": "2020-03-23T08:45:11.613Z",
    "id": "sKNhMvgXeyivpNFg02RA",
    "infected": 168,
    "recovered": 161,
    "latitude": 19.566395,
    "longitude": 109.949684,
    "name": "Hainan",
    "country": "CN",
    "sick": 1
  },
  {
    "latitude": -10.33755,
    "longitude": -75.630295,
    "name": "Peru",
    "country": "PE",
    "dead": 5,
    "lastUpdated": "2020-03-23T15:43:03.832Z",
    "id": "sLL1jETcJYjT6g5bfcEG",
    "infected": 363,
    "recovered": 1,
    "sick": 357
  },
  {
    "latitude": 37.89566,
    "longitude": 114.904221,
    "name": "Hebei",
    "country": "CN",
    "dead": 6,
    "lastUpdated": "2020-03-23T08:45:40.858Z",
    "id": "sgsBhTwHxF1VVnqXbXXp",
    "infected": 319,
    "recovered": 310,
    "sick": 3
  },
  {
    "dead": 0,
    "lastUpdated": "2020-03-23T15:43:03.737Z",
    "id": "sjW9OwjFqrOvjVHRXWoR",
    "infected": 61,
    "recovered": 8,
    "latitude": 42.3154,
    "longitude": 43.3569,
    "name": "Georgia",
    "country": "GE",
    "sick": 53
  },
  {
    "infected": 22,
    "recovered": 0,
    "latitude": -23.4425,
    "longitude": -58.4438,
    "name": "Paraguay",
    "country": "PY",
    "dead": 1,
    "lastUpdated": "2020-03-23T15:43:03.988Z",
    "id": "t2fq7L9UcXfhuXfQNVRj",
    "sick": 21
  },
  {
    "id": "tSmr8vNsiDhhpXMSBsms",
    "infected": 181,
    "recovered": 0,
    "latitude": 39.147061,
    "pop": 3161000,
    "longitude": -111.596466,
    "name": "Utah",
    "country": "US",
    "lastUpdated": "2020-03-23T15:42:01.588Z",
    "dead": 1,
    "sick": 180
  },
  {
    "longitude": 111.510681,
    "name": "Hunan",
    "country": "CN",
    "lastUpdated": "2020-03-23T08:43:53.905Z",
    "dead": 4,
    "id": "tdNRDDrgvBQqqwzdFGh4",
    "infected": 1018,
    "recovered": 1014,
    "latitude": 27.3818,
    "pop": 67370000,
    "sick": 0
  },
  {
    "recovered": 144,
    "latitude": 26.842964,
    "longitude": 107.290283,
    "name": "Guizhou",
    "country": "CN",
    "dead": 2,
    "lastUpdated": "2020-03-23T08:46:33.207Z",
    "id": "tyY4QSHWG9sXqSO9jm0Y",
    "infected": 146,
    "sick": 0
  },
  {
    "latitude": -20.2067,
    "longitude": 57.6755,
    "name": "Mauritius",
    "country": "MU",
    "dead": 2,
    "lastUpdated": "2020-03-23T15:43:03.937Z",
    "id": "uZg9Xtu4zR5tp12TMpOQ",
    "infected": 28,
    "recovered": 0,
    "sick": 26
  },
  {
    "infected": 26,
    "recovered": 11,
    "latitude": 29.0588,
    "longitude": 76.0856,
    "name": "Haryana",
    "country": "IN",
    "dead": 0,
    "lastUpdated": "2020-03-23T15:56:02.410Z",
    "id": "ubUuY89n0cXVgahI4Ytp",
    "sick": 15
  },
  {
    "id": "uvxN28EpGmRq3K9REtBP",
    "infected": 633,
    "recovered": 631,
    "latitude": 32.93708,
    "longitude": 119.151932,
    "name": "Jiangsu",
    "country": "CN",
    "dead": 0,
    "lastUpdated": "2020-03-23T08:46:07.415Z",
    "sick": 2
  },
  {
    "latitude": 51.9503,
    "longitude": 11.6923,
    "name": "Sachsen-Anhalt",
    "country": "DE",
    "dead": 1,
    "lastUpdated": "2020-03-23T11:37:22.574Z",
    "id": "uxAceZxiizwmo60pyyGn",
    "infected": 253,
    "recovered": 0,
    "sick": 252
  },
  {
    "latitude": 33.7782,
    "longitude": 76.5762,
    "name": "Jammu and Kashmir",
    "country": "IN",
    "dead": 0,
    "lastUpdated": "2020-03-23T15:56:02.429Z",
    "id": "v5wfBhxjYTpTMaKko6AW",
    "infected": 4,
    "recovered": 0,
    "sick": 4
  },
  {
    "latitude": 26.820553,
    "longitude": 30.802498,
    "name": "Egypt",
    "country": "EG",
    "dead": 14,
    "lastUpdated": "2020-03-23T15:43:03.644Z",
    "id": "v8JcH4FHH7BDpJlNNHjv",
    "infected": 327,
    "recovered": 56,
    "sick": 257
  },
  {
    "lastUpdated": "2020-03-23T15:42:01.544Z",
    "dead": 95,
    "id": "vCUVQn7RK8pkw5y2rvYN",
    "infected": 1996,
    "recovered": 0,
    "latitude": 47.288374,
    "pop": 7536000,
    "longitude": -119.928431,
    "name": "Washington",
    "country": "US",
    "sick": 1901
  },
  {
    "infected": 19,
    "recovered": 2,
    "latitude": 18.1096,
    "longitude": -77.2975,
    "name": "Jamaica",
    "country": "JM",
    "dead": 1,
    "lastUpdated": "2020-03-23T15:43:03.935Z",
    "id": "vMGALmMJbagxGIbLyFfS",
    "sick": 16
  },
  {
    "dead": 0,
    "lastUpdated": "2020-03-23T15:42:01.690Z",
    "id": "vSMJR4m49MZM15umlC9B",
    "infected": 157,
    "recovered": 0,
    "latitude": 32.3182,
    "longitude": -86.9023,
    "name": "Alabama",
    "country": "US",
    "sick": 157
  },
  {
    "longitude": 2.637,
    "name": "Ile-de-France",
    "country": "FR",
    "dead": 11,
    "lastUpdated": "2020-03-23T15:49:06.542Z",
    "id": "vSwFXxTSLgzsG25zOJUy",
    "infected": 5283,
    "recovered": 0,
    "latitude": 48.8499,
    "sick": 5272
  },
  {
    "longitude": -63.4168,
    "name": "Prince Edward Island",
    "country": "CA",
    "dead": 0,
    "lastUpdated": "2020-03-23T15:42:01.660Z",
    "id": "vjK6292ALJl5wq8XHw3P",
    "infected": 3,
    "recovered": 0,
    "latitude": 46.5107,
    "sick": 3
  },
  {
    "latitude": 32.42791,
    "longitude": 53.688046,
    "name": "Iran",
    "country": "IR",
    "dead": 1812,
    "lastUpdated": "2020-03-23T15:43:03.830Z",
    "id": "vkkXVaqUswO5JsMZx0mX",
    "infected": 23049,
    "recovered": 8376,
    "sick": 12861
  },
  {
    "infected": 20,
    "recovered": 0,
    "latitude": 53.7609,
    "longitude": -98.8139,
    "name": "Manitoba",
    "country": "CA",
    "dead": 0,
    "lastUpdated": "2020-03-23T15:42:01.654Z",
    "id": "wCnlOr8oX3DlF0otQrFc",
    "sick": 20
  },
  {
    "dead": 4,
    "lastUpdated": "2020-03-23T15:43:03.751Z",
    "id": "wEl0cjiA6OcZiI9kaSsF",
    "infected": 266,
    "recovered": 27,
    "latitude": -34.6037,
    "longitude": -58.3816,
    "name": "Argentina",
    "country": "AR",
    "sick": 235
  },
  {
    "infected": 1039,
    "recovered": 0,
    "latitude": 44.3148,
    "longitude": -85.6024,
    "name": "Michigan",
    "country": "US",
    "dead": 10,
    "lastUpdated": "2020-03-23T15:42:01.688Z",
    "id": "wgRwpPMGBaKLAl1xo1C7",
    "sick": 1029
  },
  {
    "dead": 0,
    "lastUpdated": "2020-03-23T15:42:01.747Z",
    "id": "wi47s9vKxiMqxfgurj3B",
    "infected": 56,
    "recovered": 0,
    "latitude": 21.287261,
    "longitude": -157.838954,
    "name": "Hawaii",
    "country": "US",
    "sick": 56
  },
  {
    "latitude": 34.08267,
    "longitude": 35.918113,
    "name": "Lebanon",
    "country": "LB",
    "dead": 4,
    "lastUpdated": "2020-03-23T15:43:03.701Z",
    "id": "xFgM48q8JxVPfvQLQDNb",
    "infected": 267,
    "recovered": 8,
    "sick": 255
  },
  {
    "longitude": 8.675277,
    "name": "Nigeria",
    "country": "NG",
    "dead": 1,
    "lastUpdated": "2020-03-23T15:43:03.947Z",
    "id": "xHWPTTpNHEwWv6MqfxP5",
    "infected": 36,
    "recovered": 2,
    "latitude": 9.081999,
    "sick": 33
  },
  {
    "latitude": 47.5515,
    "longitude": -101.002,
    "name": "North Dakota",
    "country": "US",
    "dead": 0,
    "lastUpdated": "2020-03-23T15:42:01.700Z",
    "id": "xQpNodSQfHNHAtG9Onnj",
    "infected": 30,
    "recovered": 0,
    "sick": 30
  },
  {
    "infected": 383,
    "recovered": 0,
    "latitude": 44.5,
    "pop": 5814000,
    "longitude": -89.5,
    "name": "Wisconsin",
    "country": "US",
    "lastUpdated": "2020-03-23T15:42:01.641Z",
    "dead": 4,
    "id": "xSHgaJlyPxHFWB6hhyng",
    "sick": 379
  },
  {
    "id": "xY69Nr3VSiZCwD2Qp0SD",
    "infected": 11,
    "recovered": 0,
    "latitude": 9.145,
    "longitude": 40.4897,
    "name": "Ethiopia",
    "country": "ET",
    "dead": 0,
    "lastUpdated": "2020-03-23T15:43:04.011Z",
    "sick": 11
  },
  {
    "recovered": 0,
    "latitude": -18.7669468,
    "longitude": 46.8691063,
    "name": "Madagascar",
    "country": "MG",
    "dead": 0,
    "lastUpdated": "2020-03-23T15:43:03.983Z",
    "id": "xsmRrvV8VRC9SyYWK6ig",
    "infected": 12,
    "sick": 12
  },
  {
    "latitude": -22.95763,
    "longitude": 18.4904,
    "name": "Namibia",
    "country": "NA",
    "dead": 0,
    "lastUpdated": "2020-03-23T15:43:04.003Z",
    "id": "xtX46kxBlEapOMdD1Emh",
    "infected": 3,
    "recovered": 0,
    "sick": 3
  },
  {
    "dead": 0,
    "lastUpdated": "2020-03-23T15:42:03.422Z",
    "id": "y0d3PQgXJXdKsxweTIWv",
    "infected": 173,
    "recovered": 3,
    "latitude": 53.0793,
    "longitude": 8.8017,
    "name": "Bremen",
    "country": "DE",
    "sick": 170
  },
  {
    "latitude": -17.6797,
    "longitude": -149.4068,
    "name": "Polynésie française",
    "country": "PF",
    "dead": 0,
    "lastUpdated": "2020-03-23T15:43:03.986Z",
    "id": "yOfFKDRrscqcZ85WMRqF",
    "infected": 18,
    "recovered": 0,
    "sick": 18
  },
  {
    "latitude": 12.1696,
    "longitude": -68.99,
    "name": "Curaçao",
    "country": "CW",
    "dead": 1,
    "lastUpdated": "2020-03-23T15:43:04.104Z",
    "id": "z0KDu61I2qPILneW2Lih",
    "infected": 4,
    "recovered": 0,
    "sick": 3
  },
  {
    "latitude": 46.5653,
    "longitude": -66.4619,
    "name": "New Brunswick",
    "country": "CA",
    "dead": 0,
    "lastUpdated": "2020-03-23T15:42:01.603Z",
    "id": "z1Vx0y33oMGoeJSuS8Ui",
    "infected": 17,
    "recovered": 0,
    "sick": 17
  },
  {
    "longitude": -78.183403,
    "name": "Ecuador",
    "country": "EC",
    "dead": 18,
    "lastUpdated": "2020-03-23T15:43:03.722Z",
    "id": "zC03Urt1iJJb2Tf6p0jd",
    "infected": 981,
    "recovered": 3,
    "latitude": -1.831239,
    "sick": 960
  },
  {
    "lastUpdated": "2020-03-23T15:43:03.659Z",
    "dead": 1,
    "id": "zvdC0u72Bk5YKNaazZFZ",
    "infected": 721,
    "recovered": 52,
    "latitude": 15.870032,
    "pop": 69040000,
    "longitude": 100.992538,
    "name": "Thailand",
    "country": "TH",
    "sick": 668
  },
  {
    "infected": 249,
    "recovered": 3,
    "latitude": 44.0165,
    "longitude": 21.0059,
    "name": "Serbia",
    "country": "RS",
    "dead": 2,
    "lastUpdated": "2020-03-23T15:43:03.807Z",
    "id": "zyxFwuiyCJHhRyNEg60C",
    "sick": 244
  }
]